id,postcode,lat,lon
PPL,WORTH,51.2563,1.3484
PPL,WORTHAM,52.3531,1.0577
PPL,WORTHEN,52.6358,-2.9951
PPL,WORTHENBURY,53.0091,-2.8659
ADM3,WORTHENWITHSHELVE,52.6092,-2.9888
PPL,WORTHING,50.8180,-0.3754
ADM3,WORTHINGDISTRICT,50.8319,-0.3869
PPL,WORTHINGTON,52.7803,-1.3977
PPL,WORTHMATRAVERS,50.5980,-2.0383
PPL,WORTING,51.2645,-1.1366
PPLA3,WORTLEY,53.4833,-1.5333
PPLA3,WORTON,51.3161,-2.0411
ADM4,WORTWELL,52.4153,1.3405
