id,postcode,lat,lon
PPL,WORTH,51.25633,1.3484
PPL,WORTHAM,52.35311,1.05769
PPL,WORTHEN,52.63577,-2.99514
PPL,WORTHENBURY,53.00915,-2.86588
ADM3,WORTHENWITHSHELVE,52.60923,-2.98878
PPL,WORTHING,50.81795,-0.37538
ADM3,WORTHINGDISTRICT,50.83191,-0.38686
PPL,WORTHINGTON,52.78034,-1.39767
PPL,WORTHMATRAVERS,50.598,-2.03835
PPL,WORTING,51.26447,-1.13656
PPLA3,WORTLEY,53.48333,-1.53333
PPLA3,WORTON,51.31611,-2.04111
ADM4,WORTWELL,52.41531,1.34048
