name,postcode,lat,lon
Mitre Inn,EX16 8AE,50.91763710000000,-3.70246670000000
THE MOUNT PLEASANT INN,EX16 8NN,50.91208267211914,-3.65192818641663
The Lamb Inn at Sandford,EX17 4LW,50.80984878540040,-3.66499590873718
Black Dog Inn,EX17 4QS,50.87530899047852,-3.69837188720703
the bull pen,EX17 4TN,50.8904,-3.7433
the devonshire dumpling,EX17 5LP,50.83068466186520,-3.77503800392151
THE WAIE INN,EX17 6DF,50.82028198242188,-3.81851387023926
Waterside Cafe at Bow Garden and Aquatic Centre,EX17 6LA,50.80094500000000,-3.83189800000000
Waterside Cafe,EX17 6LA,50.8009,-3.8277
Malt Scoop Inn,EX17 6PZ,50.85978317260742,-3.80346822738647
THE OLD COURT HOUSE,EX18 7BW,50.91394400000000,-3.86950700000000
The Red Lion Hotel,EX18 7DD,50.91293900000000,-3.86652200000000
Fox & Hounds Country Hotel,EX18 7JZ,50.89065170288086,-3.87736153602600
The Lymington Arms,EX18 7SA,50.86671900000000,-3.90017600000000
Jonesy's Cafe,EX19 8EZ,50.8659,-3.9707
The Kings Arms,EX19 8HQ,50.85611400000000,-3.94502700000000
The New Inn,EX19 8SY,50.93561553955080,-4.02800464630127
The Welcome Fryer,EX36 3AQ,51.01797100000000,-3.83479400000000
the Lazy Daisy cafe,EX36 3AQ,51.0179,-3.8348
Zest,EX36 3BU,51.01818600000000,-3.83309100000000
The South Street Kitchen,EX36 4AG,51.01653100000000,-3.83545000000000
the old George inn,EX37 9AY,50.96652400000000,-3.99467000000000
Libbaton Golf Club,EX37 9BS,50.95638200000000,-3.99509100000000
The Rising Sun Ltd,EX37 9DU,50.99886703491211,-3.98602437973022
The Portsmouth Arms  Hotel,EX37 9ND,50.95740890502930,-3.94761800765991
The Exeter Inn,EX37 9NS,50.9714,-3.9241
The Bell Inn Chittlehampton ,EX37 9QL,51.01294326782230,-3.94465088844299
The Grove Inn Ltd,EX37 9ST,50.95901870727540,-3.87478709220886
