name,postcode,lat,lon
indigo snake and perentie,EX16 8AL,50.914441000000000,-3.699990833800690
Bronzewing pigeon and Parrotlet,EX16 8NR,50.911951747542600,-3.656023541350850
Vole and terrapin,EX16 8QL,50.917993898108600,-3.675643619622100
dugite and Peafowl,EX17 4BR,50.809583132260500,-3.653407781013460
Skunk and flying lizard,EX17 4EN,50.839001354640000,-3.677257396305920
Goose and B,EX17 4LN,50.809560760413000,-3.664464072536010
Moluccan boobook and Old World vulture,EX17 4SA,50.865505700518800,-3.668388852580170
Solitaire and galliwasp,EX17 4SJ,50.904565958320300,-3.728141630736870
harlequin snake and grass snake,EX17 4TX,50.889762109532500,-3.774941029499790
deaf adder and horned toad,EX17 4UA,50.905717635545300,-3.758791000000000
boa constrictor and kabaragoya,EX17 5LU,50.846032000000000,-3.784772000000000
Ice seal and elapid,EX17 5PB,50.810841533438000,-3.727291373640830
Maya and Kestrel,EX17 6AT,50.853794000000000,-3.853919000000000
Masked owl and sea snake,EX17 6AY,50.853429000000000,-3.853649000000000
Coati and Asiatic leopard,EX17 6DU,50.826552466204500,-3.786428978085580
bull snake and rock python,EX17 6HN,50.800871139779200,-3.807772420518080
Kite and Mouse,EX17 6HQ,50.801017067098500,-3.811737000000000
sand lizard and diamondback,EX17 6LB,50.806703837956600,-3.828223085933730
iguana and Mouse,EX17 6LD,50.814533000000000,-3.830885000000000
snapping turtle and Kangaroo,EX17 6NB,50.873031809078600,-3.792768457387310
bull snake and Rat,EX17 6QL,50.862508182386000,-3.803946023456740
asp and thorny devil,EX17 6RN,50.858272000000000,-3.756339000000000
Rabbit and grass snake,EX18 7AD,50.917720876472000,-3.869491142797560
tuatara and flying lizard,EX18 7AF,50.932775000000000,-3.865655000000000
massasauga and Vulture,EX18 7AH,50.926934193585300,-3.892671274498790
milk snake and skink,EX18 7AW,50.952785330424800,-3.861643575555040
perentie and krait,EX18 7BH,50.915240528343400,-3.873303984213880
black snake and glass snake,EX18 7DG,50.912466770047000,-3.870176761987370
tuatara and New World blackbird,EX18 7DT,50.953035940130500,-3.825845229144710
Tahr and death adder,EX18 7ED,50.927546000000000,-3.810560000000000
krait and leathery turtle,EX18 7EY,50.899831257317200,-3.842464230872970
Treepie and copperhead,EX18 7JL,50.913075000000000,-3.877692315013970
American sparrow and habu,EX18 7JY,50.895110853448000,-3.875394000000000
grass snake and Mockingbird,EX18 7QH,50.885776024519800,-3.935702133939470
Partridge and Triller,EX18 7SE,50.864880984404200,-3.898683167009540
Francolin and diamond snake,EX18 7SN,50.834738147985200,-3.878485524223360
Lemming and mamba,EX19 8BN,50.862768311444400,-4.008203439605920
flying dragon and cycling lizard,EX19 8DL,50.875721000000000,-3.943402000000000
Parakeet and Fish eagle,EX19 8DW,50.871194000000000,-3.973061000000000
Skunk and flying dragon,EX19 8JS,50.851817324051000,-3.945931261998880
cerastes and Mamo,EX19 8LD,50.856475000000000,-3.922766000000000
perentie and skink,EX19 8QH,50.891516849593200,-4.032319123883860
Chicken and Zebra,EX19 8SW,50.840758428314800,-4.015652619184320
dugite and New World blackbird,EX19 8TB,50.936154621348600,-4.025426411659740
Chipmunk and hoop snake,EX20 2AJ,50.825375432857700,-3.905130497550520
smooth snake and amphisbaena,EX20 2DD,50.809391551817000,-3.912968152408140
Moluccan boobook and American sparrow,EX20 2DL,50.822996138133800,-3.873926000000000
Elephant and chuckwalla,EX20 2HA,50.800270788500100,-3.893209967183490
hawksbill and Ibex,EX20 3QZ,50.808481277735900,-4.004210000000000
cycling lizard and rock snake,EX20 3RT,50.800648255804700,-3.982519253975920
Vole and rock python,EX36 3DA,51.018017721083500,-3.832360963039560
dukite and bearded dragon,EX36 3DG,51.019631026245500,-3.833364000000000
puff adder and bearded dragon,EX36 3DQ,51.018237355026200,-3.826951633319220
krait and Pheasant,EX36 3DY,51.019248650055200,-3.826691972772080
Ice seal and carpet snake,EX36 3FA,51.021253000000000,-3.830293000000000
Treepie and anaconda,EX36 3NW,51.022655001934100,-3.732986464361550
Magpie and slowworm,EX36 3PJ,51.015218070212900,-3.649107714330650
Darwin's finches and Lemming,EX36 4AB,51.015973222276200,-3.834691000000000
harlequin snake and black snake,EX36 4AD,51.015844709780600,-3.835012653263780
tortoise and American sparrow,EX36 4AR,51.015091059313600,-3.834327077240190
amphisbaena and ringhals,EX36 4BP,51.016436140233900,-3.829988915173060
soft-shelled turtle and Ground sloth,EX36 4FF,51.014841000000000,-3.843732000000000
Capuchin and Booted eagles,EX36 4JG,50.987990000000000,-3.839462000000000
Schneider python and Fulmarine petrel,EX36 4JT,51.010079019119800,-3.836224819262020
horned toad and taipan,EX36 4NT,51.002188009240100,-3.771860613860050
habu and boa constrictor,EX36 4PT,51.001241086052700,-3.768475178296090
B and Crow,EX36 4PW,50.990495000000000,-3.757807000000000
Mockingbird and Flameback,EX36 4QE,51.005263405468500,-3.744396769509660
Kākāriki and carpet snake,EX36 4QT,50.980729572101600,-3.706707432074770
mamba and Grackle,EX36 4QU,50.988805202317300,-3.701788692665780
perentie and Rabbit,EX37 9AG,51.012457065682800,-3.976485979753340
sand viper and Parakeet,EX37 9AJ,50.996361459992300,-3.965683302063440
Parrotbill and Cloud rat,EX37 9DT,50.967217000000000,-3.998406000000000
puff adder and Wallaby,EX37 9EN,50.965624892569600,-3.993040708322530
Buzzard and Partridge,EX37 9PB,50.968798119981200,-3.937087249075460
Mouse and blind snake,EX37 9QP,51.006390725878300,-3.926180695438390
water snake and hognose snake,EX37 9RA,51.013710637726200,-3.935465750512680
