name,postcode,lat,lon
Mouse and Grosbeak,EX16 8AX,50.914287979166600,-3.701799834605260
Fulmarine petrel and Thrasher,EX16 8NR,50.911951747542600,-3.656023541350850
Grackle and puff adder,EX16 8QA,50.934381599782300,-3.720010284447820
cycling lizard and agama,EX16 8QB,50.939318668499800,-3.710229035564390
Magpie and Flameback,EX17 4NS,50.809954297175900,-3.662222000000000
sand lizard and amethystine python,EX17 4PE,50.811912088067900,-3.688438000000000
massasauga and Mouse,EX17 4UA,50.905717635545300,-3.758791000000000
Argus and Songlark,EX17 5BJ,50.811528448501600,-3.750112000000000
Mamo and Cuscus,EX17 5LH,50.829370615364300,-3.775616680447030
Rat and Diving bird,EX17 5LU,50.846032000000000,-3.784772000000000
Chipmunk and coral snake,EX17 5NG,50.811119000000000,-3.747997000000000
Stilt and blue tongue,EX17 6BB,50.850277933000600,-3.845298144432420
green turtle and Hawaiian honeycreeper,EX17 6BY,50.800587170093000,-3.809265752347430
Black jay and snapping turtle,EX17 6DJ,50.822179497194300,-3.816844497299090
horned toad and sand lizard,EX17 6DY,50.826299118885600,-3.785354364325780
copperhead and terrapin,EX17 6EN,50.801639035802100,-3.817963372670350
jew lizard and gecko,EX17 6FN,50.832340000000000,-3.846940000000000
jew lizard and American sparrow,EX17 6HD,50.800832071000500,-3.814341588738150
Scimitar babbler and Towhee,EX17 6HH,50.800878373586800,-3.811363158681160
python and snake,EX17 6LG,50.820431768466800,-3.838271654501590
Treepie and python,EX17 6NF,50.864521506232600,-3.775886301397600
Chipmunk and ringhals,EX17 6QA,50.861187000000000,-3.801621000000000
alligator and brown snake,EX17 6QR,50.864215399193800,-3.805788278974160
indigo snake and Mockingbird,EX18 7AU,50.914574812000000,-3.872196053296060
Zebra and cycling lizard,EX18 7BL,50.913554790444600,-3.871497000000000
Booted eagles and Triller,EX18 7ED,50.927546000000000,-3.810560000000000
viper and Fox,EX18 7HL,50.896258649637000,-3.832326127532990
Parrotlet and Eagle,EX18 7JD,50.903897418380900,-3.821190890109140
cerastes and leathery turtle,EX18 7LT,50.905748068654800,-3.950967659213850
Parrotlet and flying dragon,EX18 7LX,50.906022713572900,-3.950139943633040
asp and Dolphin,EX18 7NZ,50.908480399448800,-3.977781340363760
Minke whale and Chicken,EX18 7PP,50.914294894186300,-4.012228023551030
worm lizard and carpet snake,EX18 7QF,50.880376946710200,-3.955835510605490
galliwasp and black snake,EX18 7SB,50.864737418778200,-3.906933971725250
blue tongue and Piping shrike,EX19 8AY,50.835638392390500,-4.011639906232820
amethystine python and green turtle,EX19 8AZ,50.833241354893500,-4.012956983810040
Snipe and puff adder,EX19 8BJ,50.856737007225700,-4.035509439048380
boa and Towhee,EX19 8DJ,50.872859232955600,-3.930405236478240
Magpie and Thrasher,EX19 8JN,50.855281224913400,-3.940988913559130
ringhals and Fish eagle,EX19 8QQ,50.891058570232300,-4.034660000000000
perentie and Parakeet,EX19 8QT,50.888178141345500,-4.032955783610350
Flameback and thorn lizard,EX19 8QX,50.892903083925400,-4.028113519368940
Snipe and Logrunners,EX19 8RX,50.830590625756800,-4.014902046447200
Tahr and flying dragon,EX19 8TS,50.948767554873600,-4.045308563376810
Jackal and Shearwater,EX20 2AJ,50.825375432857700,-3.905130497550520
green turtle and anole,EX20 2AL,50.823428000000000,-3.898903000000000
Moluccan boobook and Kite,EX20 2BW,50.803203000000000,-3.851173023865880
Cuscus and thorny devil,EX20 2EQ,50.800843620017400,-3.906076587715910
Pheasant and Jay,EX20 3QU,50.809884000000000,-3.972130000000000
Stint and jew lizard,EX20 3RN,50.801964836824800,-3.985484384947430
Tit-tyrant and Songlark,EX32 0EZ,51.022815000000000,-4.009923000000000
Old World quail and cerastes,EX36 3AU,51.019282412524800,-3.834292916160760
taipan and python,EX36 3BB,51.018526656160900,-3.836031070933530
elapid and Ibex,EX36 3PJ,51.015218070212900,-3.649107714330650
galliwasp and Rat,EX36 4AU,51.015036830848700,-3.833198642205710
perentie and blindworm,EX36 4DF,51.022795865730900,-3.852141665228550
adder and Parrotlet,EX36 4DR,51.016075431236500,-3.840353963607320
Pheasant and glass snake,EX36 4EU,51.012403793080900,-3.841078198796000
taipan and pit viper,EX36 4FB,51.016826000000000,-3.846178000000000
Shearwater and Warbler,EX36 4GJ,51.019095707515700,-3.841015390923130
Chickadee and rattlesnake,EX36 4HZ,51.003774000000000,-3.853408000000000
Masked owl and Perching duck,EX36 4LL,50.984094282508400,-3.793625240312930
Wader and Egret,EX36 4NN,50.955909000000000,-3.773132000000000
blindworm and galliwasp,EX36 4NT,51.002188009240100,-3.771860613860050
Old World quail and bushmaster,EX36 4NW,50.962445000000000,-3.780971000000000
perentie and Gull,EX36 4PA,51.009192681532300,-3.775477526217270
pit viper and Shearwater,EX36 4QU,50.988805202317300,-3.701788692665780
Black cockatoo and thorny devil,EX36 4QY,50.986525951877900,-3.711906849510420
anole and Myna,EX36 4RB,50.981631316024400,-3.728551848699710
king snake and amphisbaena,EX36 4SE,51.016241877319900,-3.826887441047530
Perching duck and tokay,EX36 9AS,51.017647000000000,-3.835203000000000
Kite and Nukupu ªu,EX37 9AR,50.993874890584000,-3.986669160838150
Marsh harrier and Kite,EX37 9BA,50.966117118914900,-3.992719371525810
frilled lizard and Warbler,EX37 9DP,50.955784383398100,-3.995836958237890
puff adder and kabaragoya,EX37 9EZ,50.959928000000000,-3.874083000000000
loggerhead and Eagle,EX37 9HW,50.994235001151200,-4.017594539909270
constrictor and Asiatic leopard,EX37 9JW,50.929548205644400,-3.926390674238170
cycling lizard and dukite,EX37 9LN,50.933426181643400,-3.947373000000000
White ibis and amethystine python,EX37 9NU,50.966743976942700,-3.945960165605630
alligator and boa constrictor,EX37 9PY,51.012373270193700,-3.953672333201770
Mole and blindworm,EX37 9QJ,51.013028084287300,-3.942451502319150
asp and Skunk,EX37 9RA,51.013710637726200,-3.935465750512680
Bunting and garter snake,EX37 9RQ,51.016716134462000,-3.936988170740830
cobra and amethystine python,EX37 9TF,50.974483189830800,-3.872511011942160
