name,postcode,lat,lon
THE MOUNT PLEASANT INN,EX16 8NN,50.912072897632700,-3.651916784774970
The Lamb Inn at Sandford,EX17 4LW,50.809841109651500,-3.664985024672010
Black Dog Inn,EX17 4QS,50.875298573687900,-3.698360492356080
the devonshire dumpling,EX17 5LP,50.830674633832300,-3.775027150477970
THE WAIE INN,EX17 6DF,50.820266000000000,-3.818502000000000
Waterside Cafe,EX17 6LA,50.800935500746700,-3.827683000000000
Malt Scoop Inn,EX17 6PZ,50.859772773070700,-3.803456777642870
THE OLD COURT HOUSE,EX18 7BW,50.913934601960200,-3.869495863617100
The Red Lion Hotel,EX18 7DD,50.912930157579300,-3.866510883095780
Fox & Hounds Country Hotel,EX18 7JZ,50.890641591905400,-3.877350146681710
The Lymington Arms,EX18 7SA,50.866709517996800,-3.900164432669460
Jonesy's Cafe,EX19 8EZ,50.865970825792300,-3.970677000000000
The Kings Arms,EX19 8HQ,50.856104511845400,-3.945015699507030
The New Inn,EX19 8SY,50.935606420574900,-4.027992974988030
The Welcome Fryer,EX36 3AQ,51.017961719158200,-3.834782579297610
Zest,EX36 3BU,51.018177306400400,-3.833080148651950
The South Street Kitchen,EX36 4AG,51.016521498234600,-3.835438583369050
Libbaton Golf Club,EX37 9BS,50.956372918357600,-3.994798000000000
The Rising Sun Ltd,EX37 9DU,50.998859386048100,-3.986012734547120
The Portsmouth Arms  Hotel,EX37 9ND,50.957399407054500,-3.947605892222620
The Bell Inn Chittlehampton ,EX37 9QL,51.012948000000000,-3.944629000000000
The Grove Inn Ltd,EX37 9ST,50.958965720776000,-3.874766000000000
