name,id,postcode,lat,lon
Cloud rat and Asiatic leopard,1194857,EX17 4PD,50.810541188019800,-3.687607192445670
grass snake and Chipmunk,1186889,EX36 4LW,50.979909467727800,-3.778534072099270
Lemming and diamondback terrapin,1186736,EX36 4AR,51.015091059313600,-3.834327077240190
Parrotlet and Magpie,1186890,EX36 4LX,51.002145000000000,-3.812266000000000
Perching duck and frill-necked lizard,1194190,EX19 8SJ,50.837330000000000,-4.037562000000000
Tattler and anole,1194424,EX19 8BR,50.851054336750600,-4.014192799001810
Parrotbill and diamond python,1192803,EX20 2AG,50.812642983958400,-3.948532496714150
Moluccan boobook and death adder,1186531,EX37 9AE,51.002860717220400,-3.973854456830860
Herring gull and Badger,1194854,EX17 4NW,50.807714981723600,-3.662723636359730
goanna and Argus,1195997,EX16 8EW,50.958277220087900,-3.669147131890040
Rabbit and skink,1187214,EX36 3QU,51.015741378391700,-3.776615000000000
loggerhead and Chipmunk,1194178,EX19 8RL,50.888047553547500,-4.047111641054750
B and smooth snake,1194153,EX19 8QA,50.891928429320800,-4.031924676419750
coral snake and adder,2587206,EX37 9EP,50.965129000000000,-3.994301000000000
constrictor and amphisbaena,1194506,EX19 8JB,50.855603604417900,-3.943233015735150
Jerboa and Hawk,1194500,EX19 8HU,50.855562000000000,-3.945831000000000
Gull and Greenbul,1194794,EX17 6DA,50.809716377265800,-3.780337000000000
Mink and Civet,1194653,EX17 5LQ,50.828079655537900,-3.768837013678440
Darwin's finches and Scimitar babbler,1186541,EX37 9AS,50.987594153026200,-3.988979931806540
Gila monster and Coati,1188947,EX32 0EZ,51.022815000000000,-4.009923000000000
snake and ringhals,1194721,EX18 7JP,50.910682960122900,-3.887687394328250
Dorcopsis and Boto,1194484,EX19 8EZ,50.865970825792300,-3.970677000000000
saltwater crocodile and diamond python,1194785,EX17 6BN,50.841817228430100,-3.868459000000000
Partridge and Asiatic leopard,1194509,EX19 8JF,50.855234646785600,-3.944325920039110
boa and Scimitar babbler,1186818,EX37 9TL,50.964449881561600,-3.871751413262460
blue racer and Dolphin,1194958,EX17 4RZ,50.867805058329100,-3.663553730769480
constrictor and Magpie,2641378,EX36 3FE,51.023184000000000,-3.841653000000000
fer-de-lance and deaf adder,1195625,EX16 8LN,50.883274000000000,-3.654139000000000
bull snake and horned viper,1186873,EX36 4JU,51.009526267240200,-3.835917879540730
Booted eagles and slowworm,1194885,EX17 6HG,50.800761602853500,-3.812935000000000
kabaragoya and bearded lizard,1194388,EX18 7SL,50.842967550869600,-3.885151277600440
flying lizard and bushmaster,1192809,EX20 2AQ,50.817615182656400,-3.923142636869450
sea snake and saltwater crocodile,1195219,EX17 4EQ,50.833250747826700,-3.667706000000000
Hawk and crocodile,1186963,EX36 3BE,51.020359003471900,-3.836174766751110
Masked owl and Chickadee,1194647,EX17 5LG,50.820279000000000,-3.764979000000000
rat snake and Komodo dragon,1194195,EX19 8SX,50.936316000000000,-4.027596563078290
Rat and Tit-tyrant,1195940,EX16 8AU,50.915963211004300,-3.702245071019030
Tahr and Boto,1194344,EX18 7PN,50.919727825445600,-3.970006131201160
python and American sparrow,1194937,EX17 4QR,50.880567927352900,-3.703342770214960
Stilt and Greenbul,1186697,EX37 9LY,50.944133414360400,-3.957329226549850
blue racer and Peafowl,1192352,EX20 2DU,50.800251997776700,-3.900446866226170
king snake and gavial,1195120,EX17 5HR,50.813118831445000,-3.751280017878390
Marsh harrier and Snipe,1194796,EX17 6DD,50.806995807570100,-3.815290095451460
Crow and cobra de capello,1194200,EX19 8TD,50.936187484222700,-4.011564831267730
Coati and Marmoset,1186767,EX36 4DJ,51.018182553790200,-3.839610457229920
cobra de capello and Ground sloth,1186626,EX37 9DE,50.989352109453800,-3.936290174400620
thorn lizard and Grosbeak,1194358,EX18 7QQ,50.885700134941400,-3.948366807413780
diamondback and rat snake,1194350,EX18 7QB,50.881009432013100,-3.924288047062660
Boto and Old World warbler,1194349,EX18 7QA,50.880302000000000,-3.918160000000000
snapping turtle and bushmaster,1194341,EX18 7PH,50.919978149941600,-3.989181888728870
copperhead and wall lizard,1186646,EX37 9EF,51.005313774533100,-4.044032330803200
lizard and perentie,1194611,EX18 7BG,50.908295804516800,-3.899567689888090
Zebra and taipan,2602834,EX36 9AN,51.017647000000000,-3.835203000000000
lizard and Jackal,1195931,EX16 8AH,50.916351762909900,-3.700267543880940
Towhee and Triller,1188946,EX32 0EY,51.023140511941100,-4.011291973274540
Thrasher and Siskin,1194720,EX18 7JN,50.913735584577800,-3.877411747748310
Badger and Pratincole,1194548,EX17 6QP,50.863364000000000,-3.803908000000000
amethystine python and Crow,1194387,EX18 7SJ,50.853355570577100,-3.885115556435410
asp and blind snake,1194234,EX18 7LF,50.871484155935300,-3.845879889958070
Jerboa and Stint,1195941,EX16 8AW,50.912931650395900,-3.699218221417260
ringhals and Parrotbill,1194819,EX17 6EG,50.821986391731300,-3.818270993202460
ringhals and bandy-bandy,1194694,EX18 7EY,50.899831257317200,-3.842464230872970
Old World quail and Nukupu ªu,1186746,EX36 4BE,51.013961000000000,-3.829911000000000
Linsang and Perching duck,1194463,EX19 8DP,50.862919295342800,-3.955374680896090
Mink and blind snake,1194537,EX17 6PZ,50.859772773070700,-3.803456777642870
Wader and Jackal,1186917,EX36 4PJ,50.998978407103100,-3.774759710550560
Cuscus and Pratincole,1194342,EX18 7PJ,50.916746269279100,-3.973479623148910
Schneider python and rat snake,1194698,EX18 7HD,50.898672164642800,-3.835549575157190
Egret and Thrasher,1186896,EX36 4NE,50.962832380580200,-3.769805000000000
River dolphin and Old World warbler,1194197,EX19 8SZ,50.935887163007500,-4.028916103591470
Pheasant and Perching duck,1187012,EX36 4RR,51.005422956037800,-3.651140610487900
wall lizard and Piping shrike,1194508,EX19 8JE,50.855427639101000,-3.944078198792010
Grouse and Pheasant,1192807,EX20 2AN,50.827007823670700,-3.915832488205840
Capuchin and Shearwater,1186707,EX37 9NU,50.966743976942700,-3.945960165605630
leathery turtle and gopher snake,1194390,EX18 7SP,50.873204425407500,-3.901167747498330
Thicketbird and Jackal,1192329,EX20 2BR,50.807872618035700,-3.858401973764000
Ground sloth and Warbler,1187204,EX36 3QD,51.018737479569700,-3.817375655306440
gavial and New World blackbird,1195204,EX17 4DN,50.844745593776600,-3.652221801166740
Crow and blind snake,1192346,EX20 2DN,50.825947903138600,-3.879268528412760
Songlark and Goose,1194710,EX18 7HT,50.883025000000000,-3.809060000000000
