name,postcode,lat,lon
THE MOUNT PLEASANT INN,EX16 8NN,50.9121,-3.6519
The Lamb Inn at Sandford,EX17 4LW,50.8098,-3.6650
Black Dog Inn,EX17 4QS,50.8753,-3.6984
the bull pen,EX17 4TN,50.8904,-3.7434
the devonshire dumpling,EX17 5LP,50.8307,-3.7750
THE WAIE INN,EX17 6DF,50.8203,-3.8185
Waterside Cafe,EX17 6LA,50.8009,-3.8277
Malt Scoop Inn,EX17 6PZ,50.8598,-3.8035
THE OLD COURT HOUSE,EX18 7BW,50.9139,-3.8695
The Red Lion Hotel,EX18 7DD,50.9129,-3.8665
Fox & Hounds Country Hotel,EX18 7JZ,50.8906,-3.8774
The Lymington Arms,EX18 7SA,50.8667,-3.9002
Fiona's farm shop,EX19 8DJ,50.8729,-3.9304
Jonesy's Cafe,EX19 8EZ,50.8660,-3.9707
The Kings Arms,EX19 8HQ,50.8561,-3.9450
The New Inn,EX19 8SY,50.9356,-4.0280
The Welcome Fryer,EX36 3AQ,51.0180,-3.8348
the Lazy Daisy cafe,EX36 3AQ,51.0180,-3.8348
Zest,EX36 3BU,51.0182,-3.8331
The South Street Kitchen,EX36 4AG,51.0165,-3.8354
the old George inn,EX37 9AY,50.9665,-3.9948
Libbaton Golf Club,EX37 9BS,50.9564,-3.9948
The Rising Sun Ltd,EX37 9DU,50.9989,-3.9860
The Portsmouth Arms  Hotel,EX37 9ND,50.9574,-3.9476
The Exeter Inn,EX37 9NS,50.9714,-3.9241
The Bell Inn Chittlehampton ,EX37 9QL,51.0129,-3.9446
The Grove Inn Ltd,EX37 9ST,50.9590,-3.8748
