name,postcode,lat,lon
dukite and Peafowl,EX16 8AS,50.916014505734400,-3.701194190582350
Grosbeak and smooth snake,EX16 8EZ,50.915080000000000,-3.706168000000000
Pratincole and Night heron,EX16 8NU,50.898035630088100,-3.681440103150840
blue tongue and Towhee,EX16 8NY,50.890909438905900,-3.712252000000000
boa and Tit-tyrant,EX16 8QW,50.922114849735700,-3.642597346075660
Coati and Siskin,EX17 4BZ,50.837351125329800,-3.640488000000000
frill-necked lizard and caiman,EX17 4LW,50.809841109651500,-3.664985024672010
milk snake and gopher snake,EX17 4LZ,50.810047366848800,-3.664396207620900
snake and sand lizard,EX17 4NP,50.806563127654900,-3.660880217617640
gaboon viper and Kestrel,EX17 5LL,50.829913276293600,-3.776006484139850
Thrasher and habu,EX17 6AZ,50.852617533870200,-3.852025313920880
Eagle and Boto,EX17 6BN,50.841817228430100,-3.868459000000000
thorn lizard and water snake,EX17 6BQ,50.832455296326900,-3.849693213057640
Tit-tyrant and Old World vulture,EX17 6DQ,50.820730111403700,-3.824426523057210
Old World vulture and Capuchin,EX17 6LH,50.825600000000000,-3.847676000000000
Ground sloth and Old World vulture,EX17 6NB,50.873031809078600,-3.792768457387310
Pitohui and pit viper,EX17 6PB,50.856160860286800,-3.751286718013780
Gila monster and Civet,EX17 6PR,50.860356062121100,-3.805283905304830
Mole and diamondback turtle,EX17 6QH,50.862338288967400,-3.803882624018080
coral snake and death adder,EX17 6RF,50.864091418849400,-3.733619000000000
blue racer and Civet,EX18 7AQ,50.932164880354200,-3.892883662226400
loggerhead and worm lizard,EX18 7ED,50.927546000000000,-3.810560000000000
tiger snake and Goose,EX18 7JW,50.911745251388500,-3.885952211809220
krait and wall lizard,EX18 7JX,50.900835116813800,-3.879893524856540
tuatara and Francolin,EX18 7LX,50.906022713572900,-3.950139943633040
rattlesnake and death adder,EX18 7PD,50.908634594366900,-3.979295683845870
Macaw and kabaragoya,EX18 7PE,50.908021132125400,-3.979938202155870
cayman and monitor,EX18 7PQ,50.915516516123700,-3.982361943047700
thorny devil and Booted eagles,EX18 7RB,50.865212560328900,-3.877081403184610
goanna and python,EX18 7RY,50.872401489390800,-3.901874164479900
rock python and Kangaroo,EX18 7SJ,50.853355570577100,-3.885115556435410
cobra de capello and Mink,EX19 8AE,50.933255072512700,-4.033910878536030
agamid and Wallaby,EX19 8AZ,50.833241354893500,-4.012956983810040
Mole and Macaw,EX19 8BU,50.850506139409000,-3.977373274371860
taipan and constrictor,EX19 8EZ,50.865970825792300,-3.970677000000000
Greenbul and cerastes,EX19 8JJ,50.854986319137900,-3.943007000000000
Wallaby and Chipmunk,EX19 8JS,50.851817324051000,-3.945931261998880
Condor and Night heron,EX19 8PW,50.885598279755300,-4.013692278566190
tortoise and Logrunners,EX19 8QQ,50.891058570232300,-4.034660000000000
gavial and American sparrow,EX19 8QT,50.888178141345500,-4.032955783610350
Dolphin and blindworm,EX19 8RL,50.888047553547500,-4.047111641054750
boa constrictor and diamondback terrapin,EX19 8SX,50.936316000000000,-4.027596563078290
sand lizard and ringhals,EX19 8TB,50.936154621348600,-4.025426411659740
American sparrow and hognose snake,EX20 2AE,50.810130859133800,-3.944197000000000
perentie and diamond python,EX20 2BP,50.803790573207700,-3.858339310718120
Flameback and White ibis,EX20 2EA,50.800244334495000,-3.904774961160770
cobra de capello and Grackle,EX20 2EX,50.800704049270000,-3.894774369022360
agama and Songlark,EX36 3AE,51.017490814621200,-3.835562414662240
Siskin and Jackal,EX36 3AN,51.018855000000000,-3.835246000000000
Meadowlark and Wader,EX36 3AS,51.019160041082200,-3.832235000000000
Wallaby and Chicken,EX36 3BN,51.018077695040900,-3.835414503015750
Thicketbird and frill-necked lizard,EX36 3BQ,51.018254116589700,-3.836205654994960
Egret and Piping shrike,EX36 3DJ,51.018257300292400,-3.833425000000000
Philippine hawk-owl and tree snake,EX36 3DZ,51.020592000000000,-3.830885000000000
alligator and bearded lizard,EX36 4BJ,51.016147234909800,-3.828337957410960
mamba and Asiatic leopard,EX36 4JR,50.961300129579300,-3.820700947749550
coral snake and Cuscus,EX36 4JS,50.953262119055800,-3.804938560817450
leathery turtle and saltwater crocodile,EX36 4NS,50.985772000000000,-3.770423000000000
Black jay and king snake,EX36 4PN,50.996128877229900,-3.769933885353520
Night heron and king snake,EX36 4RF,50.962839635366400,-3.716091302917580
Thrasher and Rabbit,EX36 9AN,51.017647000000000,-3.835203000000000
Ground sloth and Chicken,EX37 9BA,50.966117118914900,-3.992719371525810
anole and bushmaster,EX37 9BJ,50.976551256022300,-4.015146780560840
glass snake and gaboon viper,EX37 9DJ,50.987638556921800,-3.902663306680680
Mink and Dolphin,EX37 9DS,50.967996640603400,-3.999038156906700
Parrotbill and Songlark,EX37 9JS,50.942087000000000,-3.910468000000000
perentie and Mink,EX37 9PR,51.012257519704500,-3.947679846395160
blue tongue and jew lizard,EX37 9PX,51.011067554346100,-3.951621625420820
blue tongue and Greenbul,EX37 9QT,51.002750612840800,-3.906317618655030
sidewinder and Goose,EX37 9RE,51.020274130889000,-3.901618204977400
