name,id,postcode,lat,lon
Fulmarine petrel and massasauga,1196201,EX16 7JN,50.944523797918400,-3.321880380681660
Mole and Cuscus,216549,TA21 0EG,50.987077615169200,-3.283181599562620
Puffleg and crocodile,1182677,EX5 5QF,50.841747000000000,-3.550361000000000
Duck and Grosbeak,1195848,EX16 7PP,50.921973468274000,-3.474004818558470
crocodile and Gila monster,1197822,EX15 1HL,50.855904411729800,-3.397798769999840
horned viper and Siskin,216442,TA21 8LE,50.983530190099800,-3.235613000000000
king cobra and Recurvebill,1196372,EX16 6QS,50.905955983942800,-3.485431859416650
Tree warbler and mamba,1196118,EX16 8LD,50.898098583832500,-3.605446220413200
Skunk and Capuchin,1196400,EX16 6SF,50.907956170298700,-3.488667408593980
racer and massasauga,1195760,EX16 9BB,51.010133941532500,-3.440605485151540
pit viper and asp,214217,TA4 1JP,51.022880000000000,-3.259132000000000
sand viper and Quetzal,1196254,EX16 6FG,50.913141758291200,-3.477910000000000
Hawk and goanna,1197062,EX15 3AL,50.907391494684600,-3.325920023422240
gavial and Old World vulture,1196640,EX16 4BU,50.903009001335700,-3.480971860050480
Booted eagles and Rabbit,1196029,EX16 6TU,50.916413348641100,-3.473487669641000
Egret and amethystine python,1197397,EX15 2QF,50.896394601198400,-3.383895130019340
soft-shelled turtle and hoop snake,1197203,EX15 3LU,50.898787000000000,-3.279970000000000
Dorcopsis and agama,1197396,EX15 2QE,50.895205666154500,-3.377972964366500
pit viper and king snake,1197030,EX15 2TA,50.889091607613600,-3.366404101747800
thorny devil and Kite,1195995,EX16 8ET,50.950547283960500,-3.597500910310810
Kite and Badger,216440,TA21 8LB,50.982670114760600,-3.238298571894570
Black jay and Jerboa,1195818,EX16 9HA,50.991602020648400,-3.601974062723190
bearded dragon and Flameback,1197045,EX15 2TY,50.893302849490600,-3.366186108278830
Herring gull and rat snake,1198112,EX14 4QP,50.860519495097000,-3.266005000000000
rattlesnake and Polecat,214323,TA4 1LY,51.022813978043900,-3.260714000000000
Scimitar babbler and swift,2647715,TA21 8FG,50.987276000000000,-3.230055000000000
moloch and giant tortoise,1197681,EX15 1AG,50.858494721612200,-3.390999345776310
Hawaiian honeycreeper and Recurvebill,1196327,EX16 6NH,50.904925930058900,-3.488118000000000
harlequin snake and cobra de capello,1195295,EX17 4HR,50.857360141811900,-3.574393650445890
Darwin's finches and snapping turtle,1195438,EX16 9LJ,50.987998213116400,-3.483534000000000
water snake and Marmoset,1197705,EX15 1BP,50.855997276889400,-3.393041970645710
cobra and leguaan,1196480,EX16 5HG,50.899782837052700,-3.494194684633340
Ibex and king snake,216580,TA21 0JD,50.990030223165400,-3.368469100926020
sand viper and hognose snake,1196654,EX16 4DS,50.907221215446100,-3.465018911884060
Elephant and Meadowlark,1197386,EX15 2PS,50.892692068312400,-3.375310938849280
king snake and dugite,216487,TA21 8PS,50.974704420599800,-3.226193149905160
blue racer and whip snake,1197379,EX15 2PH,50.891819962781500,-3.378342238564660
Rabbit and Grosbeak,1182838,EX5 4LG,50.814440554709800,-3.399796803529560
Kangaroo and Minke whale,1196724,EX16 4LD,50.902446670939400,-3.483471297083130
Guillemot and Moluccan boobook,1196395,EX16 6RZ,50.908787000000000,-3.491283000000000
Wader and lizard,1196186,EX16 7HS,50.944537728133600,-3.337239901823390
Stilt and saltwater crocodile,1197068,EX15 3AT,50.907323620541500,-3.322390733604230
python and amphisbaena,1773932,EX15 9AX,50.856004196658700,-3.393042647300320
monitor and Fox,1197472,EX15 1PU,50.855531013492500,-3.416825739255160
Duck and glass snake,1197483,EX15 1QJ,50.865139611161400,-3.378194571494260
black snake and Old World quail,213836,TA4 1NQ,51.023145169909300,-3.280099415830120
frilled lizard and Thicketbird,216653,TA21 0NL,50.973928836912900,-3.394674012243180
goanna and amethystine python,1197572,EX15 1SS,50.849726832428300,-3.399247737440890
bicycle lizard and Pheasant,1197719,EX15 1DL,50.854172855925700,-3.392944981141040
Badger and Francolin,1196223,EX16 7LT,50.938811249277200,-3.302218000000000
Treepie and racer,1195870,EX16 7QS,50.930105078786500,-3.475983782764660
Mockingbird and Elephant,1197806,EX15 1FP,50.863090137811900,-3.388734663530200
caiman and amphisbaena,1197462,EX15 1PG,50.856442000000000,-3.455399000000000
diamondback turtle and Old World quail,1197350,EX15 1JW,50.857234305208100,-3.392624179528080
Chickadee and Buzzard,216374,TA21 8HU,50.979993608463300,-3.232885354436930
Cloud rat and Cuscus,1196526,EX16 4AR,50.902848469622100,-3.467669000000000
wall lizard and adder,1196425,EX16 5BD,50.904172938460000,-3.498986009842460
whip snake and carpet snake,1182813,EX5 4JQ,50.817093350835100,-3.485234000000000
diamondback and horned viper,217002,TA21 0AT,50.987273039327300,-3.241811996889590
saltwater crocodile and saltwater crocodile,1196160,EX16 7EQ,50.921292000000000,-3.366735287630330
Quetzal and cobra de capello,1195788,EX16 9DR,50.983698000000000,-3.449959000000000
loggerhead and Masked owl,1196059,EX16 6WY,50.912908043528300,-3.476890547887260
Old World vulture and Mouse,216155,TA21 9DT,50.974963543777000,-3.244204124316360
Rat and Badger,1196138,EX16 7DN,50.924252000000000,-3.397783000000000
Herring gull and Skunk,1196192,EX16 7HZ,50.946280458849900,-3.337403799168260
Masked owl and garter snake,1196208,EX16 7JW,50.943460968336200,-3.319643921055320
pit viper and Old World warbler,1196149,EX16 7EA,50.927135000000000,-3.378461000000000
Parrotlet and Parakeet,1196344,EX16 6PG,50.902368346273000,-3.488915802719530
dugite and Parrotbill,1197411,EX15 2QY,50.881412000000000,-3.349501598464460
Wallaby and Armadillo,1196014,EX16 8HU,50.875486246057900,-3.556597607940750
dukite and skink,2593331,EX15 1US,50.857085000000000,-3.380428000000000
Asiatic leopard and B,1196371,EX16 6QR,50.905316000000000,-3.482794000000000
black snake and sand viper,1195855,EX16 7PY,50.927616182849100,-3.456481591085700
Guillemot and mountain devil,1196378,EX16 6RA,50.906589454496100,-3.484413732690940
Black cockatoo and Asiatic leopard,1197122,EX15 3ER,50.905518483995700,-3.334030621506410
Mole and Tattler,1196493,EX16 5HZ,50.902990787294500,-3.492988965989710
Tree warbler and Egret,1196279,EX16 6HX,50.909588359689000,-3.471294950646760
blue racer and Darwin's finches,1195635,EX16 8LZ,50.874750000000000,-3.587999000000000
Night heron and Wallaby,1196753,EX16 4LX,50.911245856074500,-3.445885206816360
harlequin snake and agamid,1196952,EX15 3XG,50.905464997014800,-3.324514126616720
constrictor and soft-shelled turtle,1196304,EX16 6LE,50.902752138196900,-3.487604000000000
sidewinder and Coati,1196170,EX16 7FB,50.920534881563300,-3.377056000000000
worm lizard and anaconda,1197431,EX15 1LS,50.862853000000000,-3.427861000000000
copperhead and brown snake,216145,TA21 9DF,50.971274883655500,-3.245202219833000
wall lizard and Dorcopsis,1195957,EX16 8BS,50.930985000000000,-3.588081000000000
black snake and Cloud rat,1197399,EX15 2QH,50.892011530628900,-3.372006388065410
bicycle lizard and worm lizard,1196275,EX16 6HS,50.911638661610400,-3.471302715162000
adder and Grackle,1196047,EX16 6UT,50.915884136683300,-3.484026667083020
Capuchin and massasauga,213826,TA4 1NB,51.021862542947600,-3.262440946227820
Mink and iguana,216503,TA21 8QR,50.979090909765000,-3.227234647506210
Old World vulture and cobra de capello,1182841,EX5 4LL,50.838580000000000,-3.419792000000000
Ground sloth and loggerhead,216383,TA21 9QT,50.962671639620000,-3.271643772108470
racer and thorn lizard,1182842,EX5 4LN,50.839062000000000,-3.423148888611180
asp and Ground sloth,1195485,EX16 9PX,50.992193546236700,-3.487215114580310
Mamo and Gila monster,216498,TA21 8QF,50.973076468896300,-3.227804000000000
diamondback terrapin and horned viper,216633,TA21 0LG,50.983970085194400,-3.352947176522770
sidewinder and racer,1196524,EX16 5LP,50.904481948111500,-3.497331894673010
Stint and Mamo,1196666,EX16 4EG,50.902422800868700,-3.457529762386790
Old World warbler and boa,1197430,EX15 1LR,50.863548102522000,-3.417210894398510
diamondback terrapin and Petrel,216536,TA21 0DR,50.976544000000000,-3.250443000000000
Wader and agama,1195570,EX17 1AU,50.800933071907300,-3.606327901793260
Marsh harrier and Minke whale,1196661,EX16 4EA,50.903388652096000,-3.461556367443850
constrictor and crocodile,216704,TA21 0RN,50.999672831169300,-3.271173137037780
Fox and blind snake,1196017,EX16 8JF,50.905606468126000,-3.530578555810370
Diving bird and Rabbit,1196043,EX16 6UN,50.914447210979800,-3.475360240126000
constrictor and Old World warbler,1197928,EX14 3HJ,50.805753792862600,-3.326659137599290
Night heron and python,1197941,EX14 3JA,50.822855418129300,-3.303803128410120
thorn lizard and sidewinder,1196496,EX16 5JD,50.902525000000000,-3.493720156513350
Minke whale and Meadowlark,1196293,EX16 6JQ,50.908479280706100,-3.472241414886450
dukite and adder,1182786,EX5 4HF,50.833952000000000,-3.476754000000000
Partridge and Dorcopsis,216394,TA21 9RN,50.968205000000000,-3.259853960363670
iguana and Francolin,2659168,TA21 1BZ,50.978986000000000,-3.227414000000000
alligator and Argus,216285,TA21 9NJ,50.964592843550300,-3.235083565381690
constrictor and Thicketbird,216649,TA21 0NF,50.967546387194700,-3.340720495616070
perentie and death adder,1196814,EX16 5AP,50.905415653502800,-3.498855257999110
Macaw and Darwin's finches,1195784,EX16 9DH,50.982053112424200,-3.557310519341010
agamid and grass snake,216657,TA21 0NR,50.966801000000000,-3.357903000000000
Boto and Quetzal,1196050,EX16 6UX,50.915911453636200,-3.481168101107940
box turtle and agama,1773960,EX16 7FJ,50.930052000000000,-3.343441000000000
glass snake and Kite,1196248,EX16 6EX,50.911309750123000,-3.469571161943620
Moluccan boobook and diamond python,1195692,EX16 8RF,50.854501328584900,-3.506201187296380
Wader and slowworm,1195455,EX16 9NG,50.988944000000000,-3.488992000000000
rat snake and Bronzewing pigeon,1197119,EX15 3EN,50.906320448301500,-3.330739606387910
racer and flying lizard,1195875,EX16 7RD,50.923822694143800,-3.491962675641180
water snake and habu,1196836,EX15 3QJ,50.910390320636200,-3.225142091400210
Peafowl and Goose,216634,TA21 0LH,50.983089681229100,-3.368307712975070
White ibis and Cuscus,216717,TA21 0SD,50.995249896356600,-3.284021000000000
Crow and Parakeet,215927,TA22 9BE,51.006794975606100,-3.522347565970780
anaconda and Francolin,1182791,EX5 4HN,50.819955472026400,-3.478342269138720
flying dragon and Ground sloth,1197391,EX15 2PY,50.890744163200600,-3.371187139264950
harlequin snake and American sparrow,1197347,EX15 1JS,50.856444897979500,-3.392458582125790
brown snake and Parrotbill,1198421,EX14 3HA,50.806825123188200,-3.293734122730250
mamba and Kākāriki,1197934,EX14 3HS,50.808643512497800,-3.293571466318200
Nukupuʻu and kabaragoya,1196712,EX16 4JJ,50.902052033195100,-3.479846410057990
brown snake and Vulture,1195568,EX17 1AS,50.800746158283700,-3.611401940526870
gaboon viper and diamondback terrapin,1196873,EX15 3SF,50.913145192474000,-3.229126287305970
Magpie and Black cockatoo,1196022,EX16 8JN,50.910872241239300,-3.537735582732150
python and diamondback,216531,TA21 0DH,50.985725809512200,-3.244392166305010
Philippine hawk-owl and Pratincole,1196269,EX16 6HH,50.909991694706700,-3.477808143446600
Schneider python and Stint,1196768,EX16 4NT,50.888393144171500,-3.418163954088680
gopher snake and Night heron,1197088,EX15 3BX,50.906474274158200,-3.355662677880770
jew lizard and crocodile,1197408,EX15 2QU,50.875318505813100,-3.361438628766830
Minke whale and Piping shrike,1182738,EX5 4BT,50.838456524915200,-3.497205547095400
Partridge and Kākāriki,216415,TA22 9AQ,51.020662685659100,-3.533980239243260
Mink and Jackal,1197255,EX15 2EG,50.846188000000000,-3.316329000000000
diamond snake and taipan,1196702,EX16 4HX,50.900894080731100,-3.475415259833870
Gull and Masked owl,1195299,EX17 4HX,50.844891498398000,-3.604530000000000
leguaan and sea snake,1197955,EX14 3JT,50.801534273439400,-3.293190618656340
bicycle lizard and chuckwalla,1195481,EX16 9PS,50.957969802229600,-3.517020419645050
Elephant and Flameback,1196142,EX16 7DS,50.932026501457200,-3.387514203572650
turtle and Francolin,1197383,EX15 2PP,50.890357899232900,-3.374972032198680
Elephant and cobra de capello,1198032,EX14 3NL,50.804810049576400,-3.293791989235280
Partridge and puff adder,1196748,EX16 4LR,50.903031600244600,-3.464930042444560
jew lizard and Guillemot,1196154,EX16 7EG,50.920966043969700,-3.372232043571190
Argus and Kangaroo,1196631,EX16 4BH,50.902946148993300,-3.473147718782610
Parrotlet and Prion,1197929,EX14 3HL,50.808692234105700,-3.324485665386120
wall lizard and cobra de capello,1195588,EX17 1BT,50.811570176068300,-3.607771628807000
Old World quail and gaboon viper,1195726,EX16 8RQ,50.851361469684200,-3.505602800678970
Partridge and agama,1195459,EX16 9NN,50.989229355523000,-3.491879338244260
Shearwater and turtle,1197117,EX15 3EJ,50.904788009721100,-3.331847922908640
Elephant and hognose snake,1195823,EX16 9HG,50.988113860054400,-3.566760490655350
mamba and ringhals,1196253,EX16 6FE,50.914492693386300,-3.476741562292990
Grouse and diamond python,1195768,EX16 9BP,51.011606509729000,-3.444428766739890
Marsh harrier and carpet snake,1182787,EX5 4HG,50.827421905560200,-3.473196693068800
death adder and Jerboa,1197265,EX15 2EU,50.854814192621500,-3.295118625163090
Stilt and Boto,1196543,EX16 5NB,50.909920046626100,-3.505230188920570
blind snake and Perching duck,1196032,EX16 6TY,50.915075707569800,-3.472591866678390
Prion and gaboon viper,1196209,EX16 7JX,50.934829000000000,-3.309295000000000
River dolphin and blue tongue,1196842,EX15 3QS,50.906356265993800,-3.226501118705780
Tahr and hawksbill,1198119,EX14 4QX,50.872224446569800,-3.243029265533020
glass snake and Civet,1195891,EX16 7RY,50.977144931775300,-3.461136375002800
bearded dragon and giant tortoise,1773924,EX15 3HA,50.917523083919000,-3.280100982604570
rock snake and Ice seal,216517,TA21 8RN,50.983183017638400,-3.233169305085220
Perching duck and Crow,1773920,EX15 3FD,50.911176737606700,-3.283141540385860
tokay and Pheasant,1197184,EX15 3JQ,50.914383172804300,-3.279616056499490
