name,postcode,lat,lon
puff adder and wall lizard,EX14 3EU,50.802259000000000,-3.260769000000000
bearded dragon and horned viper,EX14 3EZ,50.807566275847900,-3.294208771788640
anole and Viscacha,EX14 3JP,50.807433291586900,-3.293225790949140
hognose snake and Francolin,EX14 3LW,50.836000368925500,-3.288675639080210
amphisbaena and Solitaire,EX14 3PL,50.810735985417500,-3.232383041616850
Parakeet and Petrel,EX14 4LE,50.861824295869600,-3.229012254055670
Condor and Boto,EX15 1AB,50.857949000000000,-3.392307675540260
carpet snake and Scimitar babbler,EX15 1BT,50.859014389242500,-3.385871298735280
amphisbaena and mamba,EX15 1DR,50.852813989521500,-3.390006321062850
viper and Skunk,EX15 1DT,50.854005949652900,-3.394119195625710
Hawk and Chickadee,EX15 1EJ,50.852063901988500,-3.397840209640910
cobra and cobra,EX15 1ES,50.852748499417600,-3.389464519366470
deaf adder and Bronzewing pigeon,EX15 1FR,50.860841640076900,-3.388000018668410
Old World quail and hognose snake,EX15 1HH,50.856978000000000,-3.398371000000000
gopher snake and Coati,EX15 1LJ,50.856897478233100,-3.398979312343130
Old World warbler and cobra,EX15 1PD,50.845263000000000,-3.413091000000000
Dorcopsis and Partridge,EX15 1PP,50.870463000000000,-3.456078000000000
Warbler and python,EX15 1SJ,50.850098030329900,-3.397412000000000
snapping turtle and moloch,EX15 1TL,50.855914000000000,-3.393324000000000
smooth snake and Jackal,EX15 1TP,50.835681000000000,-3.392508000000000
Dolphin and taipan,EX15 1UG,50.852680922373600,-3.401879151723370
B and bull snake,EX15 1UP,50.857909000000000,-3.406312000000000
Dolphin and worm lizard,EX15 1UW,50.856472000000000,-3.379757000000000
Jackal and Old World quail,EX15 1UZ,50.857675000000000,-3.392097000000000
Old World quail and adder,EX15 1WH,50.855553000000000,-3.360805000000000
brown snake and Logrunners,EX15 2AU,50.870797000000000,-3.355991000000000
snapping turtle and dukite,EX15 2DJ,50.864976048100000,-3.328723448982880
slowworm and goanna,EX15 2DX,50.856085101810900,-3.322119889949680
Bunting and Buzzard,EX15 2EE,50.844971440985900,-3.321976098481340
soft-shelled turtle and Mink,EX15 2EY,50.854938065133400,-3.315395820127680
Siskin and cayman,EX15 2HZ,50.891980000000000,-3.245005000000000
perentie and Mockingbird,EX15 2JT,50.817106843881600,-3.345165713088110
snake and Parakeet,EX15 2LJ,50.833514406306400,-3.325145704830860
horned viper and Linsang,EX15 2RW,50.883243000000000,-3.374435000000000
Skunk and dugite,EX15 2SH,50.886644651651400,-3.374137617481180
tokay and milk snake,EX15 2SW,50.886425600540700,-3.369055730845370
Moluccan boobook and gaboon viper,EX15 2UA,50.893786620337600,-3.364480000000000
Thrasher and soft-shelled turtle,EX15 3AZ,50.914531000000000,-3.310190000000000
green turtle and grass snake,EX15 3BA,50.920505843116200,-3.297667644990510
Songlark and tuatara,EX15 3BS,50.902332596390400,-3.336768000000000
constrictor and Minke whale,EX15 3FU,50.900771000000000,-3.342910000000000
Hawaiian honeycreeper and Shearwater,EX15 3HF,50.917952969399700,-3.278135000000000
Logrunners and copperhead,EX15 3JX,50.913347636241600,-3.269032693571900
Mouse and Masked owl,EX15 3LU,50.898787000000000,-3.279970000000000
frill-necked lizard and Kākāriki,EX15 3NB,50.902202393583600,-3.252673411214760
Songlark and Parakeet,EX15 3NG,50.894814726681000,-3.297536305029550
Songlark and Skunk,EX15 3NQ,50.894507641100500,-3.297655742749150
Komodo dragon and Recurvebill,EX15 3PA,50.913155032155400,-3.233308667982040
boomslang and Thrasher,EX15 3QR,50.910919639844300,-3.228683597425450
puff adder and Perching duck,EX15 3UH,50.919134323966300,-3.253654519827630
king cobra and gaboon viper,EX16 0DL,50.904052000000000,-3.486025000000000
Dolphin and bandy-bandy,EX16 0SH,50.901683017435700,-3.484826527150830
mud turtle and Fox,EX16 0TA,50.901683017435700,-3.484826527150830
Grosbeak and hoop snake,EX16 4AN,50.903155522292400,-3.470921000000000
Recurvebill and milk snake,EX16 4AX,50.902818001537700,-3.467269000000000
water snake and leathery turtle,EX16 4DR,50.906878723662300,-3.467226987945900
Recurvebill and horned toad,EX16 4DX,50.906113432576500,-3.462281753033320
racer and hognose snake,EX16 4EB,50.903148215978200,-3.458491080135000
rat snake and Marsh harrier,EX16 4EQ,50.902346408929800,-3.461481058783620
Flameback and bull snake,EX16 4ER,50.900162865636300,-3.469220128968370
terrapin and boomslang,EX16 4GA,50.906642631341800,-3.469552168580790
leguaan and blue tongue,EX16 4HD,50.900702915666400,-3.456267230132630
Solitaire and perentie,EX16 4LR,50.903031600244600,-3.464930042444560
snake and fer-de-lance,EX16 4NR,50.891889426980100,-3.418327037062810
terrapin and Dorcopsis,EX16 4PL,50.896393624879800,-3.475728038331500
tokay and Chipmunk,EX16 4QD,50.902614621029100,-3.478740713877450
Tit-tyrant and Ice seal,EX16 5AG,50.908588000000000,-3.498445000000000
Chickadee and fer-de-lance,EX16 5DY,50.898748471885300,-3.490691687576230
snapping turtle and Grosbeak,EX16 5FL,50.910901000000000,-3.499118000000000
chuckwalla and Shearwater,EX16 5HL,50.898252599801200,-3.495512000000000
galliwasp and tortoise,EX16 5JT,50.903706076064400,-3.494718532159930
bearded lizard and water snake,EX16 5LT,50.903918970615600,-3.495649807986040
goanna and Fox,EX16 5NP,50.900091311428200,-3.493280180589370
jew lizard and snake,EX16 6AR,50.907786666785100,-3.484466000000000
Old World warbler and perentie,EX16 6AT,50.907168195815600,-3.481331448663740
horned viper and Piping shrike,EX16 6BT,50.904741894153000,-3.482605571823430
rock snake and krait,EX16 6DN,50.907167780429600,-3.474973587734540
Nukupuʻu and Dolphin,EX16 6FE,50.914492693386300,-3.476741562292990
Schneider python and Parrotbill,EX16 6GB,50.905602985296100,-3.486316664687920
White ibis and Meadowlark,EX16 6GZ,50.907208000000000,-3.482592961020510
Old World quail and Gila monster,EX16 6LU,50.902277764140500,-3.486850737809940
bearded dragon and Mamo,EX16 6QN,50.904436346457800,-3.484003895705550
diamond snake and Argus,EX16 6RA,50.906589454496100,-3.484413732690940
asp and krait,EX16 6SG,50.909247000000000,-3.489093000000000
Ibex and amphisbaena,EX16 6SS,50.912701000000000,-3.463455000000000
White ibis and Marmoset,EX16 6TX,50.915763565723200,-3.472243707570050
snake and Vole,EX16 6TZ,50.915369861241200,-3.473511608906690
moloch and gecko,EX16 6UQ,50.916614366506200,-3.476794510105760
goanna and turtle,EX16 6WU,50.912075000000000,-3.476788715515920
gavial and Pratincole,EX16 6XA,50.913785394332500,-3.473646486763940
New World blackbird and Rat,EX16 6XE,50.914638908993600,-3.486476539973720
taipan and Duck,EX16 6XJ,50.914042145138600,-3.474678831460550
Armadillo and Viscacha,EX16 7AE,50.909371994256500,-3.412372326179130
brown snake and Old World vulture,EX16 7AH,50.906861926053300,-3.404260241317610
constrictor and American sparrow,EX16 7AZ,50.904034941770400,-3.420132624248240
Chickadee and Scimitar babbler,EX16 7BG,50.922574305349900,-3.380744994996750
sand viper and mud turtle,EX16 7DJ,50.918229000000000,-3.417734000000000
Booted eagles and grass snake,EX16 7EU,50.938278464580500,-3.362152561578550
cobra de capello and whip snake,EX16 7HX,50.945389157696600,-3.337492094977050
Jay and Hawaiian honeycreeper,EX16 7LX,50.931449419901200,-3.420540681393070
Tahr and carpet snake,EX16 7NP,50.976728589387000,-3.416836928958880
Crow and diamond snake,EX16 7PF,50.945873097056300,-3.410232880440880
Egret and green turtle,EX16 7PQ,50.972558000000000,-3.401897000000000
crocodile and harlequin snake,EX16 7QJ,50.967742000000000,-3.455201000000000
Moluccan boobook and Ice seal,EX16 7RF,50.932398038105800,-3.491568258980870
Duck and Triller,EX16 7RT,50.965220527680600,-3.493815735354650
snapping turtle and Black jay,EX16 7RY,50.977144931775300,-3.461136375002800
diamondback terrapin and Gila monster,EX16 8EU,50.938250544729300,-3.602331353889050
viper and Rat,EX16 8FA,50.914342887169700,-3.505216919575930
Vole and Bunting,EX16 8LR,50.874966000000000,-3.625176000000000
dugite and Black cockatoo,EX16 8RN,50.864300625725700,-3.505749664492280
pit viper and soft-shelled turtle,EX16 9BA,51.006504350025400,-3.452665679104560
Fish eagle and python,EX16 9BR,51.018476689265900,-3.432038780887430
Schneider python and brown snake,EX16 9DP,50.988437164289600,-3.479928174602690
diamond snake and Francolin,EX16 9DX,50.980356786415400,-3.493019449194370
blind snake and Prion,EX16 9EB,50.976350444642500,-3.484201768086460
River dolphin and Prion,EX16 9ED,50.978739133195300,-3.487297940090500
Buzzard and Chicken,EX16 9HE,50.986916000000000,-3.586966000000000
Jerboa and Parrotbill,EX16 9JF,51.007789850047000,-3.609787270406660
diamondback turtle and cobra,EX16 9JT,51.007471174936200,-3.628006000000000
horned viper and rat snake,EX16 9NB,50.988757125084500,-3.487304731377400
black snake and Kite,EX16 9QB,50.972285306824600,-3.538424610894050
galliwasp and gavial,EX16 9QF,50.962035215778500,-3.549164832564000
gecko and giant tortoise,EX17 1AT,50.800614336620100,-3.608573363886060
Dolphin and Stilt,EX17 4AG,50.819767000000000,-3.607615000000000
Peafowl and Logrunners,EX17 4AP,50.815726387568700,-3.608979060233200
death adder and copperhead,EX17 4HH,50.862098503652600,-3.590382985725900
Duck and Parrotbill,EX17 4JL,50.844410983199300,-3.604681795812050
boa constrictor and python,EX5 4BU,50.849564724943800,-3.494378000000000
mountain devil and gaboon viper,EX5 4GA,50.819771029696200,-3.484924246593230
amethystine python and krait,EX5 4HY,50.814244357594000,-3.485458198122670
agamid and thorny devil,EX5 4LF,50.810800225799700,-3.404130677303090
thorny devil and horned viper,EX5 4LN,50.839062000000000,-3.423148888611180
tiger snake and galliwasp,EX5 4LT,50.842182796466700,-3.449970067541320
water snake and Egret,EX5 4LX,50.847817444941600,-3.458227598748950
coral snake and Duck,EX5 4PN,50.812423000000000,-3.430581000000000
Shearwater and Fox,EX5 4QB,50.806530088159400,-3.442322943455910
Tahr and blue racer,EX5 4QH,50.822968470343500,-3.425579296970780
grass snake and gecko,EX5 4RD,50.821873320422900,-3.417297271593260
bandy-bandy and tokay,EX5 5LX,50.804390000000000,-3.515474000000000
wall lizard and crocodile,EX5 5QA,50.836592497010700,-3.553783302236360
Tahr and garter snake,TA21 0AF,50.987147531789100,-3.242620755935200
diamondback and amethystine python,TA21 0AG,50.986772000000000,-3.244278000000000
rock python and Recurvebill,TA21 0AR,50.986982572712700,-3.241332000000000
slowworm and hognose snake,TA21 0BD,50.987095686554600,-3.239883849562640
sand viper and smooth snake,TA21 0DQ,50.989453000000000,-3.245258000000000
Jay and blue tongue,TA21 0EB,50.971282651610700,-3.263732158529810
amphisbaena and harlequin snake,TA21 0HB,50.966597502827800,-3.272833329225940
boomslang and mountain devil,TA21 0LF,50.983977726731200,-3.349955595476450
Warbler and Masked owl,TA21 0LP,50.961117239699900,-3.283847382260910
Coati and Wallaby,TA21 0PJ,50.961676000000000,-3.341443894891460
Songlark and Ice seal,TA21 0QB,50.955414024408000,-3.353285051568410
Pheasant and Mamo,TA21 0QP,50.989852845855100,-3.259548830760020
mountain devil and Black jay,TA21 0RW,50.995212382933800,-3.270352977813940
Pheasant and blind snake,TA21 8AW,50.976823883857100,-3.229881296448040
Marsh harrier and Ice seal,TA21 8BW,50.971368320736300,-3.230449291364120
diamond snake and Diving bird,TA21 8FE,50.985951000000000,-3.232898000000000
ringhals and boa constrictor,TA21 8JW,50.975281574265700,-3.232019856896200
Grosbeak and Pratincole,TA21 8JY,50.981535672898600,-3.236729837430780
Warbler and galliwasp,TA21 8NE,50.978796109565600,-3.233024570557020
bull snake and amphisbaena,TA21 8RN,50.983183017638400,-3.233169305085220
snapping turtle and pit viper,TA21 8RX,50.983798323771000,-3.230250835217140
cycling lizard and boa,TA21 9BT,50.973179811708100,-3.243657932521290
constrictor and River dolphin,TA21 9BY,50.975059483301100,-3.247012723167360
Bronzewing pigeon and giant tortoise,TA21 9DD,50.973823651837500,-3.244843097328290
sand lizard and habu,TA21 9DL,50.975893893777700,-3.247191763457950
Vulture and anaconda,TA21 9DP,50.975830612752600,-3.245537756160080
Mouse and Parakeet,TA21 9QS,50.961079254321400,-3.274164000000000
Philippine hawk-owl and diamondback terrapin,TA21 9QY,50.936900000000000,-3.279807000000000
Gull and anaconda,TA21 9RX,50.972656704426600,-3.248856929311330
diamond python and Mouse,TA22 9AL,51.021263638072900,-3.535468688070440
flying lizard and hoop snake,TA22 9BD,51.007906941760100,-3.521670000000000
snake and mamba,TA22 9BQ,51.011874294520200,-3.519021327073520
Grackle and Kite,TA4 2BG,51.007947377030600,-3.365860544968740
boomslang and rock snake,TA4 2BQ,51.005661514048800,-3.348507000000000
Zebra and adder,TA4 2QW,51.023827121518000,-3.406152517678400
