name,id,postcode,lat,lon
worm lizard and Boto,1196376,EX16 6QX,50.906052624165700,-3.484197531391490
blind snake and horned viper,2625787,EX16 5FQ,50.912033000000000,-3.499951000000000
fer-de-lance and loggerhead,1195576,EX17 1BB,50.803669002963200,-3.598985098777160
python and boomslang,216462,TA21 8NH,50.982181021173900,-3.238627460750950
Snipe and habu,216550,TA21 0EH,50.975900746717500,-3.275694399683640
Songlark and horned toad,216693,TA21 0QY,51.003727547509800,-3.262974697580970
Diving bird and rattlesnake,216376,TA21 8HX,50.979510774310800,-3.234325571396550
caiman and Goose,1197190,EX15 3JX,50.913347636241600,-3.269032693571900
Gila monster and goanna,1197516,EX15 1SA,50.826172897462600,-3.390322286046240
deaf adder and Goose,1197431,EX15 1LS,50.862853000000000,-3.427861000000000
Triller and boomslang,1195537,EX16 9QZ,50.928411176399800,-3.514151602967400
Darwin's finches and swift,1196341,EX16 6PD,50.902800560459300,-3.488872704976560
chuckwalla and Moluccan boobook,1197137,EX15 2AT,50.870753000000000,-3.343455000000000
hognose snake and gaboon viper,1196155,EX16 7EH,50.920665663730900,-3.363331110810280
sand viper and Thicketbird,1182757,EX5 4DT,50.807265000000000,-3.484215000000000
worm lizard and Stint,1195461,EX16 9NQ,50.990735486232700,-3.490132275656230
bearded lizard and worm lizard,216807,TA21 8AR,50.976634327701100,-3.230802166618950
tortoise and Crow,1196213,EX16 7LB,50.928313189046400,-3.320780385008890
slowworm and Perching duck,1196324,EX16 7NE,50.972941952795400,-3.426224000000000
Parakeet and tiger snake,1196643,EX16 4BZ,50.904256465677100,-3.477626499888230
Diving bird and Dorcopsis,1197131,EX15 2AL,50.879444670707500,-3.324856392433470
green turtle and Towhee,1197523,EX15 1SJ,50.850098030329900,-3.397412000000000
Nukupuʻu and agama,1197202,EX15 3LT,50.906503785808800,-3.286312302585100
Warbler and boomslang,1195827,EX16 7NH,50.968469986146300,-3.428904929808060
gecko and goanna,1197462,EX15 1PG,50.856442000000000,-3.455399000000000
hognose snake and asp,1195473,EX16 9PG,50.945852497675900,-3.510376590205210
frilled lizard and Perching duck,2662822,EX15 1XS,50.847054000000000,-3.393570000000000
Gull and saltwater crocodile,1196180,EX16 7HJ,50.944872471494700,-3.322061088471960
Old World quail and Old World warbler,1196684,EX16 4GB,50.906881324992500,-3.468450271162320
cerastes and Diving bird,1195439,EX16 9LL,50.989121925838300,-3.483369579768040
Zebra and lizard,1197797,EX15 1EZ,50.854934771878600,-3.399915088382470
Pheasant and Kestrel,1195755,EX16 9AW,51.018905838548900,-3.473953000000000
Marmoset and Prion,1182860,EX5 4NN,50.827781708487200,-3.420997619317760
blindworm and Treepie,1197100,EX15 3DN,50.902599279416200,-3.320280026050120
Gull and Old World vulture,1195749,EX16 9AP,51.018671578306700,-3.472778303009900
tortoise and Mockingbird,1197814,EX15 1HA,50.855102000000000,-3.394403524738580
Pratincole and B,1195175,EX17 4AT,50.819715157606500,-3.594109000000000
sea snake and mud turtle,1196876,EX15 3SJ,50.918736495695400,-3.225916154812970
diamond snake and Minke whale,1195917,EX16 9JG,51.011356000000000,-3.597737000000000
Grosbeak and Coati,1197215,EX15 3NP,50.889727664112900,-3.304305000000000
thorny devil and harlequin snake,1195450,EX16 9NA,50.989586024576200,-3.486476317882490
Goose and agamid,1195681,EX16 8QP,50.923007000000000,-3.605066000000000
Hawaiian honeycreeper and Darwin's finches,1196116,EX16 8LA,50.899516000000000,-3.568136000000000
king snake and horned toad,1196419,EX16 6TG,50.910798000000000,-3.466767000000000
Thicketbird and lizard,1197380,EX15 2PJ,50.891476340833700,-3.380024090726180
galliwasp and Tattler,1196428,EX16 5BJ,50.900472197091300,-3.500744358938140
indigo snake and Komodo dragon,1196209,EX16 7JX,50.934829000000000,-3.309295000000000
diamondback terrapin and pit viper,216559,TA21 0HB,50.966597502827800,-3.272833329225940
terrapin and flying dragon,216139,TA21 9BY,50.975059483301100,-3.247012723167360
python and Chicken,1195796,EX16 9EA,50.976851064704400,-3.485027000000000
Lemming and Old World vulture,1195984,EX16 8EE,50.956508834478700,-3.636519888538900
diamondback turtle and hoop snake,1773943,EX16 5BG,50.892396388985400,-3.496770000000000
king cobra and galliwasp,1773914,EX15 1GT,50.858612239252000,-3.391529027097910
Marsh harrier and caiman,1197191,EX15 3JY,50.905771212048400,-3.267788371639890
gecko and Philippine hawk-owl,1196101,EX16 7BG,50.922574305349900,-3.380744994996750
giant tortoise and sand lizard,216138,TA21 9BX,50.975826105936600,-3.248486157047200
Guillemot and ringhals,1196631,EX16 4BH,50.902946148993300,-3.473147718782610
Jackal and constrictor,213950,TA4 2BQ,51.005661514048800,-3.348507000000000
saltwater crocodile and Pitohui,1197403,EX15 2QP,50.892385529925300,-3.369258945618590
iguana and Stilt,213941,TA4 2BA,51.015215388425400,-3.358760653665200
puff adder and tree snake,1773915,EX15 1TS,50.861340146614300,-3.373052900895780
rock python and Old World quail,1197150,EX15 2BN,50.865079553255900,-3.332264775378530
agamid and agama,1196718,EX16 4JW,50.898486396502100,-3.467375543711030
viper and Piping shrike,216506,TA21 8QY,50.980141983265400,-3.225624148352730
Gila monster and Boto,1182753,EX5 4DP,50.820220840245100,-3.478691377533650
Ice seal and thorn lizard,1773905,EX15 1GB,50.859437122084700,-3.402252768172270
boa and Logrunners,1197186,EX15 3JS,50.913868998562500,-3.277297473838600
Grosbeak and Marmoset,1196111,EX16 7BU,50.923911241160400,-3.376430705532100
Black jay and Recurvebill,1197197,EX15 3LL,50.903971000000000,-3.301517000000000
boomslang and python,1196296,EX16 6JT,50.912548248179200,-3.479027133780290
Meadowlark and Badger,1197381,EX15 2PL,50.888948054352200,-3.373850000000000
Stint and sidewinder,1197392,EX15 2PZ,50.891471385182700,-3.369758216302060
loggerhead and loggerhead,1195572,EX17 1AX,50.800355039922300,-3.606506751632630
Snipe and Puffleg,1196374,EX16 6QU,50.905916826607200,-3.484975476792890
Mamo and Dorcopsis,1197303,EX15 2JY,50.820408118326400,-3.346651880667820
Coati and blindworm,1197928,EX14 3HJ,50.805753792862600,-3.326659137599290
elapid and Old World quail,1196806,EX16 5AD,50.908515906387900,-3.496935074442600
Black cockatoo and asp,216819,TA21 8BG,50.975091527357400,-3.236104000000000
Gull and viper,216311,TA21 9PU,50.971227896293500,-3.231827115847630
Logrunners and Warbler,1197580,EX15 1TD,50.850348952180600,-3.395531000000000
Polecat and tiger snake,1197360,EX15 1LH,50.853901757182900,-3.390038665110930
Ice seal and Thrasher,216542,TA21 0DY,50.975603625033600,-3.251628113467460
elapid and king cobra,1196594,EX16 6BA,50.912541015808800,-3.485968712861790
Solitaire and bushmaster,216320,TA21 9QH,50.943882000000000,-3.247951467308350
Masked owl and rock snake,2632378,TA21 8DP,50.986298000000000,-3.230770000000000
American sparrow and fer-de-lance,1195853,EX16 7PU,50.929131916139000,-3.461125249107880
diamond snake and Kākāriki,213864,TA4 1QA,51.012163107298900,-3.236033468136680
Prion and Siskin,1197332,EX15 1HY,50.859268694895800,-3.395469697884760
Puffleg and agama,1197977,EX14 3LW,50.836000368925500,-3.288675639080210
Booted eagles and Black cockatoo,1196064,EX16 6XE,50.914638908993600,-3.486476539973720
turtle and slowworm,1196560,EX16 5PE,50.895166925013700,-3.498597235875880
Pheasant and horned viper,1197522,EX15 1SH,50.849631411668400,-3.397454956021430
Komodo dragon and tortoise,1195993,EX16 8ER,50.967750265331600,-3.611293521792130
Crow and Thicketbird,1196776,EX16 4PD,50.899327962123400,-3.469819568321100
Mouse and Herring gull,1197976,EX14 3LU,50.839707000000000,-3.265684000000000
chameleon and Chicken,214324,TA4 1LZ,51.022909081656700,-3.262127175317270
Dorcopsis and perentie,1195527,EX16 9QG,50.957723841939700,-3.564954763757430
gavial and giant tortoise,1196872,EX15 3SE,50.915670000000000,-3.227799000000000
sea snake and Peafowl,1182645,EX5 5NF,50.807324519068100,-3.501929675444620
cayman and puff adder,1196933,EX15 2SA,50.894754308509800,-3.362801701849600
Egret and Mole,1196141,EX16 7DR,50.933500972112400,-3.399597771681830
jew lizard and flying lizard,216128,TA21 9AZ,50.968661076647600,-3.229637163268800
Argus and Recurvebill,1195843,EX16 7PD,50.965412000000000,-3.397808000000000
massasauga and Pratincole,1196954,EX15 3XJ,50.915965210830500,-3.225203158955730
sea snake and king cobra,1196326,EX16 6NE,50.903150056839300,-3.488969189010850
box turtle and Francolin,1196514,EX16 5LA,50.904569480715700,-3.495414651861840
garter snake and copperhead,1196703,EX16 4HY,50.900760644775700,-3.473164057699620
Solitaire and puff adder,2652363,EX16 4FN,50.911488000000000,-3.440459000000000
asp and Mockingbird,1197066,EX15 3AR,50.906769070962100,-3.323711984390890
Dolphin and garter snake,1197165,EX15 3HN,50.922116440794700,-3.268958292221610
Kestrel and Kākāriki,1197751,EX14 4UT,50.852629741056200,-3.225957640827910
snapping turtle and black snake,216523,TA21 8RU,50.982735241054700,-3.229581651706440
Shearwater and boa constrictor,1196135,EX16 7DH,50.922637335665300,-3.415278191616370
Jackal and Old World vulture,1195847,EX16 7PH,50.954775372832300,-3.397574458512910
diamond python and python,1196014,EX16 8HU,50.875486246057900,-3.556597607940750
gecko and Bronzewing pigeon,1196306,EX16 6LG,50.903452290574100,-3.487129939907070
Ice seal and Wader,1196288,EX16 6JH,50.908249899542300,-3.473315177546790
Meadowlark and flying lizard,1182882,EX5 4PT,50.810395251671800,-3.456224300149620
iguana and Prion,1195878,EX16 7RG,50.929829311095300,-3.481425251993520
carpet snake and slowworm,1197211,EX15 3NH,50.894051540852000,-3.295808792939740
anole and bearded lizard,1196408,EX16 6ST,50.909492019506900,-3.479627222223890
Marsh harrier and blindworm,216813,TA21 8AY,50.976172896486200,-3.233624551361850
Vole and Wader,1195952,EX16 8BL,50.914564140044200,-3.584446590001160
flying dragon and hognose snake,1197008,EX16 0SZ,50.901683017435700,-3.484826527150830
Ibex and python,1196220,EX16 7LL,50.940055651615400,-3.304175633348820
boomslang and Egret,1196817,EX16 5AS,50.906313710843700,-3.499652156393480
caiman and Pitohui,1196499,EX16 5JG,50.900946389492300,-3.493222212330970
Peafowl and Boto,1195695,EX16 8RJ,50.859613457131600,-3.510756492331740
Kangaroo and leguaan,216532,TA21 0DJ,50.976169984996200,-3.252483749994410
Cloud rat and Francolin,1195732,EX16 8RY,50.856577238225000,-3.536659051783210
dukite and milk snake,1182908,EX5 4RE,50.825578527482700,-3.421725829588630
Grosbeak and gopher snake,216596,TA21 8SN,50.973964527555300,-3.237511467993650
Black jay and flying lizard,1196432,EX16 5BR,50.902096679413100,-3.497497130451530
hawksbill and carpet snake,1197426,EX15 1LL,50.851856009449800,-3.391156971184440
Viscacha and Moluccan boobook,1196410,EX16 6SW,50.907852308044400,-3.489759311555300
Lemming and Puffleg,216413,TA22 9AN,51.020783832460000,-3.537078268763350
krait and anole,1197298,EX15 2JS,50.817148013055300,-3.346274171333660
Zebra and Tahr,216155,TA21 9DT,50.974963543777000,-3.244204124316360
asp and bearded lizard,1773950,EX16 6FN,50.899866000000000,-3.487823484051430
Mouse and Mole,1197273,EX15 2HF,50.861222000000000,-3.340964000000000
swift and bull snake,1196203,EX16 7JQ,50.945451038116100,-3.324967182032940
amphisbaena and lizard,1196090,EX16 7AS,50.906050759067500,-3.414092329094120
Minke whale and Fulmarine petrel,1196822,EX16 5AY,50.904227462408900,-3.499641996584960
Parakeet and Egret,1196740,EX16 4LF,50.901846866203100,-3.483964213166940
garter snake and boa,1196625,EX16 4AZ,50.903621510661600,-3.467366348677230
hoop snake and iguana,2652352,EX15 1TX,50.859028000000000,-3.407497000000000
bearded lizard and Wader,1195857,EX16 7QA,50.931124617719600,-3.446985515443960
bull snake and dugite,216688,TA21 0QS,51.001711841933200,-3.250563462813260
puff adder and gopher snake,1195948,EX16 8BE,50.919698055382600,-3.538823306261230
wall lizard and Zebra,1197079,EX15 3BH,50.901951329157200,-3.338479562171530
Moluccan boobook and Jay,216593,TA21 8SE,50.982391668302800,-3.228048245427270
Mink and ringhals,1195464,EX16 9NT,50.992455000000000,-3.487936000000000
diamond python and Mink,1197173,EX15 3JA,50.913895379830700,-3.276530036527710
blind snake and asp,1196682,EX16 4FD,50.899608168487900,-3.486040411058800
rattlesnake and Prion,213838,TA4 1NS,51.019629594345500,-3.260198887041340
Towhee and ringhals,1196305,EX16 6LF,50.903007000000000,-3.486949030033810
leathery turtle and Dorcopsis,1196699,EX16 4HT,50.901475322971600,-3.477808649367550
gaboon viper and frill-necked lizard,1182743,EX5 4BZ,50.851588113720600,-3.487937240319670
Fish eagle and perentie,1196973,EX16 0BA,50.904097118104600,-3.485927359873170
Tattler and Mamo,1197170,EX15 3HT,50.932258204499500,-3.287222051007670
dugite and Badger,216286,TA21 9NL,50.969846431345700,-3.234909608290400
Snipe and Black cockatoo,1197440,EX15 1ND,50.886549821842900,-3.411468623450930
Tahr and giant tortoise,1196347,EX16 6PL,50.899640841780300,-3.488416373543300
carpet snake and iguana,1197083,EX15 3BR,50.906663630081100,-3.325870893528150
Francolin and Pheasant,1198416,EX14 3EZ,50.807566275847900,-3.294208771788640
Kite and viper,1197940,EX14 3HZ,50.818159527446200,-3.303942047595830
hognose snake and bandy-bandy,1195627,EX16 8LQ,50.891061805926900,-3.616820845206580
Duck and massasauga,1197060,EX15 3AH,50.907676912146500,-3.326127261162150
diamond snake and monitor,216676,TA21 0PW,50.962270992805100,-3.340426203178890
anole and Condor,1197097,EX15 3DH,50.886573362080500,-3.341621360217830
Piping shrike and soft-shelled turtle,1195641,EX16 8NJ,50.906811982168300,-3.628233308103340
leguaan and Night heron,1182746,EX5 4DD,50.812841604619900,-3.469827917153330
Fox and blue tongue,1196919,EX15 3UW,50.930310694239600,-3.247935679726010
water snake and Cloud rat,1196417,EX16 6TE,50.914054564142600,-3.469415801973060
mamba and Kangaroo,1773903,EX15 1FY,50.861779368999900,-3.392149077454580
garter snake and monitor,216469,TA21 8NT,50.975530751534100,-3.225431501522580
Songlark and Black cockatoo,216918,TA21 0AH,50.986800902889000,-3.247298900178200
Vulture and puff adder,1197503,EX15 1RJ,50.831479559184400,-3.386035000000000
Cloud rat and Mink,1196351,EX16 6PR,50.903788931311600,-3.483997528525090
Civet and Asiatic leopard,1195887,EX16 7RT,50.965220527680600,-3.493815735354650
Vole and New World blackbird,216396,TA21 9RT,50.974189600230700,-3.250151490262870
viper and iguana,216709,TA21 0RT,51.007420537221900,-3.283871271777410
crocodile and carpet snake,1195726,EX16 8RQ,50.851361469684200,-3.505602800678970
Mamo and Tahr,1196054,EX16 6WN,50.912444186581100,-3.477302611616670
Bronzewing pigeon and gaboon viper,216665,TA21 0PG,50.960816259671100,-3.342591465522580
Black cockatoo and python,2632385,TA21 9NE,50.967822000000000,-3.240507000000000
Coati and jew lizard,1197254,EX15 2EF,50.844137643087300,-3.320162823753710
blindworm and Night heron,1197037,EX15 2TN,50.891939891120700,-3.366615434855190
Jerboa and brown snake,1197251,EX15 2EB,50.850275000000000,-3.327823000000000
mountain devil and dugite,213932,TA4 2AQ,51.022698000000000,-3.317216000000000
