name,postcode,lat,lon
crocodile and cobra de capello,EX14 3HH,50.806697634258600,-3.317971596973970
boomslang and iguana,EX14 3JB,50.823343000261100,-3.298790739456780
Wader and Magpie,EX14 3LB,50.814517001067900,-3.267260151884640
Vole and goanna,EX14 3PW,50.812799121170400,-3.237973163029840
cayman and box turtle,EX14 3QA,50.815450949704300,-3.250719610101180
River dolphin and loggerhead,EX14 4LE,50.861824295869600,-3.229012254055670
lizard and anole,EX14 4QR,50.859768422574700,-3.262376970153100
Ice seal and galliwasp,EX15 1DA,50.855449039698900,-3.390752429331350
Rat and Tree warbler,EX15 1DE,50.854811758816600,-3.389895237066100
king snake and Maya,EX15 1EY,50.853891288286700,-3.393931084494110
brown snake and Recurvebill,EX15 1GB,50.859437122084700,-3.402252768172270
Prion and tree snake,EX15 1GR,50.854614832812900,-3.404665418186510
caiman and rock snake,EX15 1GX,50.856035000000000,-3.404380000000000
garter snake and sidewinder,EX15 1HP,50.856384317111800,-3.396022936947710
Greenbul and Mockingbird,EX15 1HU,50.857962000000000,-3.394308000000000
dukite and Condor,EX15 1LD,50.855504703115100,-3.392871008374740
carpet snake and agama,EX15 1LH,50.853901757182900,-3.390038665110930
Grouse and terrapin,EX15 1LP,50.858757055227300,-3.405130434680450
swift and tree snake,EX15 1NP,50.865453333317700,-3.391163848463760
Old World vulture and Mole,EX15 1PQ,50.849876000000000,-3.467000000000000
soft-shelled turtle and Condor,EX15 1RF,50.821590000000000,-3.368081000000000
giant tortoise and harlequin snake,EX15 1RZ,50.830634111699600,-3.392528051189030
diamondback turtle and snapping turtle,EX15 1UA,50.851147860017800,-3.399986372308830
Logrunners and sidewinder,EX15 1UD,50.852059143139200,-3.403480047865270
diamondback terrapin and amethystine python,EX15 1UU,50.854014740776600,-3.404632706490040
Parrotlet and ringhals,EX15 1WH,50.855553000000000,-3.360805000000000
tuatara and krait,EX15 2AA,50.865445744018200,-3.324587344229170
Fulmarine petrel and iguana,EX15 2BB,50.856358000000000,-3.339333000000000
Fox and Tit-tyrant,EX15 2BS,50.858697742234100,-3.335919137891030
River dolphin and python,EX15 2DZ,50.853288008118900,-3.323731389307970
tree snake and saltwater crocodile,EX15 2EB,50.850275000000000,-3.327823000000000
taipan and boa,EX15 2ED,50.845547000000000,-3.322106000000000
Diving bird and Snipe,EX15 2EN,50.847383742217500,-3.310623495640110
dugite and thorny devil,EX15 2FS,50.894337472847400,-3.373809509153390
tortoise and perentie,EX15 2JW,50.826221000000000,-3.358874000000000
smooth snake and Marmoset,EX15 2LH,50.824187790435800,-3.320466027141920
Black jay and taipan,EX15 2NG,50.805557230973100,-3.341484530334180
Jackal and Elephant,EX15 2PF,50.881962097637600,-3.378477733967320
blue tongue and iguana,EX15 2PZ,50.891471385182700,-3.369758216302060
Scimitar babbler and bicycle lizard,EX15 2QG,50.900942749532900,-3.384086880326420
whip snake and loggerhead,EX15 2QH,50.892011530628900,-3.372006388065410
moloch and Buzzard,EX15 2RQ,50.886226225157700,-3.372248677990730
glass snake and Viscacha,EX15 2TZ,50.893474980105200,-3.365309564242990
sea snake and tiger snake,EX15 3AY,50.908859495799900,-3.324937636072690
Thicketbird and Linsang,EX15 3BQ,50.921816376293400,-3.317950030764070
agamid and viper,EX15 3EU,50.917152996675300,-3.347426000000000
Wader and box turtle,EX15 3FE,50.908505782503100,-3.326592208803650
K훮k훮riki and Booted eagles,EX15 3HP,50.931054206687100,-3.269884620125550
Prion and Buzzard,EX15 3JF,50.913492330055000,-3.285395445039360
Fox and Greenbul,EX15 3JS,50.913868998562500,-3.277297473838600
Gull and Komodo dragon,EX15 3NA,50.897737477398100,-3.293479454865350
snake and tortoise,EX15 3RY,50.912655632456600,-3.232911396694580
turtle and gaboon viper,EX15 3XX,50.900554973015200,-3.339477660797010
Pratincole and tokay,EX15 9AU,50.856004196658700,-3.393042647300320
Lemming and Coati,EX16 4BL,50.902526694859700,-3.464316870769150
monitor and Old World vulture,EX16 4DD,50.905213614124200,-3.472337492959430
harlequin snake and Recurvebill,EX16 4ES,50.900796682686900,-3.467448184177010
krait and Chipmunk,EX16 4HF,50.900952422687100,-3.455009306954550
cycling lizard and puff adder,EX16 4LA,50.903577749778400,-3.482924141074550
Black cockatoo and Ground sloth,EX16 4LU,50.912279297134700,-3.445945687698710
Dorcopsis and cycling lizard,EX16 4NE,50.910634000000000,-3.438726000000000
Magpie and rock snake,EX16 4PJ,50.878939000000000,-3.460791000000000
White ibis and Diving bird,EX16 5AB,50.907164825778500,-3.497802023933990
anole and Cloud rat,EX16 5AF,50.910644421276400,-3.501097000000000
Moluccan boobook and Prion,EX16 5BP,50.903061887895900,-3.495864113629140
diamond snake and Towhee,EX16 5BX,50.903059497380200,-3.498153802406620
diamond python and Grouse,EX16 5EN,50.898011574488800,-3.494166419288060
Kangaroo and Jerboa,EX16 5EU,50.898048846430600,-3.491252386922100
monitor and Fox,EX16 5EZ,50.899282010338800,-3.492459000000000
cycling lizard and Jackal,EX16 5LB,50.905234690280700,-3.495435970917500
rock python and Meadowlark,EX16 5NA,50.917068280119200,-3.501833132425980
Capuchin and Old World warbler,EX16 5NY,50.898977000000000,-3.497435360651750
tree snake and Vulture,EX16 5PR,50.891304385238300,-3.497549034313810
Armadillo and bandy-bandy,EX16 5PW,50.890896448568100,-3.498502802403150
Stint and Petrel,EX16 6AU,50.908708411305900,-3.484680284237990
Gila monster and Tattler,EX16 6BE,50.913911016553000,-3.485727846629050
black snake and New World blackbird,EX16 6BH,50.904097118104600,-3.485927359873170
Shearwater and Masked owl,EX16 6BS,50.908087702212600,-3.483280836868600
Quetzal and Jay,EX16 6EN,50.911251679840900,-3.481987421702800
gopher snake and American sparrow,EX16 6FQ,50.917027000000000,-3.479284000000000
perentie and Stint,EX16 6HD,50.912430237555200,-3.470573758014780
Duck and adder,EX16 6JN,50.909439500592100,-3.480222967435740
swift and Solitaire,EX16 6LX,50.902371641769500,-3.486540846643700
hognose snake and dugite,EX16 6QD,50.902973000000000,-3.486048000000000
bushmaster and amphisbaena,EX16 6QF,50.902684092435600,-3.484602383761050
Triller and asp,EX16 6QX,50.906052624165700,-3.484197531391490
tortoise and green turtle,EX16 6SJ,50.913581000000000,-3.482815000000000
K훮k훮riki and Schneider python,EX16 6SU,50.915631095370000,-3.477744968894160
Mink and alligator,EX16 6TZ,50.915369861241200,-3.473511608906690
perentie and Jackal,EX16 6UE,50.916406896058500,-3.476133536441950
Elephant and taipan,EX16 6UQ,50.916614366506200,-3.476794510105760
Tattler and anole,EX16 6UX,50.915911453636200,-3.481168101107940
crocodile and Grouse,EX16 6XA,50.913785394332500,-3.473646486763940
Elephant and Pitohui,EX16 6XE,50.914638908993600,-3.486476539973720
Kite and Crow,EX16 6XL,50.912720350023600,-3.475376748737210
diamond python and indigo snake,EX16 7AJ,50.907677000000000,-3.403161000000000
Bunting and tiger snake,EX16 7DN,50.924252000000000,-3.397783000000000
Duck and Quetzal,EX16 7DX,50.937128872199900,-3.374301878157480
asp and cobra,EX16 7EQ,50.921292000000000,-3.366735287630330
sea snake and Darwin's finches,EX16 7EX,50.946029632980000,-3.358350623687410
Vole and cerastes,EX16 7FE,50.906196609399300,-3.406487449491440
gavial and Diving bird,EX16 7FL,50.928125000000000,-3.378575000000000
Rat and Rabbit,EX16 7JT,50.952269000000000,-3.306639000000000
black snake and Dolphin,EX16 7LP,50.906444797575500,-3.407533214331910
Wader and Meadowlark,EX16 7NH,50.968469986146300,-3.428904929808060
Grosbeak and diamondback terrapin,EX16 7NN,50.988489113975300,-3.411068364248820
Hawk and Stilt,EX16 7NP,50.976728589387000,-3.416836928958880
Guillemot and gaboon viper,EX16 7QS,50.930105078786500,-3.475983782764660
terrapin and Magpie,EX16 7RS,50.966594360637400,-3.495383659404780
Viscacha and carpet snake,EX16 8BA,50.917151000000000,-3.518481000000000
giant tortoise and asp,EX16 8DA,50.922835645823900,-3.554506772089570
bearded dragon and agamid,EX16 8DL,50.947725135476600,-3.602628721052440
Grosbeak and Logrunners,EX16 8DW,50.949571788928000,-3.623235522030940
tortoise and Capuchin,EX16 8DZ,50.930299744959400,-3.636752318514950
jew lizard and adder,EX16 8ET,50.950547283960500,-3.597500910310810
Perching duck and cerastes,EX16 8FB,50.846251000000000,-3.534275000000000
Grouse and anaconda,EX16 8HU,50.875486246057900,-3.556597607940750
Thicketbird and king snake,EX16 8JF,50.905606468126000,-3.530578555810370
frilled lizard and Masked owl,EX16 9EF,50.976471207348600,-3.494475946548500
puff adder and Eagle,EX16 9EH,50.982698896741300,-3.539125046357750
Mamo and Siskin,EX16 9EW,50.981390699083800,-3.553269000000000
Pratincole and wall lizard,EX16 9EY,50.972190000000000,-3.580107976674150
Mouse and Chicken,EX16 9LJ,50.987998213116400,-3.483534000000000
bandy-bandy and Shearwater,EX16 9PE,50.935708918731200,-3.505465122193150
Old World quail and crocodile,EX16 9PS,50.957969802229600,-3.517020419645050
glass snake and gecko,EX16 9QB,50.972285306824600,-3.538424610894050
anaconda and thorny devil,EX16 9QD,50.970552708423800,-3.549077953401300
rat snake and copperhead,EX16 9RD,50.926511695950000,-3.516380837214370
Cuscus and Mamo,EX16 9RH,50.934027287239300,-3.548091477478740
iguana and leguaan,EX17 1BG,50.811921000000000,-3.578216000000000
Wallaby and Gull,EX17 1DG,50.801332104446000,-3.626962000000000
thorny devil and Kite,EX17 4JA,50.844264596070200,-3.608128442009390
Parrotlet and moloch,EX17 4JN,50.843920085310000,-3.603102477808550
cobra and racer,EX17 4JT,50.843842513206600,-3.569947000000000
Black cockatoo and leathery turtle,EX17 4JU,50.844832000000000,-3.581869000000000
gavial and smooth snake,EX5 4BP,50.830013062135400,-3.502018906386450
Fulmarine petrel and leguaan,EX5 4HY,50.814244357594000,-3.485458198122670
Marsh harrier and garter snake,EX5 4JN,50.817113342840500,-3.476946473291950
Night heron and Herring gull,EX5 4JQ,50.817093350835100,-3.485234000000000
horned viper and Old World quail,EX5 4NA,50.819209565684300,-3.442387113584860
galliwasp and tokay,EX5 4NZ,50.827693014251000,-3.419418822966880
slowworm and pit viper,EX5 4PH,50.816455381959900,-3.433089211435050
Dolphin and gecko,EX5 4QP,50.824697000000000,-3.427127892637110
Macaw and python,EX5 5ND,50.812079000000000,-3.502295000000000
diamond snake and chuckwalla,EX5 5NS,50.808327664471100,-3.526487996303890
Guillemot and water snake,TA21 0AU,50.987826386534400,-3.243052071657700
Buzzard and slowworm,TA21 0JT,50.965425000000000,-3.309870000000000
boomslang and Wallaby,TA21 0LF,50.983977726731200,-3.349955595476450
kabaragoya and copperhead,TA21 0NA,50.958341581552000,-3.322501000000000
boa constrictor and harlequin snake,TA21 0PT,50.957624648021400,-3.344863068410520
Black jay and Tahr,TA21 0RP,50.995988779320000,-3.270074927916810
Mouse and copperhead,TA21 8AB,50.977049843198000,-3.228918646827540
glass snake and Capuchin,TA21 8AW,50.976823883857100,-3.229881296448040
agamid and Puffleg,TA21 8BN,50.971198993118200,-3.231156947325740
Rat and krait,TA21 8BP,50.971635036794800,-3.229886630630970
black snake and pit viper,TA21 8BW,50.971368320736300,-3.230449291364120
hognose snake and green turtle,TA21 8BY,50.975439842887400,-3.229801993219520
mamba and terrapin,TA21 8BZ,50.975460963520200,-3.230358064714610
Maya and Old World vulture,TA21 8DH,50.975740268167100,-3.229453830545470
dugite and B,TA21 8DP,50.986298000000000,-3.230770000000000
Buzzard and Armadillo,TA21 8FB,50.985307817259700,-3.230360000000000
rat snake and cycling lizard,TA21 8HX,50.979510774310800,-3.234325571396550
gecko and Minke whale,TA21 8JG,50.980469515020500,-3.235504883861630
diamond python and Grosbeak,TA21 8LZ,50.979068268554300,-3.231094455669980
taipan and mountain devil,TA21 8NF,50.977956978005300,-3.234141915221690
flying lizard and Mockingbird,TA21 8QB,50.971815443279600,-3.228125287552290
agama and slowworm,TA21 9DA,50.973580880366900,-3.243996245715740
bicycle lizard and Snipe,TA21 9DG,50.971062611598500,-3.244868961959860
Vole and Black cockatoo,TA21 9PT,50.969888030816600,-3.232674681094750
blue racer and saltwater crocodile,TA21 9QR,50.963023026644300,-3.270756236911870
Zebra and Mole,TA21 9RL,50.970133000000000,-3.248647000000000
snapping turtle and Masked owl,TA21 9RW,50.965319080164800,-3.263029141773670
Egret and Grouse,TA21 9RX,50.972656704426600,-3.248856929311330
racer and Gull,TA22 9RW,51.008544104301200,-3.540522241539530
White ibis and diamondback,TA4 1LS,51.023492628281700,-3.253804000000000
loggerhead and garter snake,TA4 2AQ,51.022698000000000,-3.317216000000000
Chipmunk and Chipmunk,TA4 2BJ,51.020130308796300,-3.326254104582850
