name,postcode,lat,lon
Francolin and puff adder,EX14 3NG,50.835695867685800,-3.278754678446690
Pheasant and python,EX14 3NJ,50.838666346724100,-3.279318765769030
agama and coral snake,EX14 4QY,50.857250000000000,-3.243270000000000
terrapin and Jay,EX15 1AU,50.863114123763800,-3.391250519376670
mountain devil and Myna,EX15 1FA,50.856075621411400,-3.395106000000000
Old World warbler and perentie,EX15 1FJ,50.854472564367700,-3.391945198979990
Boto and anole,EX15 1GX,50.856035000000000,-3.404380000000000
anaconda and box turtle,EX15 1GY,50.849826000000000,-3.383538000000000
moloch and Black jay,EX15 1HB,50.855494861398700,-3.394447751580750
asp and goanna,EX15 1HH,50.856978000000000,-3.398371000000000
water snake and Shearwater,EX15 1HR,50.856889935764400,-3.396606356469670
Fox and Magpie,EX15 1JL,50.856567000000000,-3.392888000000000
blind snake and Recurvebill,EX15 1JW,50.857234305208100,-3.392624179528080
goanna and diamondback turtle,EX15 1LG,50.855608363561700,-3.399239089984890
snake and terrapin,EX15 1PP,50.870463000000000,-3.456078000000000
flying lizard and alligator,EX15 1PQ,50.849876000000000,-3.467000000000000
Civet and flying dragon,EX15 1TR,50.857860709228100,-3.393782000000000
sand viper and Cuscus,EX15 1TY,50.858143000000000,-3.407811000000000
Argus and diamond python,EX15 1UF,50.852440129793000,-3.402795000000000
Goose and Guillemot,EX15 1UJ,50.851969465524900,-3.400465583100970
bicycle lizard and Masked owl,EX15 1UW,50.856472000000000,-3.379757000000000
rat snake and K훮k훮riki,EX15 2AB,50.862860440789600,-3.324968775259080
Guillemot and Bunting,EX15 2AP,50.877632731362300,-3.326823411315170
River dolphin and wall lizard,EX15 2BS,50.858697742234100,-3.335919137891030
tuatara and hognose snake,EX15 2DJ,50.864976048100000,-3.328723448982880
sidewinder and black snake,EX15 2DX,50.856085101810900,-3.322119889949680
Asiatic leopard and chameleon,EX15 2EE,50.844971440985900,-3.321976098481340
pit viper and sand lizard,EX15 2EN,50.847383742217500,-3.310623495640110
Buzzard and Boto,EX15 2FJ,50.894189000000000,-3.368330000000000
diamondback terrapin and Parrotlet,EX15 2FS,50.894337472847400,-3.373809509153390
blind snake and terrapin,EX15 2JD,50.884184238465600,-3.259866700196910
tuatara and Cloud rat,EX15 2LR,50.827259528131000,-3.349873418346730
galliwasp and cycling lizard,EX15 2PU,50.891499910452800,-3.372688056836640
gecko and Mole,EX15 2QL,50.889053000000000,-3.372147000000000
turtle and Tree warbler,EX15 2QS,50.887878974910900,-3.367818783928170
Old World quail and skink,EX15 2RP,50.881945096419100,-3.376870873593660
alligator and Hawk,EX15 2SN,50.887071035034600,-3.369231043832720
grass snake and adder,EX15 2TW,50.892850195636800,-3.367210838519260
monitor and Viscacha,EX15 3AA,50.906424175400200,-3.327158378456690
Mole and Gila monster,EX15 3AN,50.906858824891800,-3.326104009647770
tiger snake and Thicketbird,EX15 3BR,50.906663630081100,-3.325870893528150
racer and Minke whale,EX15 3BS,50.902332596390400,-3.336768000000000
Siskin and Mamo,EX15 3ER,50.905518483995700,-3.334030621506410
tuatara and carpet snake,EX15 3ET,50.921791258498700,-3.343815188725620
Siskin and anaconda,EX15 3HT,50.932258204499500,-3.287222051007670
Jackal and boomslang,EX15 3JY,50.905771212048400,-3.267788371639890
tokay and sea snake,EX15 3NP,50.889727664112900,-3.304305000000000
Darwin's finches and Viscacha,EX15 3PB,50.909656697448200,-3.325216306615070
glass snake and tuatara,EX15 3SA,50.913365606401900,-3.229544618876320
black snake and leguaan,EX15 3SW,50.920284066564400,-3.227550266326550
grass snake and horned viper,EX15 3UD,50.920873823021900,-3.232175420554270
boa constrictor and Gull,EX15 3XL,50.907731277135200,-3.326882644264120
Tattler and Mouse,EX15 9BG,50.855999000000000,-3.393070000000000
puff adder and Meadowlark,EX16 0SJ,50.901683017435700,-3.484826527150830
Mouse and rat snake,EX16 4AS,50.901811237830900,-3.467579639134700
Mink and horned viper,EX16 4AZ,50.903621510661600,-3.467366348677230
Minke whale and ringhals,EX16 4DZ,50.904260807501900,-3.461569462347820
Darwin's finches and Peafowl,EX16 4ED,50.902359125385600,-3.459746387146060
bearded lizard and Magpie,EX16 4EH,50.899793000000000,-3.460798148005350
Cloud rat and Komodo dragon,EX16 4HG,50.897592737212900,-3.468357098998040
Snipe and coral snake,EX16 4LP,50.897646110929800,-3.488281658045530
horned viper and Logrunners,EX16 4NL,50.897944000000000,-3.420459000000000
wall lizard and viper,EX16 5BB,50.903936002721700,-3.500628198828500
Puffleg and bicycle lizard,EX16 5DH,50.901327142804800,-3.490873607983170
Pratincole and Duck,EX16 5DT,50.899728673808600,-3.490694553980540
Armadillo and Old World warbler,EX16 5EH,50.896669979591200,-3.493936000000000
Jerboa and goanna,EX16 5ES,50.897453719937700,-3.492783399061430
crocodile and Scimitar babbler,EX16 5FE,50.911865000000000,-3.501666000000000
box turtle and Armadillo,EX16 5HB,50.899261161072800,-3.494903252910360
Elephant and Prion,EX16 5JG,50.900946389492300,-3.493222212330970
sea snake and Jay,EX16 5QD,50.913792728136400,-3.502694998405480
blue racer and Magpie,EX16 6AT,50.907168195815600,-3.481331448663740
Rat and Old World vulture,EX16 6BA,50.912541015808800,-3.485968712861790
thorn lizard and frilled lizard,EX16 6BP,50.915006343167900,-3.482334324133710
tree snake and jew lizard,EX16 6BZ,50.906382752139300,-3.480154438012240
Coati and Mockingbird,EX16 6DD,50.906821994000800,-3.479556771632390
python and perentie,EX16 6FA,50.901939000000000,-3.488817000000000
Rabbit and hognose snake,EX16 6FH,50.914272629921900,-3.477076008266070
goanna and Goose,EX16 6FR,50.912451779441300,-3.462978787759640
Schneider python and Asiatic leopard,EX16 6GD,50.904576834389100,-3.482856333904120
flying dragon and Mamo,EX16 6LF,50.903007000000000,-3.486949030033810
Boto and Gull,EX16 6LR,50.902280957031900,-3.487574000000000
cayman and Eagle,EX16 6PH,50.901077325294900,-3.488604403599130
Tree warbler and Tattler,EX16 6PU,50.904008964881700,-3.484374309028080
sea snake and slowworm,EX16 6RH,50.907253947917700,-3.486611055185450
Mamo and rock python,EX16 6ST,50.909492019506900,-3.479627222223890
Gila monster and monitor,EX16 6TS,50.914966174899900,-3.471293866053810
anole and gopher snake,EX16 7AR,50.906532781760200,-3.415131000737820
Diving bird and tree snake,EX16 7BE,50.918829095842400,-3.384133909565430
White ibis and Booted eagles,EX16 7BL,50.918565960017800,-3.381294981395610
New World blackbird and smooth snake,EX16 7DJ,50.918229000000000,-3.417734000000000
loggerhead and Herring gull,EX16 7DL,50.926680152381100,-3.402196173051740
bearded lizard and dukite,EX16 7EL,50.915933598338300,-3.354216253849580
asp and Black jay,EX16 7EZ,50.950427000000000,-3.374594000000000
harlequin snake and Jerboa,EX16 7FD,50.918460000000000,-3.380495000000000
tokay and Night heron,EX16 7FE,50.906196609399300,-3.406487449491440
New World blackbird and flying dragon,EX16 7LA,50.924408664989800,-3.314551560797990
Jackal and bearded dragon,EX16 7LF,50.920186000000000,-3.330210000000000
Asiatic leopard and Macaw,EX16 7LZ,50.969184648716600,-3.416749747270670
Parrotbill and Rabbit,EX16 7NP,50.976728589387000,-3.416836928958880
frilled lizard and cobra de capello,EX16 7NR,50.981839000000000,-3.408559000000000
horned viper and chameleon,EX16 7QB,50.934190556258800,-3.447037993817290
harlequin snake and krait,EX16 7QE,50.932140562075500,-3.436813462820100
Skunk and Recurvebill,EX16 7RH,50.922990505946900,-3.491637256972760
Towhee and Egret,EX16 7RP,50.950105973309000,-3.506215061045010
coral snake and galliwasp,EX16 7RQ,50.926376175089700,-3.480918000000000
viper and agama,EX16 8HR,50.857313816556000,-3.557072158138450
Vulture and Black jay,EX16 8JG,50.901001532936800,-3.547664068051680
Meadowlark and Chipmunk,EX16 9AD,50.994645881631800,-3.479641213766300
Jackal and Grouse,EX16 9AE,51.004469966098000,-3.466498887445310
frilled lizard and thorny devil,EX16 9DT,50.994874894783200,-3.465042071696390
Grackle and box turtle,EX16 9DZ,50.977322562843400,-3.487665769832620
Egret and Parakeet,EX16 9ED,50.978739133195300,-3.487297940090500
krait and frilled lizard,EX16 9ER,50.983083274432800,-3.552885788548980
alligator and rat snake,EX16 9QA,50.971529000000000,-3.515183000000000
goanna and anaconda,EX16 9QZ,50.928411176399800,-3.514151602967400
Night heron and constrictor,EX17 1BH,50.809048881338500,-3.573719544033590
rock snake and snapping turtle,EX17 4AQ,50.824997873130300,-3.614224735370210
Thrasher and tortoise,EX17 4AY,50.824957000000000,-3.587865755622400
moloch and New World blackbird,EX17 4LB,50.864613642029700,-3.624833000000000
wall lizard and grass snake,EX17 4LE,50.859341000000000,-3.626792000000000
Hawk and amethystine python,EX5 4BR,50.837614006144800,-3.501311000000000
Bronzewing pigeon and cayman,EX5 4HF,50.833952000000000,-3.476754000000000
agamid and thorny devil,EX5 4JP,50.818070010507500,-3.477388352121880
bandy-bandy and king snake,EX5 4JQ,50.817093350835100,-3.485234000000000
dugite and Old World warbler,EX5 4LQ,50.826651948101100,-3.408113395335470
Quetzal and Jerboa,EX5 4LT,50.842182796466700,-3.449970067541320
anole and Tree warbler,EX5 4LX,50.847817444941600,-3.458227598748950
Stint and Wallaby,EX5 4QQ,50.823164885110100,-3.424960578909590
diamond snake and Old World quail,TA21 0BD,50.987095686554600,-3.239883849562640
anole and Pitohui,TA21 0BN,50.998321000000000,-3.230378000000000
rattlesnake and Crow,TA21 0DL,50.956110620414400,-3.307942605137370
bearded lizard and bushmaster,TA21 0DN,50.977790220827200,-3.250661300228820
Puffleg and lizard,TA21 0ER,50.978223428605800,-3.249675805434640
python and New World blackbird,TA21 0JN,50.973332524300200,-3.312685226060510
Logrunners and Condor,TA21 0NQ,50.973007529930800,-3.361487873798070
frill-necked lizard and monitor,TA21 0PH,50.961035288788700,-3.342312987190270
frilled lizard and caiman,TA21 0QX,51.004908222963900,-3.263562634793060
Thicketbird and diamond snake,TA21 0RN,50.999672831169300,-3.271173137037780
Fulmarine petrel and Vulture,TA21 0RT,51.007420537221900,-3.283871271777410
Tit-tyrant and Mockingbird,TA21 0SB,50.990946550348700,-3.291511000000000
Cuscus and Mole,TA21 8AT,50.976759665408600,-3.233412194286500
Maya and puff adder,TA21 8JY,50.981535672898600,-3.236729837430780
horned toad and Pratincole,TA21 8QA,50.971393053001500,-3.228099901390450
sand lizard and Old World vulture,TA21 8RN,50.983183017638400,-3.233169305085220
Viscacha and puff adder,TA21 8SF,50.980829594889700,-3.226083870673990
Kangaroo and deaf adder,TA21 8SZ,50.982542685944300,-3.226513652176930
thorny devil and Myna,TA21 9BS,50.973855793454200,-3.241824343780670
Triller and agama,TA21 9DJ,50.976660184885200,-3.247012876796450
Maya and K훮k훮riki,TA21 9DQ,50.972329731537500,-3.244105239987770
Guillemot and Old World vulture,TA21 9NP,50.951519000000000,-3.237584000000000
Magpie and Marmoset,TA21 9NR,50.964235913544300,-3.226287708651680
Armadillo and Rat,TA21 9PS,50.970255622095400,-3.231075029478250
python and amphisbaena,TA21 9QQ,50.946751421733000,-3.246540000000000
ringhals and B,TA21 9QU,50.954869860860600,-3.281155107954560
Hawaiian honeycreeper and coral snake,TA21 9RW,50.965319080164800,-3.263029141773670
Gull and loggerhead,TA22 9AF,51.019811331054300,-3.532383766069500
flying dragon and Fulmarine petrel,TA22 9AH,51.020486651968300,-3.535742433972150
blind snake and Rabbit,TA22 9AL,51.021263638072900,-3.535468688070440
Mouse and viper,TA22 9AS,51.021119786159100,-3.537517130992870
mud turtle and rattlesnake,TA22 9BD,51.007906941760100,-3.521670000000000
Vulture and Scimitar babbler,TA22 9RN,51.008261000000000,-3.536151000000000
diamond python and sand lizard,TA22 9RU,51.021315000000000,-3.584263000000000
snapping turtle and cayman,TA4 1PA,51.024035000000000,-3.252861000000000
