name,postcode,lat,lon
Synge & Byrne,BT34 3AA,54.0948,-6.1897
The Church Rostrevor ,BT34 3EL,54.0995,-6.1960
O'Hare's Home Bakery,BT34 3LZ,54.0999,-6.2548
The Lough and Quay,BT34 3NB,54.0997,-6.2551
The Zone - Tearoom and Holistic Therapies,BT34 3NJ,54.0992,-6.2483
Garvey's Bar & Restaurant,BT35 9LN,54.0805,-6.5098
