name,postcode,lat,lon
Mamo and Partridge,BT34 3EJ,54.099706000000000,-6.198180000000000
Fulmarine petrel and Dolphin,BT34 3HZ,54.099240000000000,-6.249599000000000
diamondback turtle and bushmaster,BT34 3NQ,54.098077000000000,-6.252415000000000
deaf adder and Philippine hawk-owl,BT34 3UW,54.075369000000000,-6.180609000000000
tiger snake and Elephant,BT35 9SF,54.082944000000000,-6.452304000000000
