name,id,postcode,lat,lon
Fox and Marsh harrier,1720506,BT35 9RS,54.062648000000000,-6.425153000000000
Badger and Maya,1720567,BT35 9XL,54.098770000000000,-6.468011000000000
hognose snake and Piping shrike,1720184,BT35 8HT,54.086450000000000,-6.372170000000000
saltwater crocodile and agamid,1990729,BT34 3UW,54.075369000000000,-6.180609000000000
dugite and hoop snake,1720467,BT35 9NH,54.083902000000000,-6.487109000000000
Lemming and puff adder,1720304,BT35 8SS,54.094844000000000,-6.413326000000000
Partridge and snake,1720521,BT35 9SQ,54.081727000000000,-6.451030000000000
blue tongue and amethystine python,1720187,BT35 8HX,54.088261000000000,-6.373841000000000
Goose and agamid,1720508,BT35 9RU,54.082634000000000,-6.429546000000000
