name,id,postcode,lat,lon
gavial and sea snake,1720303,BT35 8SR,54.088354000000000,-6.400670000000000
puff adder and Mink,1720467,BT35 9NH,54.083902000000000,-6.487109000000000
Black cockatoo and Argus,1732302,BT34 3TA,54.099734000000000,-6.202078000000000
Shearwater and monitor,1720182,BT35 8HR,54.089896000000000,-6.370948000000000
Tattler and Stilt,1720502,BT35 9RL,54.063970000000000,-6.439063000000000
Kangaroo and Parrotlet,1995624,BT35 8WF,54.086947000000000,-6.418593000000000
Rat and pit viper,1720529,BT35 9SZ,54.083658000000000,-6.459397000000000
