name,postcode,lat,lon
Synge & Byrne,BT34 3AA,54.09475326538090,-6.18969583511353
The Church Rostrevor ,BT34 3EL,54.09950100000000,-6.19600100000000
O'Hare's Home Bakery,BT34 3LZ,54.09991100000000,-6.25481100000000
The Lough and Quay,BT34 3NB,54.09970920000000,-6.25508100000000
The Zone - Tearoom and Holistic Therapies,BT34 3NJ,54.09915270000000,-6.24831670000000
Garvey's Bar & Restaurant,BT35 9LN,54.08051800000000,-6.50978500000000
