name,postcode,lat,lon
racer and diamond python,BT34 3AD,54.078250000000000,-6.177031000000000
gopher snake and dugite,BT34 3EJ,54.099706000000000,-6.198180000000000
amethystine python and Mink,BT34 3EP,54.099323000000000,-6.195630000000000
Macaw and Argus,BT34 3EW,54.099612000000000,-6.196978000000000
Grosbeak and iguana,BT35 9LL,54.093283000000000,-6.522092000000000
diamondback terrapin and cayman,BT35 9RX,54.065186000000000,-6.420031000000000
Stilt and rat snake,BT35 9RY,54.097233000000000,-6.437065000000000
Chickadee and Maya,BT35 9SU,54.083464000000000,-6.452254000000000
Partridge and carpet snake,BT35 9SZ,54.083658000000000,-6.459397000000000
