id,postcode,lat,lon
PPLX,THELANE,51.4683,-0.0689
PPL,THELBRIDGE,50.9000,-3.7167
ADM4,THELEE,51.7356,-0.6972
PPL,THELEIGH,51.9331,-2.1894
ADM4,THELNETHAM,52.3562,0.9449
PPL,THELVETON,52.3860,1.1774
PPL,THELWALL,53.3826,-2.5273
