id,postcode,lat,lon
PPLX,THELANE,51.4683,-0.06892
PPL,THELBRIDGE,50.9,-3.71667
ADM4,THELEE,51.73556,-0.69723
PPL,THELEIGH,51.9331,-2.18941
ADM4,THELNETHAM,52.35624,0.94488
PPL,THELVETON,52.38597,1.17744
PPL,THELWALL,53.38255,-2.52734
