name,postcode,lat,lon
puff adder and Boto,BT60 2PU,54.299260000000000,-6.667393000000000
Recurvebill and Grouse,BT60 2QD,54.266511000000000,-6.670491000000000
galliwasp and gecko,BT60 3LG,54.251775000000000,-6.746390000000000
Kite and Mole,BT60 3QH,54.258970000000000,-6.810009000000000
Dorcopsis and flying dragon,BT60 3RN,54.253331000000000,-6.708507000000000
goanna and tuatara,BT60 3TW,54.253947000000000,-6.702073000000000
Kākāriki and Fulmarine petrel,BT60 3TX,54.252096000000000,-6.704509000000000
Dolphin and hognose snake,BT60 4AF,54.342190000000000,-6.662714000000000
Magpie and Tahr,BT60 4BX,54.352135000000000,-6.674895000000000
Solitaire and Towhee,BT60 4HQ,54.289707000000000,-6.791510000000000
Herring gull and Masked owl,BT60 4JP,54.293576000000000,-6.843430000000000
anole and Ground sloth,BT60 4RR,54.329976000000000,-6.806867000000000
Jackal and massasauga,BT60 4SX,54.317026000000000,-6.820398000000000
Puffleg and Myna,BT60 4TA,54.300474000000000,-6.841131000000000
Schneider python and habu,BT61 8SA,54.355238000000000,-6.668456000000000
Old World quail and grass snake,BT68 4TU,54.350165000000000,-6.836426000000000
horned toad and rattlesnake,BT68 4UY,54.362030000000000,-6.832383000000000
garter snake and Bronzewing pigeon,BT69 6BN,54.440657000000000,-7.005180000000000
Puffleg and Thicketbird,BT69 6BR,54.421354000000000,-7.002010000000000
jew lizard and Pheasant,BT69 6DH,54.438562000000000,-6.870911000000000
Thicketbird and Nukupuʻu,BT69 6EP,54.425774000000000,-6.932692000000000
Booted eagles and Solitaire,BT70 1LJ,54.417699000000000,-6.851597000000000
Eagle and constrictor,BT70 1PE,54.467353000000000,-6.839597000000000
Civet and Tahr,BT70 1QA,54.429529000000000,-6.841914000000000
American sparrow and Tree warbler,BT70 1QB,54.446332000000000,-6.836706000000000
alligator and Eagle,BT70 2AN,54.462258000000000,-7.043207000000000
frilled lizard and Minke whale,BT70 2HB,54.462824000000000,-7.029669000000000
Booted eagles and death adder,BT70 2LE,54.469808000000000,-6.961270000000000
Linsang and leguaan,BT70 2LP,54.459216000000000,-7.030048000000000
Polecat and Eagle,BT71 7EB,54.471224000000000,-6.676061000000000
blindworm and Minke whale,BT71 7EJ,54.469991000000000,-6.708814000000000
worm lizard and python,BT71 7EN,54.464456000000000,-6.737705000000000
box turtle and Tattler,BT71 7JG,54.406297000000000,-6.684205000000000
Tattler and Gull,BT71 7LN,54.387281000000000,-6.741232000000000
coral snake and Parrotlet,BT71 7NG,54.401617000000000,-6.756561000000000
Macaw and soft-shelled turtle,BT71 7NQ,54.449182000000000,-6.688088000000000
rock python and thorny devil,BT71 7PU,54.442600000000000,-6.750863000000000
soft-shelled turtle and Grosbeak,BT71 7PZ,54.433944000000000,-6.719829000000000
Armadillo and boomslang,BT71 7QE,54.432954000000000,-6.738998000000000
leguaan and amphisbaena,BT71 7QG,54.417885000000000,-6.779051000000000
king cobra and adder,BT71 7SF,54.442646000000000,-6.686031000000000
copperhead and Partridge,BT71 7TP,54.446140000000000,-6.700639000000000
Old World vulture and cycling lizard,BT71 7TT,54.391925000000000,-6.738534000000000
