name,postcode,lat,lon
Puffleg and hoop snake,BT60 2LU,54.296361000000000,-6.675503000000000
caiman and dugite,BT60 2QD,54.266511000000000,-6.670491000000000
wall lizard and Old World quail,BT60 3AA,54.320211000000000,-6.664655000000000
Rat and Badger,BT60 3EJ,54.267305000000000,-6.692781000000000
Stint and Duck,BT60 3JZ,54.254225000000000,-6.723271000000000
sand viper and Parrotbill,BT60 3LS,54.283558000000000,-6.746869000000000
Wallaby and puff adder,BT60 3PP,54.318780000000000,-6.690627000000000
River dolphin and Civet,BT60 3QQ,54.267024000000000,-6.820845000000000
skink and Magpie,BT60 3RF,54.332287000000000,-6.680266000000000
Black jay and amphisbaena,BT60 4BQ,54.345483000000000,-6.670768000000000
flying dragon and tuatara,BT60 4BT,54.350647000000000,-6.672805000000000
wall lizard and Grackle,BT60 4DP,54.349626000000000,-6.671160000000000
turtle and Logrunners,BT60 4DU,54.326501000000000,-6.718004000000000
constrictor and White ibis,BT60 4DW,54.338886000000000,-6.668617000000000
Komodo dragon and Tree warbler,BT60 4EA,54.298579000000000,-6.768916000000000
Capuchin and cobra de capello,BT60 4HJ,54.282203000000000,-6.800956000000000
agamid and Kangaroo,BT60 4HQ,54.289707000000000,-6.791510000000000
crocodile and king snake,BT60 4JA,54.299376000000000,-6.849379000000000
frilled lizard and chuckwalla,BT60 4NG,54.333916000000000,-6.790150000000000
bull snake and sidewinder,BT60 4RG,54.340872000000000,-6.813071000000000
fer-de-lance and Kākāriki,BT61 8AY,54.352247000000000,-6.665540000000000
frilled lizard and Pheasant,BT61 8BJ,54.362514000000000,-6.708004000000000
Old World warbler and Grosbeak,BT61 8BU,54.377617000000000,-6.749837000000000
Piping shrike and caiman,BT61 8DL,54.378716000000000,-6.672961000000000
Vole and anaconda,BT68 4TP,54.349796000000000,-6.836592000000000
Perching duck and Boto,BT68 4UL,54.355897000000000,-6.893715000000000
leathery turtle and blind snake,BT68 4UP,54.351892000000000,-6.840608000000000
Pratincole and mud turtle,BT68 4UZ,54.353977000000000,-6.839827000000000
rattlesnake and Duck,BT69 6AA,54.413985000000000,-6.974941000000000
Cuscus and Dolphin,BT69 6AD,54.413964000000000,-6.970600000000000
Tahr and Fox,BT69 6DN,54.450632000000000,-6.981518000000000
monitor and terrapin,BT69 6DP,54.411260000000000,-6.969636000000000
American sparrow and sea snake,BT69 6HA,54.407617000000000,-6.898590000000000
Egret and fer-de-lance,BT69 6JD,54.390714000000000,-6.922026000000000
Fish eagle and perentie,BT69 6JE,54.379068000000000,-6.912930000000000
gaboon viper and Grouse,BT70 1PH,54.446925000000000,-6.877479000000000
Asiatic leopard and galliwasp,BT70 1PP,54.457274000000000,-6.889115000000000
Tree warbler and Nukupuʻu,BT70 1PX,54.436001000000000,-6.863462000000000
Maya and Old World vulture,BT70 1SP,54.471353000000000,-6.863174000000000
Ground sloth and Civet,BT70 1UP,54.453792000000000,-6.799367000000000
smooth snake and tokay,BT70 2EP,54.462364000000000,-7.026102000000000
Capuchin and flying dragon,BT70 2EY,54.462307000000000,-7.024561000000000
grass snake and box turtle,BT70 2JH,54.468883000000000,-7.032751000000000
Mockingbird and Logrunners,BT71 7EA,54.451127000000000,-6.689275000000000
racer and gecko,BT71 7ED,54.459835000000000,-6.687855000000000
Kestrel and snapping turtle,BT71 7EG,54.471389000000000,-6.685987000000000
Badger and dukite,BT71 7ET,54.441926000000000,-6.743886000000000
Quetzal and soft-shelled turtle,BT71 7FN,54.450278000000000,-6.690271000000000
constrictor and rock snake,BT71 7HF,54.414998000000000,-6.699747000000000
puff adder and Skunk,BT71 7JJ,54.426389000000000,-6.707767000000000
Bunting and blind snake,BT71 7LF,54.411527000000000,-6.753687000000000
Grouse and Tree warbler,BT71 7LG,54.412295000000000,-6.746351000000000
indigo snake and Kite,BT71 7PH,54.467152000000000,-6.771754000000000
boomslang and slowworm,BT71 7TH,54.446643000000000,-6.698928000000000
smooth snake and blue tongue,BT71 7TL,54.449135000000000,-6.701178000000000
sidewinder and cerastes,BT71 7TZ,54.446026000000000,-6.693429000000000
rock snake and Thrasher,BT71 7UL,54.446174000000000,-6.691250000000000
