name,id,postcode,lat,lon
Kākāriki and python,1710366,BT60 3AH,54.268216000000000,-6.688946000000000
king cobra and Booted eagles,1739589,BT71 7HU,54.418504000000000,-6.699681000000000
Piping shrike and Jackal,1739606,BT71 7JU,54.421456000000000,-6.752138000000000
Vole and Elephant,1739704,BT71 7SN,54.448955000000000,-6.698687000000000
blue tongue and Ground sloth,1701193,BT70 1PD,54.461014000000000,-6.818417000000000
Partridge and asp,1738429,BT70 1QD,54.455479000000000,-6.843649000000000
krait and Argus,1710937,BT61 8BR,54.361582000000000,-6.719465000000000
Nukupuʻu and bull snake,1701249,BT69 6BG,54.421911000000000,-6.981507000000000
Grouse and Minke whale,1743276,BT69 6BX,54.449477000000000,-6.999198000000000
agama and kabaragoya,1710467,BT60 3NA,54.304500000000000,-6.729717000000000
cobra de capello and Jay,1739597,BT71 7JF,54.398700000000000,-6.686157000000000
Wader and Civet,1738495,BT70 1TW,54.462562000000000,-6.941067000000000
asp and Stint,1710617,BT60 4DQ,54.337980000000000,-6.663896000000000
Civet and Pratincole,1739583,BT71 7HN,54.412106000000000,-6.703150000000000
Kangaroo and adder,1710625,BT60 4EB,54.294256000000000,-6.774958000000000
Buzzard and Capuchin,1738387,BT70 1LP,54.409719000000000,-6.825160000000000
tiger snake and cobra de capello,1699796,BT71 7DN,54.447854000000000,-6.688838000000000
Flameback and Cuscus,1739709,BT71 7ST,54.449740000000000,-6.700635000000000
python and cobra,1699072,BT71 7JQ,54.410898000000000,-6.681778000000000
tuatara and Kākāriki,1898574,BT71 7FJ,54.450278000000000,-6.690271000000000
rock snake and Badger,1697701,BT69 6EP,54.425774000000000,-6.932692000000000
Stilt and Bunting,1710762,BT60 4TE,54.298556000000000,-6.811094000000000
perentie and carpet snake,1710513,BT60 3RF,54.332287000000000,-6.680266000000000
Kangaroo and Towhee,1697766,BT70 2LP,54.459216000000000,-7.030048000000000
adder and kabaragoya,1699813,BT70 1LB,54.457328000000000,-6.794499000000000
dugite and Coati,1739593,BT71 7JA,54.415457000000000,-6.671790000000000
tokay and Siskin,1739700,BT71 7SG,54.446743000000000,-6.692435000000000
Philippine hawk-owl and Elephant,1743324,BT69 6JA,54.405469000000000,-6.950162000000000
snapping turtle and Vulture,1743211,BT68 4UF,54.350536000000000,-6.840445000000000
Wader and Solitaire,1710726,BT60 4QR,54.330411000000000,-6.821563000000000
Parrotbill and Armadillo,1710498,BT60 3QJ,54.251450000000000,-6.819139000000000
Zebra and diamondback,1710282,BT60 2QE,54.272524000000000,-6.669636000000000
tortoise and Philippine hawk-owl,1701187,BT71 6PY,54.471080000000000,-6.723418000000000
flying dragon and Kangaroo,1739643,BT71 7NW,54.404206000000000,-6.792701000000000
dugite and diamond python,1739461,BT71 6SN,54.437883000000000,-6.674129000000000
green turtle and sea snake,1699734,BT70 1LD,54.440533000000000,-6.793220000000000
slowworm and Coati,1738606,BT70 2LB,54.473883000000000,-6.975325000000000
Vulture and deaf adder,1738528,BT70 2AT,54.459509000000000,-7.067341000000000
snapping turtle and Perching duck,1739553,BT71 7DX,54.465074000000000,-6.720397000000000
fer-de-lance and sand lizard,1738388,BT70 1LR,54.410144000000000,-6.817433000000000
leathery turtle and Hawk,1710944,BT61 8DH,54.364675000000000,-6.673937000000000
Meadowlark and lizard,1710712,BT60 4PP,54.345976000000000,-6.692593000000000
hoop snake and B,1739621,BT71 7LS,54.406793000000000,-6.695924000000000
leguaan and perentie,1738471,BT70 1SQ,54.474863000000000,-6.912656000000000
tree snake and flying dragon,1743297,BT69 6ED,54.444072000000000,-6.920286000000000
brown snake and Tattler,1743229,BT68 4XJ,54.378270000000000,-6.865056000000000
Peafowl and moloch,1699791,BT60 4PE,54.353696000000000,-6.769435000000000
Fox and brown snake,1743267,BT69 6BL,54.431907000000000,-6.986885000000000
whip snake and puff adder,1738397,BT70 1NG,54.451173000000000,-6.793711000000000
soft-shelled turtle and Hawk,1710650,BT60 4HN,54.272503000000000,-6.820673000000000
Egret and diamondback terrapin,1702310,BT70 2LZ,54.440941000000000,-7.054433000000000
Thicketbird and Pheasant,1710660,BT60 4JB,54.289133000000000,-6.845457000000000
horned viper and Gull,1739509,BT71 7AF,54.414093000000000,-6.698359000000000
rock snake and blind snake,1699812,BT61 8BG,54.358682000000000,-6.663022000000000
Kite and Peafowl,1739581,BT71 7HJ,54.413100000000000,-6.701255000000000
Linsang and anole,1738615,BT70 2LT,54.450492000000000,-7.044622000000000
