name,postcode,lat,lon
Kangaroo and Partridge,BT60 2RU,54.256189000000000,-6.677176000000000
Perching duck and horned viper,BT60 3EJ,54.267305000000000,-6.692781000000000
mamba and Viscacha,BT60 3JW,54.292985000000000,-6.704118000000000
copperhead and Philippine hawk-owl,BT60 3JY,54.264696000000000,-6.714182000000000
Tit-tyrant and lizard,BT60 3LL,54.281875000000000,-6.771349000000000
Ground sloth and Flameback,BT60 3LW,54.293843000000000,-6.751900000000000
Flameback and Gila monster,BT60 3QD,54.270782000000000,-6.775993000000000
Lemming and dugite,BT60 3RN,54.253331000000000,-6.708507000000000
Kestrel and box turtle,BT60 3UA,54.250553000000000,-6.702701000000000
perentie and mud turtle,BT60 4DJ,54.342392000000000,-6.668873000000000
Piping shrike and Towhee,BT60 4DR,54.325606000000000,-6.696483000000000
Ice seal and Hawaiian honeycreeper,BT60 4EB,54.294256000000000,-6.774958000000000
Guillemot and Linsang,BT60 4EG,54.342135000000000,-6.667528000000000
Pitohui and hoop snake,BT60 4EZ,54.296109000000000,-6.760174000000000
Pratincole and Argus,BT60 4HT,54.286816000000000,-6.835558000000000
Chipmunk and Myna,BT60 4NJ,54.347515000000000,-6.795565000000000
habu and hognose snake,BT60 4PN,54.347187000000000,-6.680248000000000
Crow and indigo snake,BT60 4RU,54.324322000000000,-6.784961000000000
Tattler and king snake,BT61 8AW,54.353100000000000,-6.667097000000000
Old World vulture and smooth snake,BT61 8BE,54.354630000000000,-6.678520000000000
Marsh harrier and Crow,BT68 4XU,54.372986000000000,-6.845029000000000
mud turtle and blind snake,BT69 6BG,54.421911000000000,-6.981507000000000
Fulmarine petrel and Capuchin,BT69 6DJ,54.434027000000000,-6.892456000000000
Meadowlark and Parrotbill,BT69 6DP,54.411260000000000,-6.969636000000000
diamond python and Komodo dragon,BT69 6EE,54.448737000000000,-6.918513000000000
boomslang and Thicketbird,BT69 6EW,54.416887000000000,-6.957418000000000
turtle and Argus,BT69 6HN,54.409398000000000,-6.970127000000000
Goose and blindworm,BT69 6JE,54.379068000000000,-6.912930000000000
Badger and slowworm,BT69 6LD,54.411150000000000,-6.973581000000000
leguaan and Cuscus,BT70 1LJ,54.417699000000000,-6.851597000000000
Grouse and copperhead,BT70 1PW,54.459068000000000,-6.889771000000000
Piping shrike and Argus,BT70 2AB,54.468788000000000,-7.045570000000000
sidewinder and Pitohui,BT70 2AZ,54.467814000000000,-7.074895000000000
Tattler and Recurvebill,BT70 2JH,54.468883000000000,-7.032751000000000
tree snake and New World blackbird,BT70 2LJ,54.463319000000000,-7.033420000000000
monitor and Kangaroo,BT70 2NG,54.439358000000000,-7.037840000000000
Mockingbird and Warbler,BT71 7EQ,54.469028000000000,-6.690259000000000
racer and constrictor,BT71 7FD,54.446185000000000,-6.703999000000000
worm lizard and indigo snake,BT71 7HW,54.413287000000000,-6.702728000000000
moloch and leathery turtle,BT71 7JB,54.409892000000000,-6.692576000000000
sand lizard and Flameback,BT71 7NQ,54.449182000000000,-6.688088000000000
Puffleg and deaf adder,BT71 7PQ,54.470079000000000,-6.782247000000000
Jerboa and black snake,BT71 7QE,54.432954000000000,-6.738998000000000
Dolphin and Kestrel,BT71 7TF,54.448277000000000,-6.705505000000000
massasauga and worm lizard,BT71 7TP,54.446140000000000,-6.700639000000000
Polecat and diamondback,BT71 7TR,54.413285000000000,-6.745857000000000
sand lizard and blindworm,BT77 0EJ,54.433923000000000,-7.064995000000000
