name,postcode,lat,lon
Eagle and agamid,LA11 6NU,54.276505080887400,-2.900934437634420
taipan and chuckwalla,LA12 8BT,54.255311670417100,-3.065192859891540
bandy-bandy and Kestrel,LA12 8BZ,54.267414073453600,-3.071738940560610
kabaragoya and swift,LA12 8DY,54.259957221083500,-3.080464901988720
Mole and king cobra,LA12 8EH,54.276632000000000,-3.109943000000000
chameleon and Parrotlet,LA12 8JA,54.261310685807600,-3.036884364728190
horned toad and flying dragon,LA12 8LE,54.305559000000000,-3.024234303614190
Lemming and Triller,LA12 8LZ,54.268283000000000,-2.973675000000000
Cuscus and rock snake,LA12 8PU,54.255372357282500,-2.988444107823040
Stilt and death adder,LA12 8QH,54.254144246881800,-2.986956522501900
Argus and Quetzal,LA12 8QN,54.253744653961500,-2.986363701080220
Gila monster and Jerboa,LA12 8RE,54.251436627185200,-2.991619207439190
Capuchin and Vulture,LA17 7AB,54.257163000000000,-3.140936000000000
Towhee and frilled lizard,LA20 6AT,54.303991563942100,-3.216029695742130
Tattler and diamondback,LA20 6BX,54.260161000000000,-3.214869157693710
gopher snake and king snake,LA20 6EZ,54.274778456933800,-3.211821210553050
lizard and gopher snake,LA21 8BL,54.320858000000000,-3.091531000000000
Ice seal and crocodile,LA21 8BT,54.328304399143000,-3.127111878855260
sand lizard and Fish eagle,LA21 8BU,54.321733000000000,-3.131293423604850
Philippine hawk-owl and soft-shelled turtle,LA21 8DY,54.371304736890100,-3.073519862332780
Kākāriki and Mamo,LA21 8DZ,54.370312633587700,-3.073909586840800
Kestrel and chameleon,LA21 8EJ,54.367831350382900,-3.071752000000000
Old World quail and Black cockatoo,LA21 8EN,54.368723996777100,-3.075684425240000
diamond python and Parrotbill,LA21 8HF,54.366458721771200,-3.078749692219460
glass snake and Peafowl,LA21 8HP,54.376753775859200,-3.091274411618910
anole and Thrasher,LA21 8HT,54.367501308340000,-3.072697210971820
bearded lizard and agama,LA22 0AN,54.427349919179600,-2.959408580119930
Pitohui and Black jay,LA22 0BZ,54.429873780592400,-2.962997626466510
diamondback terrapin and bearded lizard,LA22 0DY,54.427304239391100,-2.965141582745100
monitor and Lemming,LA22 0EA,54.429971894837500,-2.964217726422380
Mink and Snipe,LA22 0EF,54.427888548194000,-2.966249740322270
B and Vole,LA22 0HZ,54.409011725414500,-2.984448595023870
coral snake and swift,LA22 0JH,54.382218427554300,-2.945298546538270
Fulmarine petrel and python,LA22 0ND,54.372062371374600,-2.996710295341660
kabaragoya and Piping shrike,LA22 0QF,54.354601320443900,-2.989948061879110
Kestrel and Thrasher,LA22 0RB,54.429234695654900,-2.964246656767290
indigo snake and bull snake,LA22 9AB,54.462875489688100,-3.028429550589300
Flameback and diamondback turtle,LA22 9AY,54.434814000000000,-2.966814000000000
Mockingbird and hawksbill,LA22 9BH,54.438706265555900,-2.964392090236420
tortoise and Greenbul,LA22 9DT,54.433051641379500,-2.962332194402040
turtle and thorny devil,LA22 9JN,54.439651403928500,-3.053519971453680
Cuscus and sand viper,LA22 9LX,54.448747256817400,-2.978833000000000
Cuscus and Puffleg,LA22 9ND,54.422301629230800,-2.979234146665390
constrictor and Tree warbler,LA23 1ES,54.386119000000000,-2.920950000000000
Duck and Marmoset,LA23 1JS,54.400522511229400,-2.874183114502140
elapid and Maya,LA23 1LA,54.402037637646800,-2.918272492867240
cycling lizard and copperhead,LA23 1PQ,54.418275000000000,-2.912806239870950
giant tortoise and water snake,LA23 1PR,54.430909640339300,-2.893713963452280
Tattler and Vulture,LA23 2BD,54.372170904979700,-2.903119000000000
Snipe and agamid,LA23 2BJ,54.374366476001300,-2.902629912149670
brown snake and tortoise,LA23 2DQ,54.371639923493200,-2.904278739267630
box turtle and Booted eagles,LA23 2ED,54.374178932540100,-2.908460190571330
dugite and Fox,LA23 2EZ,54.368270684806100,-2.907729452462980
Fox and Fulmarine petrel,LA23 2FD,54.371604060573400,-2.911435797328090
habu and diamondback,LA23 2HH,54.374609559531700,-2.903774426776610
Zebra and Skunk,LA23 2JB,54.370819376177900,-2.911803237301500
viper and Scimitar babbler,LA23 2JH,54.367969548723800,-2.911909395408800
Eagle and bull snake,LA23 2LD,54.377587947858300,-2.903301027063080
Thrasher and habu,LA23 2NB,54.369781000000000,-2.903026583108860
Shearwater and Grosbeak,LA23 3AP,54.366877037295600,-2.916133226189460
giant tortoise and Hawk,LA23 3AU,54.366647000000000,-2.915774000000000
chuckwalla and brown snake,LA23 3EG,54.363248000000000,-2.919577000000000
boa and death adder,LA23 3EJ,54.363164941165800,-2.919913000000000
saltwater crocodile and thorny devil,LA23 3GZ,54.358319868068200,-2.926730000000000
elapid and slowworm,LA23 3HE,54.361795000000000,-2.927342553309160
leathery turtle and Thrasher,LA23 3JF,54.349625915046200,-2.923749559581850
Diving bird and Tahr,LA23 3JX,54.345813383935600,-2.910987957592310
thorn lizard and Jay,LA23 3LJ,54.331296648687000,-2.934733814537510
Snipe and anaconda,LA23 3PP,54.318045000000000,-2.942243000000000
Tahr and Macaw,LA8 8DL,54.308264999942900,-2.846651373987400
carpet snake and Komodo dragon,LA8 8JA,54.325994325397000,-2.873539377058320
jew lizard and Black jay,LA8 8LL,54.347928757895000,-2.872850808362440
Goose and Black jay,LA8 8LW,54.338215220201000,-2.876305573287340
cobra de capello and monitor,LA8 9PH,54.379249419136400,-2.820077000000000
jew lizard and monitor,LA8 9QJ,54.376988638497500,-2.825080378876600
Schneider python and Condor,LA8 9QY,54.399851719800900,-2.817267534764780
