name,id,postcode,lat,lon
Thicketbird and cobra de capello,928152,LA8 9NT,54.378544511716000,-2.816998054838030
Recurvebill and copperhead,932445,LA22 0HG,54.424316945506000,-2.959938821487700
crocodile and asp,931638,LA23 3HX,54.355380241820200,-2.917554552569500
Partridge and Chicken,931977,LA23 3BY,54.364773000000000,-2.919906068308080
Kangaroo and blue tongue,932500,LA22 0NT,54.373930977366100,-2.997894740040550
Duck and amphisbaena,932461,LA22 0JG,54.386353304521700,-2.986770231328100
Guillemot and Marmoset,932670,LA21 8AD,54.341819722820800,-3.066044515091710
Chipmunk and White ibis,936707,LA12 8PP,54.255158079385400,-2.988270132633470
Old World warbler and Tahr,932449,LA22 0HQ,54.428026828130100,-2.970104000000000
cobra de capello and Cuscus,931634,LA23 3HR,54.356340850855800,-2.920053355948030
copperhead and frill-necked lizard,931937,LA23 2PR,54.373838352148500,-2.905943438825450
caiman and Old World quail,936534,LA12 8EL,54.291041858362900,-3.112527889318720
loggerhead and Kestrel,931944,LA23 3AB,54.363438452185800,-2.914258000000000
rat snake and Skunk,928721,LA8 8HJ,54.325849640796000,-2.825163258851380
gopher snake and worm lizard,932678,LA21 8AP,54.360026608270200,-3.078411825366800
deaf adder and Greenbul,932454,LA22 0HX,54.416026635337900,-2.997021749588650
Kangaroo and Armadillo,932570,LA22 0QU,54.431704564326500,-2.955409746159570
green turtle and amethystine python,932697,LA21 8BP,54.342009000000000,-3.104084367725850
sea snake and Jackal,928675,LA8 8BW,54.313100832670000,-2.845290401182670
habu and perentie,932628,LA20 6EE,54.362947952237500,-3.177417337454490
Kākāriki and Flameback,928328,LA8 8JD,54.325144769711100,-2.887728633468720
Perching duck and Triller,932001,LA23 3EF,54.363819507780600,-2.919912739847950
asp and chameleon,931975,LA23 3BW,54.365460165881500,-2.917042000000000
Ice seal and Schneider python,932682,LA21 8AT,54.357724081404100,-3.082539000000000
Macaw and fer-de-lance,936232,LA12 8QU,54.250088321314300,-2.987258706581420
thorn lizard and rock snake,932712,LA21 8DP,54.389454310792100,-3.049599897693690
coral snake and Thrasher,932488,LA22 0ND,54.372062371374600,-2.996710295341660
glass snake and puff adder,1787732,LA23 9AS,54.378363000000000,-2.905504000000000
anaconda and slowworm,931842,LA23 2EG,54.370825477750500,-2.913373451703100
deaf adder and Diving bird,2627398,LA8 9QW,54.378234000000000,-2.815208000000000
Quetzal and Fulmarine petrel,937614,LA11 6NU,54.276505080887400,-2.900934437634420
Towhee and Philippine hawk-owl,931864,LA23 2HG,54.365771490390500,-2.905319000000000
cobra and Civet,936533,LA12 8EJ,54.285581195625500,-3.102318958088050
box turtle and Eagle,936231,LA12 8QT,54.250386868392100,-2.987020268212840
mamba and cerastes,931983,LA23 3DF,54.364116516275400,-2.921996000000000
Petrel and B,932169,LA23 1PJ,54.421509137040300,-2.911710829705360
tiger snake and Perching duck,932015,LA23 3EY,54.361244306603500,-2.921717292860770
Solitaire and Pheasant,928354,LA8 8LQ,54.349627522239300,-2.857794187690360
blue tongue and dukite,932182,LA23 1SA,54.384267000000000,-2.910361000000000
puff adder and Bunting,932358,LA22 9QS,54.459018828155100,-3.024322023536500
amphisbaena and Grouse,932404,LA23 1AA,54.394895053389500,-2.920315405860570
Lemming and Viscacha,931687,LA23 3NR,54.334400898180700,-2.896371305278370
carpet snake and Chickadee,932514,LA22 0PN,54.379088873793200,-3.010968044049820
Tit-tyrant and worm lizard,932775,LA21 8HA,54.366015771535900,-3.078030076735290
Grouse and gecko,932560,LA22 0QG,54.368509151768200,-3.000349132095910
caiman and Asiatic leopard,936565,LA12 8JF,54.266329786469800,-3.032235224864280
anaconda and gavial,931939,LA23 2WR,54.378363000000000,-2.905504000000000
puff adder and Schneider python,932164,LA23 1PD,54.420287149513200,-2.903299868948480
Maya and snapping turtle,937607,LA11 6NL,54.295074649396400,-2.894733090350170
elapid and elapid,932140,LA22 9EQ,54.434342461626700,-2.960497023716010
Prion and bushmaster,932516,LA22 0PQ,54.374126000000000,-2.999503276477750
dugite and Goose,931863,LA23 2HF,54.366391984687300,-2.905717000000000
Hawaiian honeycreeper and rock python,931972,LA23 3BS,54.365497959975900,-2.917841700684620
Zebra and Armadillo,931725,LA23 2DF,54.370140000000000,-2.906647000000000
cobra de capello and boa,931961,LA23 3AZ,54.363926613696600,-2.915282635680160
Zebra and Vole,928707,LA8 8EP,54.261742000000000,-2.813320000000000
milk snake and galliwasp,928713,LA8 8EW,54.263715722230200,-2.817567000000000
wall lizard and loggerhead,931904,LA23 2LP,54.374318672864500,-2.898195326939420
carpet snake and gopher snake,932528,LA20 6BA,54.319200000000000,-3.206178000000000
Myna and moloch,932241,LA22 9HQ,54.433501667519700,-3.016023114810270
jew lizard and garter snake,2642883,LA23 1QE,54.389187000000000,-2.918111000000000
crocodile and Triller,931912,LA23 2LZ,54.374735000000000,-2.894279000000000
agamid and box turtle,2627381,LA21 8FA,54.353123000000000,-3.083526000000000
Flameback and hoop snake,932137,LA22 9EL,54.433642000000000,-2.958238297007880
Coati and Armadillo,936451,LA12 8AP,54.276509609420100,-2.957481874256500
Solitaire and king cobra,936553,LA12 8HP,54.275300454600000,-3.073295103108040
Tree warbler and Cloud rat,931699,LA23 3PF,54.324076222346100,-2.910507413648880
Chicken and Minke whale,931919,LA23 2NH,54.362081903454900,-2.900052018893340
Fulmarine petrel and diamondback,932067,LA23 1EY,54.381938003947500,-2.918762865927850
hognose snake and Dorcopsis,928157,LA8 9NZ,54.379822318635000,-2.816761702845210
Badger and rattlesnake,928334,LA8 8JL,54.296604979443000,-2.873562310018650
Kestrel and Mamo,934423,LA17 7XF,54.255885000000000,-3.176605000000000
hoop snake and racer,928160,LA8 9PD,54.380169340344100,-2.817276672449140
Stilt and cobra de capello,936468,LA12 8BJ,54.282747000000000,-2.972157000000000
massasauga and mountain devil,932444,LA22 0HF,54.421513941340000,-2.956405601065760
iguana and Vole,936615,LA12 8NU,54.263332034426900,-2.970057499507420
Fulmarine petrel and Lemming,2654067,LA12 8RF,54.251438000000000,-2.991619000000000
Minke whale and Diving bird,932409,LA23 1AG,54.379881626465500,-2.906646212407750
caiman and diamond snake,932373,LA22 9RN,54.463746776612900,-3.015738772246590
puff adder and Rabbit,932689,LA21 8BB,54.338105894064400,-3.103247238015400
Fox and worm lizard,936535,LA12 8EN,54.283959874975700,-3.123151022792050
krait and Thicketbird,932597,LA22 9BB,54.435479653406600,-2.964408778956450
sidewinder and hoop snake,932499,LA22 0NS,54.375438000000000,-2.999409000000000
sand viper and Thicketbird,932338,LA22 0DT,54.421396000000000,-2.960009000000000
boa and Recurvebill,928181,LA8 9QH,54.376957952858000,-2.824310007724930
Schneider python and Macaw,932121,LA23 1LT,54.407786193704800,-2.944346019267180
American sparrow and puff adder,932479,LA22 0LP,54.352653000000000,-2.939188000000000
Snipe and box turtle,932780,LA21 8HG,54.367398072337500,-3.079236075253490
python and Argus,932208,LA23 2BG,54.373304967908700,-2.901559839796840
diamond snake and king cobra,932360,LA22 9QU,54.466449578136100,-3.030879838766740
Parakeet and Argus,932616,LA22 9DH,54.431260177542500,-2.964957105891060
