name,postcode,lat,lon
deaf adder and gopher snake,LA12 8AP,54.276509609420100,-2.957481874256500
Stint and puff adder,LA12 8DA,54.266249000000000,-3.080491000000000
Treepie and Chickadee,LA12 8DF,54.298051369710600,-3.086195000000000
American sparrow and Fulmarine petrel,LA12 8DG,54.290620967098200,-3.086736948915360
Mink and Hawk,LA12 8EB,54.259897575469500,-3.092069330966960
viper and Tit-tyrant,LA12 8NG,54.257991134209400,-2.948746000000000
moloch and black snake,LA12 8PT,54.255538382320900,-2.987926177281960
bushmaster and Grouse,LA12 8PW,54.254630174344600,-2.987981211282000
frilled lizard and Meadowlark,LA17 7UZ,54.251449000000000,-3.193624000000000
Stilt and Magpie,LA17 7XU,54.254507000000000,-3.162997000000000
Mink and Egret,LA20 6AZ,54.313582859400700,-3.196129096357200
Lemming and moloch,LA20 6BH,54.275473114698400,-3.208877536000260
coral snake and Mink,LA20 6HN,54.276526837124800,-3.211350347675180
Mole and wall lizard,LA22 0BJ,54.430920366224800,-2.960231967671540
fer-de-lance and Buzzard,LA22 0BZ,54.429873780592400,-2.962997626466510
Greenbul and Parrotlet,LA22 0DY,54.427304239391100,-2.965141582745100
constrictor and Bronzewing pigeon,LA22 0JD,54.392686000000000,-2.966269000000000
Badger and Black cockatoo,LA22 0LT,54.339930162303100,-2.952418413816830
smooth snake and Diving bird,LA22 0NT,54.373930977366100,-2.997894740040550
Tree warbler and giant tortoise,LA22 9DH,54.431260177542500,-2.964957105891060
Snipe and Coati,LA22 9EL,54.433642000000000,-2.958238297007880
Thrasher and viper,LA22 9EQ,54.434342461626700,-2.960497023716010
B and sidewinder,LA22 9FA,54.431322683204100,-2.963463638966460
perentie and slowworm,LA22 9HF,54.427635491296700,-3.008201585845200
brown snake and cerastes,LA22 9JG,54.440310000000000,-3.047138000000000
chameleon and Flameback,LA22 9LP,54.445480325629800,-2.985847725208410
diamond python and wall lizard,LA22 9LT,54.449239014647600,-2.982298353240200
amethystine python and copperhead,LA22 9NJ,54.422296631073100,-3.015745860324770
Jackal and Kite,LA22 9NR,54.415466000000000,-3.030725000000000
Minke whale and Stint,LA22 9NS,54.416793762089800,-3.044488717580140
Tattler and leathery turtle,LA22 9QP,54.465831323102600,-3.031712874434630
mud turtle and python,LA22 9RG,54.466413056374200,-3.022485565016890
Linsang and gopher snake,LA22 9SA,54.431449754881600,-2.974040000000000
Grosbeak and rattlesnake,LA22 9TD,54.456373743766500,-3.022528339790380
Black cockatoo and Tit-tyrant,LA23 1DH,54.374984553591300,-2.913145000000000
ringhals and galliwasp,LA23 1EJ,54.378005447975100,-2.903956811353550
Masked owl and Songlark,LA23 1ES,54.386119000000000,-2.920950000000000
hawksbill and Warbler,LA23 1EW,54.386437793201200,-2.914413158739090
cayman and Skunk,LA23 1EY,54.381938003947500,-2.918762865927850
gopher snake and hawksbill,LA23 1HX,54.393832016865500,-2.920645842305360
snake and Gila monster,LA23 1JJ,54.383965000000000,-2.890645000000000
tuatara and tiger snake,LA23 1JP,54.389113405343200,-2.875988678861970
Myna and Linsang,LA23 1JT,54.394094845680300,-2.896471156977550
Hawk and leathery turtle,LA23 1PQ,54.418275000000000,-2.912806239870950
agama and cycling lizard,LA23 2AB,54.376572758918600,-2.904448758741660
Grosbeak and tiger snake,LA23 2AY,54.373643664088200,-2.905538907990330
Francolin and Chipmunk,LA23 2BA,54.372942883954500,-2.901905960124090
king cobra and copperhead,LA23 2EW,54.370493240992200,-2.909764159121470
leathery turtle and blindworm,LA23 2HH,54.374609559531700,-2.903774426776610
caiman and blind snake,LA23 2HU,54.365754233432000,-2.912491334826770
Siskin and sand viper,LA23 2JW,54.367622754276300,-2.916165220949840
River dolphin and Fox,LA23 2JY,54.367484000000000,-2.914438000000000
pit viper and bicycle lizard,LA23 3AT,54.362782829121000,-2.915595776215090
constrictor and turtle,LA23 3BG,54.365135034639000,-2.917110237805060
Rabbit and Old World quail,LA23 3FS,54.358473000000000,-2.917485000000000
Gull and iguana,LA23 3JT,54.343348564008900,-2.921932043928030
Old World quail and Linsang,LA8 8AZ,54.312486000000000,-2.813275000000000
Scimitar babbler and goanna,LA8 8DL,54.308264999942900,-2.846651373987400
gecko and lizard,LA8 8EP,54.261742000000000,-2.813320000000000
mountain devil and Ice seal,LA8 8LF,54.337679935583300,-2.844241270199280
snake and horned viper,LA8 9AL,54.383690391030700,-2.843692010504880
Hawk and taipan,LA8 9JH,54.404815584223800,-2.841707032234010
Jackal and caiman,LA8 9LX,54.377621228189400,-2.816641017798760
flying dragon and whip snake,LA8 9PA,54.380027000000000,-2.817298852547480
whip snake and Macaw,LA8 9PW,54.378074837564400,-2.826580138761490
blue tongue and Mink,LA8 9QE,54.372666669907400,-2.860968375602210
Capuchin and copperhead,LA8 9QQ,54.381711595595900,-2.860464858341670
