name,postcode,lat,lon
Nukupuʻu and brown snake,DG1 1JR,55.078656000000000,-3.607708763185420
goanna and galliwasp,DG1 1PB,55.077479409433700,-3.598798512591160
Magpie and bearded dragon,DG1 1PW,55.076000020020600,-3.595105462345230
hoop snake and Bronzewing pigeon,DG1 1QD,55.109692620006400,-3.584125661099930
Chicken and sand viper,DG1 1QN,55.108690072125100,-3.585888804762850
mamba and Logrunners,DG1 1TA,55.135854256178700,-3.622641000000000
Solitaire and Darwin's finches,DG1 1TN,55.091055029256800,-3.590189170878530
water snake and tokay,DG1 1UJ,55.108063906733300,-3.583590912415670
Bunting and Minke whale,DG1 1UN,55.106326212814300,-3.584525420779700
Buzzard and rat snake,DG1 3FT,55.081118000000000,-3.593492000000000
White ibis and lizard,DG1 3NE,55.167500107045300,-3.530495268441790
Puffleg and Skunk,DG1 3NG,55.167893101255300,-3.491543588810840
diamondback terrapin and Komodo dragon,DG1 3NT,55.101974952467000,-3.578698000000000
Duck and Duck,DG1 3QX,55.097712733757200,-3.579279121547130
Diving bird and garter snake,DG1 3QZ,55.097185223574900,-3.572613814845350
Meadowlark and Hawaiian honeycreeper,DG1 3RB,55.096188892137800,-3.581742185298900
Old World vulture and Fox,DG1 3SG,55.094837371553100,-3.567412304909600
Piping shrike and Masked owl,DG1 3TH,55.094116630047900,-3.566851285874780
Dorcopsis and perentie,DG10 9NF,55.238805195759300,-3.406343652605460
Flameback and wall lizard,DG10 9NN,55.250008273897700,-3.362281264608190
Black jay and Crow,DG10 9RE,55.299451000000000,-3.456180000000000
River dolphin and carpet snake,DG11 1BG,55.217421717639100,-3.416781165829280
Nukupuʻu and Tit-tyrant,DG11 1EQ,55.213491138575900,-3.416295717453790
Crow and tokay,DG11 1LB,55.082989970795200,-3.429585665287330
Fox and flying lizard,DG11 1LG,55.120206038112600,-3.355600469073290
Badger and elapid,DG11 1LZ,55.152058348419600,-3.483419694322800
goanna and Rat,DG11 1ND,55.126067014839300,-3.439295580529720
lizard and horned toad,DG11 1NJ,55.126674870938600,-3.436525810555470
glass snake and diamondback,DG11 1QT,55.129080134385500,-3.436800403319100
Pheasant and bicycle lizard,DG11 1RH,55.128145469889800,-3.454975918572140
Polecat and Pitohui,DG11 2AW,55.127235722645200,-3.356230765366520
amphisbaena and Kestrel,DG11 2AX,55.122912987245100,-3.358656029312990
Jackal and gopher snake,DG11 2DH,55.118318199961600,-3.356461629315290
Boto and Buzzard,DG11 2DZ,55.118726174719100,-3.358560908721480
racer and Warbler,DG11 2FF,55.132751798365900,-3.366097000000000
Badger and mud turtle,DG11 2HA,55.122033426104300,-3.354517643261480
rat snake and Piping shrike,DG11 2LW,55.230006362402600,-3.284173643090520
brown snake and Zebra,DG11 2ND,55.124879985378200,-3.346615960974320
Magpie and thorny devil,DG11 2NQ,55.155844449338500,-3.287109686227500
diamondback terrapin and Greenbul,DG11 2NU,55.185855448425900,-3.255659553159770
B and Wader,DG11 2NZ,55.192134137340400,-3.287824343082430
Solitaire and American sparrow,DG11 2PS,55.098677378685600,-3.322555553372680
king cobra and Condor,DG11 2PX,55.119493864127300,-3.284481903749060
box turtle and Grouse,DG11 2RW,55.155969052056100,-3.360846971546280
Herring gull and diamondback terrapin,DG2 0BY,55.081809231548700,-3.619353048595480
Rabbit and Recurvebill,DG2 0HP,55.086848071013100,-3.636384432364900
White ibis and frilled lizard,DG2 0LT,55.081037055925900,-3.631415976881850
alligator and leguaan,DG2 0NF,55.083379470114100,-3.635678754256890
cerastes and Kestrel,DG2 0PZ,55.081042902136700,-3.624256859017830
snake and Scimitar babbler,DG2 0QB,55.080512096558400,-3.625645262042180
