name,postcode,lat,lon
Casa Mia Dumfries,DG1 1JW,55.07992500000000,-3.61022400000000
Ae Cafe,DG1 1QB,55.18927300000000,-3.59716500000000
Dalscone farm fun,DG1 1SE,55.08795600000000,-3.59348300000000
Heathhall Garden Centre,DG1 1SE,55.0879,-3.5935
The Lochar Inn,DG1 1TZ,55.09751100000000,-3.58571400000000
Tarff coffee shop ,DG1 3PF,55.07544200000000,-3.58136300000000
Costa Coffee,DG11 1HD,55.21588500000000,-3.41602100000000
McDonalds,DG11 1HD,55.21588500000000,-3.41602100000000
Lochmaben Golf Club,DG11 1NT,55.12703900000000,-3.44063400000000
Crown Hotel,DG11 1PD,55.12840500000000,-3.44518400000000
Townhead Hotel Ltd,DG11 2AG,55.12442500000000,-3.35679600000000
Somerton House Hotel,DG11 2DR,55.11355400000000,-3.35567400000000
Somerton House Limited,DG11 2DR,55.11355400000000,-3.35567400000000
Just Be Coffeeshop & Bistro,DG11 2JH,55.12119900000000,-3.35593400000000
SURE QUEENS HOTEL BEST WESTERN LOCKERBIE,DG11 2RB,55.10823000000000,-3.35276700000000
dryfesdale hotel,DG11 2SF,55.14196200000000,-3.37086800000000
Lockerbie Lorry Park,DG11 2SL,55.19674500000000,-3.40879000000000
McDonalds Restaurants Ltd,DG2 0DY,55.07850400000000,-3.62860400000000
McDonalds,DG2 0DY,55.07850400000000,-3.62860400000000
KFC,DG2 9BF,55.07628000000000,-3.62751100000000
