name,postcode,lat,lon
racer and Black cockatoo,DG1 1JY,55.081008642580900,-3.597639058044970
Civet and viper,DG1 1PL,55.076867708051600,-3.599525994498180
chuckwalla and Warbler,DG1 1TT,55.092115825011000,-3.587410647608730
Magpie and Schneider python,DG1 3LE,55.079285000000000,-3.596533000000000
snapping turtle and blue racer,DG1 3PQ,55.097760674052700,-3.567918533887430
box turtle and Gila monster,DG1 3QD,55.085673177141600,-3.507407340126980
Wader and gecko,DG1 3QE,55.084745274927900,-3.530638150534980
Fish eagle and dugite,DG1 3QF,55.078254874326100,-3.523607453505730
Chipmunk and Cloud rat,DG1 3RG,55.098824856137500,-3.578069157472860
Gila monster and ringhals,DG1 3RW,55.098821249481900,-3.579040729673330
anole and Peafowl,DG1 3SD,55.095804783390500,-3.568359120677650
diamond python and Mouse,DG1 3TF,55.094144293633000,-3.564000255690760
Snipe and worm lizard,DG1 3TR,55.077262000000000,-3.582856000000000
mamba and pit viper,DG1 3UU,55.097268261071400,-3.576127152475380
Komodo dragon and Mouse,DG10 9NP,55.261415274471400,-3.357179706451240
bull snake and chuckwalla,DG10 9NU,55.241936862233700,-3.398935930935520
Linsang and Boto,DG10 9PL,55.292098119865300,-3.417850552820570
smooth snake and tree snake,DG10 9RH,55.280577099061200,-3.446959803484530
Pitohui and Tahr,DG11 1EG,55.212323153792800,-3.416269949429000
smooth snake and gopher snake,DG11 1JX,55.088454465117300,-3.416478218086180
brown snake and diamondback,DG11 1NG,55.128213417416000,-3.440941209469350
Egret and galliwasp,DG11 1RH,55.128145469889800,-3.454975918572140
rattlesnake and mountain devil,DG11 1TA,55.151778000000000,-3.411754000000000
Mole and racer,DG11 1TX,55.162892917957400,-3.441030201767160
Dolphin and horned viper,DG11 2DU,55.115388452368900,-3.366114522048870
boomslang and Grouse,DG11 2HA,55.122033426104300,-3.354517643261480
skink and blue racer,DG11 2LZ,55.129310769957400,-3.349839226609310
galliwasp and water snake,DG11 2NG,55.143234345723600,-3.293214833001380
frill-necked lizard and Capuchin,DG11 2NN,55.157990741817600,-3.244709000000000
carpet snake and water snake,DG11 2RG,55.138975000000000,-3.353648000000000
Fish eagle and River dolphin,DG11 9AF,55.120212000000000,-3.355584000000000
Parrotbill and constrictor,DG2 0DE,55.082872977602400,-3.621135042764800
caiman and wall lizard,DG2 0QT,55.090995000000000,-3.634783000000000
Rat and Myna,DG2 9NF,55.082868041587900,-3.636284544532990
