name,postcode,lat,lon
Casa Mia Dumfries,DG1 1JW,55.079917397212100,-3.610206263811520
Ae Cafe,DG1 1QB,55.188747889855900,-3.596184333333710
Dalscone farm fun,DG1 1SE,55.087947550340500,-3.593465899217600
Heathhall Garden Centre,DG1 1SE,55.087947550340500,-3.593465899217600
The Lochar Inn,DG1 1TZ,55.097538624765300,-3.585946000000000
Tarff coffee shop ,DG1 3PF,55.075311000000000,-3.581858000000000
Moffat Manor,DG10 9RE,55.299451000000000,-3.456180000000000
Lochmaben Golf Club,DG11 1NT,55.127030982051700,-3.440616312691730
Crown Hotel,DG11 1PD,55.128203000000000,-3.445693000000000
Townhead Hotel Ltd,DG11 2AG,55.124606000000000,-3.356778174333560
Somerton House Hotel,DG11 2DR,55.113546148862000,-3.355657089872170
Just Be Coffeeshop & Bistro,DG11 2JH,55.121191078785400,-3.355916100956320
SURE QUEENS HOTEL BEST WESTERN LOCKERBIE,DG11 2RB,55.108222309569300,-3.352749175122570
dryfesdale hotel,DG11 2SF,55.141954320629000,-3.370850284713980
Lockerbie Lorry Park,DG11 2SL,55.192084000000000,-3.407100000000000
McDonalds,DG2 0DY,55.078495580660000,-3.628586800154180
KFC,DG2 9BF,55.076329406361500,-3.627119000000000
