name,postcode,lat,lon
Casa Mia Dumfries,DG1 1JW,55.0799,-3.6102
Ae Cafe,DG1 1QB,55.1887,-3.5962
Dalscone farm fun,DG1 1SE,55.0879,-3.5935
Heathhall Garden Centre,DG1 1SE,55.0879,-3.5935
The Lochar Inn,DG1 1TZ,55.0975,-3.5859
Tarff coffee shop ,DG1 3PF,55.0753,-3.5819
Lochmaben Golf Club,DG11 1NT,55.1270,-3.4406
Crown Hotel,DG11 1PD,55.1282,-3.4457
Townhead Hotel Ltd,DG11 2AG,55.1246,-3.3568
Somerton House Hotel,DG11 2DR,55.1135,-3.3557
Just Be Coffeeshop & Bistro,DG11 2JH,55.1212,-3.3559
SURE QUEENS HOTEL BEST WESTERN LOCKERBIE,DG11 2RB,55.1082,-3.3527
dryfesdale hotel,DG11 2SF,55.1420,-3.3709
Lockerbie Lorry Park,DG11 2SL,55.1921,-3.4071
McDonalds,DG2 0DY,55.0785,-3.6286
KFC,DG2 9BF,55.0763,-3.6271
