name,id,postcode,lat,lon
Quetzal and Fulmarine petrel,1323276,DG1 1QF,55.108304000000000,-3.581108000000000
milk snake and Darwin's finches,1321962,DG11 2AY,55.123807000000000,-3.359141000000000
thorn lizard and cayman,1320880,DG2 0DF,55.082623762616300,-3.620952626938810
caiman and habu,1322960,DG1 3RF,55.094723305821000,-3.581794000283680
Diving bird and Wader,1323379,DG1 1XF,55.101515251716100,-3.585432196415090
cayman and Kite,1322988,DG1 3SS,55.094387138235600,-3.574446659872210
New World blackbird and Masked owl,1322089,DG11 2HL,55.118045438066000,-3.350274543499320
Siskin and Bunting,1767108,DG11 1GA,55.131418679186100,-3.445511764655570
carpet snake and White ibis,1323353,DG1 1UA,55.093881308401800,-3.587104520360930
alligator and gopher snake,1322147,DG11 1EW,55.173257000000000,-3.418715000000000
jew lizard and Ibex,1320589,DG2 0PZ,55.081042902136700,-3.624256859017830
Elephant and Partridge,1321751,DG11 2QY,55.194349151984900,-3.292514460055160
Thrasher and blue tongue,1320059,DG2 9NY,55.080128000000000,-3.637014114743660
horned toad and Triller,1322204,DG11 1LZ,55.152058348419600,-3.483419694322800
Egret and Solitaire,1322154,DG11 1HF,55.214105089496700,-3.433908000000000
Moluccan boobook and python,1322933,DG1 3PS,55.093368000000000,-3.517413000000000
Chipmunk and Gila monster,1322110,DG11 2JQ,55.129483141861500,-3.350503783032830
Piping shrike and brown snake,1322959,DG1 3RE,55.094603245585100,-3.581350465665110
flying dragon and Kestrel,1323281,DG1 1QN,55.108690072125100,-3.585888804762850
amethystine python and monitor,1320876,DG2 0DA,55.081169187027500,-3.619499508015020
Recurvebill and elapid,1321753,DG11 2RB,55.108222309569300,-3.352749175122570
snake and Jackal,1322212,DG11 1NJ,55.126674870938600,-3.436525810555470
Buzzard and Condor,1322094,DG11 2HT,55.122076859062900,-3.348983589133530
Lemming and Guillemot,1323004,DG1 3UX,55.097129540624900,-3.575040314905670
anaconda and racer,1322385,DG10 9NG,55.237531398314600,-3.397538800780880
Rat and Tahr,1322023,DG11 2GD,55.119358000000000,-3.351918000000000
agamid and death adder,1322882,DG1 3LW,55.129728994923600,-3.570630162254980
diamondback terrapin and snapping turtle,1320558,DG2 0NE,55.082435000000000,-3.634555186663850
rat snake and king cobra,1322077,DG11 1DF,55.090023097183000,-3.395819339584120
Grouse and death adder,1322153,DG11 1HE,55.212879000000000,-3.417201000000000
Fulmarine petrel and indigo snake,1322897,DG1 3NQ,55.173338000000000,-3.501231000000000
chuckwalla and Peafowl,1323315,DG1 1SH,55.095323584364400,-3.590217613203160
Lemming and Marsh harrier,1321761,DG11 2RQ,55.132137000000000,-3.347111000000000
kabaragoya and dugite,1322992,DG1 3SY,55.094737055714500,-3.579349833242400
kabaragoya and Francolin,1322172,DG11 1JG,55.090071801135600,-3.444050209272730
horned viper and Chickadee,1323267,DG1 1PP,55.077862753162300,-3.596981040645180
Wallaby and Warbler,1322290,DG11 1PA,55.129073354091700,-3.442697463444070
deaf adder and blindworm,1322164,DG11 1HW,55.204084000000000,-3.436924000000000
box turtle and tokay,1323279,DG1 1QJ,55.109331279635100,-3.584268130125350
frill-necked lizard and New World blackbird,1321636,DG11 2LZ,55.129310769957400,-3.349839226609310
chameleon and death adder,1322969,DG1 3RS,55.092940000000000,-3.580094000000000
Rabbit and brown snake,1322319,DG11 1QN,55.132314775661000,-3.445214284160040
Piping shrike and Eagle,1322005,DG11 2EJ,55.121048692547400,-3.359016110282340
cobra de capello and monitor,1322389,DG10 9NN,55.250008273897700,-3.362281264608190
Gila monster and Minke whale,1322991,DG1 3SW,55.095099681353300,-3.571465774594740
Myna and asp,1322039,DG11 1AD,55.084658758538200,-3.296571826242130
Piping shrike and B,1321854,DG11 1SG,55.145838015794500,-3.538609708507160
hawksbill and Thrasher,1767070,DG1 1FA,55.111333416534600,-3.586291914079520
