name,postcode,lat,lon
tortoise and black snake,DG1 1JY,55.081008642580900,-3.597639058044970
Magpie and slowworm,DG1 1NT,55.076191587969900,-3.596945775616850
saltwater crocodile and Goose,DG1 1QN,55.108690072125100,-3.585888804762850
jew lizard and Wallaby,DG1 1RP,55.089066000000000,-3.588402000000000
diamond python and Fulmarine petrel,DG1 1SD,55.107923739487500,-3.580544148646900
Badger and thorny devil,DG1 1SR,55.117063620773200,-3.607875000000000
Zebra and sand viper,DG1 1SU,55.116595000000000,-3.600643000000000
Egret and diamond snake,DG1 1SY,55.120754000000000,-3.620537000000000
taipan and bearded lizard,DG1 3GS,55.076126658718500,-3.586054000000000
Flameback and gaboon viper,DG1 3LZ,55.170278915096600,-3.542471514440380
Pitohui and Piping shrike,DG1 3NR,55.095288109817900,-3.563809853333510
Schneider python and Partridge,DG1 3PA,55.134970180799800,-3.580922731334550
sidewinder and Stint,DG1 3PF,55.075311000000000,-3.581858000000000
Songlark and hognose snake,DG1 3PG,55.081307905194600,-3.548036939956420
Moluccan boobook and gecko,DG1 3PX,55.089447568678600,-3.513942310264700
glass snake and death adder,DG1 3SJ,55.092521727119700,-3.575532935930060
Crow and skink,DG1 3TG,55.094656193991900,-3.566825381571030
Meadowlark and water snake,DG1 3TP,55.096527000000000,-3.573368000000000
Fulmarine petrel and Mouse,DG11 1BP,55.089196360982100,-3.364093030998320
box turtle and snapping turtle,DG11 1EP,55.187072986163000,-3.422206399623850
Moluccan boobook and Solitaire,DG11 1ER,55.197872800541000,-3.427791804144430
water snake and box turtle,DG11 1EX,55.238766343183800,-3.411264958812880
Mamo and blue tongue,DG11 1HY,55.109691050367700,-3.367691522195240
Old World quail and indigo snake,DG11 1NW,55.126076087550600,-3.438527433043260
mud turtle and black snake,DG11 1RQ,55.128485000000000,-3.454455000000000
Songlark and Condor,DG11 1SG,55.145838015794500,-3.538609708507160
Petrel and frilled lizard,DG11 1SX,55.143381193198200,-3.406515084438630
glass snake and Stilt,DG11 1TT,55.201225228085700,-3.499640417151110
Towhee and blindworm,DG11 1UF,55.129485217775600,-3.454680065119070
lizard and habu,DG11 2AJ,55.127228565444700,-3.356873542223800
iguana and adder,DG11 2EJ,55.121048692547400,-3.359016110282340
Dorcopsis and Masked owl,DG11 2EN,55.116499599447200,-3.367202960949810
Kangaroo and Stint,DG11 2HL,55.118045438066000,-3.350274543499320
horned toad and python,DG11 2JL,55.122544091114200,-3.356275585327070
Kestrel and Linsang,DG11 2JP,55.122060903988200,-3.356086710932950
water snake and Ground sloth,DG11 2LH,55.208040000000000,-3.310732000000000
worm lizard and Bunting,DG11 2LR,55.210616026382900,-3.294958996454820
Chipmunk and Night heron,DG11 2NP,55.162385033703800,-3.250149880911270
Civet and Tattler,DG11 2PJ,55.112248541779200,-3.328240224073370
Mamo and adder,DG11 2QS,55.118996143327400,-3.346386584862850
rock snake and Dorcopsis,DG11 2RJ,55.151029743171600,-3.351655460606850
king cobra and smooth snake,DG11 2SA,55.132137106331300,-3.354295132247520
cerastes and Herring gull,DG11 2SB,55.113003477246500,-3.355967943142740
Mouse and glass snake,DG11 2SD,55.131595000000000,-3.361068000000000
swift and Eagle,DG2 0DY,55.078495580660000,-3.628586800154180
chuckwalla and Linsang,DG2 0LW,55.080464349486200,-3.629888745972660
Bunting and Bunting,DG2 0NE,55.082435000000000,-3.634555186663850
boomslang and coral snake,DG2 0PW,55.085126060754800,-3.628746647198490
Lemming and lizard,DG2 0QG,55.079726012404500,-3.621916322712050
