name,postcode,lat,lon
adder and anaconda,BA10 0BQ,51.109916230000000,-2.459227372000000
boomslang and Stilt,BA10 0BR,51.107214690000000,-2.457929326000000
elapid and rock python,BA10 0DA,51.106256740000000,-2.461433600000000
jew lizard and milk snake,BA10 0DF,51.105350660000000,-2.463167128000000
Marsh harrier and moloch,BA10 0JA,51.114246950000000,-2.450884454000000
Night heron and Towhee,BA10 0JR,51.134556830000000,-2.375505047000000
crocodile and Jackal,BA10 0ND,51.102637000000000,-2.453814000000000
Chickadee and sea snake,BA10 0PG,51.096559090000000,-2.471476190000000
swift and alligator,BA10 0QQ,51.142303930000000,-2.408874383000000
tortoise and blind snake,BA11 1DA,51.231120250000000,-2.325003554000000
saltwater crocodile and fer-de-lance,BA11 1DT,51.230783600000000,-2.323182289000000
Parrotbill and Asiatic leopard,BA11 1FL,51.223426000000000,-2.314454999000000
garter snake and hawksbill,BA11 1HB,51.226573750000000,-2.327005042000000
bushmaster and indigo snake,BA11 1HD,51.227260810000000,-2.328900272000000
flying lizard and hognose snake,BA11 1HG,51.227589000000000,-2.331051000000000
sea snake and Pheasant,BA11 1QR,51.227971000000000,-2.315916091000000
Skunk and Treepie,BA11 1QZ,51.228022380000000,-2.310159352000000
Francolin and Jay,BA11 2AJ,51.232830840000000,-2.310993772000000
skink and Tahr,BA11 2BY,51.236231400000000,-2.300044785000000
monitor and Prion,BA11 2EB,51.234211270000000,-2.315958859000000
gecko and Grouse,BA11 2EX,51.235248020000000,-2.297803939000000
Tit-tyrant and Stilt,BA11 2HN,51.240611490000000,-2.313366933000000
cycling lizard and harlequin snake,BA11 2JE,51.240118000000000,-2.316787000000000
Chipmunk and Wader,BA11 2LB,51.238758200000000,-2.323624968000000
blind snake and chameleon,BA11 2LG,51.238523160000000,-2.320815737000000
Dorcopsis and Siskin,BA11 2LN,51.238489910000000,-2.323093082000000
Black cockatoo and box turtle,BA11 2LP,51.238547920000000,-2.315014531000000
Elephant and diamondback,BA11 2SU,51.240724830000000,-2.321303792000000
garter snake and Booted eagles,BA11 2UT,51.242831720000000,-2.303425656000000
Pitohui and tree snake,BA11 2XH,51.239423510000000,-2.296527378000000
Kite and python,BA11 3AU,51.234243160000000,-2.324022959000000
Thrasher and Civet,BA11 3EA,51.233624000000000,-2.330364000000000
Elephant and giant tortoise,BA11 3EY,51.233375610000000,-2.335131346000000
taipan and boa,BA11 3JL,51.233804270000000,-2.345418324000000
B and moloch,BA11 3ND,51.235334980000000,-2.338554561000000
constrictor and cayman,BA11 3PU,51.239281030000000,-2.393590150000000
sea snake and king cobra,BA11 4AL,51.224902850000000,-2.323198350000000
Hawk and mountain devil,BA11 4AP,51.223813380000000,-2.323720547000000
Diving bird and lizard,BA11 4HD,51.223455770000000,-2.332596257000000
Stint and asp,BA11 4HG,51.225439680000000,-2.336892345000000
king snake and Perching duck,BA11 4HU,51.224930250000000,-2.332664173000000
horned viper and hognose snake,BA11 4JH,51.228620300000000,-2.334853000000000
Partridge and agama,BA11 4JN,51.227271000000000,-2.332094738000000
Rabbit and iguana,BA11 4JS,51.228808290000000,-2.331775586000000
blind snake and Bunting,BA11 4LS,51.229297010000000,-2.333827081000000
blue tongue and Magpie,BA11 4RD,51.224511110000000,-2.328250577000000
mountain devil and carpet snake,BA11 5AZ,51.221783870000000,-2.319482138000000
diamondback and Solitaire,BA11 5BS,51.209543000000000,-2.336876000000000
copperhead and Grosbeak,BA11 5EH,51.210940500000000,-2.322427678000000
cycling lizard and Puffleg,BA11 5EP,51.200181000000000,-2.325984000000000
Warbler and thorny devil,BA11 5FD,51.224126000000000,-2.302984000000000
worm lizard and sand viper,BA11 5HE,51.169922580000000,-2.364121024000000
soft-shelled turtle and Grosbeak,BA11 5HJ,51.156995550000000,-2.360086926000000
Masked owl and Recurvebill,BA11 5JT,51.231341910000000,-2.299225240000000
Argus and bearded lizard,BA12 0AH,51.227870000000000,-2.193757000000000
Kākāriki and Linsang,BA12 0BB,51.206491250000000,-2.173111406000000
skink and Capuchin,BA12 0BW,51.206566370000000,-2.170950208000000
Tattler and habu,BA12 0DJ,51.213156000000000,-2.159922000000000
Towhee and indigo snake,BA12 0DZ,51.219452390000000,-2.150923564000000
soft-shelled turtle and leguaan,BA12 0FF,51.204662000000000,-2.173313000000000
Myna and Thicketbird,BA12 2AX,51.204318000000000,-2.178371000000000
grass snake and Armadillo,BA12 2DB,51.204312000000000,-2.178365000000000
tortoise and blue racer,BA12 6ED,51.093257860000000,-2.266946207000000
Greenbul and Minke whale,BA12 6HB,51.090734680000000,-2.265361013000000
Fulmarine petrel and tree snake,BA12 6JE,51.090588540000000,-2.270386000000000
Tahr and gavial,BA12 6LG,51.086341680000000,-2.293690608000000
Lemming and Stint,BA12 6LY,51.087813830000000,-2.312018330000000
kabaragoya and cayman,BA12 6ND,51.081505600000000,-2.313788890000000
Stint and Hawaiian honeycreeper,BA12 6PF,51.086654010000000,-2.325145752000000
bicycle lizard and American sparrow,BA12 6PJ,51.084582800000000,-2.316422378000000
bearded dragon and Armadillo,BA12 6QB,51.102511140000000,-2.326928098000000
Cuscus and Jay,BA12 6QN,51.116402350000000,-2.324268884000000
Black cockatoo and harlequin snake,BA12 6QY,51.119581960000000,-2.325562754000000
Myna and Recurvebill,BA12 6RL,51.121850000000000,-2.318835000000000
green turtle and racer,BA12 7AR,51.178856740000000,-2.148630563000000
wall lizard and Crow,BA12 7AU,51.177973170000000,-2.143320348000000
Asiatic leopard and gopher snake,BA12 7AZ,51.179150220000000,-2.143911000000000
jew lizard and whip snake,BA12 7BD,51.193118000000000,-2.134996000000000
cycling lizard and Recurvebill,BA12 7BJ,51.180447560000000,-2.149222247000000
Hawk and box turtle,BA12 7HN,51.146219940000000,-2.286451135000000
Grouse and blindworm,BA12 7JS,51.191771880000000,-2.234703035000000
saltwater crocodile and glass snake,BA12 7PU,51.187075580000000,-2.231445454000000
constrictor and Grackle,BA12 7QZ,51.198358960000000,-2.249663859000000
Grackle and Jackal,BA12 7RF,51.198390320000000,-2.238958715000000
leguaan and bearded lizard,BA12 8AR,51.182525580000000,-2.197157384000000
bicycle lizard and Asiatic leopard,BA12 8BT,51.214091560000000,-2.194615105000000
Vole and blind snake,BA12 8EN,51.200000000000000,-2.201411000000000
glass snake and king cobra,BA12 8FF,51.214092219267800,-2.191737700967170
Mink and Gila monster,BA12 8HG,51.203157950000000,-2.204803036000000
taipan and lizard,BA12 8LF,51.200705010000000,-2.187631309000000
Jackal and death adder,BA12 8LW,51.201261000000000,-2.189466000000000
alligator and Mink,BA12 8NF,51.199861770000000,-2.191935899000000
thorny devil and Armadillo,BA12 8PH,51.208572600000000,-2.187849418000000
massasauga and Vulture,BA12 8QL,51.206142560000000,-2.183588169000000
Triller and Chicken,BA12 8QQ,51.207340340000000,-2.182404820000000
Stint and tuatara,BA12 8RE,51.211120730000000,-2.185712422000000
Guillemot and New World blackbird,BA12 8SE,51.201354750000000,-2.202404787000000
Partridge and amphisbaena,BA12 8SQ,51.203837000000000,-2.202744335000000
massasauga and Solitaire,BA12 9AN,51.204547020000000,-2.180361209000000
Bunting and Myna,BA12 9AY,51.205085340000000,-2.181250000000000
diamondback terrapin and death adder,BA12 9EB,51.201700240000000,-2.159281446000000
goanna and diamondback,BA12 9ED,51.200612650000000,-2.158962812000000
Tree warbler and agamid,BA12 9HG,51.196814350000000,-2.155028392000000
fer-de-lance and frilled lizard,BA12 9HL,51.198888230000000,-2.150641564000000
Egret and Viscacha,BA12 9HQ,51.195769820000000,-2.156126835000000
habu and indigo snake,BA12 9JP,51.202040420000000,-2.172994506000000
Ibex and Kākāriki,BA12 9JR,51.201778570000000,-2.173723485000000
Nukupuʻu and Chipmunk,BA12 9LA,51.199527870000000,-2.169449955000000
dugite and goanna,BA12 9LQ,51.197519390000000,-2.165463942000000
Songlark and anole,BA12 9LW,51.200994890000000,-2.174650859000000
rock snake and Mamo,BA12 9NP,51.204167810000000,-2.181361685000000
Egret and hoop snake,BA12 9PU,51.197249180000000,-2.183810379000000
B and River dolphin,BA12 9QT,51.195413850000000,-2.190042654000000
indigo snake and milk snake,BA12 9QY,51.198678300000000,-2.189812799000000
Zebra and amphisbaena,BA13 3FD,51.248562370000000,-2.202325669000000
Old World quail and boa,BA13 3RF,51.249573190000000,-2.189363462000000
dugite and boomslang,BA13 3RJ,51.249994000000000,-2.191428000000000
bearded dragon and tortoise,BA13 3SU,51.247844070000000,-2.201720768000000
Pratincole and Mamo,BA13 3SX,51.249527250000000,-2.195423921000000
Flameback and python,BA13 4DX,51.247522810000000,-2.225015315000000
River dolphin and agamid,BA22 7BJ,51.047221230000000,-2.505340112000000
blue racer and Black jay,BA22 7DE,51.045992360000000,-2.523029595000000
Rabbit and viper,BA22 7ER,51.030226690000000,-2.525532948000000
hawksbill and Lemming,BA3 5AE,51.230449020000000,-2.512501327000000
Pheasant and Snipe,BA3 5AL,51.223795930000000,-2.524456109000000
Grosbeak and Jerboa,BA3 5AQ,51.224220450000000,-2.524031336000000
diamond snake and Asiatic leopard,BA3 5BA,51.229527480000000,-2.533586910000000
kabaragoya and sand lizard,BA3 5DD,51.240407150000000,-2.473117905000000
thorn lizard and krait,BA3 5EQ,51.247346170000000,-2.469335128000000
Stint and Kangaroo,BA3 5FH,51.223429450000000,-2.525969839000000
galliwasp and leathery turtle,BA3 5JH,51.222180270000000,-2.490629671000000
Herring gull and soft-shelled turtle,BA3 5JX,51.217215000000000,-2.482716000000000
king snake and Jay,BA3 5LZ,51.237100810000000,-2.449635591000000
box turtle and Hawk,BA3 5NF,51.238099870000000,-2.449387498000000
Bronzewing pigeon and blindworm,BA3 5PH,51.246036320000000,-2.454923383000000
Solitaire and Komodo dragon,BA3 5QD,51.236682090000000,-2.464743184000000
Vole and Tahr,BA3 5QL,51.223501810000000,-2.443402783000000
thorn lizard and Logrunners,BA3 5QU,51.218872660000000,-2.454669769000000
Tit-tyrant and blue racer,BA3 5RH,51.241764370000000,-2.438650497000000
dukite and sea snake,BA3 5RP,51.241566340000000,-2.438705913000000
gopher snake and coral snake,BA4 4LF,51.210349970000000,-2.470161264000000
Chicken and massasauga,BA4 4PJ,51.188338130000000,-2.504550327000000
mamba and gaboon viper,BA4 4PU,51.194406010000000,-2.517295978000000
constrictor and Francolin,BA4 4QN,51.188918770000000,-2.473205506000000
brown snake and Recurvebill,BA4 4QW,51.189124230000000,-2.475754636000000
Stilt and wall lizard,BA4 4RH,51.188593320000000,-2.475849329000000
Old World warbler and rock python,BA4 4TD,51.174529910000000,-2.411863082000000
hognose snake and deaf adder,BA4 4TQ,51.177853200000000,-2.407801307000000
cayman and Triller,BA4 5DR,51.186118020000000,-2.536662323000000
Mink and cycling lizard,BA4 5PW,51.186007880000000,-2.535187300000000
Badger and Gila monster,BA4 5QB,51.182700880000000,-2.534734077000000
Asiatic leopard and kabaragoya,BA4 6AN,51.151980000000000,-2.511831000000000
Badger and Tattler,BA4 6BN,51.140157560000000,-2.452080352000000
rock python and Schneider python,BA4 6BY,51.150849890000000,-2.449554177000000
Fox and indigo snake,BA4 6DH,51.150195710000000,-2.451306357000000
galliwasp and constrictor,BA4 6LE,51.151777000000000,-2.504838000000000
Coati and Ibex,BA4 6LL,51.150308210000000,-2.509426000000000
Skunk and Tree warbler,BA4 6NY,51.144760130000000,-2.507205529000000
Lemming and rock snake,BA4 6PX,51.112802070000000,-2.533483704000000
flying lizard and Quetzal,BA7 7AU,51.090337860000000,-2.509708166000000
tuatara and Recurvebill,BA7 7ER,51.086111930000000,-2.519827157000000
puff adder and tortoise,BA7 7HX,51.091732080000000,-2.509609268000000
diamond python and Cloud rat,BA7 7JE,51.092251390000000,-2.508058543000000
Snipe and amethystine python,BA7 7LB,51.093517210000000,-2.514698161000000
Towhee and jew lizard,BA7 7LP,51.090654820000000,-2.496660895000000
cerastes and Puffleg,BA7 7NN,51.087374000000000,-2.503051000000000
flying lizard and Puffleg,BA7 7PG,51.095914000000000,-2.529704878000000
bushmaster and Cuscus,BA8 0AB,51.031665010000000,-2.450296111000000
Scimitar babbler and king snake,BA8 0AQ,51.031031000000000,-2.440037000000000
frill-necked lizard and perentie,BA9 8AG,51.037847880000000,-2.434681624000000
blind snake and ringhals,BA9 8AX,51.039525640000000,-2.449930194000000
Bronzewing pigeon and gavial,BA9 8DY,51.059533600000000,-2.490092059000000
Lemming and diamond snake,BA9 8EF,51.040506420000000,-2.476968633000000
Kite and leguaan,BA9 8EU,51.079810950000000,-2.384383196000000
Komodo dragon and kabaragoya,BA9 8JQ,51.083074190000000,-2.454749876000000
Capuchin and thorn lizard,BA9 8LR,51.082634980000000,-2.349886753000000
hognose snake and massasauga,BA9 9AY,51.057674290000000,-2.412765369000000
Parrotlet and Parakeet,BA9 9BT,51.056065000000000,-2.418244000000000
black snake and Treepie,BA9 9DS,51.050499140000000,-2.413829000000000
adder and bicycle lizard,BA9 9EN,51.053156000000000,-2.409187000000000
garter snake and Black cockatoo,BA9 9GD,51.052533295160500,-2.403246670612550
loggerhead and Logrunners,BA9 9JN,51.056666190000000,-2.410487751000000
hoop snake and Siskin,BA9 9NE,51.058587500000000,-2.401001716000000
dugite and Towhee,BA9 9NH,51.058091470000000,-2.396160351000000
mountain devil and gaboon viper,BA9 9NU,51.057525800000000,-2.411522689000000
carpet snake and sand viper,BA9 9PL,51.049414410000000,-2.382547843000000
box turtle and chameleon,BA9 9PU,51.046187490000000,-2.350624710000000
Recurvebill and gopher snake,BA9 9QR,51.055737400000000,-2.406085007000000
lizard and asp,BA9 9QY,51.035811370000000,-2.353313130000000
Old World warbler and mud turtle,SP3 6BU,51.070089409343900,-2.196878466281520
Snipe and coral snake,SP3 6EP,51.095443213615300,-2.128827345833580
Logrunners and Vulture,SP7 9AD,51.028735774558900,-2.179292023103460
Jackal and hawksbill,SP7 9AN,51.040763000000000,-2.176985000000000
Jerboa and black snake,SP7 9BJ,51.033318457156400,-2.135043597357540
Maya and cobra de capello,SP7 9NN,51.033610455227400,-2.220739335953050
gaboon viper and cycling lizard,SP7 9NT,51.026002505277700,-2.216225906437840
Thrasher and Bunting,SP8 4BU,51.042710682589500,-2.279450041059480
green turtle and anole,SP8 4DS,51.039504835409300,-2.277619346840720
Thicketbird and iguana,SP8 4DX,51.038732838437200,-2.277058484422390
gavial and Darwin's finches,SP8 4EW,51.042420777235700,-2.269221000000000
puff adder and Grouse,SP8 4FE,51.046264193120900,-2.282524151165700
River dolphin and cycling lizard,SP8 4GG,51.030214974982000,-2.262462381831220
snapping turtle and rock python,SP8 4GH,51.045600814086300,-2.281678489281920
Vulture and python,SP8 4GY,51.032119629694200,-2.263214704343200
tree snake and Condor,SP8 4PW,51.037620850610800,-2.283284489911050
Minke whale and dukite,SP8 4PX,51.030963027528000,-2.273475558981580
Logrunners and Old World quail,SP8 4QP,51.038276053738100,-2.268212000000000
amphisbaena and Crow,SP8 4QS,51.034223603552000,-2.275006465592250
dukite and Petrel,SP8 4RB,51.035408247258900,-2.283499173180440
skink and Mole,SP8 4RT,51.036072186006600,-2.287781788534510
Macaw and Rat,SP8 4SU,51.038729560667300,-2.293132508990170
Chipmunk and Recurvebill,SP8 4TJ,51.047623299537600,-2.274443937761700
hawksbill and whip snake,SP8 5BW,51.070727466118400,-2.332056135411760
racer and cobra,SP8 5DL,51.075788150860800,-2.323113983946310
Ground sloth and amphisbaena,SP8 5NL,51.043476662552600,-2.296999548196190
horned toad and Tit-tyrant,SP8 5PB,51.039453237146200,-2.334998730467200
Jerboa and Songlark,SP8 5PQ,51.070509000000000,-2.330256000000000
mud turtle and rattlesnake,SP8 5QF,51.059038289966100,-2.276594743329380
