name,postcode,lat,lon
At The Chapel,BA10 0AE,51.11184100000000,-2.45480100000000
The Sun Inn,BA10 0AH,51.11203800000000,-2.45503100000000
Roth Bar & Grill Limited,BA10 0NL,51.10978700000000,-2.44889600000000
On The Brook,BA10 0QP,51.11719700000000,-2.45549600000000
Fat Radish,BA11 1AN,51.23130740000000,-2.32094840000000
Subway ,BA11 1AN,51.23139770000000,-2.32080580000000
Black Swan Cafe,BA11 1BB,51.23308944702150,-2.31948590278625
Loop de Loop ,BA11 1BE,51.2336,-2.3201
Archangel,BA11 1BH,51.23081900000000,-2.32065900000000
Nook,BA11 1BH,51.23053560000000,-2.32038440000000
Coffee#1,BA11 1BS,51.23200607299800,-2.32155489921570
Eight Stony Street,BA11 1BU,51.23090300000000,-2.32237800000000
23 Bath St Ltd,BA11 1DJ,51.23063980000000,-2.32176010000000
Castello,BA11 1DS,51.23021550000000,-2.32175510000000
The High Pavement,BA11 1DS,51.23046620000000,-2.32274710000000
The Old Bath Arms,BA11 1DS,51.23009060000000,-2.32199970000000
palmer street bottle,BA11 1DS,51.23039590000000,-2.32214500000000
The Artisan Frome,BA11 1EQ,51.23037200000000,-2.32624200000000
Alfreds Bread ,BA11 1RE,51.22671127319340,-2.31100606918335
Hesperian Fish,BA11 1RE,51.22671127319340,-2.31100606918335
Station Approach,BA11 1RE,51.2268,-2.3106
Rye Bakery,BA11 3BY,51.23150253295900,-2.32425904273987
The Griffin,BA11 3DB,51.23299200000000,-2.32479900000000
The Talbot Inn,BA11 3PN,51.24127578735350,-2.39114093780518
KFC,BA11 4DH,51.21714782714840,-2.33201789855957
McDonald's Restaurant,BA11 4DH,51.21714600000000,-2.33201800000000
Pizza Hut Restaurant,BA11 4DH,51.21714782714840,-2.33201789855957
Tool & Gauge ,BA11 4FN,51.22001647949220,-2.32310295104980
Field 725 Cafe,BA11 4LJ,51.22478920000000,-2.35194950000000
The George Inn,BA11 4LW,51.20958800000000,-2.37797400000000
Cafe Nouveau ,BA11 5BW,51.20550300000000,-2.33151900000000
The White Hart Inn,BA11 5DP,51.19327545166020,-2.36375904083252
LA CAMPAGNA WARMINSTER LTD,BA12 0AG,51.22970581054690,-2.19298791885376
FUNWAYS,BA12 0DF,51.2098,-2.1587
Starbucks,BA12 6AQ,51.10140228271484,-2.18592596054077
The Walnut Tree Inn ,BA12 6BH,51.08494400000000,-2.26197000000000
The George Inn,BA12 6DR,51.09020500000000,-2.26959600000000
The Bell & Crown,BA12 6NJ,51.08516100000000,-2.31258300000000
Spread Eagle Inn,BA12 6QE,51.10484695434570,-2.32154297828674
The George Inn,BA12 7DG,51.16679100000000,-2.19146700000000
The Bath Arms,BA12 7LY,51.17402800000000,-2.27366100000000
Longleat Safari and Adventure Park,BA12 7NW,51.18657100000000,-2.27746900000000
The Cross Keys Corsley,BA12 7PB,51.21651400000000,-2.25826400000000
Royal Oak Corsley ,BA12 7PR,51.20753700000000,-2.25958800000000
Burger King,BA12 7RU,51.21786000000000,-2.19999800000000
Moto Hospitality,BA12 7RU,51.21786000000000,-2.19999800000000
The Garden Room Coffee Shop,BA12 8AP,51.18030500000000,-2.19225200000000
The Weymouth Arms,BA12 8JA,51.20487900000000,-2.18697300000000
The Cockinn ,BA12 8JZ,51.20342500000000,-2.19662900000000
Bo & Co coffee garden,BA12 8PS,51.20519050000000,-2.18624130000000
The Dessert Hatch ,BA12 8QA,51.20552690000000,-2.18386650000000
Le cafe journal,BA12 9AE,51.20521100000000,-2.18190700000000
The Old Fire Station,BA12 9AL,51.20576310000000,-2.18236440000000
AGRA RESTAURANT,BA12 9BN,51.20395800000000,-2.17810900000000
The Masons Arms Warminster,BA12 9BN,51.20395800000000,-2.17810900000000
The Great Wall Chinese Restaurant ,BA12 9BW,51.20356400000000,-2.17740600000000
Cornmarket Cafe,BA12 9BX,51.20509000000000,-2.17904400000000
Bishopstrow Hotel & Spa,BA12 9HH,51.19625854492188,-2.14769649505615
Three Horseshoes,BA13 4AN,51.22914600000000,-2.25073000000000
Fairfield Farm College Cafe,BA13 4DL,51.24889100000000,-2.21026200000000
The Orchard Inn,BA22 7BA,51.06698300000000,-2.52253500000000
The Oakhill Inn,BA3 5HU,51.22281646728520,-2.52087688446045
The Bell Inn,BA3 5QQ,51.22350311279300,-2.44327092170715
Greenfield Cafe,BA4 4FZ,51.1608,-2.5264
Waggon & Horses,BA4 4LA,51.20892800000000,-2.50321200000000
The Well Inn Shepton Ltd,BA4 4LY,51.17529700000000,-2.53571900000000
prestleigh inn,BA4 4NL,51.16152191162110,-2.52432203292847
Charlton House,BA4 4PR,51.18458500000000,-2.52589700000000
THE POACHERS POCKET,BA4 4PY,51.19423294067380,-2.50325298309326
Harlequin Cafe,BA4 5NF,51.19074249267580,-2.53601193428040
Pantry Restaurant,BA4 5NF,51.19074249267580,-2.53601193428040
The Bell Inn,BA4 6HY,51.14662933349610,-2.50176191329956
The Natterjack Inn,BA4 6NA,51.12800979614260,-2.51760792732239
Peckingmill inn ,BA4 6PG,51.13879500000000,-2.51632800000000
The Alhampton Inn,BA4 6PY,51.11166300000000,-2.53315300000000
the george hotel ,BA7 7AH,51.08948500000000,-2.51375100000000
the white hart,BA7 7BQ,51.08873500000000,-2.51455700000000
Levant Restaurant,BA7 7BX,51.0890,-2.5181
Bay Tree,BA7 7ET,51.08439700000000,-2.51946200000000
Emily Estate UK Ltd,BA7 7NG,51.07791900634770,-2.48731398582459
The Brook House Inn ,BA7 7PF,51.10245513916020,-2.52337789535522
KFC,BA9 8AD,51.04914700000000,-2.43120400000000
old inn ,BA9 8AR,51.04138400000000,-2.45094400000000
The Stags Head Inn Yarlington Limited,BA9 8DG,51.06162600000000,-2.49532000000000
Otter Garden Centre,BA9 8HA,51.07227700000000,-2.41068000000000
The Kitchen at Kimbers,BA9 8HD,51.07735824584960,-2.41276597976685
The Montague Inn ,BA9 8JW,51.08134000000000,-2.46616500000000
HUNTERS LODGE INN,BA9 8LD,51.06782100000000,-2.36912400000000
Millers Inn,BA9 9AN,51.05548600000000,-2.41404100000000
THE NOG INN,BA9 9DL,51.05534400000000,-2.41084400000000
Cale Park Kitchen,BA9 9ED,51.0544,-2.4149
Cafe Central,BA9 9JB,51.05729300000000,-2.40890700000000
The Dolphin Hotel,BA9 9JF,51.05663200000000,-2.40765900000000
Hooga Coffee,BA9 9JT,51.05681400000000,-2.40957300000000
The Lovington Bakery,BA9 9LD,51.05602600000000,-2.41112100000000
Fox & Hounds,SP3 6BN,51.08038800000000,-2.18504200000000
The Grosvenor Arms,SP3 6DJ,51.09494220000000,-2.13017660000000
The Benett Arms,SP7 9AS,51.04179382324219,-2.15302324295044
Compton McRae Limited,SP7 9AW,51.04494476318360,-2.17200589179993
THE COPPLERIDGE INN,SP7 9HW,51.03902435302730,-2.22561097145081
Cafe Corsa Motocorsa,SP8 4NW,51.03831481933590,-2.29331302642822
Costa Coffee,SP8 4QT,51.03710937500000,-2.27275300025940
The Secret Garden Cafe,SP8 4RE,51.03267288208010,-2.28819990158081
The White Lion Inn,SP8 5AT,51.07846069335940,-2.31649208068848
Orchard Park Garden Centre,SP8 5JG,51.02807617187500,-2.25487589836121
