name,postcode,lat,lon
Wader and sand lizard,BA10 0BB,51.110034860000000,-2.458785724000000
boomslang and cerastes,BA10 0BX,51.107613720000000,-2.459361665000000
amphisbaena and Crow,BA10 0EY,51.109533180000000,-2.456009556000000
Ibex and Crow,BA10 0HT,51.117108330000000,-2.448054948000000
milk snake and Parakeet,BA10 0JL,51.131496810000000,-2.398060422000000
fer-de-lance and rattlesnake,BA10 0JN,51.139120500000000,-2.374742000000000
snake and Bronzewing pigeon,BA10 0LD,51.117195060000000,-2.446541378000000
Jerboa and Meadowlark,BA10 0NW,51.100892290000000,-2.467250011000000
cayman and Argus,BA10 0QR,51.127239494729100,-2.470760085415280
Pratincole and viper,BA11 1AL,51.232003600000000,-2.320970876000000
loggerhead and Kite,BA11 1AP,51.231727130000000,-2.320138259000000
Minke whale and Songlark,BA11 1BN,51.230753430000000,-2.321076747000000
cayman and Magpie,BA11 1BS,51.231929900000000,-2.321614868000000
Vulture and blindworm,BA11 1EE,51.229825440000000,-2.324994426000000
Dolphin and alligator,BA11 1EL,51.230637320000000,-2.324054901000000
Tahr and saltwater crocodile,BA11 1EP,51.230595340000000,-2.326217217000000
Tit-tyrant and Civet,BA11 1HE,51.227945940000000,-2.331641000000000
bull snake and Schneider python,BA11 1HT,51.226350200000000,-2.323323060000000
cycling lizard and bearded lizard,BA11 1JB,51.228126550000000,-2.321531051000000
taipan and Gull,BA11 1JE,51.227174370000000,-2.321180710000000
Myna and Ibex,BA11 1JP,51.226176000000000,-2.321845932000000
rattlesnake and boa,BA11 1JS,51.225277110000000,-2.321167494000000
Pitohui and Viscacha,BA11 1LB,51.224664060000000,-2.321750347000000
constrictor and Black cockatoo,BA11 1PY,51.228929010000000,-2.317440725000000
Hawaiian honeycreeper and bandy-bandy,BA11 1QS,51.227588300000000,-2.314452728000000
diamondback turtle and dugite,BA11 1QU,51.227927050000000,-2.312192306000000
Vulture and Maya,BA11 2BJ,51.233987360000000,-2.305472907000000
blue tongue and diamond python,BA11 2BL,51.233318640000000,-2.303291415000000
Stint and blindworm,BA11 2BP,51.234479080000000,-2.299618007000000
Polecat and Mockingbird,BA11 2BR,51.235080390000000,-2.300065939000000
smooth snake and bushmaster,BA11 2DF,51.237078680000000,-2.299248161000000
monitor and taipan,BA11 2EJ,51.237780850000000,-2.302432682000000
Hawaiian honeycreeper and Capuchin,BA11 2HG,51.241263030000000,-2.311824238000000
boa and rat snake,BA11 2HX,51.243353540000000,-2.313543165000000
tortoise and ringhals,BA11 2JS,51.237736610000000,-2.315768165000000
bicycle lizard and blue racer,BA11 2NS,51.245743390000000,-2.320908989000000
grass snake and Piping shrike,BA11 2PB,51.248739750000000,-2.339297795000000
harlequin snake and Songlark,BA11 2SQ,51.241438230000000,-2.303330528000000
indigo snake and Skunk,BA11 2YB,51.241138690000000,-2.300936249000000
puff adder and Magpie,BA11 3BX,51.232844920000000,-2.328854177000000
gavial and Maya,BA11 3EA,51.233624000000000,-2.330364000000000
White ibis and Pheasant,BA11 3EG,51.234793000000000,-2.333666000000000
Vulture and Piping shrike,BA11 3RD,51.225306000000000,-2.427725000000000
gavial and dukite,BA11 4AB,51.224703270000000,-2.327063377000000
green turtle and mamba,BA11 4AN,51.223595720000000,-2.327613992000000
tuatara and brown snake,BA11 4AU,51.202674470000000,-2.377332890000000
elapid and Fulmarine petrel,BA11 4AW,51.223673570000000,-2.325495218000000
horned toad and python,BA11 4BH,51.221457000000000,-2.327627000000000
cobra de capello and soft-shelled turtle,BA11 4BN,51.220916000000000,-2.324874000000000
blue racer and Badger,BA11 4BR,51.223651630000000,-2.333285019000000
terrapin and blue tongue,BA11 4DF,51.223845300000000,-2.331582358000000
python and sidewinder,BA11 4DT,51.220865900000000,-2.332663492000000
Minke whale and Thrasher,BA11 4EX,51.223371000000000,-2.334529000000000
bushmaster and Argus,BA11 4HT,51.226724430000000,-2.337274071000000
Kākāriki and boa,BA11 4JL,51.230931360000000,-2.337720187000000
Grouse and Maya,BA11 4JW,51.227852610000000,-2.332670937000000
Asiatic leopard and rat snake,BA11 4NR,51.207810820000000,-2.376730722000000
Fulmarine petrel and flying dragon,BA11 4PF,51.189178870000000,-2.387911494000000
hoop snake and box turtle,BA11 4PP,51.195008000000000,-2.407049000000000
sidewinder and Dorcopsis,BA11 4PQ,51.194100580000000,-2.392488000000000
brown snake and B,BA11 5BR,51.188771570000000,-2.330214307000000
iguana and deaf adder,BA11 5DA,51.198916620000000,-2.351096689000000
constrictor and Ice seal,BA11 5DE,51.205676000000000,-2.349344000000000
boa constrictor and Mink,BA11 5EL,51.209412000000000,-2.313026000000000
Fulmarine petrel and sidewinder,BA11 5FA,51.224799000000000,-2.306855000000000
dugite and Kākāriki,BA11 5HA,51.180846000000000,-2.344421000000000
Meadowlark and Grosbeak,BA11 5HN,51.169053600000000,-2.365959246000000
sand lizard and gaboon viper,BA11 5LN,51.201464320000000,-2.287438027000000
Masked owl and glass snake,BA11 5LW,51.198272330000000,-2.294602715000000
blind snake and Black jay,BA12 0AR,51.209525580000000,-2.176415331000000
Piping shrike and indigo snake,BA12 0DY,51.211637530000000,-2.158385243000000
Darwin's finches and Petrel,BA12 2BY,51.204312000000000,-2.178365000000000
Quetzal and Mink,BA12 6AH,51.078615080000000,-2.216556992000000
Marsh harrier and smooth snake,BA12 6AX,51.094530480000000,-2.261242000000000
snapping turtle and box turtle,BA12 6BA,51.075434380000000,-2.247002740000000
amethystine python and glass snake,BA12 6BQ,51.092310390000000,-2.264441895000000
Fox and Herring gull,BA12 6BU,51.082341640000000,-2.258860156000000
blue racer and smooth snake,BA12 6DL,51.090510510000000,-2.268815000000000
moloch and puff adder,BA12 6DX,51.083237440000000,-2.260279000000000
Masked owl and Pitohui,BA12 6EP,51.092197100000000,-2.263014000000000
Flameback and glass snake,BA12 6EQ,51.094055320000000,-2.264237661000000
rattlesnake and soft-shelled turtle,BA12 6EW,51.090820330000000,-2.263276814000000
Cloud rat and Argus,BA12 6EX,51.093285870000000,-2.262519737000000
Lemming and Moluccan boobook,BA12 6HH,51.091377250000000,-2.267492245000000
milk snake and chameleon,BA12 6JE,51.090588540000000,-2.270386000000000
tokay and Stint,BA12 6LB,51.089432170000000,-2.280188674000000
Ice seal and alligator,BA12 6LF,51.084386020000000,-2.288224506000000
horned toad and tokay,BA12 6PA,51.081042350000000,-2.325349070000000
Darwin's finches and green turtle,BA12 6PU,51.090494350000000,-2.334453799000000
diamond python and Stint,BA12 6RE,51.124043550000000,-2.321764702000000
Prion and anaconda,BA12 7AL,51.173693660000000,-2.135225154000000
mamba and box turtle,BA12 7BX,51.178567460000000,-2.149531000000000
Dorcopsis and Petrel,BA12 7EH,51.163476740000000,-2.188581207000000
River dolphin and boa constrictor,BA12 7HL,51.147744700000000,-2.280642006000000
cycling lizard and jew lizard,BA12 7HQ,51.130338200000000,-2.221029195000000
Gull and giant tortoise,BA12 7PS,51.206639280000000,-2.254418134000000
green turtle and Parrotlet,BA12 8AH,51.178298970000000,-2.197382528000000
alligator and tokay,BA12 8AR,51.182525580000000,-2.197157384000000
Lemming and rock python,BA12 8BU,51.195028990000000,-2.194420193000000
deaf adder and gopher snake,BA12 8DT,51.196330420000000,-2.195856805000000
python and cobra de capello,BA12 8ET,51.198616960000000,-2.204840123000000
flying dragon and horned toad,BA12 8GF,51.198005000000000,-2.207823000000000
Peafowl and Armadillo,BA12 8HU,51.201506020000000,-2.198082964000000
Jay and cayman,BA12 8JS,51.197910940000000,-2.197080015000000
Darwin's finches and Linsang,BA12 8PD,51.210248130000000,-2.191521033000000
Linsang and milk snake,BA12 8QY,51.210817920000000,-2.183864469000000
flying lizard and Guillemot,BA12 8SD,51.206276620000000,-2.184104019000000
Fox and galliwasp,BA12 9BX,51.205079590000000,-2.179032092000000
Francolin and giant tortoise,BA12 9JN,51.200374140000000,-2.168737438000000
Rabbit and Goose,BA12 9LD,51.198068390000000,-2.171362374000000
deaf adder and swift,BA12 9LR,51.199981000000000,-2.174132000000000
Fulmarine petrel and thorn lizard,BA12 9LZ,51.198577000000000,-2.167872145000000
Bronzewing pigeon and Bronzewing pigeon,BA12 9NG,51.201908000000000,-2.178433000000000
Tit-tyrant and Jerboa,BA12 9NL,51.201815430000000,-2.160527071000000
garter snake and fer-de-lance,BA12 9PJ,51.199818960000000,-2.185022857000000
rock python and Dolphin,BA12 9PP,51.197185000000000,-2.179688000000000
Marsh harrier and tree snake,BA12 9PR,51.198290910000000,-2.184658930000000
sand lizard and Bunting,BA12 9PW,51.196751120000000,-2.180287790000000
Gila monster and massasauga,BA13 3RE,51.247865720000000,-2.188754695000000
bearded dragon and Magpie,BA13 3SP,51.246239000000000,-2.205295000000000
Argus and sidewinder,BA13 3SQ,51.249774510000000,-2.198104279000000
Mockingbird and Wader,BA13 3UL,51.248949790000000,-2.201883216000000
White ibis and viper,BA22 7AF,51.074604210000000,-2.517285875000000
Pheasant and Linsang,BA22 7AX,51.066828410000000,-2.520781277000000
loggerhead and thorn lizard,BA22 7BA,51.066973490000000,-2.522524023000000
Puffleg and iguana,BA22 7DL,51.044280160000000,-2.521840617000000
racer and Coati,BA22 7EL,51.034111800000000,-2.507122726000000
fer-de-lance and Parrotbill,BA3 5BR,51.236107000000000,-2.528521000000000
Gull and puff adder,BA3 5DF,51.241369590000000,-2.473041832000000
soft-shelled turtle and Maya,BA3 5EY,51.242095530000000,-2.473636630000000
lizard and Marmoset,BA3 5GA,51.217995690000000,-2.482781814000000
milk snake and Goose,BA3 5GW,51.217279000000000,-2.483232000000000
saltwater crocodile and Bunting,BA3 5HF,51.221736780000000,-2.482677776000000
Ice seal and Siskin,BA3 5HL,51.230079330000000,-2.478783628000000
Magpie and Ibex,BA3 5JQ,51.222831570000000,-2.496106678000000
bicycle lizard and snake,BA3 5JR,51.221423080000000,-2.482431068000000
agamid and Grosbeak,BA3 5NZ,51.241576190000000,-2.443247152000000
carpet snake and Puffleg,BA3 5PD,51.241749900000000,-2.449566339000000
black snake and adder,BA4 4AH,51.189172860000000,-2.504902867000000
gavial and Old World quail,BA4 4FN,51.174019776234800,-2.417737950157870
sea snake and sand lizard,BA4 4FX,51.213044000000000,-2.528099000000000
White ibis and puff adder,BA4 4LS,51.180930540000000,-2.536458992000000
Hawk and asp,BA4 4NH,51.179836000000000,-2.530194000000000
Black cockatoo and Nukupuʻu,BA4 4PL,51.188459990000000,-2.505481739000000
Dorcopsis and sand viper,BA4 4PN,51.181636960000000,-2.533391226000000
cerastes and Puffleg,BA4 4QS,51.182276000000000,-2.472837000000000
Herring gull and cobra de capello,BA4 4QU,51.167666530000000,-2.487333264000000
Philippine hawk-owl and Jackal,BA4 4QW,51.189124230000000,-2.475754636000000
Jerboa and gaboon viper,BA4 4RX,51.194772970000000,-2.470875588000000
Black jay and tortoise,BA4 4SD,51.195927220000000,-2.463302410000000
Moluccan boobook and Meadowlark,BA4 4TJ,51.184514160000000,-2.529489826000000
taipan and Kite,BA4 5QU,51.188088220000000,-2.532521346000000
swift and death adder,BA4 6BE,51.151063000000000,-2.512465000000000
Night heron and blind snake,BA4 6BP,51.142828850000000,-2.463399350000000
Black jay and giant tortoise,BA4 6DG,51.161881930000000,-2.456826104000000
boomslang and blue racer,BA4 6DH,51.150195710000000,-2.451306357000000
adder and Pheasant,BA4 6HR,51.145725800000000,-2.502226914000000
Polecat and Masked owl,BA4 6HT,51.145268650000000,-2.503980306000000
Petrel and terrapin,BA4 6JW,51.147283000000000,-2.506032315000000
flying lizard and Linsang,BA4 6LS,51.146112600000000,-2.508435506000000
tuatara and bull snake,BA4 6LY,51.127844560000000,-2.507534582000000
cobra and king cobra,BA4 6NF,51.117545160000000,-2.520580019000000
Night heron and White ibis,BA4 6NY,51.144760130000000,-2.507205529000000
Black jay and Condor,BA4 6QA,51.109591590000000,-2.533546715000000
jew lizard and thorny devil,BA4 6QX,51.124076280000000,-2.535871294000000
skink and Puffleg,BA4 6QZ,51.123622040000000,-2.536880548000000
chameleon and Jay,BA7 7BB,51.087842350000000,-2.514877866000000
Kangaroo and elapid,BA7 7BJ,51.088956700000000,-2.514863000000000
mamba and Marsh harrier,BA7 7EQ,51.087535560000000,-2.515117180000000
Jay and Tit-tyrant,BA7 7HD,51.087905020000000,-2.519004871000000
cerastes and Tit-tyrant,BA7 7JN,51.096266030000000,-2.515328474000000
Old World quail and Argus,BA7 7JP,51.097247300000000,-2.519138071000000
dukite and tokay,BA7 7JY,51.096381240000000,-2.519770990000000
snake and Quetzal,BA7 7LH,51.095744640000000,-2.515294115000000
bearded lizard and Stilt,BA7 7LL,51.091461000000000,-2.504037000000000
chuckwalla and anaconda,BA7 7ND,51.087989550000000,-2.514122772000000
tokay and Parrotbill,BA7 7NY,51.077842930000000,-2.532952906000000
Herring gull and Lemming,BA7 7PA,51.095396600000000,-2.524800855000000
cobra de capello and copperhead,BA7 7PD,51.097392750000000,-2.526822777000000
Flameback and gopher snake,BA7 7PH,51.091657980000000,-2.534254085000000
milk snake and ringhals,BA8 0ES,51.033331850000000,-2.415443947000000
Cuscus and Condor,BA9 0BH,51.057347000000000,-2.409923000000000
blue tongue and puff adder,BA9 8BW,51.060951850000000,-2.416590232000000
black snake and Mink,BA9 8BX,51.056374000000000,-2.464947000000000
cycling lizard and racer,BA9 8DE,51.064299190000000,-2.477127611000000
fer-de-lance and constrictor,BA9 8HE,51.076564790000000,-2.403055675000000
Masked owl and elapid,BA9 8HN,51.084819630000000,-2.384367627000000
Greenbul and blind snake,BA9 8JE,51.081681940000000,-2.452038065000000
diamond python and terrapin,BA9 8LD,51.067592000000000,-2.367584000000000
adder and swift,BA9 8LP,51.083716000000000,-2.352607000000000
harlequin snake and garter snake,BA9 9AX,51.057487020000000,-2.412321380000000
diamond snake and blindworm,BA9 9BG,51.055452720000000,-2.415442231000000
amethystine python and Flameback,BA9 9BP,51.056668240000000,-2.417522009000000
boa constrictor and leathery turtle,BA9 9BZ,51.056064800000000,-2.420484000000000
thorn lizard and perentie,BA9 9DE,51.056976780000000,-2.424230902000000
massasauga and Maya,BA9 9DQ,51.058752120000000,-2.418168594000000
rock python and Night heron,BA9 9DY,51.054023970000000,-2.410064889000000
Logrunners and Ice seal,BA9 9EX,51.052409690000000,-2.406255621000000
Duck and Mole,BA9 9FQ,51.052967831378800,-2.420285362753620
Towhee and iguana,BA9 9HJ,51.053440720000000,-2.404552579000000
Mink and Towhee,BA9 9JA,51.056439520000000,-2.413567669000000
Myna and Mockingbird,BA9 9JZ,51.056948680000000,-2.406851829000000
Herring gull and Old World quail,BA9 9LR,51.056652020000000,-2.404238143000000
Eagle and Zebra,BA9 9NW,51.062403360000000,-2.389433200000000
chuckwalla and hoop snake,BA9 9PA,51.055660750000000,-2.407553000000000
Jackal and Snipe,BA9 9PH,51.055752290000000,-2.371913411000000
skink and Kite,BA9 9QD,51.055051270000000,-2.414539769000000
Perching duck and Shearwater,BA9 9QH,51.042651000000000,-2.354449249000000
Kangaroo and turtle,BA9 9RF,51.054676900000000,-2.400711101000000
snapping turtle and diamondback terrapin,BA9 9RT,51.050808270000000,-2.421706416000000
Komodo dragon and racer,BA9 9RU,51.051630350000000,-2.420658152000000
ringhals and swift,BA9 9SQ,51.050536660000000,-2.409591816000000
White ibis and pit viper,SP3 5SU,51.109870000000000,-2.127011000000000
soft-shelled turtle and green turtle,SP3 6BG,51.081017259382100,-2.172627732166930
Philippine hawk-owl and Kestrel,SP3 6BH,51.080731985235600,-2.176980718072180
caiman and Recurvebill,SP3 6ED,51.093233587214500,-2.126607884632550
crocodile and hognose snake,SP3 6FE,51.079622000000000,-2.176114000000000
wall lizard and Logrunners,SP7 9AZ,51.031805324507600,-2.151666969796440
Petrel and crocodile,SP7 9BW,51.055252433196400,-2.148162483147870
pit viper and Nukupuʻu,SP7 9PA,51.032012169290100,-2.214670976713180
indigo snake and Marmoset,SP7 9PE,51.027884546290200,-2.215179000000000
Macaw and turtle,SP7 9QB,51.029503000000000,-2.215543000000000
copperhead and Rabbit,SP8 4EE,51.039235073272100,-2.277617733198220
hawksbill and River dolphin,SP8 4EG,51.041739000000000,-2.276376811638850
hognose snake and Myna,SP8 4FQ,51.047980155350600,-2.283162282913050
bearded lizard and Booted eagles,SP8 4HX,51.037463000000000,-2.266967000000000
Towhee and horned viper,SP8 4JJ,51.033875042201100,-2.270241163137130
Pheasant and viper,SP8 4JW,51.033675993823400,-2.270767666079800
monitor and Lemming,SP8 4NR,51.041654321564900,-2.288600899040780
cerastes and iguana,SP8 4QF,51.036240544677400,-2.273863200216750
Macaw and cerastes,SP8 4RT,51.036072186006600,-2.287781788534510
Flameback and box turtle,SP8 4RX,51.035555478345000,-2.289461466876840
Peafowl and moloch,SP8 4SB,51.045836088050900,-2.273491885765130
python and Elephant,SP8 4SU,51.038729560667300,-2.293132508990170
Ice seal and Elephant,SP8 4UB,51.039723747622300,-2.283810792887730
Buzzard and Tahr,SP8 4UZ,51.033890209137600,-2.267560147013240
mountain devil and Tit-tyrant,SP8 5BG,51.074880040039000,-2.323079106824330
thorn lizard and snake,SP8 5FL,51.070130000000000,-2.331734000000000
cobra de capello and Kākāriki,SP8 5NH,51.041482000000000,-2.296744000000000
tiger snake and Mouse,SP8 5NQ,51.028353000000000,-2.323967000000000
Kangaroo and Condor,SP8 5PX,51.051810030111300,-2.290804077439800
bandy-bandy and Skunk,SP8 5QA,51.052337205111600,-2.285001000000000
gavial and monitor,SP8 5QN,51.061792000000000,-2.239695000000000
Jackal and tuatara,SP8 5YG,51.076782469204500,-2.314627653726620
