name,postcode,lat,lon
Queensbury Coffee,GU1 1DL,51.2479,-0.5746
Pizza Hut,GU1 1DY,51.2453,-0.5768
RUMWONG THAI RESTAURANT,GU1 2AF,51.2384,-0.5652
Guildford Golf Club,GU1 2HL,51.2406,-0.5362
ASHUKA TANDOORI,GU1 2RE,51.2463,-0.5294
Gallery cafe,GU1 3AJ,51.2362,-0.5710
Starbucks Guildford High Street,GU1 3AW,51.2369,-0.5694
Starbucks,GU1 3AW,51.2369,-0.5694
Pizza Express,GU1 3BJ,51.2376,-0.5674
Guildford Harbour Hotel,GU1 3DA,51.2382,-0.5672
Sis&bros Coffee Shop ,GU1 3DN,51.2356,-0.5757
Starbucks White Lion Walk,GU1 3DN,51.2356,-0.5757
Starbucks,GU1 3DN,51.2356,-0.5757
The Tea Terrace Restaurant and Tea Room - Guildford Branch,GU1 3DP,51.2358,-0.5732
Caffe Nero,GU1 3DU,51.2358,-0.5732
Caffe Nero,GU1 3DY,51.2354,-0.5750
Wagamama,GU1 3DY,51.2354,-0.5750
OSQS Ltd T/A McDonald's Guildford ,GU1 3EJ,51.2355,-0.5759
Sicool Food,GU1 3EX,51.2351,-0.5739
GU1 Fitness Studios,GU1 3HE,51.2355,-0.5733
Positano restaurant,GU1 3HQ,51.2356,-0.5725
Amor Amora,GU1 3HW,51.2363,-0.5701
SHARDANA RESTAURANT,GU1 3HW,51.2363,-0.5701
Carmona Steak & Tapas,GU1 3JL,51.2374,-0.5670
KFC,GU1 3JL,51.2374,-0.5670
L & Z FOODS LTD,GU1 3JL,51.2374,-0.5671
Shah's Secreto,GU1 3JL,51.2374,-0.5671
Zizzi,GU1 3JL,51.2374,-0.5670
Maloncho Tandoori,GU1 3JT,51.2378,-0.5654
Love Brownies Guildford,GU1 3QT,51.2350,-0.5716
Pho,GU1 3QY,51.2352,-0.5721
BLUE SARDINIA RESTAURANT,GU1 3RT,51.2350,-0.5707
Robin Hood,GU1 3RT,51.2353,-0.5697
The Robin Hood,GU1 3RT,51.2353,-0.5697
Thai Terrace,GU1 3RW,51.2353,-0.5712
The Albany,GU1 3SA,51.2369,-0.5670
The March Hare,GU1 3SY,51.2339,-0.5702
OLIVO RESTAURANT,GU1 3UA,51.2345,-0.5741
Giggling Squid,GU1 3UH,51.2349,-0.5736
La Casita,GU1 3UH,51.2349,-0.5736
Theion,GU1 3UH,51.2349,-0.5736
MEAT THE GREEK,GU1 3UL,51.2349,-0.5734
The Keep,GU1 3UW,51.2347,-0.5730
Kings Head,GU1 3XQ,51.2324,-0.5727
Creams Cafe Guildford,GU1 4AA,51.2372,-0.5710
SUSHI NARA LTD,GU1 4AA,51.2372,-0.5710
Turtle Bay,GU1 4AA,51.2372,-0.5710
Coffee Culture,GU1 4AE,51.2362,-0.5739
Caffe Nero,GU1 4AH,51.2364,-0.5740
Hanki,GU1 4AP,51.2365,-0.5715
Raviz,GU1 4AP,51.2365,-0.5716
Five Guys,GU1 4EH,51.2353,-0.5765
Franco Manca,GU1 4EH,51.2353,-0.5765
Gourmet Burger Kitchen,GU1 4EH,51.2353,-0.5765
Nandos,GU1 4EH,51.2353,-0.5765
Thaikhun,GU1 4EH,51.2353,-0.5765
Tortilla,GU1 4EH,51.2353,-0.5765
hungry buddha,GU1 4EH,51.2353,-0.5762
PASTAOUT RESTAURANT,GU1 4EQ,51.2359,-0.5744
Pret A Manger,GU1 4EQ,51.2360,-0.5745
Jeita Lebanese Cuisine,GU1 4HD,51.2378,-0.5705
The Guildford Spice,GU1 4HD,51.2378,-0.5705
Vida Cuatro Limited,GU1 4LB,51.2362,-0.5728
Pizza & pasta Boom,GU1 4LS,51.2405,-0.5723
Pepe's Piri Piri,GU1 4QH,51.2400,-0.5758
Burger King,GU1 4TA,51.2364,-0.5753
KOKORO,GU1 4TE,51.2362,-0.5747
KOKORO,GU1 4YL,51.2366,-0.5766
Thai Express Retail Limited ,GU1 4YL,51.2366,-0.5766
Guildford Muffin Limited t/a Muffin Break,GU1 4YT,51.2372,-0.5763
Hogs Back Hotel,GU10 1EX,51.2264,-0.7221
Manor Farm Tea Room Ltd,GU10 1HR,51.2237,-0.7180
The Barley Mow,GU10 1NE,51.2097,-0.7379
Farnham Golf Club Ltd,GU10 1PU,51.2144,-0.7432
THE DONKEY PUBLIC HOUSE LIMITED,GU10 2AU,51.1913,-0.7297
The Duke of Cambridge,GU10 2DD,51.1767,-0.7478
KFC,GU12 4DD,51.2419,-0.7414
Panda Bar,GU12 4ES,51.2418,-0.7442
MLS Operations Limited t/a McDonald's,GU12 4HA,51.2422,-0.7394
McDonalds,GU12 4HA,51.2422,-0.7394
The Cannon ,GU2 4BL,51.2345,-0.5779
YE OLDE SHIP INN,GU2 4EB,51.2264,-0.5795
Starbucks,GU2 7AD,51.2383,-0.6047
Starbucks,GU2 7XH,51.2426,-0.5880
Young's Kitchen,GU2 7XH,51.2427,-0.5879
CH&Co Workplace,GU2 7YL,51.2471,-0.5903
Southway Chicken,GU2 8DQ,51.2450,-0.5968
Southway Pizza,GU2 8DQ,51.2450,-0.5968
The Shahin Tandoori Restaurant,GU2 9AA,51.2488,-0.5858
The Devil's Punchbowl Hotel,GU26 6AG,51.1136,-0.7304
The Cookie Bar,GU26 6TD,51.1151,-0.7350
Shahanaz,GU27 1HN,51.0879,-0.7277
The Lion's Den,GU27 1HS,51.0881,-0.7295
new good earth LTD,GU27 1HS,51.0881,-0.7295
Haslemere & District Community Centre,GU27 1LD,51.0877,-0.7307
Oliver's,GU27 2AD,51.0886,-0.7101
Real English Drinks House,GU27 2AF,51.0886,-0.7097
The Wheatsheaf inn,GU27 2DE,51.1036,-0.6931
Heidi Haslemere,GU27 2HG,51.0880,-0.7096
Pizza Express,GU27 2JZ,51.0888,-0.7091
Costa Coffee,GU27 2LA,51.0892,-0.7082
Hemingways of Haslemere,GU27 2LA,51.0892,-0.7082
The Hen House,GU27 2NX,51.0883,-0.7115
The Station House,GU27 2PD,51.0887,-0.7184
LYTHE HILL HOTEL,GU27 3BQ,51.0842,-0.6810
The Red Lion,GU27 3HY,51.0493,-0.7172
The Noah's Ark Inn,GU28 9ET,51.0355,-0.6647
Lickfold Inn,GU28 9EY,51.0290,-0.6810
The Stag Inn,GU28 9JP,51.0276,-0.5933
The Jolly Farmer,GU3 1AJ,51.2212,-0.6627
Watts Gallery,GU3 1DQ,51.2222,-0.6288
The Withies Inn Ltd,GU3 1JA,51.2118,-0.6213
The White Hart,GU3 3DZ,51.2496,-0.6375
Passorn Thai Restaurant ,GU4 8JU,51.2132,-0.5661
The Percy Arms,GU4 8NP,51.2156,-0.5261
Carlo's Trattoria,GU4 8SE,51.2353,-0.5056
Guildford Manor Hotel & Spa,GU4 8SE,51.2353,-0.5056
fork handles kitchen at Bramley Golf Club ,GU5 0AL,51.1991,-0.5657
THE WHEATSHEAF,GU5 0HB,51.1935,-0.5576
The Jolly Farmer,GU5 0HB,51.1935,-0.5576
The Nest Coffee  Shop,GU5 0HF,51.1936,-0.5572
CH&Co Catering at Longacre School,GU5 0NQ,51.1833,-0.5327
Grantley Arms,GU5 0PE,51.1974,-0.5456
Barnett Hill Hotel,GU5 0RF,51.1991,-0.5334
The Bricklayers Arms,GU5 0UA,51.1830,-0.5233
The Drummond Arms,GU5 9AG,51.2201,-0.4995
Kinghams Restaurant ,GU5 9HE,51.2205,-0.4628
The William Bray,GU5 9HS,51.2187,-0.4651
THE COMPASSES INN GOMSHALL,GU5 9LA,51.2201,-0.4480
 Gomshall Mill,GU5 9LB,51.2191,-0.4467
Tillings Ltd trading as Lavender Goose,GU5 9NP,51.2188,-0.4450
Hurtwood Inn Bar and Restaurant,GU5 9RR,51.1919,-0.4477
Cranleigh Golf and Country Club,GU6 7NG,51.1521,-0.4746
Lemongrass,GU6 8AE,51.1406,-0.4871
The Three Horseshoes,GU6 8AE,51.1406,-0.4871
Pizza Express,GU6 8AJ,51.1411,-0.4901
Subway,GU6 8AJ,51.1411,-0.4901
Cromwell Coffee House,GU6 8AU,51.1417,-0.4899
THE RICHARD ONSLOW,GU6 8AU,51.1417,-0.4899
Yangaz Bistro Grill,GU6 8AU,51.1417,-0.4899
Notcutts Cranleigh,GU6 8LT,51.1481,-0.5082
ONE 40,GU6 8RF,51.1414,-0.4911
Wild & Green Kitchen,GU6 8RG,51.1417,-0.4925
Costa Coffee,GU6 8RJ,51.1415,-0.4922
Curry Inn,GU6 8RL,51.1426,-0.4942
Rania Restaurant,GU6 8RL,51.1426,-0.4942
Pizza Express,GU7 1AF,51.1849,-0.6164
THE WHARF (GODALMING) LIMITED,GU7 1AF,51.1849,-0.6165
Godalming Food Company,GU7 1AQ,51.1853,-0.6153
Caffe Nero,GU7 1AW,51.1854,-0.6141
Prezzo,GU7 1BD,51.1851,-0.6115
Cafe Mila,GU7 1DT,51.1858,-0.6146
Costa Coffee,GU7 1DU,51.1856,-0.6135
GORNER LTD,GU7 1DZ,51.1859,-0.6116
the star,GU7 1EL,51.1863,-0.6159
Deep Blue Restaurants,GU7 1HY,51.1864,-0.6095
Thani Moon,GU7 1HY,51.1864,-0.6095
Baxterstorey Cafe,GU7 1LQ,51.1857,-0.6053
Hectors & Sons Limited,GU7 1NH,51.1913,-0.5973
Roost Godalming,GU7 1NN,51.1856,-0.6102
Elior at Charterhouse School,GU7 2DF,51.1966,-0.6224
The Cricketers,GU7 2HU,51.1956,-0.6077
The Stag on the River,GU7 2QG,51.1864,-0.6487
HURTMORE GOLF CLUB,GU7 2RN,51.1991,-0.6425
The Squirrel,GU7 2RN,51.1991,-0.6425
Broadwater Pavilion,GU7 3DH,51.2003,-0.5904
Natter Cafe Limited,GU7 3EH,51.1950,-0.6044
THE THREE LIONS,GU7 3HR,51.1919,-0.6028
Farncombe Tandoori,GU7 3LH,51.1963,-0.6066
THE RAJASTHAN INDIAN RESTAURANT,GU7 3TW,51.2029,-0.6063
The Merry Harriers,GU8 4DR,51.1434,-0.6190
Hambledon Village Shop Ltd,GU8 4HF,51.1334,-0.6243
The White Horse,GU8 4JA,51.1465,-0.5702
THE SUN INN DUNSFOLD LIMITED,GU8 4LE,51.1161,-0.5639
The Mulberry Inn,GU8 4SS,51.0879,-0.6455
the crown inn,GU8 4TX,51.1097,-0.6292
The Swan Inn,GU8 4TY,51.1092,-0.6290
Youngs Butchers,GU8 4TY,51.1092,-0.6290
Winterton Arms,GU8 4UU,51.1199,-0.6237
West Surrey Golf Club,GU8 5AF,51.1572,-0.6314
The Refectory,GU8 5HJ,51.1717,-0.6406
Squire's Garden Centre Milford,GU8 5HL,51.1725,-0.6397
Milford Golf Club,GU8 5HS,51.1699,-0.6390
Eliza's Tea Room,GU8 5JD,51.1696,-0.6447
Sweetpeas Cafe,GU8 5LB,51.1232,-0.6719
The Star,GU8 5LU,51.1560,-0.6484
The White Hart,GU8 5PH,51.1497,-0.6468
Dog and Pheasant Pub,GU8 5UJ,51.1333,-0.6723
The Cyder House Inn,GU8 6AN,51.1974,-0.6632
The Little Barn Limited,GU8 6DG,51.1840,-0.7062
172 Coffee Ltd,GU8 6DH,51.1816,-0.7088
THE WOOL PACK,GU8 6HD,51.1848,-0.7019
The Pavilion Cafe,GU8 6LB,51.1846,-0.6849
The Milk Churn,RH12 3DH,51.0968,-0.4535
Kings Head,RH12 3EB,51.0975,-0.4442
The Fox Inn,RH12 3JP,51.0863,-0.4626
The Sussex Oak,RH12 3QW,51.0902,-0.3480
The Greets Inn,RH12 3QY,51.0889,-0.3533
Compass Group at Warnham Church of England Primary School,RH12 3RQ,51.0915,-0.3514
Rookwood Golf Course,RH12 3RR,51.0787,-0.3447
the boars head,RH13 0AD,51.0539,-0.3401
Bax Castle Public House,RH13 0LA,51.0405,-0.3570
Caputos Pizza Limited,RH13 0LA,51.0405,-0.3569
Sumners Ponds Ltd t/as Cafe by the Lake,RH13 0PR,51.0293,-0.3977
The Queens Head,RH13 0PS,51.0319,-0.3948
Random Hall Hotel,RH13 0QX,51.0726,-0.4154
ENSIGN LEISURE LIMITED,RH13 0RE,51.0616,-0.4226
The Red Lyon,RH13 0RR,51.0722,-0.4065
Hen & Chicken Public House,RH13 9BH,51.0363,-0.3489
RSPCA,RH13 9RS,51.0364,-0.3437
Cricketers arms,RH14 0DG,51.0257,-0.5042
The Bat and Ball Country Pub & Haywards Restaurant,RH14 0EH,51.0321,-0.4896
The Foresters Arms,RH14 0ND,51.0322,-0.5510
Sir Roger Tichborne,RH14 0QS,51.0903,-0.5206
The Onslow Arms,RH14 0RD,51.0715,-0.5175
THE GREAT BRITISH DINER LTD,RH14 9AE,51.0388,-0.4418
Prince of wales public house,RH4 3QE,51.2259,-0.3630
Inn on the Green,RH5 5TD,51.1489,-0.3606
The Plough Inn,RH5 6HD,51.1844,-0.3535
The Abinger Hatch,RH5 6HZ,51.2035,-0.4043
The Royal Oak,RH5 6PF,51.1887,-0.4137
The Volunteer,RH5 6PR,51.2009,-0.4160
