name,postcode,lat,lon
racer and rattlesnake,GU1 1FL,51.247936000000000,-0.574521000000000
Old World vulture and Petrel,GU1 1HS,51.246832357529000,-0.577499328909027
ringhals and rock snake,GU1 1TD,51.241783683933300,-0.560262913430611
Asiatic leopard and viper,GU1 1TZ,51.247457055467200,-0.554354537077212
Black cockatoo and Chicken,GU1 2AE,51.239101000000000,-0.564411456895064
Elephant and Linsang,GU1 2AW,51.239148606023400,-0.563167292910957
Maya and gopher snake,GU1 2DH,51.239373890389200,-0.552055000000000
Pratincole and Viscacha,GU1 2DU,51.239245784471200,-0.560098601582044
Shearwater and Civet,GU1 2EF,51.240112253111200,-0.558166218778829
Jackal and Chicken,GU1 2ER,51.240498538830900,-0.555217327345822
Cloud rat and anole,GU1 2LJ,51.249486596718700,-0.543974214393164
whip snake and death adder,GU1 2LR,51.236886305249800,-0.545274452193078
Snipe and Flameback,GU1 2NQ,51.245858093792800,-0.552071000000000
diamondback and adder,GU1 2NS,51.247642116606800,-0.548961348239865
leguaan and Vole,GU1 2PH,51.247299881962700,-0.545520000000000
snapping turtle and Badger,GU1 2SQ,51.249455314934500,-0.533543881415863
Jerboa and Gull,GU1 2SU,51.243322918698600,-0.540057030146136
pit viper and Buzzard,GU1 2TJ,51.248297194388200,-0.540171770627780
Asiatic leopard and Greenbul,GU1 2TS,51.244354200162200,-0.539107443136796
perentie and cobra,GU1 3BL,51.245279000000000,-0.582312000000000
Mole and perentie,GU1 3DP,51.235755444943800,-0.573214147278876
Old World quail and Stilt,GU1 3DW,51.235754000000000,-0.575244952810246
Buzzard and terrapin,GU1 3ES,51.235121316366600,-0.574308078315644
Quetzal and Old World vulture,GU1 3EZ,51.235517700873700,-0.571416631347922
Jay and asp,GU1 3JH,51.236131175166700,-0.558376606684153
Fulmarine petrel and Lemming,GU1 3LJ,51.237293051578900,-0.559987660755455
rock snake and Stilt,GU1 3LQ,51.237036555942700,-0.562531166097837
Grackle and Prion,GU1 3NA,51.235927339345600,-0.563740340965958
Elephant and Grackle,GU1 3NQ,51.235873137143500,-0.560060636080511
Dolphin and agama,GU1 3QY,51.235165650838200,-0.572043476689123
Mouse and diamondback terrapin,GU1 3RW,51.235171222001600,-0.571026282235914
smooth snake and Fulmarine petrel,GU1 3SG,51.234790611738200,-0.567843789515208
Old World vulture and Elephant,GU1 3SJ,51.232780739597100,-0.568206977600090
Flameback and Ground sloth,GU1 3SX,51.233246434492200,-0.571730467742271
puff adder and Thrasher,GU1 3XN,51.230403339127200,-0.570873178836259
worm lizard and carpet snake,GU1 3XU,51.228064629007100,-0.562008654705332
River dolphin and Dorcopsis,GU1 4AE,51.236195645981500,-0.573916760019707
crocodile and mamba,GU1 4HH,51.243314859333300,-0.575716789154049
Mouse and massasauga,GU1 4HP,51.240387505698400,-0.571079560850998
Zebra and Bunting,GU1 4JJ,51.241990671204400,-0.569812147943256
Chickadee and Shearwater,GU1 4LE,51.237673428737500,-0.571951517760170
elapid and bicycle lizard,GU1 4NL,51.240741590403200,-0.572830686583189
Triller and cobra,GU1 4PA,51.242653384135100,-0.573272954718471
deaf adder and pit viper,GU1 4PU,51.237207734483000,-0.575060110210149
Flameback and turtle,GU1 4RD,51.240687000000000,-0.575687424828003
soft-shelled turtle and turtle,GU1 4RS,51.238543522700200,-0.575462927850409
Jay and perentie,GU1 4SN,51.238765775439000,-0.578951452125492
Marmoset and Gila monster,GU1 4SQ,51.237266399020400,-0.577665429380553
indigo snake and sand viper,GU1 9HQ,51.245290157061000,-0.582317922817527
Philippine hawk-owl and racer,GU1 9SD,51.232180184310500,-0.576475850060036
Nukupuʻu and viper,GU1 9WP,51.245279000000000,-0.582312000000000
Darwin's finches and kabaragoya,GU10 1AA,51.233410662444600,-0.731992176708772
jew lizard and diamond snake,GU10 1AY,51.234337223015400,-0.732854785394206
Jerboa and skink,GU10 1BJ,51.237044340918300,-0.731233364815623
Dolphin and anaconda,GU10 1EW,51.236871310526000,-0.723588795960237
Towhee and Jerboa,GU10 1HA,51.226253098151900,-0.716349508391814
Badger and anole,GU10 1HD,51.226524595965900,-0.706703660984431
Mamo and thorny devil,GU10 1JD,51.212333309790200,-0.719671529161675
Stilt and smooth snake,GU10 1ND,51.206263706931600,-0.737075171284686
Buzzard and Piping shrike,GU10 2AL,51.195672676482100,-0.740599182111943
Duck and Coati,GU10 2BP,51.186419273557200,-0.745601927227429
Polecat and Ibex,GU12 4AS,51.236695000000000,-0.740353000000000
slowworm and Jackal,GU12 4QL,51.245895716747500,-0.742337136205993
Hawaiian honeycreeper and glass snake,GU12 4RS,51.248889678339100,-0.744805915355305
Chicken and boomslang,GU12 4RU,51.246885516949800,-0.748270454331987
snapping turtle and Dorcopsis,GU12 6EX,51.246871183746900,-0.715403131139376
gaboon viper and Triller,GU12 6FA,51.244114320874400,-0.715121000000000
Chipmunk and hognose snake,GU12 6FJ,51.246055000000000,-0.715708000000000
racer and coral snake,GU12 6GW,51.235877000000000,-0.706781000000000
Warbler and anaconda,GU12 6JB,51.243475384677400,-0.708348718988602
Quetzal and tortoise,GU12 6JQ,51.244664333559800,-0.706897043104214
milk snake and Tattler,GU12 6LX,51.248954222718900,-0.714887000000000
Parakeet and Gull,GU12 6PB,51.243201650316100,-0.734214000000000
Stint and flying lizard,GU12 6PY,51.245442711011900,-0.732019553350448
caiman and jew lizard,GU2 4EA,51.229381095594500,-0.578495740914809
crocodile and Old World vulture,GU2 4HQ,51.226994769097600,-0.587133631322113
cerastes and monitor,GU2 4LG,51.236613143518900,-0.588328814193648
Tahr and Rabbit,GU2 4LR,51.233936116554000,-0.586319451993346
Fulmarine petrel and jew lizard,GU2 7FN,51.245290157061000,-0.582317922817527
Fish eagle and Goose,GU2 7NF,51.237576350766200,-0.584689440844514
Kākāriki and tuatara,GU2 7NG,51.237057563242100,-0.584175340328242
Chipmunk and python,GU2 7QF,51.231856560774100,-0.597340419649155
brown snake and frilled lizard,GU2 7QS,51.234560545292800,-0.600867859691711
Snipe and Nukupuʻu,GU2 7QW,51.233116709653900,-0.599694144106266
Boto and bull snake,GU2 7SJ,51.239145528301200,-0.595514317889377
Bronzewing pigeon and fer-de-lance,GU2 7SP,51.237035357219000,-0.597268895593865
Thicketbird and milk snake,GU2 7SX,51.239249610914400,-0.597445089345877
Mouse and saltwater crocodile,GU2 7SY,51.238737862774800,-0.599767028033278
bushmaster and mud turtle,GU2 7TG,51.245290157061000,-0.582317922817527
Pitohui and Siskin,GU2 7YZ,51.239032000000000,-0.610001000000000
Meadowlark and rat snake,GU2 8DE,51.247382267046400,-0.598487250863602
Pitohui and Parakeet,GU2 8DN,51.243649657566700,-0.604446044472150
Pheasant and Wallaby,GU2 8EB,51.244144632781500,-0.605233377494009
Tattler and Booted eagles,GU2 8HT,51.244314385473800,-0.602878606876587
rat snake and Ground sloth,GU2 8WR,51.245290157061000,-0.582317922817527
Condor and whip snake,GU2 8XH,51.246685815303200,-0.586931553604421
horned viper and Warbler,GU26 6BB,51.106449502197500,-0.733111985717850
Armadillo and bearded dragon,GU26 6FN,51.103559114212400,-0.749231252644268
ringhals and Prion,GU26 6HD,51.108299912030900,-0.749631738896707
Ice seal and black snake,GU26 6JT,51.109327770989700,-0.748204068180671
blue tongue and python,GU26 6QD,51.124529457210800,-0.749450873244557
tokay and Hawk,GU26 6SU,51.112424222172600,-0.736777300243080
boomslang and perentie,GU26 6SX,51.113551082852900,-0.736203695843295
sand viper and Chicken,GU26 6WD,51.085914313395900,-0.730974466179250
Chickadee and constrictor,GU27 1DB,51.089137172191600,-0.719748746040519
puff adder and cerastes,GU27 1DZ,51.098733156811400,-0.710828958049353
moloch and worm lizard,GU27 1EZ,51.092756241042500,-0.730016106955031
mamba and horned toad,GU27 1HD,51.096806324249200,-0.728676981371823
adder and horned viper,GU27 1HP,51.087804000000000,-0.728453000000000
Moluccan boobook and frilled lizard,GU27 1JD,51.091211509603700,-0.732685844234888
moloch and horned toad,GU27 1NN,51.086960503766300,-0.733744369015532
Stint and Jerboa,GU27 1PD,51.087021750108700,-0.741081702068018
bandy-bandy and Dolphin,GU27 1PE,51.086052908205000,-0.742136009755649
Crow and taipan,GU27 1PS,51.088325094045800,-0.744373240019510
Prion and bearded lizard,GU27 1SA,51.086161621677200,-0.743046850149253
Parrotlet and python,GU27 2AR,51.089841577741200,-0.711832949452251
moloch and horned toad,GU27 2AU,51.091389895437900,-0.711161636226008
Fulmarine petrel and Prion,GU27 2BA,51.088643165728200,-0.716521109164434
king cobra and Booted eagles,GU27 2BD,51.088211211708900,-0.718132267925341
massasauga and Polecat,GU27 2BH,51.090182296849800,-0.709296062037567
bull snake and White ibis,GU27 2DA,51.101321107781000,-0.688018973769956
green turtle and Thicketbird,GU27 2DQ,51.105492821457700,-0.691957532951257
Stint and mountain devil,GU27 2DU,51.102905570239200,-0.684174801459275
Schneider python and Petrel,GU27 2HU,51.086972301927800,-0.706886705808822
Songlark and cobra,GU27 2JS,51.087506153620000,-0.710441421588501
Pitohui and mountain devil,GU27 2LA,51.089198627769100,-0.708166846885878
adder and Vole,GU27 2LF,51.092902283839600,-0.702365917684471
Darwin's finches and Elephant,GU27 2LP,51.096404971632800,-0.701967979946959
Meadowlark and bushmaster,GU27 2PF,51.089251184064700,-0.716204424031642
Mole and carpet snake,GU27 2PR,51.087296569168300,-0.716729715553941
grass snake and jew lizard,GU27 2PW,51.086262207688700,-0.720499000000000
Hawaiian honeycreeper and snapping turtle,GU27 2PZ,51.089974708457200,-0.714942107748115
Scimitar babbler and frill-necked lizard,GU27 3BD,51.080915860255300,-0.697762000000000
Crow and boa,GU27 3EN,51.045296012613000,-0.724481078286478
king snake and constrictor,GU27 3JX,51.048821156696100,-0.724484129181109
Moluccan boobook and taipan,GU27 3LD,51.047069578879100,-0.726315476049839
brown snake and bandy-bandy,GU27 3LW,51.063184270653500,-0.718081439479905
Stilt and Ground sloth,GU27 3NJ,51.052056730396500,-0.741914000000000
Pratincole and elapid,GU27 9GE,51.085907000000000,-0.730989000000000
bearded dragon and horned viper,GU27 9GQ,51.085902000000000,-0.730969000000000
Maya and Grouse,GU28 9EG,51.041234809715600,-0.640234104748865
Grackle and loggerhead,GU28 9EQ,51.047125000000000,-0.642444000000000
tortoise and Gull,GU28 9ET,51.035491847052000,-0.664705437842167
cayman and leguaan,GU28 9HA,51.037694194864900,-0.678078006374800
frill-necked lizard and Partridge,GU28 9HR,51.056652039955600,-0.642878986099925
Peafowl and Petrel,GU28 9HS,51.056760743487000,-0.642947153686359
whip snake and diamondback,GU28 9JT,51.025287000000000,-0.575671081188497
Mole and Prion,GU28 9JY,51.047004346056400,-0.591318080736414
Buzzard and Thicketbird,GU28 9JZ,51.056954046074600,-0.599863069977677
gaboon viper and Snipe,GU28 9ND,51.029099073495300,-0.629066705940159
Badger and monitor,GU3 1BQ,51.214930743077300,-0.678292624027956
blindworm and python,GU3 1EG,51.213945405278800,-0.632447387588918
amphisbaena and Bronzewing pigeon,GU3 1HA,51.224157425617600,-0.583024501298086
flying dragon and Prion,GU3 1HB,51.225559384524100,-0.582952810327560
Piping shrike and Hawaiian honeycreeper,GU3 1HG,51.222672000000000,-0.585819365053952
racer and Jay,GU3 1HJ,51.224362000000000,-0.608961206015547
Puffleg and Bunting,GU3 1HR,51.212261000000000,-0.591894000000000
Booted eagles and Solitaire,GU3 1HX,51.209637781823300,-0.618645256132846
Booted eagles and tiger snake,GU3 1JH,51.214228278745700,-0.626654667353604
snake and harlequin snake,GU3 2EN,51.243408735738700,-0.670486000000000
Solitaire and Siskin,GU3 2EQ,51.242204381131400,-0.671909589626124
Chipmunk and dugite,GU3 2EX,51.244455684622500,-0.668234349717724
Kestrel and Komodo dragon,GU3 3DE,51.249241647292400,-0.624852621635214
flying lizard and Masked owl,GU4 7DN,51.248403614896500,-0.527845962593900
Mamo and Diving bird,GU4 7DW,51.248415985763300,-0.526684964763147
Grosbeak and sand viper,GU4 7RP,51.248110302078900,-0.476115581579819
Night heron and blue tongue,GU4 8BB,51.214554000000000,-0.545592000000000
copperhead and tortoise,GU4 8BJ,51.219398451220400,-0.568926000000000
massasauga and Chickadee,GU4 8BP,51.220217475963600,-0.571088357297098
Parrotbill and Grackle,GU4 8DR,51.212232625876600,-0.573339902837276
amethystine python and Kākāriki,GU4 8LL,51.213400306393700,-0.544024507409998
snapping turtle and Meadowlark,GU4 8ND,51.213071219067400,-0.537105248072808
Perching duck and Jackal,GU4 8NJ,51.217032681562500,-0.531023136292156
Chickadee and blue racer,GU4 8PB,51.213982545588400,-0.544236000000000
Chickadee and Hawk,GU4 8RF,51.216120759791000,-0.517893544840879
diamond snake and racer,GU4 8RJ,51.216857000000000,-0.516295000000000
Jackal and death adder,GU4 8RN,51.218664186397200,-0.514232074524845
puff adder and gopher snake,GU4 8RS,51.216373924478000,-0.516582433579843
tokay and Condor,GU5 0DF,51.196159307213400,-0.557635002672874
Lemming and Argus,GU5 0DT,51.197745191299700,-0.554250633250509
taipan and Egret,GU5 0HD,51.194172895812600,-0.557711334069936
Maya and Mink,GU5 0HZ,51.187712369398600,-0.551573862332182
harlequin snake and Goose,GU5 0PU,51.203111777770400,-0.541772311099292
sand viper and Partridge,GU5 0RY,51.198658650371500,-0.541626642728979
Capuchin and thorny devil,GU5 0SA,51.201178320519400,-0.541046101301234
Zebra and goanna,GU5 0SF,51.200603945191000,-0.542581482787135
Bunting and hawksbill,GU5 0UD,51.181241187380600,-0.523791059634274
Towhee and water snake,GU5 0UE,51.182033537686200,-0.525296689763317
racer and Mole,GU5 9AY,51.219897000000000,-0.502193000000000
tree snake and Mole,GU5 9DJ,51.206110349680100,-0.483371350906288
thorny devil and amethystine python,GU5 9EJ,51.187722826296100,-0.479395865532692
Songlark and Minke whale,GU5 9ET,51.186568849590500,-0.479863119156339
habu and Tit-tyrant,GU5 9HB,51.220304471279200,-0.462986160929427
blindworm and mamba,GU5 9HL,51.218142714764700,-0.463543000000000
Shearwater and sand lizard,GU5 9JG,51.206083670154400,-0.464089437888663
black snake and hawksbill,GU5 9JY,51.217112500655500,-0.467420000000000
Kākāriki and Macaw,GU5 9LF,51.220787596083700,-0.449165641799448
Kestrel and Treepie,GU5 9LS,51.215442059664200,-0.450905935430035
snake and Myna,GU5 9LZ,51.218134000000000,-0.453780000000000
loggerhead and milk snake,GU5 9PG,51.202910970838600,-0.438856000000000
rock python and mud turtle,GU5 9RJ,51.194436666782800,-0.445585168213589
frilled lizard and B,GU5 9SJ,51.201650333696800,-0.442322125517845
Flameback and massasauga,GU5 9TD,51.224179844247000,-0.471191898525590
king snake and Armadillo,GU6 7BB,51.145566809609500,-0.478822847966934
Gull and Pratincole,GU6 7DH,51.152179802781400,-0.481851223677321
agama and massasauga,GU6 7GG,51.149053000000000,-0.441882000000000
Moluccan boobook and gavial,GU6 7JL,51.138327967706000,-0.474199000000000
saltwater crocodile and Pitohui,GU6 7JW,51.138427000000000,-0.472539000000000
boa and snake,GU6 7JZ,51.136731867354300,-0.475053726997196
Parakeet and carpet snake,GU6 7LQ,51.135604000000000,-0.476749000000000
copperhead and snake,GU6 7QU,51.148050031820700,-0.437979296207733
leathery turtle and bandy-bandy,GU6 7QY,51.150283914244100,-0.440277370434808
Chickadee and Flameback,GU6 7RG,51.150995599969300,-0.439023720650826
perentie and Logrunners,GU6 7RN,51.147656620656700,-0.445213000000000
Gila monster and Booted eagles,GU6 8BX,51.135150594708600,-0.486240368965971
gaboon viper and boa,GU6 8DE,51.134006646316100,-0.483319115364748
Pitohui and Old World quail,GU6 8DW,51.139237614718900,-0.483104836182574
worm lizard and gavial,GU6 8FB,51.142596810684600,-0.509198795978891
tortoise and Vulture,GU6 8GE,51.140168000000000,-0.491228000000000
brown snake and Night heron,GU6 8HH,51.104646469738500,-0.514219325993259
Tahr and Stilt,GU6 8JU,51.134761571770600,-0.504934370190514
carpet snake and Magpie,GU6 8JW,51.125186671493400,-0.491110400645907
harlequin snake and loggerhead,GU6 8QL,51.149963856849400,-0.489201596155628
cayman and blind snake,GU6 8QT,51.160415493474800,-0.486956000000000
box turtle and Scimitar babbler,GU6 8SN,51.143476000000000,-0.494346000000000
ringhals and Grackle,GU6 9DJ,51.141259000000000,-0.488385000000000
chuckwalla and rock python,GU7 1DQ,51.184430562982600,-0.610942531386232
rat snake and Magpie,GU7 1DS,51.185629012091200,-0.614941599030497
chuckwalla and blue racer,GU7 1GN,51.186011000000000,-0.613236000000000
Ice seal and cycling lizard,GU7 1HY,51.186409368454600,-0.609583000000000
Schneider python and Old World quail,GU7 1RT,51.183665565092600,-0.620008318298141
black snake and Nukupuʻu,GU7 1TD,51.168198000000000,-0.626721000000000
copperhead and galliwasp,GU7 1TJ,51.174865906130800,-0.609713549788091
Goose and Perching duck,GU7 1TS,51.174887003201000,-0.603933488675437
sea snake and turtle,GU7 1XN,51.185996550918100,-0.605946000000000
Dorcopsis and flying lizard,GU7 1YE,51.176946810299100,-0.619894162890037
Masked owl and Masked owl,GU7 2AE,51.188465682660600,-0.616802693465047
loggerhead and giant tortoise,GU7 2AG,51.191141000000000,-0.616293000000000
Stint and Magpie,GU7 2AL,51.193515650812600,-0.616479770576489
leathery turtle and Capuchin,GU7 2BJ,51.202544418101300,-0.624897957346356
dugite and Songlark,GU7 2DG,51.196424870202200,-0.621444837836059
krait and carpet snake,GU7 2EW,51.192640864254500,-0.613228747586350
Thicketbird and hawksbill,GU7 2EY,51.195622919542900,-0.610663267328768
Macaw and chameleon,GU7 2HB,51.195512852014600,-0.611239053374510
Herring gull and mountain devil,GU7 2HD,51.195849190947100,-0.611543806213866
New World blackbird and Badger,GU7 2LE,51.181926775262100,-0.630447601709812
Diving bird and Peafowl,GU7 2LH,51.184562523836800,-0.626692215074285
Civet and tuatara,GU7 2NR,51.178876000000000,-0.630939000000000
flying dragon and Mole,GU7 2QJ,51.184759993230400,-0.647505258424500
racer and perentie,GU7 2RT,51.199770027421200,-0.632279000000000
blue tongue and Egret,GU7 3AY,51.196170707908500,-0.605453000000000
amphisbaena and Petrel,GU7 3AZ,51.196202571929000,-0.604963925252546
tree snake and cerastes,GU7 3DF,51.191924082829900,-0.603619102721557
Schneider python and king snake,GU7 3DR,51.195422040539600,-0.602855026203022
Guillemot and viper,GU7 3EA,51.193025607272400,-0.604745011852969
gaboon viper and cycling lizard,GU7 3EG,51.194424913799200,-0.605203655868616
boa constrictor and hoop snake,GU7 3EP,51.194212418515200,-0.603220772759795
sand viper and Ibex,GU7 3HF,51.194170355373600,-0.599589000000000
Gull and B,GU7 3HJ,51.190556034270400,-0.606408000000000
Jay and gecko,GU7 3JG,51.193441541255300,-0.599666262765635
swift and harlequin snake,GU7 3LS,51.197504784236800,-0.607085789028443
flying lizard and Chipmunk,GU7 3NF,51.197151049664300,-0.605321716742941
Viscacha and garter snake,GU7 3NH,51.199831217724200,-0.603093804452616
king snake and frilled lizard,GU7 3PA,51.201133325242000,-0.601436980789516
massasauga and Wallaby,GU7 3PT,51.199355512060800,-0.610608000000000
chuckwalla and Pitohui,GU7 3QZ,51.198103695584600,-0.607540048245993
giant tortoise and Chickadee,GU7 3RF,51.201937321876800,-0.612319820736644
Grouse and Maya,GU7 3RP,51.204881568115100,-0.613390850279477
American sparrow and milk snake,GU7 3SD,51.203404839502900,-0.602642171249312
Tahr and Jackal,GU7 9HD,51.185998850219800,-0.605946000000000
Booted eagles and Mamo,GU7 9HH,51.185998850219800,-0.605946000000000
alligator and diamond python,GU7 9HQ,51.185946000000000,-0.605946000000000
sand viper and Mouse,GU7 9SL,51.187068986831400,-0.609732790389032
Scimitar babbler and whip snake,GU8 4AG,51.160866251794300,-0.591814577695068
bearded lizard and Fish eagle,GU8 4BW,51.122009000000000,-0.543255000000000
leguaan and iguana,GU8 4EZ,51.134212636151600,-0.633546072326065
Boto and tokay,GU8 4FH,51.185996550918100,-0.605946000000000
tuatara and Greenbul,GU8 4HW,51.135630631097700,-0.620282874303993
whip snake and diamondback,GU8 4LE,51.116104000000000,-0.563872000000000
Stilt and Old World vulture,GU8 4SQ,51.079134000000000,-0.607631000000000
Coati and brown snake,GU8 4TE,51.087396300666000,-0.602285349498668
Diving bird and garter snake,GU8 4UB,51.107732915036100,-0.629998727131275
Vole and Quetzal,GU8 5AB,51.161762341899900,-0.641742215877019
Philippine hawk-owl and Kangaroo,GU8 5AG,51.157153850807700,-0.632110639698334
Coati and River dolphin,GU8 5AS,51.145136000000000,-0.633219631410120
diamond python and thorn lizard,GU8 5ED,51.175493861095300,-0.652625975583748
elapid and slowworm,GU8 5EG,51.171786783092600,-0.646983598055425
Old World vulture and Old World quail,GU8 5EQ,51.176351920373400,-0.650612445832766
mamba and cerastes,GU8 5HP,51.172400786389700,-0.643317933450295
lizard and black snake,GU8 5HR,51.171223229302800,-0.641807617431011
Asiatic leopard and Badger,GU8 5JE,51.168464763917900,-0.645879309160444
Jerboa and Komodo dragon,GU8 5JH,51.171540243123700,-0.650552613609760
saltwater crocodile and Recurvebill,GU8 5LE,51.128004075628400,-0.695437577932296
whip snake and Jay,GU8 5NF,51.153950527991300,-0.648963768411160
Capuchin and agama,GU8 5NW,51.154012800162500,-0.650349000000000
rat snake and leguaan,GU8 5PA,51.153006027145300,-0.652837694972166
Pheasant and Elephant,GU8 5RE,51.160325230691300,-0.656686007588512
adder and Quetzal,GU8 5SX,51.131229167051900,-0.643767127281765
smooth snake and Dorcopsis,GU8 5SZ,51.129168000000000,-0.646557000000000
Dolphin and Thicketbird,GU8 5UN,51.137576329085400,-0.671840243555329
racer and horned toad,GU8 6AL,51.202978787451400,-0.663161108529684
bull snake and adder,GU8 6DF,51.184499996608300,-0.703988127565171
elapid and bull snake,GU8 6HD,51.184818135986000,-0.701861553089523
Badger and cerastes,GU8 6HN,51.184478329227900,-0.698794799287866
Night heron and Old World vulture,GU8 6JL,51.182298691665200,-0.696867392986695
cycling lizard and Herring gull,GU8 6NN,51.138378237783400,-0.703235712879816
bull snake and American sparrow,RH12 1AD,51.063910000000000,-0.354384000000000
Diving bird and Puffleg,RH12 1LG,51.057291024461400,-0.341105653357288
Guillemot and Kākāriki,RH12 1LY,51.065973423710700,-0.342036987207347
tuatara and Scimitar babbler,RH12 1NS,51.058452502485800,-0.344533000000000
Old World warbler and taipan,RH12 1QT,51.057924000000000,-0.357453000000000
hoop snake and Black cockatoo,RH12 1QW,51.062619000000000,-0.355957000000000
Hawaiian honeycreeper and Solitaire,RH12 1RX,51.060630601160900,-0.342598878517878
amphisbaena and Vole,RH12 1TR,51.064480248887000,-0.337580439744194
jew lizard and Thrasher,RH12 1WR,51.067259000000000,-0.352082000000000
carpet snake and leathery turtle,RH12 2AG,51.070262694956200,-0.342012186742235
Argus and massasauga,RH12 2AN,51.068193000000000,-0.341790650138135
flying dragon and Tahr,RH12 2PT,51.067606038499800,-0.338581735892703
Vulture and Skunk,RH12 3AR,51.107812177448800,-0.427593770751492
Condor and flying lizard,RH12 3DB,51.097209588435200,-0.441692484858007
Lemming and Marsh harrier,RH12 3DE,51.099707603706600,-0.442893931590070
Hawk and boa,RH12 3DF,51.102663622339600,-0.438652428737427
Parrotbill and Schneider python,RH12 3GG,51.099626048400000,-0.506796391400000
sea snake and Black jay,RH12 3GW,51.064562000000000,-0.366863000000000
Siskin and Egret,RH12 3GZ,51.065208000000000,-0.362259000000000
puff adder and deaf adder,RH12 3JE,51.085241500360200,-0.455344689141253
carpet snake and agamid,RH12 3LN,51.065765000000000,-0.371873000000000
gavial and diamondback terrapin,RH12 3NG,51.068594827588900,-0.357001405492698
ringhals and Tahr,RH12 3NN,51.070458874234900,-0.357820364723031
Pheasant and Magpie,RH12 3PH,51.080809380515200,-0.378412260234652
galliwasp and ringhals,RH12 3PL,51.067507000000000,-0.369736018200000
galliwasp and Boto,RH12 3PS,51.097388000000000,-0.382560000000000
Old World warbler and Komodo dragon,RH12 3QJ,51.091454330271300,-0.342953812896362
Civet and agamid,RH12 3RE,51.090179130419600,-0.355063000000000
Civet and Herring gull,RH12 3RF,51.089246937881600,-0.350929222857067
Chipmunk and Darwin's finches,RH12 3XP,51.095489000000000,-0.441668000000000
diamondback and python,RH12 3XQ,51.095108000000000,-0.444123000000000
Condor and Dorcopsis,RH12 3XY,51.071684000000000,-0.354924000000000
tokay and Viscacha,RH13 0AL,51.052938564919800,-0.343016170038709
bushmaster and mamba,RH13 0LB,51.045794609217500,-0.352943465071709
cobra and thorn lizard,RH13 0PN,51.030744000000000,-0.391869000000000
Parrotbill and dukite,RH13 0PW,51.029468505934200,-0.395977210345462
Rat and Diving bird,RH13 0QQ,51.025467795965400,-0.391611000000000
Black jay and Pratincole,RH13 0RB,51.071513935243000,-0.426683125986345
gavial and king cobra,RH13 0RE,51.061602873764300,-0.422609424470030
Chipmunk and Jerboa,RH13 0TY,51.069776504954000,-0.402020628716657
thorny devil and Peafowl,RH13 9AS,51.039401000000000,-0.345211000000000
blue tongue and snake,RH13 9BL,51.035346025927800,-0.349206230907552
smooth snake and mamba,RH13 9BP,51.032755605063400,-0.351722818367371
bandy-bandy and Mamo,RH13 9FN,51.029984000000000,-0.353107000000000
terrapin and copperhead,RH13 9JE,51.031693895508600,-0.349136326802087
dugite and White ibis,RH13 9JF,51.030971395538000,-0.348919551624226
gopher snake and Stilt,RH13 9JQ,51.029532000000000,-0.350328000000000
worm lizard and Stint,RH13 9UP,51.029800367869400,-0.344968042641907
cayman and Booted eagles,RH13 9UX,51.028226179780400,-0.344938545384546
Guillemot and worm lizard,RH14 0AR,51.043710730608400,-0.501476310904855
thorn lizard and king cobra,RH14 0BA,51.072283281514700,-0.534297339058821
diamond snake and sand lizard,RH14 0DD,51.029631346917000,-0.512298024151524
death adder and cerastes,RH14 0JL,51.038197336091500,-0.564456162847345
Asiatic leopard and black snake,RH14 0NE,51.032198805025100,-0.552761593355676
Francolin and rock snake,RH14 0PL,51.084065000000000,-0.579442000000000
whip snake and Puffleg,RH14 0RB,51.080967730672100,-0.514149880752609
Piping shrike and gaboon viper,RH14 0SL,51.073683377994400,-0.514839954083260
Triller and Marmoset,RH14 9AE,51.038766432511700,-0.441785263598095
Chicken and galliwasp,RH14 9AX,51.048360000000000,-0.443561000000000
black snake and green turtle,RH14 9BA,51.049366328531600,-0.431499749727589
Treepie and python,RH14 9DZ,51.027447979023400,-0.432638931411375
Towhee and king snake,RH4 1DD,51.232662000000000,-0.337972000000000
Hawk and Thicketbird,RH4 1HZ,51.239168715196600,-0.338439938202458
rock python and chameleon,RH4 1SQ,51.233844468429400,-0.339032806687354
anaconda and dugite,RH4 3EB,51.230386803898100,-0.342523226911614
Fish eagle and blindworm,RH4 3NB,51.229980340859200,-0.351948018265338
ringhals and Mamo,RH4 3NT,51.225368150557400,-0.368711390193583
Dorcopsis and Black cockatoo,RH4 3QG,51.225144000000000,-0.364083371472993
Towhee and Maya,RH4 3QS,51.227587554469500,-0.362144967693021
brown snake and gecko,RH5 5BD,51.152360000000000,-0.357534000000000
Grosbeak and Marmoset,RH5 5NP,51.132826781492500,-0.342059407676983
smooth snake and diamondback,RH5 5QD,51.110628304065500,-0.400512102709754
swift and Tahr,RH5 5QU,51.134902442843600,-0.390868779849459
Towhee and Cloud rat,RH5 5RP,51.166870525597700,-0.371290927815049
Parrotlet and constrictor,RH5 5RS,51.159648416079400,-0.367998583598856
Mole and pit viper,RH5 5TN,51.142759748251600,-0.364762918333004
Capuchin and Thrasher,RH5 5TQ,51.142541032106300,-0.365199521816279
Snipe and chuckwalla,RH5 6HE,51.184218998187800,-0.354810000000000
Kangaroo and sand viper,RH5 6LY,51.170726506023000,-0.378922461164463
