name,id,postcode,lat,lon
sidewinder and American sparrow,1112873,GU1 2BZ,51.236963109793500,-0.552921494798235
dugite and New World blackbird,1112635,GU1 2RS,51.243805000000000,-0.532491000000000
Greenbul and Hawk,1093350,GU6 8SQ,51.143640255531300,-0.498843395877249
hawksbill and mud turtle,1112600,GU1 4AW,51.236664125657800,-0.572354000000000
terrapin and Kite,474993,RH12 3AF,51.100623239330800,-0.467958005074554
wall lizard and Wallaby,1095256,GU5 0LH,51.165635525430100,-0.539993695058730
Greenbul and Black cockatoo,1106186,GU2 7TP,51.238538497104700,-0.590647884419511
box turtle and Chipmunk,1100343,GU3 2WA,51.245290157061000,-0.582317922817527
asp and deaf adder,473986,RH13 0SJ,51.066642059943400,-0.405611025492794
River dolphin and Black cockatoo,1092116,GU8 6HB,51.184264530070400,-0.701404929030242
Masked owl and Wader,1102277,GU26 6AL,51.113134185840400,-0.735072165032125
Eagle and Gull,1092525,GU7 3SL,51.200931058830700,-0.607096971014978
Recurvebill and Chipmunk,1101628,GU27 2FD,51.084336667786300,-0.719067440123912
ringhals and Kākāriki,1101834,GU27 1HQ,51.104709775899900,-0.723632323503013
Ground sloth and skink,1110090,GU12 6LH,51.246621129443300,-0.719464000000000
blindworm and ringhals,2653113,GU5 0FB,51.197165000000000,-0.554762000000000
mud turtle and mountain devil,1093675,GU6 8LF,51.135286198514100,-0.539335881604844
Linsang and Booted eagles,2068439,GU7 1GN,51.186011000000000,-0.613236000000000
Black cockatoo and coral snake,1092132,GU8 5DL,51.160723073561900,-0.652183918294940
White ibis and Eagle,1112145,GU1 9TD,51.232180184310500,-0.576475850060036
iguana and jew lizard,466600,RH4 1EJ,51.233639520295500,-0.339799364479284
Mouse and copperhead,465687,RH5 5NP,51.132826781492500,-0.342059407676983
blindworm and Coati,465716,RH5 5QR,51.138957660179200,-0.380407025678694
soft-shelled turtle and Condor,474708,RH12 3ND,51.070902805120700,-0.360616583027246
Tit-tyrant and Dolphin,1778784,GU2 7AJ,51.240534000000000,-0.616875000000000
Ice seal and Parrotbill,1092093,GU8 6DT,51.176921192605000,-0.707405155451276
rattlesnake and tokay,1778501,GU1 9TX,51.245292410106500,-0.582317946488846
Cuscus and Kākāriki,1102105,GU27 2DU,51.102905570239200,-0.684174801459275
Ibex and asp,1110055,GU12 6HP,51.238021047339500,-0.703831515170284
Towhee and gecko,472619,RH14 9HT,51.031796325269000,-0.471012841358854
adder and Thrasher,1110632,GU12 4AJ,51.238152061446000,-0.743894820273523
Wallaby and Mouse,1092179,GU8 6NH,51.148496363585000,-0.695288883531039
B and Egret,2591600,RH12 3UN,51.063768000000000,-0.364425000000000
hawksbill and Grouse,1112373,GU1 4TE,51.236280000000000,-0.574734064206148
horned viper and Fish eagle,1093882,GU6 7PY,51.154358478453500,-0.439668118742155
carpet snake and anole,1093342,GU6 8SE,51.143086410226000,-0.500533971032552
bandy-bandy and tree snake,1101868,GU27 1LN,51.087737501820700,-0.737406992905616
Vulture and Black cockatoo,465509,RH5 6PE,51.183780478737300,-0.408140535404791
milk snake and Black cockatoo,1095489,GU5 9AH,51.219132000000000,-0.499325000000000
Logrunners and cobra,1102322,GU27 1EU,51.092345017208800,-0.728585102810312
Black cockatoo and Cuscus,1092578,GU8 4YB,51.100319864023000,-0.610679425397183
Tahr and Dolphin,1112723,GU1 4JL,51.242326696217800,-0.570818907346457
gaboon viper and cobra,474702,RH12 3LW,51.071611517165400,-0.361776281501432
frill-necked lizard and Mamo,1110387,GU12 4PR,51.244988228666800,-0.748278970619375
Jackal and thorn lizard,1106349,GU2 4BL,51.234508484916000,-0.577893704382275
Ibex and Linsang,1093894,GU6 7QQ,51.155745850500200,-0.437833845331371
Kite and Ibex,1092916,GU7 3NN,51.200547795731700,-0.602857430421485
smooth snake and Lemming,472926,RH13 9JF,51.030971395538000,-0.348919551624226
wall lizard and Flameback,1106136,GU2 7QP,51.234070678308300,-0.600510296028917
tokay and Argus,1100231,GU3 2HA,51.243780730581400,-0.665030309626719
slowworm and Kangaroo,1805797,RH12 1EN,51.062892000000000,-0.355562000000000
Buzzard and death adder,1092837,GU7 3DU,51.189003000000000,-0.607414000000000
Badger and Shearwater,2068422,GU7 1DE,51.188806000000000,-0.596945000000000
Eagle and adder,1095236,GU5 0JD,51.185690493149100,-0.550964715905326
Parrotlet and diamond python,474436,RH12 3YU,51.066045686417200,-0.356706307379479
bandy-bandy and boa constrictor,1093912,GU6 7RP,51.145260662126700,-0.438530941427020
Linsang and Capuchin,1095039,GU5 9EQ,51.191580019298600,-0.482116776104318
frilled lizard and death adder,474643,RH12 3EY,51.090295308826800,-0.447724000000000
Macaw and Black cockatoo,1101599,GU27 3SU,51.081378749456100,-0.731498289800884
blindworm and diamond python,1102280,GU26 6AQ,51.112433748286300,-0.735162716397169
Pratincole and soft-shelled turtle,1113003,GU1 2LZ,51.242775765980100,-0.545948280298670
Fulmarine petrel and coral snake,1101191,GU28 9HJ,51.052411000000000,-0.644601000000000
Condor and iguana,2372405,RH14 9YJ,51.025619000000000,-0.442044000000000
pit viper and Bronzewing pigeon,1093669,GU6 8JX,51.139195000000000,-0.523246000000000
Marmoset and Boto,472615,RH14 9HP,51.031903812089400,-0.445081669428041
green turtle and kabaragoya,1101871,GU27 1LR,51.089936558500500,-0.740360015303362
Philippine hawk-owl and Francolin,2591601,RH12 3UY,51.062342000000000,-0.367272000000000
Cuscus and Kite,1112659,GU1 2TD,51.246140842534400,-0.544652971389169
Wader and Chipmunk,1093292,GU7 1TX,51.174640025679900,-0.603583310862428
leathery turtle and Jerboa,1106424,GU2 4LU,51.234168616957500,-0.585467215752499
indigo snake and Cloud rat,1095201,GU5 9QW,51.190901000000000,-0.452802000000000
coral snake and green turtle,2635206,GU5 0EU,51.184399000000000,-0.547764000000000
Hawaiian honeycreeper and Goose,2578554,GU28 9LN,51.044463349800000,-0.596687669100000
Tahr and galliwasp,1105951,GU2 8HQ,51.248342500375000,-0.600578653836114
leguaan and New World blackbird,1093001,GU7 3RA,51.200624004172600,-0.610011867997388
bull snake and Darwin's finches,1112571,GU1 3XN,51.230403339127200,-0.570873178836259
Tit-tyrant and Booted eagles,472812,RH14 0RE,51.071125124071800,-0.517334076765648
Minke whale and Bunting,1093832,GU6 7JZ,51.136731867354300,-0.475053726997196
diamond snake and Eagle,1112605,GU1 4BP,51.242324904955400,-0.569059000000000
viper and Black jay,1113202,GU1 1UJ,51.241398366613400,-0.561836498188664
gecko and Moluccan boobook,465975,RH4 3RH,51.232198000000000,-0.352270000000000
cerastes and thorn lizard,1112353,GU1 4RR,51.242490164480300,-0.578335266422037
Partridge and agama,1778457,GU1 2SP,51.241286860232000,-0.545134000000000
Dolphin and perentie,474525,RH12 3BY,51.094604266191200,-0.443236714211526
worm lizard and Siskin,1101960,GU27 1RD,51.087247033877600,-0.741960840558158
Civet and king snake,1105942,GU2 8HD,51.249266217785300,-0.598114756387162
frilled lizard and goanna,465348,RH5 5SY,51.151782416684400,-0.357909516705612
python and terrapin,1779486,GU7 1TD,51.168198000000000,-0.626721000000000
ringhals and agama,1093191,GU7 2QR,51.199146711933900,-0.619674671199565
Tattler and Jerboa,465148,RH5 6SB,51.217790522399100,-0.436135787656435
Ice seal and Zebra,1112753,GU1 2ZL,51.245290157061000,-0.582317922817527
racer and Wader,465948,RH4 3PJ,51.226825245617400,-0.365509044663976
tuatara and terrapin,1093820,GU6 8QY,51.164772617237500,-0.500917912879114
Dorcopsis and puff adder,1101762,GU27 2QR,51.084854589698600,-0.731103403435564
Dolphin and snake,473104,RH14 0AY,51.069627178628500,-0.534038680940692
agama and Pitohui,1093903,GU6 7RB,51.150516025728900,-0.441499190845770
bearded lizard and Macaw,1110666,GU12 4DN,51.240995000000000,-0.740565000000000
Diving bird and blue racer,1093202,GU7 2RE,51.199323000000000,-0.630705000000000
Elephant and cycling lizard,1112436,GU1 3PP,51.236377954899600,-0.565287695958023
Viscacha and Petrel,1112221,GU10 1HA,51.226253098151900,-0.716349508391814
cobra and king snake,1092928,GU7 2BD,51.201734346010800,-0.623951000000000
Ice seal and giant tortoise,1096680,GU4 7DA,51.246504274116700,-0.528408077295573
box turtle and Nukupuʻu,1092028,GU8 5UL,51.136383236843500,-0.672889312132971
hognose snake and wall lizard,1112137,GU1 9ST,51.232180184310500,-0.576475850060036
Maya and Logrunners,472909,RH14 0TG,51.069649101378600,-0.544428818276344
crocodile and Zebra,1093091,GU7 2LX,51.184266305847900,-0.629805937609680
Boto and amethystine python,475191,RH12 2AH,51.068005427365700,-0.343435000000000
caiman and sidewinder,1105997,GU2 8LZ,51.243437496498800,-0.612317863261002
Partridge and massasauga,1095363,GU5 0QJ,51.193741083660600,-0.540293495544998
Peafowl and sea snake,1096644,GU4 7AE,51.247789164670900,-0.529756907722662
amphisbaena and Solitaire,1101870,GU27 1LQ,51.089014398530400,-0.733245645497430
Crow and Dorcopsis,473974,RH13 0RU,51.071921263539600,-0.412909194452992
blindworm and carpet snake,1112312,GU10 1LP,51.210544239351100,-0.739592313569697
crocodile and cycling lizard,1093364,GU6 8TN,51.137848480985600,-0.517842379568333
cycling lizard and White ibis,474688,RH12 3LD,51.070055123265700,-0.362373626061865
horned toad and sidewinder,1092569,GU8 4XR,51.109643228112300,-0.651998765863182
Petrel and swift,1100393,GU3 3DJ,51.248997524006800,-0.627037831243863
Recurvebill and Chipmunk,1093084,GU7 2LP,51.182888225285200,-0.627314284140366
Moluccan boobook and horned viper,1112699,GU1 4FX,51.245290157061000,-0.582317922817527
Grosbeak and bushmaster,1778464,GU1 3AF,51.229351998876300,-0.570017843597592
Guillemot and frilled lizard,1101627,GU27 2EZ,51.083641436239800,-0.703569000000000
Chipmunk and tortoise,1100532,GU3 1AR,51.222165360790900,-0.666815549639606
Grouse and Crow,1112549,GU1 3TX,51.228846328052400,-0.568558227188232
leathery turtle and Greenbul,1092318,GU8 5NX,51.150653631082700,-0.653935637092920
Logrunners and Diving bird,1092705,GU8 4AY,51.163743000000000,-0.608131000000000
wall lizard and tiger snake,1779516,GU7 9GT,51.185998850219800,-0.605946000000000
diamond python and Stint,1100583,GU3 1HJ,51.224362000000000,-0.608961206015547
Mouse and cobra de capello,1101673,GU27 2LP,51.096404971632800,-0.701967979946959
Kākāriki and goanna,472782,RH14 0PP,51.030087515332300,-0.551585000000000
water snake and worm lizard,1102107,GU27 2DX,51.101479251281300,-0.686886161777191
rattlesnake and thorn lizard,1112736,GU1 2XL,51.242591000000000,-0.528160000000000
pit viper and soft-shelled turtle,1093225,GU7 1QD,51.180365000000000,-0.613039000000000
moloch and flying dragon,2641971,GU8 5FP,51.174126000000000,-0.650386000000000
galliwasp and thorn lizard,1092846,GU7 3EG,51.194424913799200,-0.605203655868616
indigo snake and Ibex,1093083,GU7 2LN,51.181962413581400,-0.626583473566484
Fish eagle and Ground sloth,1112354,GU1 4RS,51.238543522700200,-0.575462927850409
water snake and flying dragon,1112981,GU1 2JU,51.240971409867300,-0.549099603107089
iguana and smooth snake,1102360,GU26 6FF,51.113880062771300,-0.734194612533947
Piping shrike and taipan,1106164,GU2 7SD,51.238173610987800,-0.596202869278125
goanna and Parrotlet,474639,RH12 3ET,51.090456264989200,-0.448473821627150
Partridge and snake,1778471,GU1 4HH,51.243314859333300,-0.575716789154049
bull snake and Coati,1100624,GU3 1ND,51.207969847261800,-0.582934357074537
diamondback turtle and brown snake,1093008,GU7 3RJ,51.202967359820400,-0.612732612073630
puff adder and coral snake,474928,RH12 1LY,51.065973423710700,-0.342036987207347
bicycle lizard and Elephant,1093411,GU7 2AG,51.191141000000000,-0.616293000000000
asp and agamid,1093661,GU6 8JL,51.136018000000000,-0.494802000000000
king cobra and chameleon,1101859,GU27 1JZ,51.089685253114300,-0.732084996956829
Pheasant and Mole,1093318,GU7 1XH,51.185996550918100,-0.605946000000000
Lemming and Tit-tyrant,1101765,GU27 2QU,51.085881453235200,-0.729404000000000
diamond python and Diving bird,1094217,GU6 7BL,51.145072465166700,-0.480225854197844
turtle and crocodile,1093571,GU6 8DE,51.134006646316100,-0.483319115364748
Marsh harrier and Condor,1106222,GU2 7XR,51.239309810253700,-0.608516868440341
Egret and Nukupuʻu,1093747,GU6 7DZ,51.145869202133000,-0.479256105763307
hognose snake and chuckwalla,1100383,GU3 3BX,51.248402607417000,-0.604860998471827
ringhals and dukite,1096457,GU4 7RP,51.248110302078900,-0.476115581579819
loggerhead and flying dragon,1092968,GU7 2EF,51.194630363894500,-0.614929356590469
Songlark and grass snake,1110520,GU12 4YZ,51.245291121921500,-0.748012860208687
diamondback turtle and Wallaby,1778504,GU1 9UA,51.245292410106500,-0.582317946488846
soft-shelled turtle and worm lizard,1095674,GU5 0AX,51.194951940058900,-0.556859000000000
Viscacha and Pitohui,1110634,GU12 4AN,51.237652401922500,-0.743421382649884
thorn lizard and gopher snake,1096366,GU4 8WB,51.245290157061000,-0.582317922817527
Mouse and Rat,1112453,GU1 3QL,51.236624030946000,-0.564821651390262
Tattler and jew lizard,1112814,GU1 3JS,51.235452035507600,-0.556535664351367
Towhee and White ibis,1101899,GU27 3EJ,51.046681624308600,-0.722902317007197
Parrotbill and cobra de capello,465457,RH5 6HQ,51.179813862450400,-0.350947584693267
Partridge and Mamo,2653123,GU6 8FU,51.131659000000000,-0.483501000000000
mamba and Kangaroo,1112701,GU1 4GB,51.245290157061000,-0.582317922817527
alligator and Grosbeak,1092145,GU8 5EB,51.174267526369700,-0.654537000000000
White ibis and Black jay,1092566,GU8 4XL,51.116882000000000,-0.647945000000000
racer and Hawaiian honeycreeper,1101740,GU27 2PJ,51.084580010151200,-0.720759740978106
bull snake and racer,1093209,GU7 2RP,51.195976793455200,-0.640020890966427
tortoise and blindworm,1095149,GU5 9JT,51.220075127169400,-0.456381000000000
Parrotbill and Ibex,1112271,GU1 4PS,51.238960291233800,-0.576926000000000
Siskin and Magpie,1106412,GU2 4JU,51.234732398366300,-0.581525124655873
Partridge and Greenbul,1101854,GU27 1JT,51.093345377982300,-0.732099156925365
Booted eagles and cobra,475422,RH12 1LQ,51.057742467587600,-0.341232217636589
Schneider python and Jackal,1105975,GU2 8JW,51.244628308273600,-0.611880870188906
Petrel and harlequin snake,1093211,GU7 2RR,51.203027000000000,-0.639150905800183
Hawaiian honeycreeper and Petrel,1092895,GU7 3LB,51.190887175930600,-0.607914960066038
elapid and taipan,1105952,GU2 8HR,51.245783667876700,-0.600914204952699
Duck and indigo snake,466305,RH4 3JQ,51.214338736288500,-0.342798853270703
tiger snake and gecko,1095680,GU5 0BJ,51.203227926452800,-0.569395359180118
Pitohui and cobra de capello,472737,RH14 0LB,51.061092000000000,-0.544612000000000
chameleon and Partridge,1779032,GU27 9FW,51.085916831646200,-0.730974501261675
brown snake and rock python,1092655,GU7 9EG,51.185996550918100,-0.605946000000000
bearded lizard and diamondback,1093779,GU6 7HH,51.140563322138400,-0.481317391582161
alligator and New World blackbird,1101869,GU27 1LP,51.091611913399900,-0.740614378436915
Grackle and Petrel,1092369,GU8 5QH,51.139625701803500,-0.661503675965804
Rabbit and taipan,465337,RH5 5SF,51.160532000000000,-0.396055000000000
Kestrel and perentie,1112990,GU1 2LG,51.246951985037400,-0.544799305275593
boa constrictor and Puffleg,1102148,GU26 6TY,51.110100482082900,-0.745626122519363
Argus and pit viper,1110042,GU12 6EX,51.246871183746900,-0.715403131139376
amphisbaena and blue tongue,1095522,GU5 9DH,51.206378769085300,-0.481186588098691
snapping turtle and Piping shrike,1092176,GU8 6ND,51.149613000000000,-0.677729000000000
Asiatic leopard and mud turtle,472916,RH14 0TR,51.063782977409100,-0.529114142628431
Tit-tyrant and mountain devil,1095340,GU5 0NF,51.175545071869300,-0.577934399428776
Marsh harrier and slowworm,1092348,GU8 4NU,51.098452000000000,-0.553708000000000
Kākāriki and puff adder,1106521,GU2 7NG,51.237057563242100,-0.584175340328242
Towhee and smooth snake,1092102,GU8 6EE,51.171782046727600,-0.713528075981501
leguaan and Rabbit,1112323,GU10 1NB,51.208422400686100,-0.738791285229572
viper and harlequin snake,1092788,GU8 4EX,51.134476168336100,-0.633781275068606
skink and saltwater crocodile,1105831,GU2 8EB,51.244144632781500,-0.605233377494009
Petrel and boa,474544,RH12 3DY,51.084657000000000,-0.475796000000000
Tree warbler and whip snake,1110103,GU12 6LZ,51.244324659963600,-0.721820886568857
blue racer and flying dragon,2635181,GU27 3DR,51.074978000000000,-0.725401000000000
amphisbaena and dugite,1113194,GU1 1TZ,51.247457055467200,-0.554354537077212
cobra de capello and Capuchin,1093605,GU7 1HY,51.186409368454600,-0.609583000000000
boomslang and caiman,1106348,GU2 4BG,51.245290157061000,-0.582317922817527
bandy-bandy and Skunk,1111971,GU10 2DD,51.176676875560700,-0.747783282403940
Badger and sea snake,465334,RH5 5RZ,51.157781712727100,-0.394263024954582
River dolphin and Mole,1102363,GU26 6HA,51.106747478625400,-0.747416704858497
worm lizard and Thicketbird,1092924,GU7 3NX,51.202145095469500,-0.598815515266938
racer and black snake,1092848,GU7 3EJ,51.195012693116000,-0.603969410936588
slowworm and goanna,1110088,GU12 6LF,51.245520191148300,-0.726730660657669
Goose and Black cockatoo,1110663,GU12 4DH,51.247250859039000,-0.745437963387813
box turtle and sidewinder,1095501,GU5 9BB,51.218487603894900,-0.478096157342934
horned viper and agama,1092108,GU8 6EN,51.183584704321100,-0.705787995886005
Bunting and asp,1092147,GU8 6HQ,51.185810728953300,-0.694893913671048
mamba and loggerhead,1093420,GU7 2AT,51.195520000000000,-0.617064000000000
Schneider python and krait,1110402,GU12 4QL,51.245895716747500,-0.742337136205993
Zebra and king snake,1101192,GU28 9HL,51.054227603476600,-0.643962894851729
lizard and worm lizard,1112252,GU1 4NQ,51.239824526260900,-0.574190000000000
terrapin and Masked owl,1092234,GU8 5ER,51.174698415185000,-0.648371844249401
tree snake and turtle,1095185,GU5 9PD,51.203549000000000,-0.441628000000000
Boto and Vulture,1779502,GU7 9FD,51.185998850219800,-0.605946000000000
Ice seal and B,1102219,GU27 1DX,51.098621040572300,-0.709632402459291
White ibis and carpet snake,2626461,GU7 3FJ,51.194665000000000,-0.598392000000000
Schneider python and Dorcopsis,1092199,GU8 6QQ,51.145997661157400,-0.713258488006773
Kangaroo and Duck,1092491,GU8 4SX,51.081089745859900,-0.634012259242823
Shearwater and saltwater crocodile,472642,RH14 0EG,51.030137116238200,-0.493514328102151
python and Tree warbler,1095144,GU5 9JL,51.205975434055300,-0.472479000000000
bull snake and monitor,474927,RH12 1LX,51.065913176564600,-0.340326469705812
Eagle and harlequin snake,2653127,GU6 8GH,51.141047000000000,-0.492457000000000
Dolphin and Grosbeak,1093487,GU7 1DP,51.185660551066200,-0.615326992369631
goanna and Pheasant,1112350,GU1 4RJ,51.242470605142600,-0.575986321060394
Viscacha and Solitaire,1106420,GU2 4LG,51.236613143518900,-0.588328814193648
Pitohui and krait,465519,RH5 6PY,51.212651890455000,-0.411812679346243
habu and puff adder,475186,RH12 2AB,51.066493697478200,-0.340676790736600
diamondback turtle and Prion,1101880,GU27 1NB,51.088501046236800,-0.733173995500742
Ibex and Piping shrike,1100399,GU3 3DT,51.246923575231600,-0.631928061916593
Parrotbill and alligator,1096592,GU4 8AW,51.225100972162100,-0.564394000000000
Fulmarine petrel and Minke whale,1112596,GU1 4AP,51.236535388765600,-0.571542685099711
New World blackbird and chuckwalla,1106150,GU2 7RF,51.241695114946400,-0.612499225570885
Wader and gaboon viper,1106190,GU2 7TU,51.236832822958800,-0.590141333980105
Solitaire and Maya,474919,RH12 2PY,51.067475198505800,-0.339499875402940
Vulture and Prion,1779069,GU3 2AB,51.243421810117300,-0.677562324297908
black snake and Bronzewing pigeon,1092868,GU7 3HP,51.190955174529100,-0.604564256902787
anole and Masked owl,1101612,GU27 3TN,51.082340817149600,-0.738967291168578
soft-shelled turtle and death adder,1093672,GU6 8LB,51.128926598898600,-0.517041826357408
Maya and rock python,1092127,GU8 5DE,51.162624922512000,-0.654130729655543
Chipmunk and Stint,465513,RH5 6PR,51.200900651548700,-0.415952732751920
Recurvebill and Masked owl,1112180,GU10 1BX,51.237903480290900,-0.731682456048490
Solitaire and indigo snake,1093249,GU7 1RN,51.179509745787600,-0.624481698471365
chameleon and glass snake,1095378,GU5 0RH,51.194426000000000,-0.517445000000000
sand lizard and python,1101540,GU27 3PS,51.073215325766900,-0.745838423789344
jew lizard and Jay,2068420,GU7 1AX,51.186565000000000,-0.601614000000000
lizard and horned viper,1096343,GU4 8QZ,51.199731000000000,-0.513138000000000
gecko and Coati,1101172,GU28 9EH,51.063175370671700,-0.644743290206759
mountain devil and Vulture,1092263,GU8 5HZ,51.171703588448600,-0.643681698380241
New World blackbird and harlequin snake,1101845,GU27 1JG,51.090545793119500,-0.732661199570931
Viscacha and glass snake,1093883,GU6 7PZ,51.153735591323100,-0.439488938767355
box turtle and cobra de capello,1093474,GU7 1BS,51.184270629104700,-0.613379768192737
cycling lizard and Argus,1106038,GU2 7PG,51.234172379607200,-0.590251290138869
Pratincole and blue racer,1106413,GU2 4JX,51.234102466036200,-0.581487198379534
Elephant and giant tortoise,2626453,GU6 8FG,51.132732000000000,-0.480879000000000
Armadillo and bushmaster,1096652,GU4 7AQ,51.247927057802000,-0.530712505109340
Asiatic leopard and cycling lizard,1779519,GU7 9HD,51.185998850219800,-0.605946000000000
Dorcopsis and Nukupuʻu,1102204,GU27 1DD,51.088483784674500,-0.725792389577350
snake and whip snake,1105968,GU2 8JN,51.245774341819300,-0.611459529766444
jew lizard and chameleon,1095207,GU5 9RH,51.194362000000000,-0.441910000000000
black snake and horned toad,1105837,GU2 8EJ,51.245167571822900,-0.603540469261597
Parrotbill and grass snake,1105832,GU2 8ED,51.244269336533300,-0.603624977688343
horned toad and Meadowlark,474334,RH12 3TP,51.070578833076700,-0.365737997386573
frilled lizard and asp,1100591,GU3 1HU,51.209605069520300,-0.618159482098582
king cobra and bearded lizard,465946,RH4 3PG,51.227951372662600,-0.365655340590310
Linsang and Ibex,1112963,GU1 2HX,51.236619737519700,-0.549881099263371
jew lizard and racer,1095723,GU5 0HL,51.192849365241100,-0.556121182984378
Gull and Eagle,1095043,GU5 9HA,51.220236847690000,-0.455799887558627
frill-necked lizard and Perching duck,1112988,GU1 2LE,51.241229359997400,-0.548477000000000
Komodo dragon and loggerhead,2641953,GU6 8GL,51.139358000000000,-0.491197000000000
Argus and amphisbaena,1093302,GU7 1UR,51.189854000000000,-0.592105000000000
New World blackbird and loggerhead,1093012,GU7 3RQ,51.204028578617600,-0.610467667089753
Fish eagle and B,1106355,GU2 4DB,51.231592938775600,-0.578470562040222
diamondback turtle and Puffleg,1102315,GU27 1EL,51.094212000000000,-0.710069000000000
Masked owl and Booted eagles,1093390,GU7 1XX,51.178577541613200,-0.620918473338006
massasauga and thorny devil,1092109,GU8 6EP,51.183084562793800,-0.702039015580761
horned toad and soft-shelled turtle,1105936,GU2 8FN,51.245713000000000,-0.597244311638681
diamondback terrapin and leguaan,1112638,GU1 2RX,51.241424000000000,-0.531984147095507
indigo snake and gecko,1093512,GU7 1EU,51.186497461786300,-0.618421297992129
B and Hawaiian honeycreeper,465455,RH5 6HN,51.192942327411100,-0.356632908265632
worm lizard and Macaw,1095178,GU5 9NR,51.218798397232800,-0.445638326345061
snake and king cobra,1092988,GU7 3PZ,51.198445251209000,-0.606771173067885
terrapin and Tree warbler,1112789,GU1 3EZ,51.235517700873700,-0.571416631347922
bull snake and Stilt,475190,RH12 2AG,51.070262694956200,-0.342012186742235
Dorcopsis and goanna,1095150,GU5 9JU,51.219649083125700,-0.463752605203847
galliwasp and monitor,1095237,GU5 0JE,51.185235497333600,-0.549805661972590
dukite and frilled lizard,1092782,GU8 4EB,51.133191155080400,-0.606420275704081
Maya and Black jay,472965,RH13 9TU,51.028121777855600,-0.348364813801367
Greenbul and king cobra,1094106,GU6 7AL,51.145399690347300,-0.485347571935636
saltwater crocodile and Ice seal,1102050,GU26 6PZ,51.123930266122100,-0.744722907591087
gavial and Prion,474637,RH12 3ER,51.089510736258600,-0.448376945317272
Pratincole and Partridge,1092778,GU8 4DX,51.136778394229000,-0.627026000000000
swift and cayman,475053,RH12 1RT,51.059151292315500,-0.340382743040456
dukite and Maya,1112212,GU10 1EQ,51.232590118404200,-0.734119000000000
Cloud rat and python,1092781,GU8 4EA,51.127504879719600,-0.612221998273402
Gila monster and Kākāriki,1112374,GU1 4TL,51.238496049138500,-0.578214847692390
tiger snake and flying dragon,466265,RH4 3EF,51.229703367180400,-0.341888928054505
python and cayman,1096255,GU4 8JT,51.210813510325800,-0.566855341511981
sea snake and bicycle lizard,1100613,GU3 1LP,51.219731000000000,-0.581256000000000
Viscacha and loggerhead,1112142,GU1 9SZ,51.232180184310500,-0.576475850060036
terrapin and agama,1095148,GU5 9JR,51.217466235397300,-0.466358000000000
Towhee and Parakeet,465462,RH5 6JA,51.200157000000000,-0.402180000000000
caiman and box turtle,474326,RH12 3SX,51.091011585295200,-0.354265090528861
Parrotbill and Kangaroo,2074252,GU1 9AR,51.245279000000000,-0.582312000000000
Booted eagles and Francolin,1092963,GU7 2DZ,51.195523000000000,-0.615747000000000
lizard and diamond python,1093545,GU6 8AT,51.140619733149900,-0.488448784123581
mountain devil and Mockingbird,1112769,GU1 3BS,51.237825000000000,-0.566484298375960
indigo snake and Tahr,1093635,GU6 8HB,51.102799229184600,-0.515594000000000
cayman and carpet snake,1101777,GU27 3AD,51.082544630536500,-0.718017608735995
king cobra and Piping shrike,1092618,GU8 5BT,51.164265594134400,-0.652137891400546
Bunting and crocodile,2584116,GU2 7AQ,51.240525000000000,-0.614569000000000
hoop snake and rat snake,1112149,GU10 1AE,51.233860912161200,-0.731220648717406
Tit-tyrant and Pheasant,1778485,GU1 9QF,51.245292410106500,-0.582317946488846
hognose snake and rat snake,474820,RH12 3SP,51.094088000000000,-0.337733000000000
Goose and deaf adder,472785,RH14 0PT,51.068824310079400,-0.567933513914096
Thrasher and brown snake,1095383,GU5 0RX,51.197503624522800,-0.542750867516423
Scimitar babbler and Thicketbird,1102122,GU27 2ET,51.096564662220500,-0.695308467141889
death adder and swift,1093725,GU6 7BX,51.148299719348600,-0.479447879389510
soft-shelled turtle and Greenbul,1100387,GU3 3DB,51.249954154319200,-0.625031973836184
Flameback and White ibis,1112620,GU1 4DR,51.239969706854600,-0.570003748147220
Pheasant and gecko,475117,RH12 1XB,51.060927043067300,-0.349566669306047
bandy-bandy and Tahr,1806263,RH4 3GG,51.228255257900000,-0.369600000000000
Polecat and Vole,1110074,GU12 6JN,51.248154069257800,-0.713490410223982
Jackal and Thicketbird,1093649,GU6 8HW,51.097780564775900,-0.518139000000000
soft-shelled turtle and carpet snake,1092757,GU7 3BL,51.200926654995500,-0.597693078661421
Chickadee and Armadillo,1095216,GU5 9RW,51.190872299955900,-0.446692530338731
Herring gull and sand lizard,1112279,GU10 1HP,51.222419405278100,-0.710213000000000
loggerhead and milk snake,1112637,GU1 2RU,51.241596523714800,-0.532160586375518
Eagle and Lemming,474633,RH12 3EL,51.091948265565200,-0.446381839076538
Partridge and agamid,473320,RH13 9DT,51.026975271921500,-0.352512519219678
Thicketbird and gopher snake,1101737,GU27 2PF,51.089251184064700,-0.716204424031642
Ibex and amphisbaena,474929,RH12 1LZ,51.065472300688700,-0.342211883938396
Coati and Tit-tyrant,474005,RH13 0TH,51.066757255122200,-0.403509022615393
Ice seal and massasauga,1092992,GU7 3QE,51.197796758050200,-0.608951936254661
Magpie and Stint,1106385,GU2 4EW,51.227642511896600,-0.580468436873573
Vole and Puffleg,1095721,GU5 0HG,51.193331258211300,-0.556549772242731
gavial and Eagle,1092717,GU8 4BT,51.141530912399500,-0.549760208294628
terrapin and Coati,474665,RH12 3HZ,51.085153904286100,-0.448051542687226
Egret and Petrel,1093791,GU6 7HZ,51.142069965467400,-0.476850634333985
anaconda and loggerhead,1112356,GU1 4RW,51.240068000000000,-0.580946000000000
rat snake and Flameback,1101833,GU27 1HN,51.087839517842300,-0.727737686161818
Peafowl and iguana,1102094,GU26 6SF,51.114467672839000,-0.733649952026507
mountain devil and death adder,1101788,GU27 3AW,51.080719000000000,-0.704791000000000
Chicken and brown snake,1102117,GU27 2EL,51.092340702957600,-0.662755000000000
box turtle and tuatara,1092380,GU8 5QZ,51.158076701971500,-0.656651201322070
Parrotlet and cayman,1095516,GU5 9DA,51.215369426989800,-0.483811710483335
Francolin and loggerhead,472956,RH13 9TD,51.028771346692900,-0.344063478483200
bearded dragon and indigo snake,1106486,GU2 7DD,51.234049512084200,-0.602501955407197
anaconda and blind snake,466206,RH4 3AZ,51.222215129683700,-0.338907234909998
Black cockatoo and pit viper,1092990,GU7 3QB,51.198476565857000,-0.609403787017140
monitor and tiger snake,1092359,GU8 5PU,51.141056886457400,-0.670296585087989
mamba and sidewinder,1112543,GU1 3TP,51.229506249063200,-0.560774957003106
worm lizard and Marsh harrier,1102147,GU26 6TX,51.109431792964100,-0.747001308652007
