name,postcode,lat,lon
Mouse and smooth snake,GU1 1SJ,51.241427000000000,-0.564099000000000
leathery turtle and cobra,GU1 1TL,51.244855099778000,-0.557745711360515
Old World quail and Moluccan boobook,GU1 1UA,51.247191453429100,-0.554692408584320
sand lizard and Parrotlet,GU1 2BA,51.238811838611900,-0.560642188415313
whip snake and rock python,GU1 2BU,51.236489347873000,-0.553151227684320
Bronzewing pigeon and Puffleg,GU1 2BX,51.238537670335000,-0.554447881335658
whip snake and Darwin's finches,GU1 2DR,51.240262916565700,-0.562373308891260
harlequin snake and Philippine hawk-owl,GU1 2DZ,51.239881889795300,-0.558445609214161
Petrel and Mouse,GU1 2EA,51.240174472448400,-0.560298821570655
Mockingbird and Bronzewing pigeon,GU1 2EB,51.240508479977800,-0.559541000000000
Treepie and diamondback turtle,GU1 2EP,51.242339224259500,-0.557179699731147
cycling lizard and swift,GU1 2HL,51.240567349427800,-0.536147312151346
Thicketbird and American sparrow,GU1 2JY,51.243721811977900,-0.553354132919214
Duck and amethystine python,GU1 2LW,51.248713091899500,-0.543239230697207
smooth snake and Towhee,GU1 2NP,51.246823000000000,-0.549825000000000
tuatara and Bronzewing pigeon,GU1 2PS,51.242844377013100,-0.543510582411559
rattlesnake and Bronzewing pigeon,GU1 2QL,51.241441000000000,-0.536908000000000
asp and Darwin's finches,GU1 2QZ,51.244180000000000,-0.531577000000000
Cuscus and agamid,GU1 2SX,51.244127092122100,-0.541808128632316
Rat and Jerboa,GU1 2UJ,51.248136231319900,-0.535204936808997
bearded lizard and Petrel,GU1 2UQ,51.249677559744600,-0.539812831082021
cayman and boomslang,GU1 2XH,51.244787486744300,-0.535640840047812
Old World vulture and Rabbit,GU1 2XR,51.244102403672800,-0.526908746740598
Crow and Rat,GU1 2XZ,51.241596729153300,-0.524309762480066
Mockingbird and Rabbit,GU1 2YA,51.241677335797300,-0.525711164417868
gecko and caiman,GU1 2YW,51.236901285490600,-0.553739948821813
black snake and bushmaster,GU1 3AA,51.235899530001400,-0.572493466770698
snake and black snake,GU1 3DD,51.237258811996000,-0.568927474506664
Tattler and Shearwater,GU1 3DE,51.237379055717200,-0.568608000000000
Chipmunk and Wallaby,GU1 3DG,51.235158188169300,-0.576598817831400
Chicken and Vole,GU1 3EG,51.235500751165100,-0.575929327457817
soft-shelled turtle and Quetzal,GU1 3HR,51.236124484980600,-0.570294849129085
Cloud rat and River dolphin,GU1 3JS,51.235452035507600,-0.556535664351367
Ibex and Civet,GU1 3NA,51.235927339345600,-0.563740340965958
Puffleg and Masked owl,GU1 3PE,51.238636295994500,-0.559530289492292
rat snake and turtle,GU1 3PG,51.237191139352400,-0.566336769624442
Buzzard and Parrotlet,GU1 3QJ,51.235793057042300,-0.563056947993558
Black jay and Guillemot,GU1 3QL,51.236624030946000,-0.564821651390262
Mockingbird and Solitaire,GU1 3QZ,51.235189217996500,-0.572501123425895
tuatara and anaconda,GU1 4DP,51.240966390871500,-0.568411305229167
bull snake and tortoise,GU1 4HT,51.241004530321100,-0.571533204214067
Hawaiian honeycreeper and Condor,GU1 4HW,51.239190386230400,-0.570987718870540
Vulture and caiman,GU1 4HY,51.241119538701000,-0.570641423752608
mamba and Recurvebill,GU1 4JH,51.241909000000000,-0.571086155920958
flying dragon and diamondback,GU1 4JW,51.242553066508100,-0.570210177148820
Logrunners and python,GU1 4LE,51.237673428737500,-0.571951517760170
gaboon viper and Myna,GU1 4ND,51.239017000000000,-0.573665299582978
mamba and blue racer,GU1 4NN,51.240338028198500,-0.575135311210184
Duck and asp,GU1 4NW,51.240710258585900,-0.573949081938333
blue tongue and flying dragon,GU1 4RH,51.241904292844200,-0.576003807127563
Mole and caiman,GU1 4RJ,51.242470605142600,-0.575986321060394
gecko and Grosbeak,GU1 4RR,51.242490164480300,-0.578335266422037
gecko and saltwater crocodile,GU1 4RY,51.236767880763800,-0.577964000000000
glass snake and chameleon,GU1 4SG,51.237229000000000,-0.577437000000000
diamondback turtle and sea snake,GU1 4SN,51.238765775439000,-0.578951452125492
Macaw and Snipe,GU1 4SS,51.237623874767000,-0.577482506273765
leathery turtle and Chicken,GU1 9AF,51.245279000000000,-0.582312000000000
bearded dragon and Skunk,GU1 9RN,51.245292410106500,-0.582317946488846
Logrunners and harlequin snake,GU1 9TE,51.232182429479700,-0.576475873336264
blue racer and dugite,GU1 9XP,51.245279000000000,-0.582312000000000
hawksbill and taipan,GU1 9YF,51.232178000000000,-0.576455000000000
Bunting and Chickadee,GU10 1EF,51.235058580267100,-0.727234281009562
taipan and alligator,GU10 1EN,51.233729157612800,-0.730679975176703
chameleon and cycling lizard,GU10 1HE,51.226992970602900,-0.696235804739952
kabaragoya and rat snake,GU10 1HL,51.221050430559900,-0.692724000000000
Partridge and Badger,GU10 1JU,51.225172851363100,-0.734409636206366
blindworm and leguaan,GU10 1LF,51.221772024491200,-0.737581665151885
Hawaiian honeycreeper and amphisbaena,GU12 4DB,51.242155399431700,-0.744057992371778
Myna and leguaan,GU12 4ET,51.241713521088800,-0.743941090371544
taipan and Treepie,GU12 4HH,51.242051235238600,-0.749447468974025
Warbler and blue racer,GU12 4PS,51.245911036809700,-0.749643677602161
goanna and anaconda,GU12 4RZ,51.247942766049300,-0.743714106492683
Buzzard and agamid,GU12 4SD,51.247226431190500,-0.744836861175458
agamid and Piping shrike,GU12 6EF,51.243467019416300,-0.697045215929351
rat snake and Badger,GU12 6HG,51.241350317410400,-0.706459896033918
Ice seal and Masked owl,GU12 6HQ,51.242556000000000,-0.709692000000000
Cuscus and Parakeet,GU12 6HU,51.238276000000000,-0.705644000000000
Schneider python and Flameback,GU12 6HW,51.236462405905700,-0.708444820128857
bushmaster and Vulture,GU12 6HX,51.238567030404700,-0.706853102248720
racer and Dorcopsis,GU12 6HZ,51.243288954511100,-0.707752223040184
slowworm and kabaragoya,GU12 6NR,51.242412619636300,-0.727905252844611
sea snake and cayman,GU12 6NX,51.243533770571200,-0.716928760285919
Guillemot and massasauga,GU12 6PX,51.246125000000000,-0.730915174549690
Ibex and Skunk,GU12 6PZ,51.245361931261400,-0.730374144359768
gavial and blue racer,GU12 6QW,51.242701486091900,-0.732152223923573
perentie and Towhee,GU2 4AX,51.231726092867300,-0.576847940536798
tiger snake and Kākāriki,GU2 4BX,51.232227566296300,-0.578895030974458
Thicketbird and cerastes,GU2 4JX,51.234102466036200,-0.581487198379534
indigo snake and Jay,GU2 4YD,51.231980088655200,-0.579820000000000
saltwater crocodile and Chipmunk,GU2 7AH,51.239617000000000,-0.613794000000000
Civet and chameleon,GU2 7JG,51.241809000000000,-0.586623000000000
slowworm and habu,GU2 7NJ,51.238274212361800,-0.584395848868655
tiger snake and lizard,GU2 7NS,51.236274989801300,-0.584156386315392
Chipmunk and dukite,GU2 7QT,51.234308072139000,-0.601563066334975
diamondback terrapin and hawksbill,GU2 7RW,51.230720222904000,-0.603834563646351
Wader and Armadillo,GU2 7RY,51.230635892445300,-0.608835772262511
Chickadee and Tattler,GU2 7YZ,51.239032000000000,-0.610001000000000
Duck and Gila monster,GU2 7ZU,51.245290157061000,-0.582317922817527
green turtle and Solitaire,GU2 8BN,51.249487920952800,-0.594855407447888
Treepie and Badger,GU2 8DD,51.247121409830300,-0.598480851561553
Darwin's finches and elapid,GU2 8DS,51.243535466352100,-0.606183043784773
Darwin's finches and cobra de capello,GU2 8ED,51.244269336533300,-0.603624977688343
White ibis and milk snake,GU2 8HL,51.246527508827300,-0.597696548789164
indigo snake and Hawk,GU2 8HS,51.244436660762400,-0.601069688772533
amethystine python and American sparrow,GU2 8LU,51.245074000000000,-0.616008000000000
leathery turtle and elapid,GU2 8YT,51.245600699933000,-0.593899300790723
Crow and cayman,GU26 6AB,51.113980070581700,-0.732320000000000
Chickadee and Dolphin,GU26 6FF,51.113880062771300,-0.734194612533947
Grouse and hoop snake,GU26 6SG,51.115642096490000,-0.733317824383174
Tahr and garter snake,GU26 6TT,51.111308389721400,-0.746736280792750
Minke whale and caiman,GU26 6TW,51.111555525080800,-0.740443855923829
bushmaster and cycling lizard,GU27 1AJ,51.103830690111300,-0.710715749575738
racer and Thrasher,GU27 1BY,51.088242267859500,-0.725199000000000
Triller and gopher snake,GU27 1DD,51.088483784674500,-0.725792389577350
indigo snake and worm lizard,GU27 1EF,51.095788590765500,-0.711455000000000
bearded dragon and python,GU27 1EG,51.096469331075900,-0.708592640211679
glass snake and Logrunners,GU27 1HF,51.104871000000000,-0.723442000000000
rock snake and Gila monster,GU27 1LF,51.087036792611100,-0.732485801914466
brown snake and Pratincole,GU27 1NZ,51.086946123135100,-0.739070529550757
bearded lizard and python,GU27 1PD,51.087021750108700,-0.741081702068018
water snake and Gull,GU27 1RG,51.087351036474000,-0.738259934920887
habu and Ibex,GU27 1SP,51.094199481937500,-0.709069995023824
Bronzewing pigeon and tree snake,GU27 2AH,51.089002887466200,-0.709985715146531
Egret and frill-necked lizard,GU27 2AX,51.091155705808100,-0.710311373756565
sidewinder and Grosbeak,GU27 2AZ,51.090316876515300,-0.713347627715195
Recurvebill and hognose snake,GU27 2BY,51.092111631448100,-0.709742153575542
chameleon and Jackal,GU27 2DB,51.104424640631900,-0.692130515229596
bicycle lizard and Jay,GU27 2EE,51.103295171150600,-0.683635259328121
skink and tiger snake,GU27 2HJ,51.087787381066900,-0.709034309954979
habu and chameleon,GU27 2LP,51.096404971632800,-0.701967979946959
deaf adder and Viscacha,GU27 2NF,51.087098202531100,-0.713408367415077
hognose snake and Duck,GU27 2NX,51.088382866880300,-0.711489000000000
frill-necked lizard and Coati,GU27 2RU,51.102919262568900,-0.693415627736405
diamondback turtle and Parakeet,GU27 3AG,51.075363790690100,-0.699673238164132
Lemming and leathery turtle,GU27 3DW,51.076259748080400,-0.714008719591330
worm lizard and horned toad,GU27 3HW,51.045562462807700,-0.711877334887965
sand lizard and Maya,GU27 3JF,51.034718000000000,-0.715102000000000
diamondback terrapin and Ice seal,GU27 3LE,51.076211438195300,-0.721904086267154
rock python and Greenbul,GU27 3NW,51.055030619257500,-0.725726129035406
Duck and python,GU27 3PL,51.094591491434500,-0.740062191939393
Skunk and bandy-bandy,GU27 3SJ,51.082719317313400,-0.732389628679438
dukite and leathery turtle,GU28 9HT,51.056903087029900,-0.642699000000000
Minke whale and Nukupuʻu,GU28 9HU,51.057663804845500,-0.640951593563781
Polecat and death adder,GU28 9JP,51.027540319938400,-0.593248578012805
Fulmarine petrel and Kite,GU28 9NE,51.035849781720300,-0.636512282472483
diamond snake and box turtle,GU3 1DT,51.214664539454300,-0.647903623409061
chuckwalla and Jay,GU3 1DW,51.214207349088700,-0.646470931169959
Rat and diamondback terrapin,GU3 1DY,51.218795081609400,-0.643501231004076
Gull and Kangaroo,GU3 1HE,51.223146202344800,-0.586406547044692
worm lizard and Piping shrike,GU3 1HN,51.219191720837600,-0.594804195869133
taipan and Tattler,GU3 1JU,51.210465469601500,-0.623058710550443
Fox and skink,GU3 2EU,51.242301747986300,-0.672565797405292
horned toad and monitor,GU3 3DH,51.249291639055100,-0.628347301579891
dugite and Recurvebill,GU4 8AX,51.214371019267900,-0.546155884572373
Skunk and coral snake,GU4 8BB,51.214554000000000,-0.545592000000000
Towhee and Elephant,GU4 8BF,51.216970748017700,-0.535234881369370
Chipmunk and Kangaroo,GU4 8BL,51.224066455332900,-0.570367709209355
Badger and Herring gull,GU4 8BY,51.214968399488300,-0.566883854423441
chuckwalla and Badger,GU4 8DU,51.217195000000000,-0.569464000000000
mamba and Black jay,GU4 8JL,51.207881404146000,-0.565342979252144
king cobra and water snake,GU4 8RB,51.205614554387100,-0.520506881436081
snake and fer-de-lance,GU4 8RJ,51.216857000000000,-0.516295000000000
garter snake and Mole,GU4 8RL,51.218003370211300,-0.514597001785525
Gila monster and Quetzal,GU4 8SE,51.235288897396300,-0.505560424615297
death adder and Skunk,GU5 0AG,51.199508121322600,-0.562311038946517
Diving bird and monitor,GU5 0EG,51.188055641365700,-0.548071543823194
River dolphin and tortoise,GU5 0HH,51.189032127140800,-0.554308625064791
Goose and Duck,GU5 0JG,51.185630252142800,-0.549006283684078
gecko and ringhals,GU5 0LZ,51.170394420060000,-0.570726173125897
Gila monster and Old World warbler,GU5 0PN,51.202882620749900,-0.542867431368705
amphisbaena and alligator,GU5 0PS,51.207986139179200,-0.552670214296141
Parrotlet and Chicken,GU5 0SE,51.200956732779600,-0.542026430867389
Civet and Scimitar babbler,GU5 0UH,51.184267527147900,-0.527028276710353
Diving bird and Gull,GU5 0WR,51.183991000000000,-0.524962000000000
Peafowl and Greenbul,GU5 9AJ,51.218617000000000,-0.499141000000000
swift and cobra,GU5 9EP,51.199241232466200,-0.503019943035635
Vulture and Old World vulture,GU5 9HQ,51.218781849544300,-0.463452126582678
Bunting and harlequin snake,GU5 9HR,51.218077465547400,-0.466654414472976
rattlesnake and caiman,GU5 9LA,51.220052189713500,-0.447958856461032
dukite and Kākāriki,GU5 9LF,51.220787596083700,-0.449165641799448
blindworm and horned toad,GU5 9SS,51.194474710182900,-0.438986145908998
Tit-tyrant and blue racer,GU6 7AD,51.142214687201800,-0.483836408366339
Viscacha and Rabbit,GU6 7AJ,51.144519255727100,-0.484718758933467
Marsh harrier and dugite,GU6 7AS,51.145766856646600,-0.484534941032481
Flameback and Jay,GU6 7DQ,51.148051036749900,-0.481071655286987
Rabbit and Darwin's finches,GU6 7EY,51.142946372570800,-0.469588110032990
blindworm and mountain devil,GU6 7JB,51.141126000000000,-0.480213000000000
mud turtle and mountain devil,GU6 7JN,51.138129921293400,-0.473306645434956
Crow and Maya,GU6 7JY,51.137089081900200,-0.473483913238301
Argus and rat snake,GU6 7LH,51.134028507847100,-0.474628225339415
racer and White ibis,GU6 7LT,51.138779896670900,-0.480403878550269
rattlesnake and viper,GU6 7NJ,51.169146950970200,-0.464472792428551
Flameback and bearded dragon,GU6 7QG,51.160071305653600,-0.432453531188092
mamba and brown snake,GU6 7QH,51.154975705760400,-0.437402265918891
River dolphin and jew lizard,GU6 7RB,51.150516025728900,-0.441499190845770
anole and sidewinder,GU6 7SG,51.145250935027300,-0.431754691147022
Tahr and Petrel,GU6 7SJ,51.164553323278700,-0.422690288430943
loggerhead and dukite,GU6 7SR,51.131314987299600,-0.429282564522097
cobra and Eagle,GU6 8BB,51.142058900108900,-0.491260885670264
hognose snake and massasauga,GU6 8BP,51.136897000000000,-0.484164340274867
Thicketbird and Jackal,GU6 8BT,51.135698124812900,-0.484078431703131
Guillemot and gecko,GU6 8DL,51.140147147078400,-0.484590291661296
Petrel and kabaragoya,GU6 8DU,51.136984085200000,-0.481306174147105
Fish eagle and rat snake,GU6 8DY,51.133481448316000,-0.479832000000000
diamondback and Old World quail,GU6 8GH,51.141047000000000,-0.492457000000000
Flameback and Shearwater,GU6 8JA,51.110669376648500,-0.518297654960394
Meadowlark and death adder,GU6 8JN,51.133476330803600,-0.488896414385699
Egret and Solitaire,GU6 8JU,51.134761571770600,-0.504934370190514
Quetzal and loggerhead,GU6 8LB,51.128926598898600,-0.517041826357408
boa and Grosbeak,GU6 8NA,51.143109944708800,-0.507295131485927
caiman and Old World vulture,GU6 8NN,51.142606791574300,-0.510856682460311
Piping shrike and coral snake,GU6 8PP,51.160188349931100,-0.507401883922722
boa and deaf adder,GU6 8RT,51.143097955086500,-0.495830270758319
Chicken and brown snake,GU6 8UP,51.116827000000000,-0.481129000000000
New World blackbird and Moluccan boobook,GU6 8UW,51.116827000000000,-0.481129000000000
rock python and Snipe,GU7 1AS,51.185103244976300,-0.613068612783403
cobra de capello and Magpie,GU7 1BE,51.185209925233000,-0.611448527927414
Grouse and Mouse,GU7 1DX,51.185929922802600,-0.613015184728192
tree snake and Kite,GU7 1EZ,51.185628367284000,-0.618690530502745
hognose snake and Black jay,GU7 1FQ,51.184749000000000,-0.611413000000000
agama and agamid,GU7 1HA,51.184885926032400,-0.615979780135932
Schneider python and Grouse,GU7 1HD,51.185502586147700,-0.617177558930590
python and Chickadee,GU7 1HZ,51.186884247602600,-0.608564991983744
Francolin and Dorcopsis,GU7 1LJ,51.187132964323500,-0.598512368504215
dugite and Old World vulture,GU7 1LL,51.187883817308600,-0.595885257748210
Nukupuʻu and Petrel,GU7 1LP,51.189479254483800,-0.593203727448982
Francolin and worm lizard,GU7 1NA,51.190046162358300,-0.594731971148378
Logrunners and Dorcopsis,GU7 1RD,51.182869778740800,-0.619631456422178
bearded lizard and asp,GU7 1RU,51.183564608823000,-0.617550325274898
Prion and Marmoset,GU7 1RZ,51.181552312948000,-0.618483275901633
Jerboa and crocodile,GU7 1SL,51.176075930940000,-0.613167792828185
copperhead and giant tortoise,GU7 1SY,51.175154197079400,-0.616585866907014
Pitohui and blind snake,GU7 1TP,51.175673984081200,-0.606584899524946
Vole and Nukupuʻu,GU7 1UG,51.167747347351800,-0.623701648368180
Chipmunk and garter snake,GU7 1YJ,51.176812031478800,-0.621428938257044
Parrotlet and Partridge,GU7 1YL,51.191247571276400,-0.595181990882266
slowworm and frill-necked lizard,GU7 2BS,51.196717738933300,-0.619589816892392
frill-necked lizard and Badger,GU7 2BX,51.196136007606500,-0.619063341225156
Tit-tyrant and Snipe,GU7 2DJ,51.196606619603900,-0.622369708360061
kabaragoya and Francolin,GU7 2EY,51.195622919542900,-0.610663267328768
Treepie and Francolin,GU7 2HB,51.195512852014600,-0.611239053374510
Vulture and Jay,GU7 2HN,51.197208227878200,-0.616197430452791
fer-de-lance and ringhals,GU7 2JT,51.174494007854300,-0.633099710133557
cerastes and cerastes,GU7 2JZ,51.181126475776100,-0.627380913638883
blue racer and Kangaroo,GU7 2LL,51.182387103273300,-0.625225919559174
anaconda and Peafowl,GU7 2ND,51.175172653064100,-0.631920893789139
alligator and black snake,GU7 2NQ,51.178889530164600,-0.628218000000000
Duck and Booted eagles,GU7 2QB,51.186767816578900,-0.639962813350292
puff adder and cayman,GU7 3DF,51.191924082829900,-0.603619102721557
gavial and hognose snake,GU7 3EQ,51.194272313013400,-0.605981085072582
Towhee and Guillemot,GU7 3FF,51.196795931051100,-0.602498696968009
pit viper and glass snake,GU7 3HH,51.190529000000000,-0.607175689374361
Dolphin and Egret,GU7 3JB,51.193045223986700,-0.597359869422320
moloch and Francolin,GU7 3LD,51.197330000000000,-0.608136000000000
blue racer and kabaragoya,GU7 3LL,51.195934105917800,-0.608850592962695
blue racer and Fulmarine petrel,GU7 3NL,51.200531586954400,-0.603759668767148
Grouse and Goose,GU7 3NQ,51.199148375941700,-0.603143081408514
mountain devil and cobra,GU7 3NZ,51.200877100637600,-0.600313967198567
taipan and Rabbit,GU7 3PW,51.198480853419600,-0.612037216018974
Kestrel and diamondback,GU7 3RH,51.203571000000000,-0.610481000000000
Macaw and frill-necked lizard,GU7 3RW,51.203935827567100,-0.612503117618146
goanna and Darwin's finches,GU7 3SL,51.200931058830700,-0.607096971014978
Francolin and elapid,GU7 9JP,51.185942000000000,-0.605926000000000
dukite and Mockingbird,GU7 9JU,51.185942000000000,-0.605926000000000
Mamo and Pheasant,GU7 9ZZ,51.185998000000000,-0.605759000000000
Pheasant and Tattler,GU8 4AA,51.171498000000000,-0.591934000000000
Pheasant and Stilt,GU8 4BE,51.134021953813400,-0.576837561924958
Mink and Peafowl,GU8 4ER,51.135379235337000,-0.632568284943725
anole and Moluccan boobook,GU8 4JR,51.148928313890600,-0.572132789293975
rattlesnake and Logrunners,GU8 4LA,51.116272154988100,-0.561538125205921
king cobra and Chipmunk,GU8 4NZ,51.109825313652000,-0.564538215138359
puff adder and tortoise,GU8 4QE,51.114673722971100,-0.631407914663688
Moluccan boobook and death adder,GU8 4SP,51.088920321760800,-0.645433214751532
frill-necked lizard and Francolin,GU8 4UB,51.107732915036100,-0.629998727131275
elapid and Night heron,GU8 4UL,51.116730516725900,-0.623531885753318
agamid and worm lizard,GU8 4UZ,51.107296066991300,-0.627382000000000
Bronzewing pigeon and death adder,GU8 4XL,51.116882000000000,-0.647945000000000
Puffleg and carpet snake,GU8 4XU,51.120915057973100,-0.599545206532327
Stilt and cayman,GU8 4XW,51.116704084709900,-0.656050992981657
Darwin's finches and Elephant,GU8 5BZ,51.163066000000000,-0.647854000000000
Ice seal and tree snake,GU8 5ES,51.175399658759400,-0.647578838933034
Pitohui and Bronzewing pigeon,GU8 5HR,51.171223229302800,-0.641807617431011
grass snake and Vole,GU8 5HZ,51.171703588448600,-0.643681698380241
mamba and Perching duck,GU8 5NA,51.153816913968500,-0.648295619959550
Condor and Fulmarine petrel,GU8 5NF,51.153950527991300,-0.648963768411160
rock snake and turtle,GU8 5NJ,51.153185765772600,-0.650487468093568
leguaan and skink,GU8 5NW,51.154012800162500,-0.650349000000000
diamondback turtle and lizard,GU8 5PB,51.152917317946000,-0.649025000000000
cobra and bicycle lizard,GU8 5PY,51.150108720221500,-0.667605866557494
snapping turtle and leathery turtle,GU8 5QY,51.155788438245600,-0.656288660766070
sidewinder and Cloud rat,GU8 5RQ,51.158711446608700,-0.658805000000000
bearded dragon and New World blackbird,GU8 5TQ,51.130518732730900,-0.645317152242513
Ice seal and bearded dragon,GU8 5UR,51.133330000000000,-0.659742000000000
Warbler and amphisbaena,GU8 6JF,51.174554264618200,-0.687043369859582
Treepie and tuatara,KT24 5TG,51.246261117375900,-0.422733737325584
flying dragon and Kestrel,RH12 1BH,51.063794581200000,-0.355087777300000
Zebra and wall lizard,RH12 1JU,51.064567678435100,-0.341202354833042
Elephant and Zebra,RH12 1LE,51.057334507194100,-0.344172065238518
Shearwater and bushmaster,RH12 1LX,51.065913176564600,-0.340326469705812
Snipe and blue tongue,RH12 1TU,51.068324420340500,-0.348661290071398
Siskin and Duck,RH12 2PU,51.066877982091600,-0.338607802577403
Black jay and Thrasher,RH12 3AD,51.104886901442700,-0.462560521530572
Goose and bearded dragon,RH12 3AR,51.107812177448800,-0.427593770751492
Treepie and Chipmunk,RH12 3AW,51.110222933995500,-0.419640495893620
Ibex and Wader,RH12 3BY,51.094604266191200,-0.443236714211526
Solitaire and rat snake,RH12 3DU,51.083291583010900,-0.472571091170973
Siskin and Grosbeak,RH12 3HQ,51.072288388046500,-0.359382867266510
Macaw and tuatara,RH12 3JB,51.086112120844000,-0.437581000000000
Booted eagles and Condor,RH12 3LJ,51.071290141443600,-0.363871614078151
Guillemot and bushmaster,RH12 3LW,51.071611517165400,-0.361776281501432
Cloud rat and Tree warbler,RH12 3PU,51.093302649625500,-0.392783000000000
Kite and worm lizard,RH12 3QF,51.084904000000000,-0.346415000000000
Viscacha and Boto,RH12 3QW,51.090176977806700,-0.348381000000000
soft-shelled turtle and Pitohui,RH12 3RF,51.089246937881600,-0.350929222857067
Vole and indigo snake,RH12 3RQ,51.091854000000000,-0.351362486647203
agamid and green turtle,RH12 3SH,51.109481461945400,-0.369566209817161
bull snake and Capuchin,RH12 3TA,51.069776414088900,-0.367521887767395
coral snake and gaboon viper,RH12 3UA,51.089136522852500,-0.355859536643864
Rabbit and Siskin,RH13 0GN,51.065329724100000,-0.408810299800000
Skunk and carpet snake,RH13 0JB,51.045112448314300,-0.366491660502760
Rabbit and Masked owl,RH13 0LB,51.045794609217500,-0.352943465071709
horned viper and Argus,RH13 0LJ,51.044357000000000,-0.362552000000000
Egret and tree snake,RH13 0PB,51.048559657762500,-0.399198420779828
tiger snake and Mink,RH13 0PW,51.029468505934200,-0.395977210345462
ringhals and Diving bird,RH13 0SP,51.025177212791100,-0.409671979405257
leathery turtle and Capuchin,RH13 0TA,51.041753827572200,-0.408548154383237
Maya and Tattler,RH13 0TH,51.066757255122200,-0.403509022615393
boomslang and Siskin,RH13 9AS,51.039401000000000,-0.345211000000000
cobra de capello and boa constrictor,RH13 9BH,51.036286187627100,-0.348916086306714
python and iguana,RH13 9DG,51.037654060560800,-0.340095381788411
Pitohui and box turtle,RH14 0JR,51.039357000000000,-0.554122000000000
Tahr and worm lizard,RH14 0JT,51.043679812163000,-0.549636457011686
bearded dragon and Masked owl,RH14 0LA,51.054294717034200,-0.546294266080186
Siskin and crocodile,RH14 0LB,51.061092000000000,-0.544612000000000
Rat and Maya,RH14 0LE,51.057481692355600,-0.556739529245694
moloch and Armadillo,RH14 0LU,51.029716704149400,-0.548403777346662
tortoise and Armadillo,RH14 0RQ,51.064411147675000,-0.515493467827822
rock python and tokay,RH14 9AL,51.045244300440000,-0.432594773190260
snapping turtle and Elephant,RH14 9BD,51.049904000000000,-0.433294000000000
Bronzewing pigeon and Bunting,RH14 9BF,51.026287644412900,-0.452185639207840
jew lizard and Rabbit,RH4 3BZ,51.225932094919900,-0.339117146904101
Tattler and Tit-tyrant,RH4 3EA,51.231132000000000,-0.342325000000000
Boto and worm lizard,RH4 3JQ,51.214338736288500,-0.342798853270703
soft-shelled turtle and Ground sloth,RH4 3LS,51.230945655903000,-0.374028617319822
moloch and Pheasant,RH4 3NN,51.223808801037600,-0.367807008021599
Stint and Petrel,RH4 3PA,51.228899072228500,-0.371064356120174
Flameback and boa constrictor,RH4 3PU,51.226398415632700,-0.351746559435511
glass snake and Petrel,RH4 3QD,51.226419227229900,-0.360911796874918
Kangaroo and massasauga,RH4 3QR,51.227818068823800,-0.362552130522131
Logrunners and Stint,RH4 3QS,51.227587554469500,-0.362144967693021
tuatara and hoop snake,RH5 4LL,51.179550415305600,-0.340584173774266
Mink and hawksbill,RH5 5PL,51.136427171089600,-0.400406991707271
pit viper and Jay,RH5 5QD,51.110628304065500,-0.400512102709754
Chickadee and boomslang,RH5 6HH,51.175723144623500,-0.356129282855627
Masked owl and sea snake,RH5 6JZ,51.195960259764700,-0.371811162937812
Nukupuʻu and Tree warbler,RH5 6LQ,51.188301648282600,-0.400071373334313
lizard and bushmaster,RH5 6LZ,51.171292865542800,-0.388672719670968
gavial and Viscacha,RH5 6NR,51.180072585849300,-0.414549190662249
krait and Grouse,RH5 6PW,51.201980034706100,-0.422629053792961
cerastes and swift,RH5 6QL,51.211277702384500,-0.381092540501721
frilled lizard and Cloud rat,RH5 6RY,51.216319816014000,-0.433751455518011
Gila monster and hognose snake,RH5 6SH,51.214957539752100,-0.426051545118931
