name,postcode,lat,lon
Jerboa and Prion,GU1 1EJ,51.244667032298700,-0.577652087290796
Bunting and sand lizard,GU1 1SJ,51.241427000000000,-0.564099000000000
viper and bandy-bandy,GU1 1TL,51.244855099778000,-0.557745711360515
dugite and Badger,GU1 2ES,51.240559665498400,-0.554341529517248
king cobra and Komodo dragon,GU1 2FB,51.239722479330200,-0.554998100901881
flying dragon and Capuchin,GU1 2HG,51.236591579252500,-0.548334914176496
Greenbul and tortoise,GU1 2HL,51.240567349427800,-0.536147312151346
massasauga and Maya,GU1 2JD,51.242868832519400,-0.555404000000000
Coati and Goose,GU1 2JY,51.243721811977900,-0.553354132919214
Siskin and Triller,GU1 2LN,51.249546586601800,-0.544459497687421
diamondback and Hawk,GU1 2LQ,51.249161033703100,-0.546721265250796
Komodo dragon and Minke whale,GU1 2ND,51.244716741497900,-0.550185254071252
Moluccan boobook and python,GU1 2NE,51.243835584591000,-0.549467954150617
mamba and Civet,GU1 2NS,51.247642116606800,-0.548961348239865
Nukupuʻu and Civet,GU1 2PB,51.245153525454500,-0.548423580403671
Black jay and gecko,GU1 2RG,51.245811600977800,-0.529103581235097
thorny devil and gopher snake,GU1 2RY,51.242152910784200,-0.533503892881695
Egret and Gila monster,GU1 2SG,51.248539000649000,-0.532899587692545
Dolphin and cobra,GU1 2SZ,51.245396704942800,-0.543386984875988
viper and Tahr,GU1 2UT,51.249923091956000,-0.537870655696170
Duck and sand viper,GU1 2XU,51.244255849317500,-0.524812082739417
mountain devil and gavial,GU1 3AF,51.229351998876300,-0.570017843597592
Mink and Mockingbird,GU1 3EH,51.237379055717200,-0.568608000000000
Mouse and leathery turtle,GU1 3JF,51.236925223937600,-0.568121310213496
puff adder and python,GU1 3LN,51.236752646249300,-0.560649145546648
Mink and Bunting,GU1 3LP,51.236791758837200,-0.561636334273566
Jerboa and caiman,GU1 3PG,51.237191139352400,-0.566336769624442
goanna and Booted eagles,GU1 3QG,51.235337118288600,-0.561810610672141
soft-shelled turtle and Schneider python,GU1 3UX,51.233412246265700,-0.575005462596584
Cloud rat and Polecat,GU1 3XL,51.230804722871100,-0.572078192053408
frilled lizard and ringhals,GU1 3XU,51.228064629007100,-0.562008654705332
Solitaire and Kangaroo,GU1 3XX,51.234843080857800,-0.574917000000000
Egret and moloch,GU1 4AX,51.235101000000000,-0.574753000000000
tree snake and racer,GU1 4EU,51.236906000000000,-0.570151317829605
smooth snake and blue tongue,GU1 4JX,51.237268835951300,-0.574170078804448
Armadillo and Buzzard,GU1 4NS,51.241766246307000,-0.575005228696937
grass snake and blue tongue,GU1 4QR,51.242728873825200,-0.572826494719469
snapping turtle and amethystine python,GU1 4UU,51.239435000000000,-0.580732262695108
Guillemot and dukite,GU1 4UW,51.238577270339500,-0.580461416359480
chameleon and tiger snake,GU1 4YW,51.237053000000000,-0.576240000000000
Mamo and copperhead,GU1 9AX,51.245279000000000,-0.582312000000000
Komodo dragon and Tahr,GU1 9PR,51.245292410106500,-0.582317946488846
cayman and smooth snake,GU1 9SG,51.232180184310500,-0.576475850060036
terrapin and Parrotbill,GU1 9SJ,51.232180184310500,-0.576475850060036
racer and carpet snake,GU1 9WQ,51.245279000000000,-0.582312000000000
bearded dragon and carpet snake,GU1 9XD,51.245279000000000,-0.582312000000000
Parakeet and Chipmunk,GU1 9XE,51.245279000000000,-0.582312000000000
Scimitar babbler and Kākāriki,GU1 9YA,51.232178000000000,-0.576455000000000
gecko and Chickadee,GU1 9YN,51.232178000000000,-0.576455000000000
saltwater crocodile and Rabbit,GU1 9ZZ,51.245291000000000,-0.582318000000000
Piping shrike and Vole,GU10 1BB,51.240043796042900,-0.731695231762015
anaconda and sidewinder,GU10 1BQ,51.236687825204600,-0.729868016132458
Goose and anaconda,GU10 1JH,51.204285972653100,-0.702602728859894
American sparrow and Fulmarine petrel,GU10 1JJ,51.203205197404400,-0.706512227290124
Solitaire and Egret,GU10 1JX,51.223138377836100,-0.745062451018751
lizard and whip snake,GU10 2LR,51.137800000000000,-0.739058000000000
hoop snake and dukite,GU12 4EG,51.241445045396700,-0.745739149782770
Jay and wall lizard,GU12 4EY,51.242007010050700,-0.746153652314144
smooth snake and crocodile,GU12 4QN,51.246430000000000,-0.740918000000000
frilled lizard and king snake,GU12 4QW,51.247173615147500,-0.737416514339469
mamba and Old World warbler,GU12 4RH,51.243437000000000,-0.737666303065958
Old World vulture and Marmoset,GU12 4RR,51.248092425874700,-0.745930876946718
Tit-tyrant and grass snake,GU12 6ER,51.246565681930200,-0.718706991582610
Greenbul and Tattler,GU12 6FH,51.247676000000000,-0.712626000000000
Jackal and tuatara,GU12 6JB,51.243475384677400,-0.708348718988602
bushmaster and galliwasp,GU12 6LA,51.244960734838700,-0.728207471055803
Triller and Peafowl,GU12 6LP,51.244820729528900,-0.722781377648576
tokay and Duck,GU12 6NH,51.245879281226500,-0.719256176612427
Tree warbler and Towhee,GU12 6NL,51.242809693254900,-0.717321391802470
Komodo dragon and snake,GU12 6NY,51.244533226062600,-0.716227585811296
turtle and Grackle,GU12 6PT,51.245363359615400,-0.732995985878753
death adder and Condor,GU12 6QA,51.244138043709700,-0.728631309897438
Kangaroo and leguaan,GU12 6QB,51.242981361210100,-0.729766334760623
rock python and Viscacha,GU12 6RB,51.248903097472500,-0.726895158731003
Pratincole and cayman,GU2 4DG,51.230845799243100,-0.578407644746892
Bunting and Wader,GU2 4EX,51.226480566521300,-0.578828561144968
Schneider python and Capuchin,GU2 4HE,51.226846601418300,-0.584545949558940
moloch and lizard,GU2 4LF,51.235910960610100,-0.587519484152549
anole and Macaw,GU2 4LG,51.236613143518900,-0.588328814193648
bushmaster and milk snake,GU2 7AS,51.234724237100000,-0.586610523600000
water snake and wall lizard,GU2 7DH,51.241695114946400,-0.612499225570885
Shearwater and Tattler,GU2 7JJ,51.237972928716700,-0.587742844693778
Old World vulture and Flameback,GU2 7LQ,51.235349831917900,-0.586476668379479
Solitaire and rattlesnake,GU2 7PP,51.235635976886500,-0.592312244836520
Badger and Civet,GU2 7RU,51.229927186637900,-0.614285395456642
Moluccan boobook and slowworm,GU2 7SB,51.234439788516700,-0.614149850335478
mud turtle and Myna,GU2 7TR,51.239807749454600,-0.586282747985594
mud turtle and blind snake,GU2 7UF,51.239884540283000,-0.592655328090809
Wader and indigo snake,GU2 7XH,51.242570522066400,-0.587945895699148
Coati and Jerboa,GU2 7YH,51.240258000000000,-0.612093000000000
cerastes and dukite,GU2 8AX,51.248561429525400,-0.587361238192567
snapping turtle and River dolphin,GU2 8DA,51.248897850325800,-0.595890712682553
milk snake and Darwin's finches,GU2 8DU,51.244365245940200,-0.607146531687782
king cobra and Scimitar babbler,GU2 8HJ,51.246263764886800,-0.598951076291830
thorny devil and Thrasher,GU26 6AB,51.113980070581700,-0.732320000000000
pit viper and amethystine python,GU26 6AR,51.112406237799900,-0.730134777823477
Thicketbird and Warbler,GU26 6JZ,51.108859224976100,-0.748116729848055
anaconda and mud turtle,GU26 6PP,51.120826508234600,-0.745435716190782
racer and Elephant,GU26 6QA,51.124105346028800,-0.747633249991862
Grouse and Skunk,GU26 6QX,51.119909281423900,-0.740416768329729
Myna and Black cockatoo,GU26 6UE,51.112548956042500,-0.737502490276935
deaf adder and Badger,GU27 1AQ,51.097663094782700,-0.726425571380121
iguana and anole,GU27 1AR,51.100869072005800,-0.710411000000000
Wallaby and Partridge,GU27 1AZ,51.095298615314600,-0.714151918570329
chameleon and Thicketbird,GU27 1JQ,51.091421550348700,-0.731323543644406
python and Elephant,GU27 1LW,51.089837429167300,-0.739505962822430
diamondback terrapin and rock snake,GU27 1NF,51.089196027920300,-0.734240206833756
whip snake and cayman,GU27 1PA,51.085998577511000,-0.739596016816202
Chicken and Dorcopsis,GU27 1PR,51.087634805526300,-0.743735122334992
Peafowl and Duck,GU27 2AD,51.088608752708000,-0.709840000000000
Rabbit and Elephant,GU27 2AN,51.089171317271600,-0.710580744305840
Bronzewing pigeon and thorny devil,GU27 2DU,51.102905570239200,-0.684174801459275
bandy-bandy and hawksbill,GU27 2ER,51.091794000000000,-0.706090405234536
massasauga and amethystine python,GU27 2JG,51.087262654246900,-0.709562935959773
Civet and thorny devil,GU27 2JU,51.087268128295700,-0.711690254427689
Badger and frilled lizard,GU27 2JY,51.089666886563600,-0.708225198049522
bandy-bandy and tree snake,GU27 2LE,51.091736814992400,-0.703498070461235
pit viper and wall lizard,GU27 2LY,51.087556943595800,-0.710154441003907
Booted eagles and krait,GU27 2NA,51.087937016799500,-0.711186203271055
taipan and Scimitar babbler,GU27 2PZ,51.089974708457200,-0.714942107748115
Stilt and Gull,GU27 2QR,51.084854589698600,-0.731103403435564
Fish eagle and Prion,GU27 3AN,51.081176291219300,-0.712973009777444
Wader and American sparrow,GU27 3DW,51.076259748080400,-0.714008719591330
Black jay and Kangaroo,GU27 3HZ,51.048678684411500,-0.721320892307768
thorny devil and Stint,GU27 3JD,51.046274604002500,-0.710402481718490
Mockingbird and Diving bird,GU27 3LP,51.061521690553800,-0.718997846376064
Goose and sand lizard,GU27 3LQ,51.069886819519000,-0.723291482013332
Triller and Minke whale,GU27 3NT,51.050459599525000,-0.727948805967104
blind snake and flying dragon,GU27 3PB,51.052237133534900,-0.723548517088975
death adder and Logrunners,GU27 3PT,51.072450052138700,-0.740734839131999
caiman and bearded dragon,GU27 3RX,51.085589962933900,-0.735066787019806
Pratincole and American sparrow,GU27 3SN,51.079659636151000,-0.733015721062251
racer and puff adder,GU27 3TD,51.080250619293600,-0.695981492635676
Old World quail and thorny devil,GU27 9DZ,51.085914313395900,-0.730974466179250
king snake and Scimitar babbler,GU27 9EA,51.085914313395900,-0.730974466179250
Songlark and Greenbul,GU27 9GA,51.085916831646200,-0.730974501261675
black snake and diamondback turtle,GU27 9GH,51.085902000000000,-0.730969000000000
dukite and constrictor,GU28 9HZ,51.056923761234000,-0.642271742381104
sidewinder and rock python,GU28 9JD,51.058092892981200,-0.638413342623835
Bronzewing pigeon and Lemming,GU28 9JH,51.035204780635700,-0.585272013630749
deaf adder and River dolphin,GU28 9JZ,51.056954046074600,-0.599863069977677
turtle and Wallaby,GU28 9LB,51.058858815815000,-0.620139954468078
Hawaiian honeycreeper and Perching duck,GU3 1AP,51.217878000000000,-0.655900000000000
Herring gull and Vole,GU3 1AT,51.221733206611600,-0.670723060358361
iguana and Kākāriki,GU3 1DU,51.216182694041300,-0.648546434061272
Gull and Tahr,GU3 1DX,51.217033378342900,-0.645901239317457
Rat and White ibis,GU3 1HF,51.222583475964100,-0.589703137040906
anaconda and racer,GU3 1HW,51.217479000000000,-0.595844000000000
tortoise and tokay,GU3 1NQ,51.209552579831500,-0.581454154004512
Francolin and puff adder,GU3 2ET,51.243921087466300,-0.673421778303411
Tree warbler and carpet snake,GU3 2EU,51.242301747986300,-0.672565797405292
thorn lizard and Gull,GU4 7RP,51.248110302078900,-0.476115581579819
puff adder and Recurvebill,GU4 8AW,51.225100972162100,-0.564394000000000
New World blackbird and Quetzal,GU4 8BT,51.220026505523200,-0.570177818226477
Old World warbler and Badger,GU4 8DB,51.214094000000000,-0.568787000000000
elapid and adder,GU4 8HE,51.211633781446400,-0.550222201507579
puff adder and agamid,GU4 8NS,51.215540721931800,-0.521090815078044
Pheasant and Kite,GU4 8PJ,51.234478304920500,-0.542542870690770
snake and ringhals,GU4 8QY,51.205440164645800,-0.523074870228011
Chickadee and Prion,GU4 8RD,51.208733464438500,-0.516126426357397
Treepie and perentie,GU5 0AS,51.193155507905600,-0.561263659158291
gaboon viper and Diving bird,GU5 0BY,51.190756451849000,-0.571699152437589
Schneider python and Black jay,GU5 0FB,51.197165000000000,-0.554762000000000
habu and asp,GU5 0HE,51.194044579719100,-0.557403000000000
Logrunners and Capuchin,GU5 0JJ,51.183812917626100,-0.547730000000000
diamondback terrapin and Magpie,GU5 0JL,51.191897068727200,-0.559113289143466
diamondback terrapin and Linsang,GU5 0QT,51.195576512974700,-0.539648706529606
king snake and rock snake,GU5 0RZ,51.199679652922600,-0.541293826369620
tree snake and River dolphin,GU5 0SA,51.201178320519400,-0.541046101301234
monitor and Zebra,GU5 0TD,51.163294000000000,-0.515354000000000
Bronzewing pigeon and amphisbaena,GU5 0TG,51.180142389941100,-0.534384898686553
horned viper and Goose,GU5 0TH,51.182712000000000,-0.536292000000000
Logrunners and lizard,GU5 9DH,51.206378769085300,-0.481186588098691
Gila monster and Komodo dragon,GU5 9HH,51.218863000000000,-0.461302000000000
Ground sloth and Chickadee,GU5 9HS,51.218731727711200,-0.465114833698665
gavial and Marmoset,GU5 9JE,51.220748988536600,-0.467396213043789
Old World warbler and carpet snake,GU5 9LH,51.221740459122200,-0.448618000000000
monitor and blue racer,GU5 9LQ,51.221043000000000,-0.448642000000000
leathery turtle and glass snake,GU5 9LR,51.215800846454000,-0.450836621155490
perentie and Tattler,GU5 9LW,51.217162344040700,-0.449072666515436
carpet snake and tortoise,GU5 9LX,51.217315000000000,-0.453678000000000
Diving bird and Warbler,GU5 9NA,51.214745578490400,-0.450599992327411
horned viper and Kite,GU5 9NP,51.219153000000000,-0.445798000000000
agamid and constrictor,GU5 9PA,51.206511259273500,-0.442014996059380
Solitaire and sand lizard,GU5 9QE,51.212465000000000,-0.452744186344868
mountain devil and deaf adder,GU5 9QQ,51.210708000000000,-0.457321000000000
Mamo and Schneider python,GU5 9RJ,51.194436666782800,-0.445585168213589
Old World quail and flying dragon,GU5 9SJ,51.201650333696800,-0.442322125517845
frilled lizard and Booted eagles,GU5 9TB,51.201178131670200,-0.445186000000000
Hawk and adder,GU6 7AD,51.142214687201800,-0.483836408366339
goanna and hoop snake,GU6 7AR,51.145092924000200,-0.486658590006689
alligator and Nukupuʻu,GU6 7BQ,51.140189922428300,-0.479571364358044
snapping turtle and cerastes,GU6 7BZ,51.146224908555000,-0.476184896932397
cobra de capello and terrapin,GU6 7DY,51.145830154652800,-0.478328103719295
Chipmunk and Parrotlet,GU6 7GD,51.144765519953300,-0.466883206195342
racer and Scimitar babbler,GU6 7HD,51.143873966930000,-0.473131461026962
giant tortoise and Jerboa,GU6 7HS,51.140979862616600,-0.470496552137296
amphisbaena and Marsh harrier,GU6 7HY,51.142112717501700,-0.473232452643569
perentie and thorn lizard,GU6 7NH,51.166807664155000,-0.469184711308224
wall lizard and Mockingbird,GU6 7PE,51.155706377667600,-0.445785000000000
Mink and Kite,GU6 7PF,51.154931901642200,-0.459181965296595
thorn lizard and pit viper,GU6 7PZ,51.153735591323100,-0.439488938767355
cobra and Pratincole,GU6 7QT,51.154905581423200,-0.440908026397693
Pheasant and goanna,GU6 7QZ,51.150702919212000,-0.440677894825560
Maya and Crow,GU6 7SB,51.148174544475400,-0.444623418346599
crocodile and Guillemot,GU6 8AR,51.141900613683100,-0.485276244349791
Nukupuʻu and agamid,GU6 8BD,51.141965877309400,-0.491020894814911
Cuscus and Linsang,GU6 8FF,51.113375698825600,-0.511010735713670
Shearwater and Old World quail,GU6 8GH,51.141047000000000,-0.492457000000000
American sparrow and ringhals,GU6 8JF,51.106329878001800,-0.513651114821914
dugite and Bronzewing pigeon,GU6 8LJ,51.144529584176200,-0.525634309005734
racer and Skunk,GU6 8LT,51.149201000000000,-0.508192062184583
tokay and horned toad,GU6 8NN,51.142606791574300,-0.510856682460311
flying lizard and agama,GU6 8NW,51.142595392850100,-0.509613000000000
Fish eagle and Old World vulture,GU6 8NX,51.145181916706500,-0.501252380141485
cycling lizard and blue racer,GU6 8QJ,51.150424816297300,-0.488686111094923
Hawaiian honeycreeper and black snake,GU6 8QQ,51.150388071042800,-0.493505766887728
Pitohui and hoop snake,GU6 8RT,51.143097955086500,-0.495830270758319
wall lizard and flying lizard,GU6 8SZ,51.142920028935100,-0.500181967438123
diamond snake and snake,GU6 8UH,51.141378117650100,-0.508294473555525
massasauga and swift,GU7 1AB,51.184906754482400,-0.616980758498101
cayman and blind snake,GU7 1AW,51.185403275517100,-0.614104147858054
puff adder and Myna,GU7 1BB,51.186009973663800,-0.611424488781329
Flameback and Stilt,GU7 1BU,51.184841368217600,-0.612217956773579
frilled lizard and bicycle lizard,GU7 1ES,51.186847604066200,-0.616851126763269
Partridge and blind snake,GU7 1FA,51.186075000000000,-0.608039000000000
frill-necked lizard and brown snake,GU7 1GX,51.185131720741500,-0.614713255804622
cycling lizard and ringhals,GU7 1HE,51.185825721898000,-0.616366592121753
loggerhead and saltwater crocodile,GU7 1HF,51.185390656580800,-0.616837498127705
Philippine hawk-owl and Pheasant,GU7 1JW,51.190785218986900,-0.596369505504442
tiger snake and perentie,GU7 1LX,51.190744844054300,-0.593007778917189
monitor and monitor,GU7 1PT,51.183533000000000,-0.614775000000000
Badger and dukite,GU7 1QX,51.183449908040900,-0.618498094067109
flying lizard and cerastes,GU7 1SG,51.177387845764900,-0.614601981224744
loggerhead and flying lizard,GU7 1UW,51.187898000000000,-0.582037348530144
grass snake and Myna,GU7 1YS,51.186681684143600,-0.599685192376528
Wallaby and Thrasher,GU7 2BE,51.200949198041000,-0.621538822405531
python and Ibex,GU7 2EB,51.195512840023400,-0.615031705252086
Shearwater and sidewinder,GU7 2ER,51.193743000000000,-0.613530267604448
Flameback and Eagle,GU7 2JD,51.195392094086000,-0.613947624338558
grass snake and Nukupuʻu,GU7 2JT,51.174494007854300,-0.633099710133557
Myna and Viscacha,GU7 2NE,51.176377140808300,-0.630340207018520
Dolphin and racer,GU7 2NU,51.177586995628100,-0.632292938114002
thorny devil and hoop snake,GU7 2QH,51.188131000000000,-0.622608000000000
Dorcopsis and Perching duck,GU7 3AS,51.193242000000000,-0.606917625186393
Hawk and jew lizard,GU7 3AY,51.196170707908500,-0.605453000000000
blue racer and bearded lizard,GU7 3DP,51.192775907127300,-0.598899329638865
hawksbill and terrapin,GU7 3EZ,51.194358328785200,-0.606407835884912
chameleon and Thrasher,GU7 3FJ,51.194665000000000,-0.598392000000000
Kākāriki and Petrel,GU7 3JU,51.197250407427200,-0.600838921907255
Perching duck and Macaw,GU7 3LB,51.190887175930600,-0.607914960066038
Flameback and sidewinder,GU7 3LJ,51.196516168600900,-0.607888458449780
soft-shelled turtle and diamond python,GU7 3RF,51.201937321876800,-0.612319820736644
Cloud rat and Tree warbler,GU7 9FG,51.185998850219800,-0.605946000000000
taipan and taipan,GU7 9JB,51.185942000000000,-0.605926000000000
Thrasher and blue tongue,GU7 9TB,51.187068986831400,-0.609732790389032
carpet snake and turtle,GU7 9TF,51.187068986831400,-0.609732790389032
garter snake and Wader,GU8 4DF,51.156241367656500,-0.613419284561807
Buzzard and Guillemot,GU8 4DR,51.143589000000000,-0.618659000000000
Mole and Bronzewing pigeon,GU8 4DT,51.140068464187500,-0.618378054363678
grass snake and king cobra,GU8 4DU,51.136985089649200,-0.624573519498795
Goose and Greenbul,GU8 4DX,51.136778394229000,-0.627026000000000
Bronzewing pigeon and sidewinder,GU8 4HA,51.133787293027100,-0.633315648668672
Bunting and Vole,GU8 4JL,51.151463352817900,-0.572798070704537
Diving bird and hawksbill,GU8 4LD,51.114527223175200,-0.566635583402399
Armadillo and Old World warbler,GU8 4LN,51.118605187125000,-0.566252216658319
terrapin and Stint,GU8 4PF,51.100391000000000,-0.573186000000000
Vole and Bunting,GU8 4PX,51.115335649702500,-0.631674199438402
Ice seal and Mockingbird,GU8 4QY,51.115232137532200,-0.640735142054630
Komodo dragon and Linsang,GU8 4RA,51.115652358510600,-0.638979779296644
tuatara and hawksbill,GU8 4RF,51.116613000000000,-0.634851000000000
Black cockatoo and Duck,GU8 4RU,51.114435215836500,-0.632388000000000
leguaan and Old World warbler,GU8 4UZ,51.107296066991300,-0.627382000000000
lizard and diamond python,GU8 4XS,51.112421000000000,-0.614902000000000
brown snake and boomslang,GU8 4XY,51.111575075282500,-0.590841649520907
Thicketbird and diamondback,GU8 5HH,51.172654920921200,-0.635786162709347
Argus and Zebra,GU8 5HS,51.169850734313000,-0.639001453995471
Duck and Buzzard,GU8 5PS,51.141488513011300,-0.656132025868571
diamond python and Towhee,GU8 5PU,51.141056886457400,-0.670296585087989
Masked owl and sand lizard,GU8 5RH,51.158614829494900,-0.658094216195847
caiman and Masked owl,GU8 5RQ,51.158711446608700,-0.658805000000000
habu and king cobra,GU8 5SB,51.138655401635800,-0.645179112285841
sidewinder and dugite,GU8 5SD,51.138520559018300,-0.645183058741487
wall lizard and Francolin,GU8 5SY,51.128656956611900,-0.646843607332525
Mamo and Moluccan boobook,GU8 5TU,51.130017094107700,-0.630811563306694
frilled lizard and Tree warbler,GU8 5UA,51.135268000000000,-0.646822000000000
Night heron and dukite,GU8 5UE,51.136187000000000,-0.652535185445373
Cuscus and Quetzal,GU8 5UU,51.133878877980300,-0.659097122754533
Buzzard and Ibex,GU8 5WB,51.185996550918100,-0.605946000000000
Ice seal and River dolphin,GU8 6AR,51.200662000000000,-0.664931000000000
Goose and Marmoset,GU8 6BF,51.182539849590100,-0.707849056859833
Rat and Darwin's finches,GU8 6BJ,51.196652882743500,-0.693843400041785
Chicken and Buzzard,GU8 6DJ,51.181192417322600,-0.709832420740194
tree snake and krait,GU8 6DT,51.176921192605000,-0.707405155451276
Nukupuʻu and elapid,GU8 6EG,51.183836618567600,-0.700930474679723
whip snake and galliwasp,GU8 6EQ,51.183121371791200,-0.698875926216514
krait and diamondback terrapin,GU8 6HL,51.184658832101200,-0.699662531008195
Chicken and king snake,GU8 6HP,51.184325579751700,-0.699614674029671
Hawk and Bronzewing pigeon,GU8 6LG,51.193421755415100,-0.706129000000000
bearded dragon and Guillemot,GU8 6NS,51.124287227549400,-0.724521868359868
python and chameleon,GU8 6QB,51.149565300554400,-0.713859866213218
Lemming and skink,GU8 6QE,51.148253972967400,-0.711551580171046
bull snake and tree snake,GU8 6QW,51.144398882012000,-0.730715390990107
boa constrictor and carpet snake,KT24 5TG,51.246261117375900,-0.422733737325584
Dolphin and Schneider python,RH12 1EP,51.062481715400000,-0.353179156600000
iguana and black snake,RH12 1LD,51.057341463224500,-0.346569110984024
Ground sloth and alligator,RH12 1QH,51.063251157700000,-0.353537182400000
alligator and Linsang,RH12 1QQ,51.062054996600000,-0.340448000000000
Condor and frilled lizard,RH12 1RP,51.063573000000000,-0.339440000000000
python and box turtle,RH12 1TZ,51.060227151744300,-0.343954711574077
Chicken and Linsang,RH12 1UT,51.061044639262300,-0.350889666401151
Thrasher and milk snake,RH12 3AS,51.113533730924200,-0.431771346810491
amphisbaena and Ground sloth,RH12 3BL,51.086453000000000,-0.481120000000000
Guillemot and horned viper,RH12 3DN,51.092006874269300,-0.456918606073395
hawksbill and Buzzard,RH12 3EY,51.090295308826800,-0.447724000000000
bicycle lizard and Grouse,RH12 3GW,51.064562000000000,-0.366863000000000
Fish eagle and Ice seal,RH12 3HS,51.086553421221900,-0.451188800485083
Rat and Petrel,RH12 3HZ,51.085153904286100,-0.448051542687226
Chickadee and snapping turtle,RH12 3JW,51.085700518580900,-0.461511848325210
cobra de capello and Gila monster,RH12 3NN,51.070458874234900,-0.357820364723031
Recurvebill and Chickadee,RH12 3NX,51.068459489710100,-0.358890234569381
Bunting and kabaragoya,RH12 3PX,51.093711032321000,-0.400381792572983
tuatara and diamondback terrapin,RH12 3QF,51.084904000000000,-0.346415000000000
Grosbeak and bull snake,RH12 3QG,51.082206811777300,-0.337687543723422
cobra and Fish eagle,RH12 3RP,51.079818897090000,-0.338615440786309
Rabbit and bushmaster,RH12 3SN,51.095018157897400,-0.348224724468993
Argus and Wader,RH12 3SP,51.094088000000000,-0.337733000000000
Diving bird and Recurvebill,RH12 3TN,51.069246208981000,-0.369481701304765
Mole and Dolphin,RH12 3UD,51.063730595200000,-0.370063000000000
boa and Parakeet,RH12 3UY,51.062342000000000,-0.367272000000000
mud turtle and Vole,RH12 3XQ,51.095108000000000,-0.444123000000000
flying dragon and Magpie,RH12 3XU,51.107563000000000,-0.364350000000000
Moluccan boobook and Chicken,RH13 0AN,51.054915012965200,-0.343987000000000
horned viper and Flameback,RH13 0JS,51.055185798302700,-0.351211947978570
Booted eagles and coral snake,RH13 0LE,51.043754393390800,-0.359420990358297
caiman and Masked owl,RH13 0LU,51.044434000000000,-0.366102000000000
Linsang and Hawk,RH13 0NF,51.047896279881900,-0.359146263773649
Rabbit and Guillemot,RH13 0PQ,51.039108953733800,-0.409138006382045
dugite and Ibex,RH13 0QQ,51.025467795965400,-0.391611000000000
Minke whale and Asiatic leopard,RH13 0RL,51.056054618413400,-0.397513077245386
Masked owl and Chicken,RH13 9DP,51.026544382277800,-0.340492235937453
Gull and Vulture,RH13 9JE,51.031693895508600,-0.349136326802087
Boto and bicycle lizard,RH13 9JG,51.031291701046500,-0.349949266080537
Macaw and brown snake,RH13 9SY,51.026157679074700,-0.350017481020724
Egret and Parakeet,RH13 9UH,51.029765331372400,-0.348848317731155
Songlark and Guillemot,RH13 9XA,51.027001127295800,-0.344796792247641
boa constrictor and giant tortoise,RH14 0AE,51.054243263445900,-0.538562417841249
Thrasher and saltwater crocodile,RH14 0JP,51.045062689457700,-0.564771801411011
Polecat and brown snake,RH14 0NA,51.030523966940600,-0.552585577956646
green turtle and Macaw,RH14 0PB,51.079092000000000,-0.544008000000000
whip snake and Fox,RH14 0PN,51.084082720722100,-0.581768508979500
Tahr and Thrasher,RH14 0QY,51.090091083866900,-0.519483653931013
Duck and leguaan,RH14 0RS,51.059744000000000,-0.493581000000000
Stilt and Zebra,RH14 0SD,51.073737335935400,-0.516965113609626
Kite and boa constrictor,RH14 0SH,51.076361310839300,-0.517523618527469
python and diamondback terrapin,RH14 0TJ,51.075332260973300,-0.515800688667881
Goose and Fox,RH14 0TQ,51.068340600378200,-0.539017684961087
bearded lizard and Diving bird,RH14 0TS,51.063588000000000,-0.532831000000000
leguaan and Vulture,RH14 0TY,51.066724971108300,-0.541423462532387
Rat and Zebra,RH14 0UH,51.074970595716600,-0.537766858759633
loggerhead and caiman,RH14 9EW,51.025011272950500,-0.449518838201133
Chipmunk and wall lizard,RH14 9GU,51.026778000000000,-0.447036000000000
loggerhead and soft-shelled turtle,RH14 9NW,51.025519841947200,-0.450571347514625
Asiatic leopard and death adder,RH14 9SD,51.025663869381700,-0.447871458398972
Pitohui and Thrasher,RH14 9ZG,51.026851000000000,-0.444099000000000
snake and sand viper,RH4 1HL,51.235602862300000,-0.339241734300000
Tree warbler and tiger snake,RH4 3AQ,51.220627526202700,-0.380907780141735
whip snake and Schneider python,RH4 3DS,51.230237845926800,-0.340895750495183
black snake and goanna,RH4 3GA,51.230841043300000,-0.343352055600000
Herring gull and Perching duck,RH4 3GE,51.229307000000000,-0.349304275600000
Marsh harrier and gecko,RH4 3HN,51.229139000000000,-0.338114000000000
Puffleg and Chickadee,RH4 3LD,51.224122841549900,-0.371893000000000
Wader and wall lizard,RH4 3NJ,51.225238327393700,-0.365851687558025
mamba and Solitaire,RH4 3NL,51.224022123176200,-0.366338711947939
grass snake and Marsh harrier,RH4 3PR,51.226231381619300,-0.363553676953065
water snake and Vole,RH4 3QL,51.226598450697800,-0.362151434790995
Rat and Komodo dragon,RH5 5SX,51.153357334487400,-0.357353142117157
ringhals and Wallaby,RH5 6AG,51.214796149300000,-0.430624613900000
krait and Tattler,RH5 6JL,51.195150112363700,-0.395841112579175
snake and taipan,RH5 6NW,51.193795658482600,-0.422550738778508
Parakeet and Polecat,RH5 6RG,51.203196000000000,-0.427998000000000
