name,postcode,lat,lon
Queensbury Coffee,GU1 1DL,51.247878643470400,-0.575359000000000
RUMWONG THAI RESTAURANT,GU1 2AF,51.238390624323700,-0.565153466156707
ASHUKA TANDOORI,GU1 2RE,51.246204780877100,-0.529333000000000
Starbucks Guildford High Street,GU1 3AW,51.236895686626300,-0.569382808893639
Guildford Harbour Hotel,GU1 3DA,51.238163313191300,-0.567151738775619
Sis&bros Coffee Shop ,GU1 3DN,51.235821000000000,-0.575504000000000
Starbucks White Lion Walk,GU1 3DN,51.235821000000000,-0.575504000000000
The Tea Terrace Restaurant and Tea Room - Guildford Branch,GU1 3DP,51.235755444943800,-0.573214147278876
Positano restaurant,GU1 3HQ,51.235638148140100,-0.572444257861066
Amor Amora,GU1 3HW,51.236283314682900,-0.570046408123631
SHARDANA RESTAURANT,GU1 3HW,51.236283314682900,-0.570046408123631
L & Z FOODS LTD,GU1 3JL,51.237342854903400,-0.567091000000000
Shah's Secreto,GU1 3JL,51.237342854903400,-0.567091000000000
Maloncho Tandoori,GU1 3JT,51.237799628913400,-0.565358076586347
Love Brownies Guildford,GU1 3QT,51.235178737151700,-0.571641992450453
BLUE SARDINIA RESTAURANT,GU1 3RT,51.234977905827800,-0.570659841520351
Robin Hood,GU1 3RT,51.234977905827800,-0.570659841520351
Thai Terrace,GU1 3RW,51.235171222001600,-0.571026282235914
The Albany,GU1 3SA,51.236920895153800,-0.567032759605888
The March Hare,GU1 3SY,51.233902085177400,-0.570191839468894
OLIVO RESTAURANT,GU1 3UA,51.234560853307200,-0.574067566533486
La Casita,GU1 3UH,51.234878354108200,-0.573556406773950
MEAT THE GREEK,GU1 3UL,51.234938834554700,-0.573353998099642
Kings Head,GU1 3XQ,51.232341075311100,-0.572703839278498
Creams Cafe Guildford,GU1 4AA,51.237015000000000,-0.571022296398855
SUSHI NARA LTD,GU1 4AA,51.237015000000000,-0.571022296398855
Coffee Culture,GU1 4AE,51.236195645981500,-0.573916760019707
Hanki,GU1 4AP,51.236535388765600,-0.571542685099711
Raviz,GU1 4AP,51.236535388765600,-0.571542685099711
Thaikhun,GU1 4EH,51.235606000000000,-0.576356000000000
hungry buddha,GU1 4EH,51.235606000000000,-0.576356000000000
PASTAOUT RESTAURANT,GU1 4EQ,51.235960266280400,-0.574525665647364
Jeita Lebanese Cuisine,GU1 4HD,51.237510725656900,-0.570798000000000
The Guildford Spice,GU1 4HD,51.237510725656900,-0.570798000000000
Vida Cuatro Limited,GU1 4LB,51.236190672860800,-0.572770948343819
Pizza & pasta Boom,GU1 4LS,51.240465631455100,-0.572323493527282
Pepe's Piri Piri,GU1 4QH,51.240147413887600,-0.575728557525929
KOKORO,GU1 4TE,51.236280000000000,-0.574734064206148
KOKORO,GU1 4YL,51.236626000000000,-0.576661779771966
Thai Express Retail Limited ,GU1 4YL,51.236626000000000,-0.576661779771966
Guildford Muffin Limited t/a Muffin Break,GU1 4YT,51.237198000000000,-0.576335000000000
Hogs Back Hotel,GU10 1EX,51.226370013155800,-0.722391000000000
Manor Farm Tea Room Ltd,GU10 1HR,51.223717458641900,-0.718009611833645
The Barley Mow,GU10 1NE,51.209680078610000,-0.737840701741155
THE DONKEY PUBLIC HOUSE LIMITED,GU10 2AU,51.191282851954400,-0.729642562309843
The Duke of Cambridge,GU10 2DD,51.176676875560700,-0.747783282403940
MLS Operations Limited t/a McDonald's,GU12 4HA,51.242379000000000,-0.740499000000000
YE OLDE SHIP INN,GU2 4EB,51.226398669776400,-0.579489873274035
Young's Kitchen,GU2 7XH,51.242570522066400,-0.587945895699148
Southway Chicken,GU2 8DQ,51.244969702462300,-0.596769667108472
Southway Pizza,GU2 8DQ,51.244969702462300,-0.596769667108472
The Shahin Tandoori Restaurant,GU2 9AA,51.248784766216300,-0.585749607673263
The Devil's Punchbowl Hotel,GU26 6AG,51.113551360611200,-0.730417695369862
The Cookie Bar,GU26 6TD,51.115093513676000,-0.734975813066586
Shahanaz,GU27 1HN,51.087839517842300,-0.727737686161818
The Lion's Den,GU27 1HS,51.088065066215800,-0.729459203463756
new good earth LTD,GU27 1HS,51.088065066215800,-0.729459203463756
Haslemere & District Community Centre,GU27 1LD,51.087511000000000,-0.731273000000000
Oliver's,GU27 2AD,51.088608752708000,-0.709840000000000
Real English Drinks House,GU27 2AF,51.088577215843500,-0.709711981265421
The Wheatsheaf inn,GU27 2DE,51.103607483201400,-0.693039142854869
Heidi Haslemere,GU27 2HG,51.088038000000000,-0.709613000000000
Hemingways of Haslemere,GU27 2LA,51.089198627769100,-0.708166846885878
The Station House,GU27 2PD,51.088645384636900,-0.718363005678031
LYTHE HILL HOTEL,GU27 3BQ,51.084147486875300,-0.681023449944908
The Red Lion,GU27 3HY,51.049272119023400,-0.717210031230240
The Noah's Ark Inn,GU28 9ET,51.035491847052000,-0.664705437842167
The Stag Inn,GU28 9JP,51.027540319938400,-0.593248578012805
The Jolly Farmer,GU3 1AJ,51.221227717365200,-0.662661251172806
Watts Gallery,GU3 1DQ,51.222229162244600,-0.628750787463366
The Withies Inn Ltd,GU3 1JA,51.211682000000000,-0.621090000000000
The White Hart,GU3 3DZ,51.249542853280500,-0.637538814643129
The Percy Arms,GU4 8NP,51.215549444178300,-0.526058960164073
Carlo's Trattoria,GU4 8SE,51.235288897396300,-0.505560424615297
Guildford Manor Hotel & Spa,GU4 8SE,51.235288897396300,-0.505560424615297
fork handles kitchen at Bramley Golf Club ,GU5 0AL,51.199045466880400,-0.565646067591421
THE WHEATSHEAF,GU5 0HB,51.193443545385100,-0.557633924615105
The Jolly Farmer,GU5 0HB,51.193443545385100,-0.557633924615105
Grantley Arms,GU5 0PE,51.197395222079000,-0.545474000000000
Barnett Hill Hotel,GU5 0RF,51.199122494808900,-0.533410584253174
The Bricklayers Arms,GU5 0UA,51.182988802239100,-0.524507000000000
The Drummond Arms,GU5 9AG,51.220103250763500,-0.499450815994614
Kinghams Restaurant ,GU5 9HE,51.220481612469500,-0.462779783782018
The William Bray,GU5 9HS,51.218731727711200,-0.465114833698665
THE COMPASSES INN GOMSHALL,GU5 9LA,51.220052189713500,-0.447958856461032
 Gomshall Mill,GU5 9LB,51.219136619354600,-0.446729533452066
Tillings Ltd trading as Lavender Goose,GU5 9NP,51.219153000000000,-0.445798000000000
Hurtwood Inn Bar and Restaurant,GU5 9RR,51.191866299332300,-0.447732434655452
Cranleigh Golf and Country Club,GU6 7NG,51.155737000000000,-0.473140000000000
Lemongrass,GU6 8AE,51.140610801056700,-0.487062454000598
The Three Horseshoes,GU6 8AE,51.140610801056700,-0.487062454000598
Cromwell Coffee House,GU6 8AU,51.141654305205800,-0.489873126521678
THE RICHARD ONSLOW,GU6 8AU,51.141654305205800,-0.489873126521678
Yangaz Bistro Grill,GU6 8AU,51.141654305205800,-0.489873126521678
Notcutts Cranleigh,GU6 8LT,51.149201000000000,-0.508192062184583
ONE 40,GU6 8RF,51.141381967644100,-0.491068522541618
Curry Inn,GU6 8RL,51.142526462498600,-0.494047592194677
Godalming Food Company,GU7 1AQ,51.185206157562300,-0.615684015854843
Cafe Mila,GU7 1DT,51.185822374215600,-0.614563772613645
GORNER LTD,GU7 1DZ,51.185878528702600,-0.611714616583737
Deep Blue Restaurants,GU7 1HY,51.186409368454600,-0.609583000000000
Thani Moon,GU7 1HY,51.186409368454600,-0.609583000000000
Hectors & Sons Limited,GU7 1NH,51.191407000000000,-0.597241692982637
Roost Godalming,GU7 1NN,51.185590849969700,-0.610206523762467
The Cricketers,GU7 2HU,51.195578389933200,-0.607673415684328
The Stag on the River,GU7 2QG,51.186410120150900,-0.648673232025525
HURTMORE GOLF CLUB,GU7 2RN,51.199125853366600,-0.642490199682208
The Squirrel,GU7 2RN,51.199125853366600,-0.642490199682208
Broadwater Pavilion,GU7 3DH,51.200289777076900,-0.590341014706898
Natter Cafe Limited,GU7 3EH,51.194964559747100,-0.604342000000000
THE THREE LIONS,GU7 3HR,51.191913836532200,-0.602760764996108
Farncombe Tandoori,GU7 3LH,51.196275940600800,-0.606593293405545
THE RAJASTHAN INDIAN RESTAURANT,GU7 3TW,51.202935624671500,-0.606277861855692
The Merry Harriers,GU8 4DR,51.143589000000000,-0.618659000000000
Hambledon Village Shop Ltd,GU8 4HF,51.133348820582600,-0.624295643426636
The White Horse,GU8 4JA,51.146494414776400,-0.570177746018633
The Sun Inn Dunsfold,GU8 4LE,51.116104000000000,-0.563872000000000
The Mulberry Inn,GU8 4SS,51.088156868377300,-0.645512629181280
the crown inn,GU8 4TX,51.109701232331100,-0.629140556253892
The Swan Inn,GU8 4TY,51.109195811739800,-0.629087000000000
Winterton Arms,GU8 4UU,51.121069000000000,-0.623708445725332
West Surrey Golf Club,GU8 5AF,51.156449000000000,-0.630916000000000
The Refectory,GU8 5HJ,51.171640605884500,-0.640579477771078
Squire's Garden Centre Milford,GU8 5HL,51.173178000000000,-0.638131000000000
Milford Golf Club,GU8 5HS,51.169850734313000,-0.639001453995471
Eliza's Tea Room,GU8 5JD,51.169584024630200,-0.644687922863933
Sweetpeas Cafe,GU8 5LB,51.122998010563900,-0.673301443849694
The Star,GU8 5LU,51.156002847588000,-0.648360448804602
The White Hart,GU8 5PH,51.149690040216400,-0.646800539227475
Dog and Pheasant Pub,GU8 5UJ,51.133327649582800,-0.672262266879341
The Cyder House Inn,GU8 6AN,51.197377361285000,-0.663237342578583
The Little Barn Limited,GU8 6DG,51.183976005183400,-0.706077000000000
THE WOOL PACK,GU8 6HD,51.184818135986000,-0.701861553089523
The Pavilion Cafe,GU8 6LB,51.184473000000000,-0.685302000000000
The Milk Churn,RH12 3DH,51.096837000000000,-0.453502000000000
Kings Head,RH12 3EB,51.097539107551900,-0.444152166077688
The Fox Inn,RH12 3JP,51.086254494774600,-0.462607180405842
The Sussex Oak,RH12 3QW,51.090176977806700,-0.348381000000000
The Greets Inn,RH12 3QY,51.088866465830300,-0.353284559608969
Rookwood Golf Course,RH12 3RR,51.078664131982300,-0.344695623352820
the boars head,RH13 0AD,51.053922362890800,-0.340098808570422
Caputos Pizza Limited,RH13 0LA,51.040491073898800,-0.356940131830948
Sumners Ponds Ltd t/as Cafe by the Lake,RH13 0PR,51.029367000000000,-0.397635000000000
The Queens Head,RH13 0PS,51.031879981217300,-0.394767288152074
Random Hall Hotel,RH13 0QX,51.072611697028300,-0.415298000000000
ENSIGN LEISURE LIMITED,RH13 0RE,51.061602873764300,-0.422609424470030
The Red Lyon,RH13 0RR,51.072202841023100,-0.406504773019570
Hen & Chicken Public House,RH13 9BH,51.036286187627100,-0.348916086306714
RSPCA,RH13 9RS,51.036355559931200,-0.343837000000000
Cricketers arms,RH14 0DG,51.025708000000000,-0.504174795071536
The Bat and Ball Country Pub & Haywards Restaurant,RH14 0EH,51.032236000000000,-0.489585758765825
The Foresters Arms,RH14 0ND,51.032194348511000,-0.550950510515785
Sir Roger Tichborne,RH14 0QS,51.090266438936700,-0.520549016971469
The Onslow Arms,RH14 0RD,51.071532167591700,-0.517961000000000
THE GREAT BRITISH DINER LTD,RH14 9AE,51.038766432511700,-0.441785263598095
Prince of wales public house,RH4 3QE,51.225863244405600,-0.362739000000000
Inn on the Green,RH5 5TD,51.148924665744000,-0.360613145764410
The Plough Inn,RH5 6HD,51.184418357741700,-0.353516258094644
The Abinger Hatch,RH5 6HZ,51.203448516252400,-0.404256168719552
The Royal Oak,RH5 6PF,51.188640447412400,-0.413725738265520
