name,postcode,lat,lon
Treepie and Ice seal,NW10 0HA,51.563868733766800,-0.253641329690260
Fox and Meadowlark,HA7 3QT,51.610036148417200,-0.324038992373573
Moluccan boobook and Bunting,W8 7SN,51.508415557915700,-0.196766444686880
Meadowlark and Wallaby,UB5 4TA,51.552804496423900,-0.356087832419236
Fish eagle and Towhee,SW18 1JE,51.463437000000000,-0.185151000000000
Flameback and Parakeet,HA8 7NE,51.612861333003100,-0.278641000000000
Pheasant and Vole,SW7 5LW,51.493456929958900,-0.177880272352446
Night heron and Skunk,W11 1JJ,51.517494840693400,-0.201250741831976
Cuscus and Mamo,HA1 4GB,51.588204800000000,-0.351263300000000
Moluccan boobook and Jerboa,UB1 2AP,51.515515247419900,-0.379467107214888
Grouse and Tattler,UB6 7EQ,51.541068418236300,-0.309802780170061
Minke whale and Flameback,WD19 5DH,51.630938225683800,-0.378781655087546
Egret and Diving bird,HA5 2EB,51.595446902197600,-0.401110136974924
Goose and Chickadee,N12 7HS,51.614563519771700,-0.189298253230798
Meadowlark and Mouse,HA8 9BN,51.609361886596800,-0.267681484018909
Guillemot and Capuchin,HA9 6DR,51.549473219652100,-0.283079000000000
Perching duck and Fox,TW4 7RB,51.474594023766600,-0.388794087703918
Chicken and Dorcopsis,W8 9JE,51.498289000000000,-0.198295000000000
Kākāriki and Zebra,SW6 1DS,51.480659666906000,-0.193512123913000
Shearwater and Asiatic leopard,UB18 9YS,51.500717740213000,-0.402684069553087
Stilt and Goose,W11 4TG,51.508060725635800,-0.217675358569806
Pheasant and Puffleg,W10 6LR,51.517202786353900,-0.217462641832965
Fulmarine petrel and Meadowlark,UB3 5LG,51.483479657610300,-0.435374464875118
Dolphin and Wader,N20 9BN,51.635474000000000,-0.174347000000000
Tree warbler and Ground sloth,W2 5ET,51.521830278889700,-0.193714035179867
Shearwater and Rabbit,TW3 3PT,51.466227118274400,-0.367507000000000
Francolin and Pheasant,W5 5BT,51.512472000000000,-0.307697000000000
Eagle and Guillemot,W4 1HL,51.500484915783800,-0.255071106591647
Moluccan boobook and Maya,W2 5TP,51.520664828976300,-0.190444862260134
Jackal and Flameback,SW11 2BZ,51.464895286294400,-0.178946227906314
Asiatic leopard and Wader,W3 8BQ,51.500015000000000,-0.274171000000000
Tahr and Civet,HA9 7EG,51.552348066700300,-0.293878824601691
Wader and Bunting,UB1 2JX,51.516399757269100,-0.370615187955371
Pratincole and Viscacha,HA8 7FT,51.609133000000000,-0.276910000000000
Polecat and Darwin's finches,HA9 9RH,51.567811156437600,-0.285609368924691
Gull and Coati,UB4 8AU,51.530813957912400,-0.420560657241451
Armadillo and Songlark,SW3 6HS,51.489698000000000,-0.175509000000000
Thicketbird and Grouse,SW11 3PG,51.470501260367000,-0.176764890444190
Jay and Greenbul,UB3 3JL,51.509822035582300,-0.413591473649795
Lemming and Greenbul,SW6 7NY,51.482524451615000,-0.214868951376857
Fox and Treepie,TW7 5GB,51.474792730242300,-0.334155280252104
Petrel and Pitohui,UB5 6NA,51.537533942760200,-0.399535496050620
Linsang and Snipe,HA6 2BJ,51.611351000000000,-0.439575000000000
Shearwater and Old World warbler,W13 0DS,51.521716364292300,-0.329849054411262
Partridge and River dolphin,HA6 1DY,51.607215197598100,-0.419528249333632
Quetzal and Boto,NW3 7SY,51.555168881250800,-0.191037651727657
Boto and Old World warbler,NW6 7AA,51.543087687559900,-0.218369353096630
Vulture and Solitaire,HA3 0JY,51.577535465029300,-0.300079686280031
Goose and Capuchin,SW6 2AT,51.476083173929100,-0.191806506382092
Viscacha and Kākāriki,UB5 4HA,51.553801885894700,-0.363754548047870
Rat and Old World vulture,SW11 2QE,51.468237256363200,-0.169497806871997
Lemming and Marmoset,NW10 3UE,51.543328447313500,-0.243280098483969
Asiatic leopard and Booted eagles,SW6 2BX,51.474908889866200,-0.187388986719970
Cloud rat and Zebra,NW2 1LP,51.572999183630000,-0.222712642581796
Minke whale and Cloud rat,NW3 1BJ,51.558372055998600,-0.172589243464012
Scimitar babbler and Pitohui,HA1 4EB,51.579085170312300,-0.350708952813743
Hawk and Asiatic leopard,W14 0TZ,51.496732619882300,-0.212513072105160
Badger and Grouse,SW3 5TF,51.485481476931800,-0.165249722072315
Nukupuʻu and Boto,W8 6JQ,51.495998380998400,-0.193468000000000
Skunk and Rat,HA5 5JS,51.585609473933100,-0.380121278206773
Rabbit and Goose,UB3 1LD,51.517112817353000,-0.434870877501548
Tree warbler and Hawaiian honeycreeper,W8 7SA,51.500418806883900,-0.196606639310124
Parakeet and Marsh harrier,NW7 1RT,51.612552485915300,-0.214755293097274
White ibis and Eagle,NW6 1DE,51.555495214696100,-0.195294593230720
Magpie and Tahr,NW26 9NE,51.534061000000000,-0.248126000000000
Darwin's finches and Armadillo,NW4 4EZ,51.584941773383100,-0.234083018031472
American sparrow and Old World quail,TW14 0ND,51.464523679782500,-0.415263538567721
Myna and Chipmunk,W6 8QQ,51.484397028825800,-0.211468777621036
Marmoset and Elephant,HA5 3AT,51.598219928130600,-0.375817560804475
B and Polecat,NW6 6BA,51.537332244344000,-0.197743473145736
Recurvebill and Capuchin,W9 2EQ,51.525861094057200,-0.192689569776545
Egret and Armadillo,UB4 8RS,51.528701470527500,-0.417274726692138
Old World quail and Armadillo,NW3 1SD,51.555710586331600,-0.174340412859897
Thicketbird and Cuscus,W2 3TT,51.513891600439200,-0.184501648035313
Scimitar babbler and Diving bird,HA7 4LQ,51.626684485092100,-0.316765206666456
Mink and Hawk,SW14 7NQ,51.466331342578200,-0.270828877165507
Chipmunk and Night heron,W11 1RF,51.515845757436900,-0.213970089647760
Mouse and Diving bird,NW10 6AA,51.531516568442200,-0.236958545074890
Treepie and Pratincole,HA3 0RY,51.580062247951700,-0.293880286129506
Magpie and Marsh harrier,SW15 2PD,51.464787357669000,-0.214020773422126
Booted eagles and Towhee,TW7 4FG,51.480489589347500,-0.347067435855690
Parakeet and Gull,W10 4UX,51.531610119044600,-0.207528421690184
Fish eagle and Fish eagle,W5 3RY,51.512602678110700,-0.287135110768437
Booted eagles and Mouse,W3 0DS,51.517768426820200,-0.280657167019371
Hawaiian honeycreeper and River dolphin,HA6 3NE,51.616279722016300,-0.418231201494675
Maya and Pratincole,N2 0AB,51.585698814439200,-0.171363103243190
Fish eagle and Ibex,N3 1UX,51.602192230223700,-0.192938363430145
Bronzewing pigeon and Perching duck,N2 0LF,51.590226401702000,-0.178748000000000
Macaw and Duck,HA2 8BW,51.564448879254000,-0.355408225654067
Night heron and Quetzal,HA2 7QH,51.584522997839500,-0.367255752557380
Old World warbler and Rat,HA0 2RH,51.557613483370800,-0.323543141067454
Linsang and Philippine hawk-owl,NW3 3DY,51.544044616866500,-0.163789184432618
Kite and Dolphin,N20 9BD,51.635093000000000,-0.173539000000000
Hawk and Fox,W4 2EN,51.491357675194700,-0.258098931851296
Mole and Towhee,HA0 3NG,51.562464053302400,-0.305648046321178
Jay and Old World warbler,SW6 5PF,51.477885548266100,-0.199655658105749
Moluccan boobook and Thicketbird,W11 4SQ,51.507365243159100,-0.213927066481016
Fulmarine petrel and Masked owl,NW11 9DQ,51.577338586843300,-0.207086502884314
Pheasant and Pheasant,W8 5RW,51.498918000000000,-0.184319000000000
Peafowl and Polecat,W7 3TD,51.508590586347900,-0.342102213924284
Myna and Wallaby,TW8 8PB,51.482180904635300,-0.319412167769094
B and Greenbul,W5 4NB,51.498788000000000,-0.302982000000000
Piping shrike and Jerboa,W13 9UT,51.502349112025300,-0.321811357570078
Hawk and Black cockatoo,SW3 5EN,51.485785730699800,-0.172640815621340
Masked owl and Philippine hawk-owl,UB1 2TD,51.520350564462800,-0.369551706200925
Ibex and Mink,NW3 5RG,51.551706000000000,-0.176919040847617
Perching duck and Piping shrike,HA6 3FJ,51.617613231326800,-0.418778000000000
Kestrel and Goose,UB5 5JW,51.540111364882500,-0.395998683247848
Night heron and Partridge,HA6 2RG,51.615869000000000,-0.442540000000000
Elephant and Siskin,NW9 0NJ,51.588382873056300,-0.262200104137609
Partridge and Mockingbird,TW3 4HD,51.475522022078100,-0.362309079576656
Grosbeak and Fulmarine petrel,EN5 9PS,51.643012000000000,-0.171144786961926
Hawaiian honeycreeper and Black cockatoo,TW3 9PB,51.470271853911500,-0.360985349897154
Thrasher and Kite,WD23 1NH,51.634219572953500,-0.339476289969537
Goose and Armadillo,WD19 7QX,51.629043764522900,-0.403931423772247
Greenbul and Scimitar babbler,TW5 9NR,51.491838112666500,-0.395996000000000
Tit-tyrant and Gull,HA3 6DN,51.613052180129500,-0.331871732634384
Macaw and Coati,NW10 5UU,51.534929489872800,-0.234288984997047
Chipmunk and Elephant,HA6 2BB,51.626314992609900,-0.435016809650311
Black cockatoo and Rat,NW10 5XH,51.532209432942400,-0.231611586413151
Stint and New World blackbird,W14 0ZN,51.496732619882300,-0.212513072105160
Minke whale and Condor,HA6 3AL,51.615154959081000,-0.422184580269368
Kangaroo and Black cockatoo,SW5 9HP,51.489131971965000,-0.190685318418307
Kite and Skunk,W8 7DN,51.500036000000000,-0.196745099801031
Moluccan boobook and Mamo,NW3 1TP,51.557733762033500,-0.173177443947268
Pitohui and Duck,SW6 6DX,51.472371784656300,-0.217813910753103
Mouse and Old World quail,UB2 5RQ,51.493339956750000,-0.377058000000000
Songlark and Buzzard,NW4 3AP,51.582929781578200,-0.226482172136110
Booted eagles and Boto,N12 0HT,51.607056060903900,-0.179487801408353
Elephant and Lemming,WD19 4GE,51.641232538101600,-0.382576775575425
Booted eagles and Jay,TW3 3EQ,51.468436024339200,-0.370697391578364
Vulture and Peafowl,NW9 5UW,51.602324000000000,-0.250245288900000
Thicketbird and Snipe,TW9 9DH,51.463747000000000,-0.304974000000000
Diving bird and Triller,W3 6UE,51.520745451853700,-0.260567006925076
Parakeet and Kākāriki,HA2 9PP,51.565357137459500,-0.379326141956032
Minke whale and Vole,W3 9NU,51.509149000000000,-0.272897000000000
Ground sloth and Chickadee,W2 2AN,51.514858460615600,-0.166303478290826
Bunting and Black cockatoo,W8 9SH,51.501962732449300,-0.194672602681426
Grosbeak and Rabbit,SW14 7JW,51.465382495323700,-0.271123885280780
Asiatic leopard and Cloud rat,HA5 2BP,51.595886337913300,-0.399044546006081
Mockingbird and Eagle,NW2 6AJ,51.554617594187600,-0.223818689454781
Pheasant and Tahr,W10 5RF,51.523673247047900,-0.212467382667801
Kite and Ground sloth,HA1 1QA,51.582485375522100,-0.339948296525034
Black jay and Stint,N12 0DL,51.609528847115800,-0.177742437026675
Magpie and Goose,W5 3NB,51.507906005747000,-0.285106503068137
Warbler and Capuchin,W14 8BA,51.497619483675300,-0.206989317507948
Darwin's finches and Vulture,W11 3HT,51.509390395462100,-0.195834490521827
Old World warbler and Moluccan boobook,HA1 2FJ,51.584409526120300,-0.331058868866661
Zebra and Shearwater,TW3 3QF,51.464717835698400,-0.374270543007214
Asiatic leopard and Elephant,TW8 8DQ,51.488339191611300,-0.311796562680381
Puffleg and Duck,N12 9DT,51.615099804592600,-0.174572693008916
Maya and Cuscus,TW5 9JH,51.483264294444300,-0.394162989320532
Kestrel and Parrotlet,TW3 4AR,51.476091889742600,-0.360618278236865
Ground sloth and Diving bird,HA4 6PU,51.560107857717200,-0.413703353314253
Capuchin and Partridge,W1H 4HN,51.519723412855600,-0.164580191926149
Civet and Treepie,W5 2HT,51.521165093813800,-0.297134494155229
Moluccan boobook and Grouse,N12 7EE,51.618141000000000,-0.185681407873019
Warbler and Chickadee,WD19 5EL,51.623199883115200,-0.375807017537929
Francolin and Kangaroo,NW3 3DS,51.541381823606800,-0.163723319430105
Crow and Fish eagle,NW6 7BS,51.543005471052300,-0.212373300326893
Greenbul and Minke whale,NW10 0BF,51.551769000000000,-0.255634000000000
Mockingbird and Duck,W10 4EA,51.531457343542800,-0.212248999107104
Kite and Chipmunk,UB6 9HS,51.528131538950600,-0.360710460911219
Treepie and Booted eagles,TW9 4BL,51.474961379230000,-0.281043159750213
Philippine hawk-owl and Towhee,NW7 2RE,51.611633426658100,-0.227688993898563
Parrotlet and Bronzewing pigeon,UB4 0BT,51.523431873089800,-0.408621160609351
Bronzewing pigeon and Tree warbler,W10 5UW,51.518272928011300,-0.214509336651940
Pheasant and Tahr,NW4 3ET,51.580083026747200,-0.234487864499142
Polecat and Myna,HA6 2DP,51.616920359389400,-0.431801096392341
Philippine hawk-owl and Partridge,HA3 6JB,51.606234050654400,-0.346981555063276
Ibex and Viscacha,SW10 9HB,51.485710585940000,-0.186917466729264
Tahr and Chicken,UB6 9QH,51.529930557524700,-0.363327393269332
Tattler and Hawaiian honeycreeper,HA6 3EA,51.621585090075500,-0.420907019458088
Diving bird and Perching duck,NW4 3TH,51.579012962265300,-0.226735685195781
Chipmunk and Tahr,NW2 7NA,51.564676987293700,-0.240928053565721
Kākāriki and Nukupuʻu,HA8 8QE,51.627492615933000,-0.277624682498900
Viscacha and Chickadee,NW7 3WR,51.615469131180800,-0.241174947996936
Parrotlet and Wader,W8 4HE,51.504547669793700,-0.192020014124470
Condor and New World blackbird,NW7 1AH,51.618209661197900,-0.216005000000000
Partridge and Parrotbill,SW6 4UX,51.479380000000000,-0.198517000000000
Peafowl and Egret,WD23 1EQ,51.635552984594000,-0.340294618717784
Marsh harrier and Solitaire,HA1 3TP,51.577320000000000,-0.324377000000000
Triller and Old World warbler,HA4 0SA,51.559419489452200,-0.397454569628082
Booted eagles and B,HA3 7HN,51.603471808617500,-0.327818563211280
Darwin's finches and Meadowlark,HA2 6JH,51.590779087377100,-0.363205877210233
Mink and Kākāriki,WD19 6RL,51.625873591168800,-0.387139000000000
Eagle and Recurvebill,NW6 2QY,51.547174280452400,-0.197441121665605
Magpie and Solitaire,UB3 4HH,51.505764992510500,-0.418804411340344
Ice seal and Skunk,W9 4GR,51.498289000000000,-0.198295000000000
Grouse and Mouse,SW6 6NL,51.477025320837900,-0.222845505815840
Fulmarine petrel and Grouse,NW6 4EL,51.543216431362900,-0.179311163476256
Solitaire and Cuscus,NW2 7FP,51.567167000000000,-0.232207000000000
Eagle and Peafowl,NW11 9QN,51.583153818415800,-0.210437256444087
Gull and Badger,HA0 4SH,51.545689954493400,-0.299190005269179
Mole and Treepie,UB2 5RB,51.491030339040700,-0.373046673710193
Tit-tyrant and Tattler,SW5 0DY,51.489340428181600,-0.189785000000000
Chipmunk and Herring gull,N3 3PB,51.593418002829100,-0.199523526388736
Dorcopsis and Masked owl,HA5 4RQ,51.606548286541700,-0.378538588505180
Duck and Quetzal,NW2 6SJ,51.558603358292700,-0.221586033292212
Old World quail and Gull,SW7 1NG,51.500346768059100,-0.170473577060716
Moluccan boobook and Diving bird,HA3 6JH,51.606725113966000,-0.346924000000000
Night heron and Shearwater,SW6 7EB,51.480600489522800,-0.206058281935599
Viscacha and Mink,W8 6DJ,51.495101816279400,-0.197032583952617
Tattler and Fox,TW5 0DY,51.484503721927700,-0.380321813251081
Booted eagles and Wallaby,NW6 1EJ,51.553876233635000,-0.199368760129598
Wader and Buzzard,HA5 1RJ,51.578656000000000,-0.400184000000000
Old World quail and Petrel,N12 0AB,51.608924801543700,-0.174748190634762
Civet and Elephant,UB4 0BG,51.523304668383700,-0.407861612688156
Moluccan boobook and New World blackbird,W2 1QU,51.517616371220700,-0.171309459602152
Peafowl and Marsh harrier,W10 4RH,51.527093175725000,-0.213832740077202
Towhee and Quetzal,HA8 5BQ,51.601490500603100,-0.273569228355982
Perching duck and Grackle,SW6 5TB,51.479266000000000,-0.201617000000000
Siskin and Linsang,W14 8UW,51.491848684839800,-0.204205062184635
Puffleg and Argus,NW8 0EP,51.533543760704800,-0.187064922713079
Jackal and Grouse,TW7 4SY,51.473850587595400,-0.346371377208412
Condor and Herring gull,N20 8DU,51.630340493152500,-0.182023518371574
Solitaire and Darwin's finches,HA9 9BZ,51.563279432770500,-0.263618984158956
Mole and Coati,W12 2FA,51.513921437702200,-0.321631194869861
New World blackbird and Rabbit,NW1 5BJ,51.518736982462500,-0.167055768363031
Logrunners and Condor,W10 6AQ,51.520770538352400,-0.226807926889670
Greenbul and Mockingbird,W2 1AB,51.520548000000000,-0.178197000000000
Old World vulture and Philippine hawk-owl,NW2 2PD,51.559209000000000,-0.198105000000000
Cloud rat and Towhee,NW2 5DU,51.548848712239600,-0.231240516405876
Mouse and Darwin's finches,UB6 7HB,51.541107841373300,-0.315670479230405
Duck and Petrel,HA8 0PT,51.609877167539800,-0.256931151668347
Ice seal and Ice seal,NW2 1DX,51.566328562934400,-0.213940416091048
Parrotbill and Jackal,NW9 6NJ,51.592341752787900,-0.258107762626932
Tit-tyrant and Herring gull,W6 0TR,51.494635450506000,-0.240931727476596
Prion and Petrel,TW8 8LH,51.483162924096100,-0.313903217315009
Night heron and Polecat,W13 8HY,51.520392179097900,-0.312096232804212
Puffleg and Flameback,HA8 7TL,51.615432819556600,-0.286141087726935
Chickadee and Black cockatoo,W6 0BA,51.499900167893400,-0.232274000000000
Thicketbird and Parrotlet,HA3 9PA,51.589721050993800,-0.292103733468074
Perching duck and White ibis,HA7 2JE,51.598250135294500,-0.311680266531733
Boto and Black jay,N12 8AZ,51.620466648069900,-0.181145000000000
Asiatic leopard and Grackle,HA3 0AW,51.582306488289500,-0.315189000000000
B and Elephant,HA9 6JF,51.548176090232000,-0.272400654423118
Vulture and Pitohui,EN5 9FU,51.643012000000000,-0.171144781374464
Old World quail and Stilt,NW3 9XB,51.554295000000000,-0.173838000000000
Warbler and Old World warbler,NW6 1UU,51.550529863357600,-0.191106286394059
Scimitar babbler and Goose,NW4 2JT,51.588440620136500,-0.211572038105298
Goose and Civet,NW3 5HL,51.549016845048200,-0.181070016063906
Rat and Pheasant,HA3 6AT,51.605693880704700,-0.329152144083697
Argus and Hawaiian honeycreeper,NW7 0JY,51.615437000000000,-0.241094000000000
Rabbit and Grouse,WD18 8YH,51.643176660801900,-0.432441883001517
Marmoset and Dolphin,W6 6EQ,51.492364569747800,-0.238815133557647
Warbler and Wader,SW5 9SH,51.492820246687400,-0.198952099312794
Kākāriki and Dolphin,HA8 7LU,51.612682625092300,-0.277636482298683
Badger and Tahr,W13 9UZ,51.500130754388500,-0.325148954228223
Coati and Shearwater,W2 3BX,51.513474463245100,-0.179056071870060
Shearwater and B,NW4 2SS,51.585851745886200,-0.225256911530571
Parrotlet and Pitohui,HA5 4SY,51.602117386008200,-0.376747050169291
Pratincole and Ice seal,N12 0BB,51.608202663201300,-0.176885692530330
Petrel and Parakeet,UB6 9RU,51.530849776139400,-0.364116210104792
Kākāriki and Booted eagles,NW2 7HJ,51.568023802822900,-0.232888000000000
Asiatic leopard and Lemming,HA4 4JS,51.574468000000000,-0.412071000000000
Francolin and Parrotlet,W2 5DX,51.518455000000000,-0.189357711620243
Chipmunk and Masked owl,NW8 9TA,51.533269399323900,-0.173436119620637
Armadillo and Fulmarine petrel,HA3 5NS,51.602497170530800,-0.355579053028756
Chipmunk and White ibis,UB8 3DX,51.526756368063200,-0.442598676968096
Black cockatoo and Wallaby,SW6 3RA,51.471631571502400,-0.201140163926224
Prion and Pheasant,HA4 9EY,51.567739359890600,-0.393006558001234
Macaw and Wallaby,UB3 5HP,51.481607505407200,-0.419150356170724
Meadowlark and Cuscus,NW10 3PN,51.537315912117300,-0.227361798078050
Armadillo and Mole,HA4 8PE,51.576384789857900,-0.400538008914091
Thicketbird and Jay,NW8 6JU,51.535357681124800,-0.167224460673149
Lemming and Old World vulture,NW10 8BE,51.540797545673600,-0.260118000000000
Marmoset and Kite,HA7 4QY,51.617608057699300,-0.294726040441400
New World blackbird and Zebra,NW6 4QD,51.538064023383000,-0.192119691033399
Parakeet and Wallaby,SW13 9NP,51.480264397692400,-0.245056273078577
Myna and Treepie,HA5 3HN,51.599408595229600,-0.386373304784633
Tahr and Logrunners,TW3 3FN,51.467247700775400,-0.375001348251690
Treepie and Marmoset,NW6 5HP,51.533818271344300,-0.190283748906587
Grouse and Meadowlark,TW3 2BT,51.462694392855200,-0.365848980788258
Mole and Treepie,SW15 1JW,51.467211659484500,-0.216592000000000
Recurvebill and Tit-tyrant,UB2 5HP,51.499014951478000,-0.391261132945259
Tahr and American sparrow,UB1 2HD,51.525384268066600,-0.364888704860372
Chicken and Badger,TW4 5WD,51.470269992859400,-0.360985338420831
Cloud rat and Meadowlark,HA5 2QJ,51.582440977910700,-0.402187300696472
Songlark and Chipmunk,W12 8HN,51.503063058829800,-0.229094712268901
Pratincole and Solitaire,UB8 3LB,51.523185222199500,-0.442504285870922
Egret and Kākāriki,HA3 6QU,51.608487897142000,-0.349167000000000
Chickadee and Diving bird,HA0 2NH,51.558109408691300,-0.321750520018227
Eagle and Greenbul,SW5 0NS,51.492944396788600,-0.188330328475685
Gull and Chicken,N3 2DS,51.606677249739500,-0.182896718252731
Condor and Mole,W14 0PD,51.496732619882300,-0.212513072105160
Kangaroo and Warbler,SW15 5LL,51.463445299992100,-0.252064654631416
Ibex and White ibis,HA3 0PQ,51.574798000000000,-0.299114000000000
Stint and Rat,TW6 2SN,51.480459954226200,-0.438443000000000
Parakeet and Vulture,HA8 0DT,51.600587678799300,-0.257503464958593
New World blackbird and Greenbul,HA4 0SQ,51.561714253451100,-0.393637331479500
Stilt and Chickadee,W3 7XR,51.519525287042600,-0.253752000000000
Jackal and Maya,UB2 5UJ,51.494784870379200,-0.393614134358852
Dorcopsis and Chipmunk,W10 4RT,51.527401993847400,-0.207549528340206
New World blackbird and Coati,W8 7AY,51.507523464293300,-0.200159224527289
Linsang and Fox,TW7 4FF,51.480705904052900,-0.347102819740920
Lemming and Diving bird,UB1 1RH,51.509825031110700,-0.377479000000000
Rat and Old World quail,TW3 1JB,51.468616388167000,-0.365565431709993
Mole and Treepie,NW8 8EB,51.525041523324400,-0.169411851642774
Moluccan boobook and Prion,HA2 9RT,51.567054351649700,-0.365544145711276
Tattler and Black cockatoo,SW11 4QE,51.476904142635300,-0.164773097028162
Ibex and Shearwater,WD19 5RA,51.637763498364600,-0.382714643822580
Cuscus and Parakeet,NW2 3LS,51.557064665168500,-0.212052926270197
Shearwater and Fish eagle,HA9 6RZ,51.552471981306100,-0.277127714465248
Parrotbill and Wallaby,NW10 5UB,51.536109653134500,-0.236952000000000
Hawk and Parakeet,TW7 4JP,51.476576582218300,-0.337560726935220
Puffleg and Meadowlark,NW2 4NZ,51.550186139317300,-0.223342229269622
Tahr and Maya,SW13 8AA,51.483831894157300,-0.232317062428475
Rat and Francolin,HA0 4HG,51.543478665671800,-0.286884537705592
Puffleg and Badger,SW3 3NS,51.490836341697700,-0.166100710872519
Logrunners and Badger,SW5 0LE,51.491312883169200,-0.182849068922483
Viscacha and Kākāriki,UB1 2SN,51.519402917754300,-0.372540331829038
Boto and Greenbul,NW2 6HQ,51.561161090111100,-0.234946672549647
Triller and Hawaiian honeycreeper,HA9 6HS,51.545749365111200,-0.273704023767538
Kestrel and Coati,NW11 6JE,51.585954637026300,-0.185527979318559
Peafowl and Tree warbler,HA5 1EP,51.585858812018500,-0.385164519423097
Cloud rat and Night heron,HA8 8PA,51.619708335585100,-0.271707849354052
Kākāriki and Eagle,HA7 2SA,51.610533734319100,-0.306704066030996
Grosbeak and Chicken,NW10 4PS,51.535530662221400,-0.242585428256139
Darwin's finches and Prion,W5 2HH,51.518774587725000,-0.305929407347275
Pitohui and Thrasher,HA1 4FR,51.580495000000000,-0.342792000000000
Thicketbird and Scimitar babbler,W9 2EW,51.526365473015900,-0.192741678439463
Jerboa and Nukupuʻu,WD18 9AF,51.639135000000000,-0.436389000000000
Black cockatoo and Egret,NW2 2HJ,51.561125684292900,-0.194206071345037
Cuscus and Flameback,W2 6PL,51.521019128364300,-0.186020010399098
Shearwater and Greenbul,W14 8RS,51.494324410060700,-0.205562770875434
Scimitar babbler and Old World warbler,HA7 4LR,51.626712764998300,-0.300004841782605
Stilt and Francolin,W2 4LN,51.510186390086500,-0.192632630870988
Fish eagle and Parrotlet,UB5 6XD,51.530350045728700,-0.383856630200850
Chickadee and Tree warbler,SW13 8EL,51.482786175985200,-0.228569702173356
Chickadee and Towhee,N2 0RX,51.591387964739200,-0.178107575300175
Elephant and Fish eagle,NW3 1EJ,51.559983100075500,-0.175568709058604
Ibex and Kangaroo,NW4 2AP,51.587272363596300,-0.212801611865690
Marsh harrier and Nukupuʻu,W4 4DT,51.491830729960500,-0.278564884960585
Puffleg and Ibex,W2 2TX,51.512973749587000,-0.172302452064141
American sparrow and Marmoset,UB6 0NP,51.552058126982900,-0.321785711665483
Civet and Shearwater,UB5 6QN,51.534273122206600,-0.397804327091868
Hawaiian honeycreeper and Booted eagles,WD19 7UX,51.626823519534300,-0.392783572751890
Grackle and Black jay,W4 4QF,51.487852330847900,-0.261242920207707
Francolin and Parakeet,W1H 5LF,51.516481554199700,-0.163139495585342
Marmoset and Boto,HA0 3RA,51.567626897378300,-0.318240159052974
Pratincole and Rabbit,NW6 7HQ,51.538653070816900,-0.202363362764352
Badger and Ibex,N12 8AN,51.618554220147800,-0.181613408074982
Stint and Cloud rat,NW3 5QA,51.552527668050300,-0.174943854812879
Skunk and Ground sloth,NW26 9LG,51.534061000000000,-0.248126000000000
Diving bird and Vole,W2 5PH,51.518134287093600,-0.190790189834220
Marsh harrier and Elephant,NW10 4HG,51.539782902521300,-0.244310682072694
Chickadee and Tattler,UB6 0EE,51.552660029263800,-0.348361707086022
Marsh harrier and Gull,HA6 1EX,51.607044979300500,-0.422103000000000
Marsh harrier and Ground sloth,W14 8RT,51.494298813807100,-0.206240855132727
Duck and Maya,NW8 0LH,51.534179633437800,-0.177033167101226
Old World warbler and Mole,UB4 0TB,51.519199877937900,-0.406217482958574
Parakeet and Philippine hawk-owl,W12 8AP,51.505920450237600,-0.223003961304192
Meadowlark and Perching duck,HA3 5AG,51.592482523188800,-0.334083468432132
Wader and Mamo,UB1 2TT,51.522320330793100,-0.370879566115196
Old World quail and Minke whale,W2 4PW,51.513603769150000,-0.193232389099961
Marmoset and Fox,NW2 3TL,51.550366214656000,-0.204611000000000
Goose and Jackal,TW8 0LR,51.489639901291000,-0.299749739154653
Vulture and Songlark,NW7 4SL,51.615121000000000,-0.240640000000000
Goose and Kangaroo,W3 7AF,51.514170867322400,-0.257459433421229
Guillemot and Fulmarine petrel,TW7 6BT,51.469586040277700,-0.324050392321430
Jackal and Vole,NW10 1JD,51.554633215348600,-0.230208341039958
Minke whale and Armadillo,W7 1LE,51.513685596834800,-0.331699258808309
Elephant and Masked owl,NW8 0LR,51.535204327883100,-0.177441000000000
Stint and Eagle,HA8 9UF,51.619270939796800,-0.266437453445372
Marsh harrier and Bunting,W12 7BG,51.508014287655600,-0.232433249284292
Macaw and Marsh harrier,NW4 3LP,51.581427807110200,-0.227060253408449
Chicken and Grouse,W7 1AZ,51.523073003202600,-0.332293183734406
Linsang and Jay,W6 9AA,51.492797468831500,-0.243696287194699
Maya and Crow,W8 4HW,51.504883062313900,-0.191026906327616
Zebra and Kangaroo,W4 1AG,51.502237454627000,-0.258029922085744
Kite and Myna,TW8 8PY,51.480856194881200,-0.304224055377725
Mole and Night heron,HA4 9JD,51.571640168880500,-0.393532793397178
Lemming and Boto,NW2 5ER,51.548241467052100,-0.233312123402571
Bronzewing pigeon and Zebra,UB6 0SL,51.555042928964200,-0.346443436175480
Guillemot and Asiatic leopard,W14 0NS,51.498357088402200,-0.212305446965532
Siskin and Tit-tyrant,SW11 3DH,51.472928181640400,-0.171599525507365
Mole and Darwin's finches,NW3 6XY,51.556223645752600,-0.183061755933484
Moluccan boobook and Siskin,NW9 8BG,51.577565933373200,-0.262251921102005
Argus and Macaw,HA8 5QZ,51.597474618313200,-0.282399027670113
Dorcopsis and Chipmunk,UB6 9TP,51.535216519693700,-0.368386174980959
Old World quail and White ibis,NW10 2AZ,51.549060460100000,-0.246578000000000
Black jay and Grackle,TW3 1XS,51.466322056464300,-0.360320571091885
Ibex and Kākāriki,NW8 8TB,51.524867554002300,-0.166333877928872
Meadowlark and Nukupuʻu,HA0 4SJ,51.545602156431800,-0.300577789398372
B and Asiatic leopard,NW3 5DP,51.544556801659600,-0.175291648026798
Greenbul and Herring gull,SW6 3DR,51.468376278115900,-0.199382087223234
Macaw and Kākāriki,W12 0LU,51.508169426899600,-0.240958120266340
Grackle and Mouse,UB4 9BX,51.528387164184200,-0.397434291483777
Egret and Bunting,NW9 7QL,51.576035000000000,-0.240273000000000
Tit-tyrant and Parrotlet,SW3 2AY,51.495452065081600,-0.169718745185076
Treepie and Buzzard,NW10 4HH,51.539230000000000,-0.243212853064387
Viscacha and Night heron,SW15 2NE,51.463169345966700,-0.208757378265704
Crow and Myna,HA9 8SB,51.573081955342400,-0.308630051502807
Rabbit and Jackal,W14 8TQ,51.492159711490700,-0.206901029799235
Solitaire and Piping shrike,UB6 9AD,51.532837639003200,-0.350030800966933
Goose and Marsh harrier,W5 1TZ,51.524558717056600,-0.312936829945818
Piping shrike and Peafowl,W8 6PL,51.494882888748700,-0.202688426486083
Parrotbill and Marsh harrier,NW10 8BT,51.543627849717700,-0.261569374757685
Condor and Asiatic leopard,SW14 8NZ,51.466929942728300,-0.262657429368689
Night heron and Gull,HA7 4ES,51.614359532398600,-0.308237170943960
Bronzewing pigeon and Diving bird,HA4 7UL,51.582324591106300,-0.424173491432156
Jackal and Rat,W2 3HT,51.510672351308600,-0.185667231238786
Elephant and Skunk,NW4 2HG,51.584676026687000,-0.220063002514610
White ibis and Songlark,UB5 4JP,51.554530212799200,-0.354107132373444
Quetzal and Parakeet,TW9 3AS,51.485449484421800,-0.285545815856922
Myna and Fish eagle,HA1 4AS,51.575441927297000,-0.346136207386763
Cuscus and Tit-tyrant,NW11 8PP,51.571818299811200,-0.205976108588832
Treepie and Solitaire,WD23 9HN,51.640500000000000,-0.357881000000000
Partridge and Rat,UB10 9EJ,51.544279525864800,-0.436996308540790
Grackle and Snipe,WD4 4EF,51.641755000000000,-0.427873000000000
White ibis and Grackle,W14 0HN,51.498682779798000,-0.218343771486868
Thrasher and Buzzard,UB6 9TY,51.533335761716200,-0.366348393043934
Vole and Eagle,SW13 0ES,51.472395265068000,-0.249217182915692
Nukupuʻu and Herring gull,W10 6EP,51.519418452012500,-0.215329368199342
Solitaire and Capuchin,W5 4RE,51.494471310249100,-0.303027382790402
Parakeet and Scimitar babbler,NW3 1SL,51.555169165951800,-0.171909802276679
Kite and Jay,NW6 1AN,51.552588431083100,-0.196318373143353
Siskin and Guillemot,W2 1PW,51.519078842791000,-0.176295716978941
Argus and Grouse,SW18 1GH,51.464342601974100,-0.183215277855832
New World blackbird and Fox,NW9 7RH,51.582625063645100,-0.251118121623346
Buzzard and Kangaroo,NW10 7FB,51.532857843153000,-0.284976400535073
Logrunners and Capuchin,SW7 5BX,51.495608000000000,-0.182001000000000
Egret and Skunk,UB6 8PR,51.537688681713900,-0.348413444346088
Songlark and Tree warbler,NW2 7BF,51.561422947400000,-0.239943000000000
Mink and Tahr,NW2 1TD,51.560983494962100,-0.214294111902164
Warbler and Condor,HA5 2DF,51.596320870274500,-0.403880396394391
Armadillo and Grosbeak,HA5 4DP,51.609953252692800,-0.365996933914128
Jerboa and White ibis,HA2 8JN,51.557661899436100,-0.360974000000000
Maya and Piping shrike,HA4 0SN,51.564482704029600,-0.387653228450810
Peafowl and Parakeet,W11 2EG,51.514630827926900,-0.209189474703418
Scimitar babbler and Tree warbler,W8 6RG,51.497010691095700,-0.193686914255932
Grouse and Vole,NW9 7DW,51.579803603799400,-0.243432670032352
Grosbeak and Snipe,W7 3TB,51.508258707166100,-0.340889400677306
Dorcopsis and Scimitar babbler,W3 6QD,51.512808324738400,-0.262598751109634
Flameback and Scimitar babbler,NW2 3DB,51.555246067010100,-0.216639322071180
Bronzewing pigeon and Ice seal,NW9 0UD,51.588168262088400,-0.256823838719689
Lemming and Fish eagle,SW6 6BJ,51.482294733486800,-0.213956184730426
Treepie and Thicketbird,N12 7BG,51.614106573000300,-0.194660676565324
Quetzal and Scimitar babbler,W11 2EH,51.514854000000000,-0.207288122067054
Magpie and Rabbit,WD23 1LW,51.636534409145400,-0.342932181713140
Rabbit and American sparrow,NW7 3LX,51.617490699047400,-0.254920527917214
Kite and Mouse,W2 4RG,51.510431381957700,-0.188545000000000
Pratincole and Crow,TW9 3HS,51.478726233596000,-0.288217276626101
Thrasher and Kestrel,UB2 5AZ,51.504028430060200,-0.386372944158249
Snipe and Herring gull,HA8 9LH,51.613791714088800,-0.267455061711509
Kākāriki and Mink,UB5 5AS,51.539261110417000,-0.386453809314247
B and Lemming,SW11 2QJ,51.463956630566800,-0.181042283232109
Mamo and Chickadee,TW7 7HP,51.462734205651100,-0.327223751596628
Old World vulture and Moluccan boobook,NW8 0BB,51.538311129477600,-0.186572669380963
Grackle and Dorcopsis,W5 2LW,51.518468141444400,-0.293473181430072
Capuchin and Condor,UB6 8SH,51.528872501954700,-0.351341891576169
Vulture and Greenbul,NW11 8QB,51.572817000000000,-0.200049000000000
Kākāriki and Vole,W5 2JP,51.521141381231200,-0.302944321314192
Fox and Kestrel,W1W 7BL,51.522779000000000,-0.174735000000000
Quetzal and American sparrow,HA6 1BA,51.609364048021400,-0.422183163723124
Shearwater and Minke whale,TW8 9QL,51.493693489188200,-0.298993891836520
Nukupuʻu and Viscacha,NW10 0BP,51.552053000000000,-0.253983000000000
Minke whale and Chipmunk,W11 1NP,51.516409678887600,-0.206727163408814
Pitohui and Old World quail,NW6 7LD,51.540661436606000,-0.199630835306833
Partridge and Gull,WD18 9XG,51.639610000000000,-0.433283759345677
Rabbit and Old World warbler,W12 9JB,51.502933662473100,-0.235425111192921
Booted eagles and Old World quail,UB2 5SP,51.491568767627600,-0.385329194506254
Philippine hawk-owl and Mole,HA7 4HX,51.615673600516900,-0.307697208681067
Old World warbler and Myna,TW3 9GG,51.470269992859400,-0.360985338420831
Guillemot and Wallaby,TW4 7QH,51.474305903015200,-0.402569988026161
Armadillo and Perching duck,NW4 4RE,51.595417000000000,-0.226761000000000
Zebra and Old World warbler,W4 2AF,51.488594000000000,-0.258986257792739
Kangaroo and Puffleg,W8 7EG,51.505547908974600,-0.197412807494667
Crow and Macaw,TW4 7QP,51.473468504563700,-0.403808757266761
Bunting and Snipe,HA3 9LE,51.591952352679400,-0.294661960515238
Vole and Old World vulture,NW3 5SG,51.548916627663000,-0.178088402093861
Condor and Tattler,NW6 7SH,51.543117120623200,-0.209080856868843
Solitaire and American sparrow,UB5 5SS,51.548716702374900,-0.386148166051962
Scimitar babbler and Philippine hawk-owl,NW8 9PD,51.529814819263600,-0.179125013579416
B and Lemming,SW6 2FR,51.475247000000000,-0.184150000000000
Tattler and Minke whale,NW6 1SD,51.548118000000000,-0.190928000000000
Marmoset and Zebra,TW3 3FL,51.466817861989300,-0.375779658407034
Zebra and American sparrow,NW9 7LT,51.573451827041300,-0.252855584098377
Grosbeak and Duck,NW8 9JN,51.530951189685100,-0.175287852427526
Armadillo and Tahr,HA9 0GP,51.559805000000000,-0.282050000000000
Duck and American sparrow,HA3 6EB,51.605292483368900,-0.337614771608411
Pratincole and Hawaiian honeycreeper,NW7 2HD,51.613242516079600,-0.215190413869270
Zebra and Black jay,HA0 3PU,51.564578283011900,-0.313836687314138
Fulmarine petrel and Badger,W2 5BA,51.515719247358700,-0.194546715134634
Thicketbird and Quetzal,UB1 3HF,51.510979739064400,-0.372725213376123
Thrasher and Herring gull,UB3 3EA,51.507837639680900,-0.417133170588187
Puffleg and Puffleg,NW8 8JP,51.525097158852800,-0.175291235074051
Eagle and Prion,NW2 3BE,51.555488716647200,-0.215446960370891
Masked owl and Fulmarine petrel,W5 3DN,51.528256793848600,-0.290728487662868
Guillemot and Francolin,SW6 6ES,51.473067929141600,-0.218650734681793
Badger and Myna,W7 2XG,51.504636705799700,-0.332779017103967
Civet and Cloud rat,NW11 7DX,51.573375524677000,-0.187933827066621
Ice seal and Kākāriki,NW6 7NP,51.540484034866000,-0.211417000000000
Ice seal and Maya,NW8 9AA,51.532397706902600,-0.178099197332894
Meadowlark and Kangaroo,NW10 0JD,51.552567364070200,-0.254982895558031
Mole and Minke whale,W10 6SW,51.515292070376200,-0.215404176854751
Black jay and Francolin,W6 0XL,51.497993536523500,-0.247374000000000
Songlark and Duck,W12 8HU,51.505730456002200,-0.231743585234773
Greenbul and Flameback,UB2 5XZ,51.496002000000000,-0.406306000000000
Lemming and Marsh harrier,W2 2SD,51.512898000000000,-0.174871000000000
Hawaiian honeycreeper and Thicketbird,SW18 1RA,51.462214000000000,-0.196145000000000
Old World warbler and Booted eagles,WD19 7GN,51.627537407722400,-0.393480000000000
Recurvebill and Diving bird,HA1 9PY,51.585229000000000,-0.329664000000000
Ice seal and Argus,NW2 3AB,51.556438902439400,-0.213476745096981
Kangaroo and Armadillo,TW5 0DP,51.482063094523300,-0.382006876227090
Tree warbler and Fish eagle,HA8 0EX,51.602726191254400,-0.257392722034063
Badger and American sparrow,UB3 2TQ,51.522215931121900,-0.437910342586183
Tree warbler and Logrunners,HA2 7BS,51.582084864260800,-0.362002771281025
Cloud rat and Vole,HA9 6PN,51.547847301844600,-0.276336092753558
Linsang and Petrel,HA8 0TG,51.607126924974400,-0.266741205535284
Chicken and Minke whale,HA5 3LY,51.597284088143600,-0.390130343533729
Philippine hawk-owl and River dolphin,W13 3DU,51.513922000000000,-0.321609000000000
Dorcopsis and Rabbit,TW8 9PP,51.492268551560200,-0.306163064433743
Hawaiian honeycreeper and Lemming,NW2 1PU,51.563507305419100,-0.214197000000000
Logrunners and Pheasant,W4 3UP,51.475826577760800,-0.270167440167091
Elephant and Tit-tyrant,W12 7BF,51.505844000000000,-0.224376000000000
Rabbit and Maya,HA1 2US,51.585235265947700,-0.329686206463401
Viscacha and Ibex,SW18 1DH,51.463222696706700,-0.188816611709559
Tree warbler and Towhee,NW3 3SN,51.542006387866200,-0.168586923963096
Old World vulture and Guillemot,TW8 8BN,51.483816710082500,-0.308723025896424
Civet and Quetzal,W3 8JA,51.506715389700800,-0.273942000000000
Mole and Quetzal,N20 9JR,51.632400374667000,-0.163575544223705
Polecat and Coati,UB2 4DF,51.501908702447300,-0.381981320252487
Eagle and Goose,W12 0RD,51.514887708336000,-0.236231488805740
Moluccan boobook and Rat,NW9 9NG,51.585490534798700,-0.273381852852229
Prion and Hawaiian honeycreeper,W2 6DN,51.519794000000000,-0.179918299367882
Thrasher and Black cockatoo,TW3 4EW,51.477287090520900,-0.365716339378385
Old World warbler and Booted eagles,W5 5BS,51.509765683551300,-0.308396436187039
Parakeet and Scimitar babbler,UB4 8HN,51.522900732124000,-0.423227268381090
Gull and Solitaire,TW4 7NQ,51.473109375787800,-0.403850089224493
Asiatic leopard and Parakeet,NW11 8AJ,51.567807603515000,-0.195413106430883
Goose and Scimitar babbler,NW6 1JF,51.551921372118300,-0.190373152391171
Warbler and Old World warbler,SW3 3DP,51.492358979203800,-0.167436930267457
Condor and Jay,WD19 7RH,51.627408141858600,-0.403338674165475
Jerboa and Eagle,SW11 2DU,51.470771480177000,-0.164788826309343
Old World quail and Gull,W3 8GN,51.499908000000000,-0.271783000000000
Tree warbler and Chicken,TW3 3UQ,51.465480429012100,-0.365735063059052
Cloud rat and Vulture,NW10 6UN,51.528253086822800,-0.240602263313566
American sparrow and Bunting,W3 0BE,51.524155618338200,-0.272762182958286
Wallaby and Boto,N2 0FW,51.585239298049900,-0.180562056602969
Herring gull and New World blackbird,SW6 7QX,51.480504305580700,-0.212125122646757
Chipmunk and Triller,W2 1EX,51.518340690332400,-0.168167111813069
Marsh harrier and River dolphin,NW9 4EF,51.592500000000000,-0.243683000000000
Recurvebill and Shearwater,UB10 9HH,51.540694000000000,-0.439124000000000
Old World vulture and Armadillo,TW7 5ER,51.476546739093500,-0.332924972521099
Perching duck and Snipe,W2 1NQ,51.522757356715800,-0.176912753476588
Thrasher and Coati,TW7 5NQ,51.483847274770300,-0.329677458968656
Stint and Coati,HA7 1AR,51.606231483506900,-0.300827713260415
Eagle and Minke whale,UB6 0JD,51.555249759165300,-0.335631635505467
Duck and Wallaby,NW10 2BU,51.545724510796300,-0.232775040709516
B and Goose,NW10 3EH,51.541720538561300,-0.223686373339516
Magpie and Gull,SW7 9DU,51.497984000000000,-0.174506000000000
Buzzard and Piping shrike,NW9 5GF,51.600053637009800,-0.247604095439911
Peafowl and Parrotlet,HA1 4QD,51.585743096941600,-0.350973095170903
Capuchin and Parrotbill,TW3 4BT,51.476942156516400,-0.354554106983144
Philippine hawk-owl and Mouse,SW3 2BS,51.496473853147300,-0.167776131974407
Kangaroo and New World blackbird,HA0 3QX,51.567943625548600,-0.317752314235212
Mole and Bronzewing pigeon,SW11 1HF,51.461319059912900,-0.165283198365211
Kestrel and Badger,TW9 1UH,51.462698034130700,-0.297224230427072
Vole and Triller,NW4 3YD,51.582802712880300,-0.228190318536909
Perching duck and Parrotlet,SW6 2AH,51.475747990888700,-0.191646959596045
Prion and Flameback,TW4 7RQ,51.475168474463100,-0.390026613775968
Francolin and Duck,SW15 5RT,51.463715023174000,-0.249907000000000
Hawaiian honeycreeper and Wallaby,TW9 1UX,51.462401545494400,-0.291678512034823
Recurvebill and Towhee,HA0 4QL,51.543535266421400,-0.297568626466617
Hawk and Cloud rat,HA9 9DY,51.562761581533500,-0.267519700078794
Pratincole and Herring gull,HA2 0QJ,51.568890705630700,-0.356027130206696
Jay and Black cockatoo,N20 9DG,51.637336707751100,-0.171613392241185
Marmoset and Old World vulture,UB4 8FF,51.523011525136400,-0.426120784207743
Civet and Armadillo,SW6 7EG,51.480858162467900,-0.204680009363017
Kangaroo and Greenbul,W1H 5HJ,51.517576660113800,-0.164162026262082
Mink and Armadillo,TW7 4EA,51.474712102289500,-0.341789973421526
Gull and Crow,NW3 5NN,51.551984694214800,-0.171258560576374
Meadowlark and Egret,W4 4LA,51.490032878319800,-0.269442546343341
Duck and Myna,UB10 0NH,51.526559719901800,-0.439304182982447
Pratincole and Cloud rat,NW6 4AX,51.541007042097200,-0.181807607491045
Boto and Capuchin,UB4 0PX,51.520177000000000,-0.413880000000000
Dorcopsis and Goose,HA3 8SY,51.595034357622300,-0.315047972837773
Magpie and Thicketbird,HA5 4JE,51.609827683714400,-0.369900843113485
Rabbit and Songlark,HA4 6ED,51.564024996865600,-0.418111748762199
Hawk and Eagle,HA0 2PD,51.556834125493800,-0.321234865836753
Mouse and Solitaire,NW3 6RX,51.559213000000000,-0.180888662071398
Diving bird and Grosbeak,SW11 2ED,51.465616824512600,-0.172626102436344
Shearwater and Guillemot,TW9 2ND,51.463582261386600,-0.301607000000000
Marmoset and Mole,W2 3EQ,51.512494744801700,-0.183144834201267
White ibis and Songlark,TW5 9LN,51.481262743999900,-0.398380925103884
Mouse and Grackle,HA5 4TS,51.605868605773400,-0.387949414368048
New World blackbird and Buzzard,W4 3JN,51.485005036220300,-0.271807732687058
Ibex and Nukupuʻu,WD19 7JR,51.629822228041700,-0.399685134708663
Polecat and Tahr,HA5 1LA,51.586166037796200,-0.384619543836827
Moluccan boobook and Stilt,HA9 6PT,51.551067225646400,-0.273935440792900
Prion and Songlark,UB6 0EQ,51.553113989299100,-0.347393262892766
Meadowlark and Francolin,W10 4ER,51.529032918715900,-0.206000533602717
Hawaiian honeycreeper and Grouse,W3 8GH,51.502133000000000,-0.274509000000000
Minke whale and Grouse,W2 1TQ,51.523715081203800,-0.177782665571955
Argus and Rat,WD18 1RE,51.641750000000000,-0.427895000000000
Shearwater and Buzzard,NW8 0SQ,51.539633687236600,-0.185452996513334
White ibis and American sparrow,NW8 8JY,51.528788363389500,-0.169794991889624
Pitohui and Jackal,HA6 2BZ,51.613402838057600,-0.430333562585747
Polecat and Chickadee,SW14 9BR,51.469275829800000,-0.266110291300000
Vulture and Prion,W2 4YQ,51.514577613118700,-0.188740435116478
Greenbul and Logrunners,HA0 4DT,51.546939579649400,-0.295451270919470
Siskin and Prion,TW7 7FB,51.466859000000000,-0.323805000000000
Grouse and Argus,NW6 1DJ,51.555716988298800,-0.196266739924826
Wader and Kangaroo,TW9 3DT,51.482656967554200,-0.286442659905601
Recurvebill and Parakeet,NW6 9TZ,51.535966000000000,-0.194644000000000
Vole and Grosbeak,NW4 1PX,51.605165000000000,-0.226800000000000
Cloud rat and Jackal,HA8 8HA,51.619195005444800,-0.282070224248621
Cuscus and Coati,TW1 1RJ,51.464970000000000,-0.322521000000000
Mink and Eagle,NW11 6QA,51.578889206084600,-0.181046602660354
Mockingbird and Pitohui,HA9 9AT,51.564443845094300,-0.270414000000000
Diving bird and Marmoset,TW9 1EZ,51.463093000000000,-0.302032000000000
Pratincole and Mole,W4 2RN,51.485387522080700,-0.255128968410285
Grouse and Chickadee,W6 9UJ,51.492903073680700,-0.241142466666306
Hawaiian honeycreeper and White ibis,SW5 9JS,51.488250000000000,-0.195737197477164
Ice seal and B,W3 7EZ,51.510053176743800,-0.259331433194877
Jerboa and Night heron,HA9 7NB,51.564088000000000,-0.302197000000000
Treepie and Stint,NW3 9WB,51.554295000000000,-0.173838000000000
Boto and Booted eagles,NW7 2LH,51.610734388658400,-0.238454967130106
Towhee and Skunk,HA0 2TW,51.557190618509500,-0.333627759434913
Chickadee and Quetzal,W6 9BA,51.492052226985000,-0.240959000000000
Prion and Guillemot,N20 0EG,51.628151384992000,-0.176548409530976
Marmoset and Thrasher,NW9 6EU,51.588818175960700,-0.240717526173172
Towhee and Cuscus,NW9 5FU,51.582748000000000,-0.246596000000000
Kākāriki and Viscacha,NW3 6LL,51.546189250018100,-0.179654011060798
Triller and Elephant,SW1X 0DA,51.496626935509200,-0.163764918336078
Argus and Minke whale,W3 8EA,51.507790447808900,-0.276608902710005
Old World vulture and Chickadee,UB4 0BU,51.523199163737500,-0.409364423432187
Warbler and Solitaire,NW7 4RR,51.617473048079200,-0.247698779559459
Grouse and Zebra,SW11 2SJ,51.467899597054000,-0.176105456098144
Night heron and Mockingbird,W13 9SJ,51.500064069776600,-0.315469517251196
Skunk and Warbler,W10 5YY,51.520773630216800,-0.206310704405826
Capuchin and Thicketbird,UB6 8TG,51.532806610179400,-0.332571885186878
Hawaiian honeycreeper and Shearwater,HA9 9TQ,51.575913997782300,-0.287512539881549
Maya and Coati,W3 8FJ,51.501525000000000,-0.271188715905447
Rabbit and Pitohui,N12 8EX,51.611706601072300,-0.185974475787842
Piping shrike and Flameback,HA1 3HW,51.572534930208500,-0.337049522248247
Stilt and Mink,UB3 1JU,51.516166115935500,-0.436704883053782
Stint and Flameback,SW3 3AH,51.493813972420300,-0.168473425147110
Goose and Duck,TW7 5DL,51.478140047360100,-0.336207827978496
Jay and Jay,NW2 6PW,51.559762000000000,-0.222002000000000
Scimitar babbler and Fish eagle,UB4 8PE,51.536083738153600,-0.434003994888638
Warbler and Parrotbill,NW11 8EJ,51.571450482661300,-0.197231374493067
Dolphin and Cloud rat,HA6 3HR,51.619038000000000,-0.409309000000000
Piping shrike and Kestrel,NW7 4AQ,51.619312000000000,-0.235238523100000
Mole and Capuchin,HA8 0EU,51.602585598638500,-0.257008221291774
American sparrow and Masked owl,UB2 4LR,51.503472233028200,-0.356033765984278
Mole and Crow,W8 6PX,51.496094097219000,-0.195480745298363
Elephant and Kangaroo,HA6 2HR,51.630026096873000,-0.438197819777198
Fish eagle and Marsh harrier,NW7 2SD,51.605783602907200,-0.237520177341693
Minke whale and Kākāriki,W14 9AB,51.491169152485100,-0.206810250712501
Argus and Black jay,HA2 7RB,51.587944503400600,-0.370814094802485
Puffleg and Tit-tyrant,HA7 1PE,51.600873352399300,-0.300912201073191
Recurvebill and Towhee,NW10 5AS,51.535102000000000,-0.232485606746430
Booted eagles and Fish eagle,W5 5JF,51.504706950270800,-0.307546246916330
Civet and Dorcopsis,N20 0HG,51.626151225819400,-0.180356122669506
Linsang and Chipmunk,N20 9EL,51.638451871254200,-0.168736013231221
Tattler and Gull,HA3 7JU,51.599758240340400,-0.329095657999487
Songlark and Piping shrike,W2 5JU,51.517119778954600,-0.193813915764771
Masked owl and Parakeet,W2 4WA,51.511978902085900,-0.193411969253583
Kite and Fulmarine petrel,WD19 7QU,51.629676595402700,-0.403519105501679
Wader and Petrel,HA6 2HH,51.629233113366200,-0.434020602393852
Puffleg and Jackal,TW3 1NT,51.471465238798300,-0.356435780371985
Perching duck and Recurvebill,HA8 7WY,51.613332458522800,-0.277799649928712
Linsang and Grackle,UB10 8JE,51.568805164845000,-0.448145976617686
Perching duck and Vole,UB6 9UH,51.537453299208900,-0.357909875219528
Vole and Goose,SW7 1JR,51.500035339298500,-0.167229882530409
Viscacha and Stilt,NW10 8DQ,51.540115785524200,-0.260621683326941
Goose and Vulture,HA5 1SR,51.581092261224200,-0.398236647616247
Piping shrike and Jerboa,UB6 8HP,51.534518781797300,-0.333460938007636
Chicken and Night heron,TW4 6JF,51.468497490693000,-0.402614469082811
Jay and Boto,NW6 2BE,51.548509782420200,-0.200085453255131
Old World quail and Polecat,TW5 0SG,51.486075573819500,-0.369161359862064
Chipmunk and Nukupuʻu,NW10 3AQ,51.538309343900000,-0.239479154600000
Stint and Scimitar babbler,NW7 4AH,51.616365905907800,-0.238612489197854
Coati and Tree warbler,HA7 2HT,51.600745514386700,-0.315125382977273
Fox and Parrotbill,W3 6DQ,51.509026721441000,-0.269573176582350
Buzzard and Hawk,HA3 6JX,51.607434257054400,-0.344092988401018
Vulture and Rat,W11 9FN,51.513921437702200,-0.321631194869861
Armadillo and Dolphin,UB3 1JW,51.516256786875300,-0.434064293499621
Solitaire and Condor,W12 9NL,51.499714626237700,-0.243228686992719
Rat and Tahr,HA4 6XD,51.552550845130000,-0.400191304483379
Kestrel and Fox,N12 8JG,51.616714129339300,-0.178711000000000
Nukupuʻu and American sparrow,TW3 3RF,51.464735023860900,-0.371621005413174
Bronzewing pigeon and Perching duck,SW7 2TA,51.494187604922500,-0.171094741543884
Parrotbill and Mouse,HA4 8NP,51.573470720023000,-0.413743304881340
Gull and Tahr,SW6 1LH,51.483708715892700,-0.199397524262203
Mole and B,HA4 0AP,51.567958651610600,-0.409101471693423
Capuchin and Old World vulture,W11 4AR,51.511033689336700,-0.219160000000000
Tahr and Parrotbill,NW10 0BB,51.562355137986300,-0.258287216760945
Pratincole and Thrasher,N20 8AN,51.634463671841500,-0.198664423412208
Scimitar babbler and Piping shrike,NW9 8RD,51.575984272398600,-0.265357326955756
Mole and Ice seal,NW10 5TG,51.533439584979100,-0.222566919009437
Skunk and Moluccan boobook,N2 0BF,51.584177808808100,-0.171857201854190
Marsh harrier and Kestrel,TW3 3QE,51.465255513362800,-0.374136263280636
Tahr and Ice seal,TW8 0LT,51.488948082116100,-0.299170502781661
Jay and Mink,WD23 9FR,51.640496290395300,-0.357904636568511
Marsh harrier and Herring gull,N2 0SG,51.592658583645800,-0.180020181789940
Treepie and Booted eagles,HA9 0GN,51.559805000000000,-0.282050000000000
Linsang and Fox,SW10 0QH,51.479221000000000,-0.179456000000000
Triller and Mink,UB6 9SP,51.535530000000000,-0.361108000000000
Kestrel and Linsang,NW7 1PU,51.609850620161700,-0.202108558383332
Pheasant and Petrel,HA4 7TH,51.583332857616800,-0.431644149095823
Vulture and Capuchin,HA5 4TL,51.605064772581500,-0.385075305870482
Old World warbler and Marmoset,NW6 5BF,51.529733000000000,-0.197063000000000
Fox and Mamo,NW8 9HH,51.528171561649500,-0.175225986813839
Maya and Puffleg,HA6 2RR,51.611479054623900,-0.436436944051437
Magpie and Nukupuʻu,SW13 9QG,51.475708100356100,-0.248255144941264
Parakeet and Flameback,UB6 8TQ,51.533346425614400,-0.331326626342271
Viscacha and Wader,HA9 6HG,51.549267725371700,-0.284404000000000
Fox and Jackal,UB6 8RG,51.533706940186800,-0.348543138052219
Tahr and Kite,SW13 9JH,51.486906535049700,-0.237642703398563
Logrunners and Polecat,W2 6JU,51.518084544739300,-0.183498940028879
Eagle and Kestrel,NW2 2BJ,51.558892855022100,-0.203989031833822
Old World vulture and Parrotlet,HA9 7NU,51.563917211067700,-0.295465731767376
Lemming and Mamo,UB1 2BJ,51.516401117110000,-0.377850280083828
Macaw and Goose,W11 4PG,51.509079534814600,-0.211352583773040
Polecat and Badger,UB6 0DB,51.549302838957200,-0.351339053826422
Songlark and Francolin,NW10 8SN,51.539898330007200,-0.253852455837181
Myna and Mole,HA4 7TT,51.590348738787900,-0.434491845293861
Black jay and Snipe,UB6 0RG,51.548687512201700,-0.321260707906417
Macaw and Tree warbler,SW3 5AG,51.483260000000000,-0.174945000000000
Puffleg and Booted eagles,W3 8RD,51.502280019042100,-0.277349895586630
Pitohui and Fulmarine petrel,HA9 9DZ,51.565485015692100,-0.266218633832954
Polecat and Shearwater,NW10 1NQ,51.553922659624500,-0.234375817859087
Polecat and Condor,SW1X 0DG,51.496071779625000,-0.163916887825583
Pheasant and Parakeet,SW15 1SE,51.463958332730200,-0.215679928727712
Mink and Chicken,NW7 3EG,51.612952863226500,-0.264237239288287
Songlark and Perching duck,HA3 7RT,51.596456697816000,-0.328364977779150
Logrunners and Parrotlet,HA8 0QP,51.608270549845000,-0.264415829954975
Warbler and Hawaiian honeycreeper,W3 6BA,51.507755825960700,-0.265110971401294
Fulmarine petrel and Darwin's finches,NW4 9HN,51.588021619100000,-0.221765634600000
Petrel and Puffleg,HA3 0QG,51.572824995897500,-0.296460165073147
Kite and Towhee,TW7 5EE,51.477476358793400,-0.333164688575730
Warbler and Zebra,NW10 4JP,51.538486155027300,-0.248398134330776
Parrotbill and Buzzard,NW6 6JY,51.535127961944500,-0.207058597413133
B and Grouse,W4 4EQ,51.489782184863100,-0.273787763114888
Bunting and Marsh harrier,W5 1LT,51.527832864932500,-0.317385791977190
Logrunners and Egret,HA3 6RP,51.613655981587400,-0.339576866409892
Grackle and Egret,W8 4DP,51.508783294090200,-0.194950609658370
Snipe and Armadillo,N12 9NU,51.618821877401200,-0.171635373914878
Petrel and Rabbit,UB2 4FS,51.508654000000000,-0.355429000000000
Bronzewing pigeon and Shearwater,SW6 2PS,51.470664799282200,-0.187413215528425
Pheasant and Recurvebill,N3 1NT,51.609261165969900,-0.188917103590648
Magpie and Masked owl,W4 2SW,51.484739470786500,-0.251466577659033
B and Duck,HA6 2RB,51.612691236725500,-0.433391000000000
Triller and Francolin,W10 5JF,51.522602855393500,-0.223566000000000
Old World quail and Duck,HA1 9PN,51.585229000000000,-0.329664000000000
Myna and White ibis,W3 9WQ,51.500495888578100,-0.276985008141239
Mouse and Polecat,SW14 7HL,51.467767947327000,-0.272932000000000
Jackal and Rat,TW3 1XN,51.464276451759700,-0.360653021576440
Polecat and Linsang,W4 3AE,51.488831650768000,-0.285001234581179
Pitohui and Egret,NW3 1PD,51.554199489823100,-0.170852384844135
Songlark and Triller,NW2 6RD,51.561246000000000,-0.232145000000000
Chickadee and New World blackbird,HA6 3RD,51.611693583539600,-0.408901731506396
Minke whale and Polecat,W3 6EW,51.510842526065300,-0.269995000000000
Hawk and Booted eagles,HA7 4WQ,51.604508123353600,-0.295623000000000
Jerboa and American sparrow,W12 8DB,51.502017548866200,-0.226556149435938
Goose and Philippine hawk-owl,W13 8PR,51.514808036731500,-0.316482195520603
Solitaire and Towhee,SW5 9QR,51.494187000000000,-0.199436621668461
Pheasant and Mole,NW7 3DR,51.614601568998000,-0.255349106080445
Old World quail and Eagle,N20 8DH,51.627262730797600,-0.187102248213400
Fish eagle and Tahr,TW8 0BP,51.484396573883000,-0.301557860473004
B and Black jay,W8 7AA,51.504240587916900,-0.197190624659799
Grosbeak and Macaw,W12 0TR,51.516589599571900,-0.233110000000000
Vulture and Ice seal,HA2 8SX,51.558067133767800,-0.367193513902457
Meadowlark and Duck,NW11 7JR,51.578780158581900,-0.189696137770502
Parakeet and Triller,W5 9TG,51.513326610090300,-0.307270046579881
White ibis and Linsang,NW10 8TU,51.536777164812600,-0.253193265248335
Wallaby and Mole,N20 9QL,51.633079827894200,-0.178908403869555
Nukupuʻu and Jackal,W5 5HB,51.504536756871900,-0.308215366216926
Linsang and Wader,N3 3SA,51.596057964814700,-0.201036200267082
Solitaire and Logrunners,NW7 2AJ,51.609696000000000,-0.244705000000000
Philippine hawk-owl and Marsh harrier,NW9 5AL,51.595451743287100,-0.260443218698356
Boto and Kite,NW10 7HR,51.532215349959700,-0.292714052345519
Black cockatoo and Crow,HA5 3WW,51.600385152847400,-0.397789047780902
Maya and Night heron,HA0 4EY,51.545024508736900,-0.289292612709213
Nukupuʻu and Linsang,NW10 5AZ,51.530909000000000,-0.231129000000000
Old World quail and Cloud rat,UB4 0PB,51.518838566520500,-0.394886781640607
Fish eagle and Solitaire,HA7 4NG,51.619123411785900,-0.304983176591789
Shearwater and Thicketbird,SW10 9UG,51.482660659967200,-0.186822398234227
Macaw and Dorcopsis,TW3 1SL,51.469600615050200,-0.351953000000000
Peafowl and Chickadee,NW10 4LT,51.536419098424300,-0.248477488290835
Boto and Herring gull,UB5 5QE,51.540292789416800,-0.380404113569621
Condor and Magpie,TW8 0GD,51.490106108048900,-0.302757330866678
Petrel and Pratincole,N3 2AE,51.600915863652700,-0.179588982378352
Booted eagles and Peafowl,HA7 4HR,51.611970636383300,-0.307199431665337
Mink and Stilt,W5 3SS,51.513405701903000,-0.302165338077163
Old World quail and Chicken,NW6 6DB,51.535062929900600,-0.217543621150873
Fulmarine petrel and Puffleg,W1H 4JD,51.519229750308300,-0.163490169653997
Elephant and Duck,N3 1UD,51.600085493412900,-0.201555695540878
Scimitar babbler and New World blackbird,UB3 4QZ,51.494159463028400,-0.413731881047006
Logrunners and Parrotlet,W2 1QT,51.518044372703800,-0.170499574286030
Kite and Songlark,HA3 8PE,51.593374445883100,-0.319065157502250
Wader and Philippine hawk-owl,W12 9JQ,51.501679988595600,-0.238167871337867
Flameback and Thrasher,NW7 2ZJ,51.615469131180800,-0.241174947996936
Condor and Guillemot,HA8 9BL,51.609079195356900,-0.268024414457458
Jackal and Kangaroo,TW3 9WR,51.470271000000000,-0.360964000000000
Night heron and Marsh harrier,HA2 9AE,51.564349224740400,-0.368238147515674
Stint and Vulture,SW6 4BD,51.475592033996500,-0.196117146525264
Vole and Peafowl,HA2 6EQ,51.589291763862200,-0.363591352946582
Jackal and Night heron,NW10 2AN,51.543664455322100,-0.231528075879925
Warbler and Badger,NW6 6JT,51.535565241648600,-0.206839549067065
Elephant and Peafowl,SW13 0PJ,51.469114072754500,-0.249889906377779
Puffleg and Macaw,UB2 5PE,51.497428144904400,-0.386375529277288
Marmoset and Grackle,W4 2TZ,51.482918721097100,-0.252385953144291
Scimitar babbler and Coati,TW8 9NS,51.491685334512400,-0.309368171749015
Eagle and Black jay,UB6 8PL,51.541306855308700,-0.348008472032430
Tahr and Fox,UB3 2SN,51.522674736606400,-0.432532444086507
Fish eagle and River dolphin,NW9 9JA,51.592967791666700,-0.267597831021310
Tit-tyrant and Recurvebill,HA1 3UD,51.568065569619600,-0.325020058304969
Prion and Stilt,HA5 4JQ,51.610585908631000,-0.371404584622884
Vulture and Snipe,SW6 4QB,51.477824865969700,-0.193955346364888
Bronzewing pigeon and Ibex,UB2 4QB,51.501963746741200,-0.372311556691597
Mouse and Scimitar babbler,NW6 5PB,51.537570802285400,-0.189875352934224
Solitaire and Partridge,W12 7FN,51.513166000000000,-0.228593000000000
Tit-tyrant and Chipmunk,N2 0FD,51.593756000000000,-0.182680000000000
Diving bird and Fox,W7 1EW,51.517093136643800,-0.331661238476897
Darwin's finches and Darwin's finches,HA2 9UA,51.572784334812500,-0.365684968963705
Piping shrike and Stint,W4 2UG,51.482198854549500,-0.251750977827861
Duck and New World blackbird,SW11 9JZ,51.464480000000000,-0.164296000000000
Rabbit and Crow,TW9 9GR,51.463975000000000,-0.304611000000000
Asiatic leopard and Asiatic leopard,N12 9HT,51.618014877754700,-0.172361176006092
Scimitar babbler and Francolin,W3 8LX,51.500011977653700,-0.280893240607928
Vulture and Peafowl,TW3 1YL,51.465022039809000,-0.360597510529874
Tahr and Thicketbird,NW3 1AZ,51.562732546502000,-0.177161124991355
Jay and Black cockatoo,NW9 7HF,51.581018594442600,-0.249519968875543
Linsang and Bronzewing pigeon,TW9 1AU,51.461805689205500,-0.300798744959252
Peafowl and Dorcopsis,SW5 0PB,51.492116073664500,-0.189429157147222
Thicketbird and Armadillo,SW18 1EB,51.463147000000000,-0.190259000000000
Argus and Mouse,HA1 3YY,51.585235265947700,-0.329686206463401
Quetzal and Songlark,UB1 1LE,51.510980165479700,-0.379901834249779
Ice seal and Flameback,W6 8DJ,51.492093885022600,-0.219104842871239
Old World quail and Darwin's finches,SW11 3RR,51.471360357805800,-0.177752884831475
Parakeet and Zebra,UB3 1NN,51.500163577828500,-0.432930245195782
Polecat and Treepie,HA2 8JB,51.562237210892900,-0.356079527851697
Linsang and Lemming,N12 7DQ,51.620791209973100,-0.186710108312526
Cloud rat and Shearwater,W6 9XY,51.492376768011800,-0.231856912862557
Lemming and Linsang,W3 8NH,51.504400116438000,-0.268048179733915
Kākāriki and Logrunners,NW4 3QQ,51.588020000873000,-0.221765627820132
Wader and American sparrow,NW8 8RE,51.526405606875800,-0.176161558136247
Kite and Argus,SW14 8QG,51.468001747077200,-0.256713721141626
Jay and Parrotbill,UB5 5SE,51.548947046266600,-0.380024704219399
Old World vulture and Lemming,SW6 7RW,51.479718077089600,-0.204220731669960
Tree warbler and Stilt,HA6 3HQ,51.620458526799800,-0.417378080396161
Lemming and Philippine hawk-owl,NW3 2PP,51.553381000000000,-0.167885000000000
River dolphin and Macaw,NW11 8QN,51.572052031570600,-0.202648000000000
Scimitar babbler and Chickadee,HA3 5HU,51.599786634612100,-0.345064247680422
Crow and Tit-tyrant,UB2 4PG,51.502968286216400,-0.362434828330137
Tahr and Piping shrike,SW6 7LP,51.483330286469500,-0.208154737612421
Old World warbler and Lemming,NW9 5UH,51.604161974189800,-0.245120985630152
Kestrel and Lemming,W5 4RZ,51.497909929455700,-0.303893753583338
Francolin and Bronzewing pigeon,HA7 1JN,51.596505785552200,-0.294274843454937
Tahr and Shearwater,HA3 0RN,51.576580078890300,-0.298066016986556
Chickadee and Rat,HA2 0JA,51.569303955695300,-0.343848237406271
Piping shrike and Crow,N12 2FH,51.616854000000000,-0.180703000000000
Herring gull and Pitohui,UB5 4DP,51.550604749386200,-0.367922247223889
Jay and Thicketbird,UB5 6XE,51.530176497506700,-0.383660938082164
Myna and Egret,HA4 9HQ,51.566828528088100,-0.392158529213628
Asiatic leopard and Kangaroo,UB3 3DG,51.505840112131400,-0.417706709898197
Goose and Prion,SW13 9BG,51.481291460727800,-0.237988781919642
Diving bird and Diving bird,SW6 7QY,51.481076777967400,-0.209568025176117
Skunk and Vole,W11 3LB,51.508484477808200,-0.198910877564700
Parrotlet and River dolphin,HA0 2BN,51.553837575574900,-0.299232317865020
Jerboa and Kite,HA7 4AG,51.617576000000000,-0.313381000000000
Minke whale and Dolphin,W3 7RJ,51.506297317912100,-0.254085362088290
Mink and River dolphin,NW9 5RU,51.605798000000000,-0.244971000000000
Dorcopsis and Mink,NW4 1PN,51.597782000000000,-0.220850000000000
Buzzard and Armadillo,HA0 2EL,51.552546598542100,-0.304473170156888
Flameback and Peafowl,HA0 1AR,51.545155474801500,-0.306377587269730
Warbler and Old World warbler,W11 3AG,51.509422606161100,-0.207318561069156
Towhee and Dolphin,HA3 5EA,51.599127000000000,-0.337768000000000
Jackal and Partridge,NW3 4HU,51.547077663571800,-0.169710179098203
Siskin and Guillemot,NW9 6PR,51.587565050388700,-0.248921916747341
Kangaroo and Greenbul,W13 9NT,51.509863734544400,-0.315958330340410
Black cockatoo and Boto,SW5 0ED,51.489451574422200,-0.188854000000000
Wader and Peafowl,SW10 0PU,51.479733561037500,-0.179564976829513
Rat and Tree warbler,SW14 7PD,51.463369317382000,-0.269371665186877
Diving bird and Dolphin,SW14 7LY,51.466518439970100,-0.268273522627992
Puffleg and Kite,W6 7AL,51.493450000000000,-0.223738717908580
Ice seal and Fish eagle,SW13 8HD,51.482708235536000,-0.231150723567034
Towhee and Snipe,HA7 1SG,51.604508123353600,-0.295623000000000
Grouse and Capuchin,NW9 6JH,51.590252303045100,-0.250031229953426
Recurvebill and Darwin's finches,SW6 1LX,51.480311169111200,-0.199502535268036
Wallaby and Wallaby,UB18 7NL,51.500717740213000,-0.402684069553087
Old World vulture and Perching duck,W14 9LJ,51.487366078961500,-0.206858631531674
Hawk and Scimitar babbler,HA2 2BB,51.585229000000000,-0.329664000000000
Kite and Diving bird,N12 8SZ,51.620990299909100,-0.181559364338148
Fulmarine petrel and Solitaire,TW8 0AS,51.484612939295900,-0.300354395786693
Armadillo and Stilt,NW9 8EG,51.570198053418500,-0.264466482831673
Treepie and Elephant,NW9 7PL,51.572557671360300,-0.254405080019838
Night heron and Stint,NW10 8SD,51.543890944722500,-0.264155218896937
Cloud rat and Old World quail,HA6 2JF,51.631038060809300,-0.429797177528447
Guillemot and Ibex,NW6 2QT,51.546723952764300,-0.199737676574203
Snipe and B,W12 2FN,51.513921437702200,-0.321631194869861
Logrunners and Coati,HA0 2RZ,51.559109715312900,-0.327570742247162
Fish eagle and Snipe,NW9 5WT,51.595444017500000,-0.242309636700000
Jerboa and Vole,NW9 7NB,51.572945600766100,-0.250263032969593
Fulmarine petrel and Chipmunk,HA9 1ZZ,51.566525923497700,-0.273999370530436
Tahr and Mole,NW10 1BS,51.555959506062000,-0.243067566399424
Wader and Scimitar babbler,SW10 9YF,51.484751444065900,-0.183628425743189
Stint and Diving bird,TW9 4AF,51.476665000000000,-0.276313000000000
Masked owl and Jay,W8 7BY,51.501639530794800,-0.198215401552400
Parakeet and Grackle,HA6 3EG,51.621818337779800,-0.418862044042397
Vole and Condor,HA4 8EX,51.574150704873000,-0.422161669296332
B and Stint,EN5 1BX,51.637934168851900,-0.167253911598219
Jerboa and Pheasant,TW9 4QU,51.466862200383600,-0.281246757592508
Lemming and Maya,UB3 1SG,51.506641924927500,-0.422491701528416
Badger and Chipmunk,SW3 1ET,51.499877950077100,-0.164066486983075
Jay and Cuscus,NW8 7DR,51.534945000000000,-0.165482000000000
Gull and Flameback,UB2 5LH,51.501205521123500,-0.396255547824968
Tree warbler and Francolin,W4 4JT,51.490475083415600,-0.268331050873722
Stint and Argus,SW3 6HL,51.491566778749900,-0.172568117831877
Rat and Dolphin,NW10 7HJ,51.531165776625600,-0.290417693461628
Tit-tyrant and Grosbeak,W8 4BA,51.504028000000000,-0.193208000000000
Marsh harrier and Kestrel,UB6 0BH,51.550903176485500,-0.348122438313544
Mouse and Dorcopsis,NW2 3PB,51.552510473385100,-0.208250384519400
Jay and Old World vulture,HA2 0AP,51.572936478321000,-0.352129236712477
Quetzal and Myna,TW9 2DA,51.468849437517600,-0.293554171349601
Kite and Old World quail,W2 1PB,51.519414268679500,-0.176469698912539
Ground sloth and Jay,HA9 6EY,51.546075529067400,-0.276717000000000
Old World quail and Piping shrike,W11 3PJ,51.508999752212100,-0.202017654822141
Fox and Rat,NW3 3ST,51.542193337403500,-0.170194585179743
Mink and Ground sloth,NW3 1HT,51.558254001498400,-0.176561182281427
Dorcopsis and Tit-tyrant,UB6 8BN,51.536204093164000,-0.342613092711740
Chipmunk and Crow,HA3 7BN,51.602375627263900,-0.338010092732653
Eagle and Nukupuʻu,W6 7RN,51.499862859459100,-0.223815888609429
Petrel and Moluccan boobook,NW2 1QP,51.567645015395800,-0.208275900345493
Recurvebill and Viscacha,HA7 3HJ,51.627526964578000,-0.327266562438066
Mole and Thrasher,SW11 3TX,51.467283263736200,-0.179844580932617
Masked owl and River dolphin,NW6 1QU,51.549765671456800,-0.192867416770133
Pitohui and Shearwater,W10 5HL,51.524056394647900,-0.225858616922108
Old World quail and Mockingbird,W8 4RN,51.505617233565300,-0.192568469822587
Jerboa and Old World warbler,SW3 6AF,51.485012200693300,-0.177251913865872
Fulmarine petrel and Wallaby,NW11 0JT,51.581681921778400,-0.207088759769283
Songlark and Maya,NW3 4UX,51.548432260819900,-0.164896189540972
Pitohui and Mink,NW1 5BR,51.520708000000000,-0.164180000000000
Philippine hawk-owl and Masked owl,HA6 3SJ,51.615050772270500,-0.420454937347776
Ibex and New World blackbird,HA3 6TX,51.612801619802500,-0.344663165993437
Shearwater and Jay,UB6 7NS,51.537378890822700,-0.324661616941464
Night heron and Coati,UB1 3LU,51.515790491966200,-0.355760000000000
Maya and Grouse,N20 9QG,51.637364000000000,-0.177913000000000
Thicketbird and Mink,HA8 6PT,51.610049633855500,-0.284509642672121
Mink and Minke whale,W8 7SY,51.508148862245200,-0.198722367974135
Cuscus and River dolphin,HA4 9DE,51.565040794636000,-0.404802781042318
Tree warbler and Civet,TW5 0QL,51.481335898939800,-0.363944238376592
Lemming and Quetzal,W5 1RS,51.524417115415100,-0.313720487411764
Old World warbler and Guillemot,W12 0JJ,51.507609276677900,-0.237189841960945
Thicketbird and Polecat,UB3 5AD,51.491457081160800,-0.434798889326884
Night heron and Piping shrike,SW6 3PL,51.468318174432000,-0.206151319382163
Tree warbler and Grackle,WD23 9EE,51.640496000000000,-0.357905000000000
Elephant and Pheasant,SW10 9RQ,51.488039134154400,-0.180945000000000
Macaw and Stint,UB4 9JG,51.531957728641700,-0.408713156663119
Vulture and Asiatic leopard,UB6 9NY,51.535507515243400,-0.357662686346420
Goose and Snipe,NW6 2DG,51.544746977953600,-0.200998300308881
Fish eagle and Duck,UB6 0RL,51.548905618085600,-0.317026742208830
Recurvebill and Vole,TW8 0BN,51.489444288122600,-0.298042910524974
Capuchin and Quetzal,W12 7ER,51.507606935780400,-0.229869606809668
Eagle and Kestrel,TW3 3SU,51.461451245720400,-0.373450921696508
Nukupuʻu and Fish eagle,SW3 5UY,51.484979263125700,-0.175712100746501
Old World quail and Siskin,TW8 0AB,51.483556583751200,-0.305031238318737
Hawk and Fish eagle,HA4 7PL,51.578421011018900,-0.439577730955154
Night heron and Siskin,UB3 9XE,51.503711000000000,-0.414331000000000
River dolphin and Triller,WD23 4LF,51.637909033872900,-0.347954444989704
Minke whale and Linsang,HA0 2ED,51.552424185053000,-0.302847794329223
Ice seal and Tahr,HA0 1BW,51.538192931545600,-0.306203460502117
Rat and Mamo,UB1 1QB,51.511531501631600,-0.378355000000000
Duck and Black cockatoo,HA4 0BS,51.565492646627900,-0.410933339671397
Herring gull and Kite,N20 0NE,51.625991693433800,-0.171823919102568
Condor and Rat,W5 2NA,51.516125004466500,-0.296832430665989
Civet and Mamo,NW3 4TZ,51.554291356224900,-0.173863515328332
Cuscus and Pheasant,SW6 5TD,51.478891642253600,-0.201344172337430
Thicketbird and Thrasher,N2 0BH,51.575171480276000,-0.169808522434895
Eagle and Black cockatoo,N2 0SN,51.593044085804600,-0.175890163550873
Old World quail and Mole,W6 9DG,51.490216971181900,-0.230557629648491
Bunting and Warbler,NW9 9BB,51.590170072014500,-0.269349984446379
Songlark and Chicken,UB3 3DN,51.506003306032200,-0.417139095253378
Night heron and Minke whale,HA5 9PF,51.595050000000000,-0.385171000000000
Cloud rat and Bunting,W4 5RH,51.493193893627700,-0.270979475133775
Skunk and Booted eagles,TW9 4JH,51.470563088258300,-0.282201955580179
Night heron and Hawaiian honeycreeper,W13 0HG,51.521654551062700,-0.323624309010768
Petrel and Minke whale,W10 5AB,51.527320000000000,-0.215717693277849
Tahr and Rabbit,HA0 2NJ,51.558309957084400,-0.320055299571571
Peafowl and Grackle,N12 9AN,51.616876089938500,-0.163350028443934
Pratincole and Bronzewing pigeon,NW2 3JG,51.555112556977500,-0.213773941290444
Nukupuʻu and Gull,SW13 0NF,51.467628084232900,-0.248535812869840
Tahr and Flameback,W4 4JN,51.491179334149300,-0.265481016285512
Nukupuʻu and Black cockatoo,SW3 5DE,51.483833575227200,-0.171296000000000
Hawaiian honeycreeper and Argus,N3 2AG,51.600600942007700,-0.178417527301469
Egret and Black jay,SW6 1TS,51.486874569460400,-0.197674011133832
Prion and Wader,W4 1BW,51.496907248569600,-0.261820397714878
Pratincole and Tit-tyrant,W7 2DZ,51.504314650842400,-0.329736087373667
River dolphin and Dorcopsis,W5 3JR,51.505324549277700,-0.295549275382882
Greenbul and Viscacha,W2 4HG,51.511057322309300,-0.195466001203440
Jerboa and Petrel,N3 1AR,51.610395120677200,-0.194230218078908
Black jay and Bronzewing pigeon,HA8 7QP,51.612863826613500,-0.283869144416195
Egret and Black jay,HA8 8DQ,51.626244000000000,-0.294975776450913
Flameback and Black jay,NW6 1PR,51.549974882390900,-0.197114073389058
Viscacha and Warbler,W5 1NY,51.527990173574500,-0.307692176776769
Greenbul and Capuchin,W1H 1NP,51.520054507063500,-0.163327264194498
Grackle and Kestrel,TW8 9RE,51.486563959384900,-0.314037028029782
Condor and Zebra,W14 8DA,51.504328901368600,-0.212359927118278
Bronzewing pigeon and Pratincole,W12 8DL,51.502830862881600,-0.225631242686441
Kangaroo and Solitaire,W2 1HT,51.514682518897300,-0.175203016292388
Peafowl and Rabbit,HA0 9LJ,51.551409000000000,-0.306454000000000
Kangaroo and Mockingbird,SW6 7UA,51.480800994754700,-0.202709223301059
Capuchin and Fulmarine petrel,NW9 0RE,51.591723647103800,-0.272871228391262
Grackle and Viscacha,NW11 6BL,51.589080057929700,-0.191683091993872
Solitaire and Fish eagle,NW3 1EG,51.560455157901100,-0.174698629496016
Myna and Moluccan boobook,HA3 6PD,51.605877314437000,-0.359370443530037
Masked owl and Hawk,WD19 7AN,51.629786386005600,-0.388635000000000
Prion and Pratincole,HA7 3RS,51.613904291642000,-0.322885470318301
Piping shrike and Condor,HA4 4GU,51.574550451576200,-0.412092000000000
Chickadee and Chickadee,SW6 2GN,51.467447000000000,-0.187411000000000
Rat and Kākāriki,SW3 5QE,51.485390970907600,-0.166362401392027
Linsang and Stint,SW7 4XD,51.495380000000000,-0.186995000000000
Rabbit and Tree warbler,TW8 8QT,51.481764897351300,-0.305500915411819
Stilt and Tree warbler,W1H 4QA,51.519580010461300,-0.163461665655819
Peafowl and Thrasher,HA1 4TS,51.588848177828800,-0.347973550025438
Mamo and Chipmunk,HA5 1TJ,51.579705883067100,-0.394172092288314
Recurvebill and Greenbul,SW3 3QY,51.491182823323100,-0.167556119483352
Siskin and Old World quail,NW8 6LJ,51.536668661652600,-0.168253253022936
Marsh harrier and Crow,SW10 9TU,51.484211111218800,-0.183577882144145
Kangaroo and Solitaire,NW11 6QP,51.587251218102300,-0.194382944295852
Moluccan boobook and Treepie,WD6 3HN,51.642792091440100,-0.301340216444855
Mouse and Vole,HA3 6ER,51.603455546685500,-0.336801002827809
Vulture and Shearwater,W6 0BU,51.494119277796000,-0.228189000000000
Warbler and Grouse,NW10 2HT,51.546112775574700,-0.237778000000000
Crow and Marsh harrier,W13 9RB,51.503154252694800,-0.315874279653222
American sparrow and Coati,SW5 9QT,51.493236000000000,-0.200146000000000
Chicken and Flameback,SW6 1BF,51.479470000000000,-0.195590000000000
Macaw and Mamo,W14 8QZ,51.496752411188900,-0.204977589832980
Kestrel and Pratincole,NW9 6DU,51.590856759461700,-0.245345041815703
Petrel and Grouse,UB1 1DD,51.508470922426100,-0.390322885885700
Boto and Tattler,UB3 5ER,51.489719875636300,-0.434671124855872
Shearwater and Condor,TW8 0GQ,51.490246314257400,-0.300519501955956
Rabbit and Condor,NW4 3NE,51.580651000000000,-0.225589000000000
Black jay and Armadillo,WD19 7DT,51.628099326133600,-0.386150202153782
Kite and Bronzewing pigeon,UB4 9BZ,51.527389351618500,-0.391544319569544
Peafowl and Myna,HA0 3ER,51.557025260807800,-0.317001137760735
B and Partridge,NW4 4BB,51.588498464238300,-0.226048784776913
Gull and Fox,W12 8BJ,51.502032857663500,-0.233529189918932
Cuscus and Condor,SW6 2YB,51.477505000000000,-0.189393000000000
Armadillo and Ground sloth,W3 8PA,51.505541934735600,-0.268033705454189
Recurvebill and Crow,SW6 4AD,51.474101625700700,-0.198609470185087
Zebra and Mole,NW2 3UE,51.548009311298700,-0.205571488607359
Parakeet and Black jay,W4 3RZ,51.482762983758200,-0.272828632074266
Grackle and Flameback,HA1 9PU,51.585229000000000,-0.329664000000000
Towhee and Buzzard,UB3 2QL,51.519359637024800,-0.438152198708950
Philippine hawk-owl and Dorcopsis,SW6 2JT,51.479924053784700,-0.190128051125735
Rat and Philippine hawk-owl,HA3 8QU,51.597225910644400,-0.317378066377466
Moluccan boobook and Linsang,HA5 2JL,51.589484628786500,-0.410341780547730
Skunk and Civet,NW9 6JP,51.584949998579500,-0.244822003773994
Hawaiian honeycreeper and Songlark,NW10 5DT,51.530094567281500,-0.219611916528934
Old World quail and Parakeet,N12 9EJ,51.622001000000000,-0.175730000000000
Dorcopsis and Jackal,NW10 8HB,51.548590963623200,-0.260918666183300
Guillemot and Ibex,W2 2SY,51.514629136386900,-0.171774995291222
Crow and Scimitar babbler,SW7 5JW,51.496246547409000,-0.179742733345026
Myna and Tit-tyrant,W5 2UZ,51.516237066440300,-0.304567870485306
Tree warbler and Rabbit,W13 8RD,51.511593000000000,-0.316702000000000
Cloud rat and Darwin's finches,W3 8SP,51.502389741436100,-0.275026010669627
Gull and Myna,W5 5ST,51.511968930315700,-0.311024083858699
Triller and Tit-tyrant,HA0 1LS,51.537230294954200,-0.291906375859737
Piping shrike and Polecat,NW9 5FW,51.596375294399200,-0.242158107662698
Stilt and Greenbul,W3 6NH,51.505938000000000,-0.269739000000000
Grackle and Kestrel,NW3 5PF,51.552365280194800,-0.170291290441078
Peafowl and Marsh harrier,W2 6AZ,51.518017779726900,-0.183833106075583
Old World warbler and Tree warbler,W10 5DX,51.524918273666400,-0.207430829250723
Kangaroo and Cuscus,NW2 9PD,51.562193726200000,-0.213498000000000
Meadowlark and Prion,SW6 2EE,51.478469965858800,-0.187391821856119
Mouse and Coati,NW2 6GJ,51.565868645486400,-0.224520128330521
Francolin and Chicken,HA5 2RD,51.592330834929400,-0.408697711346245
Prion and Asiatic leopard,W5 4JP,51.499018690867500,-0.304702622552997
Gull and Quetzal,UB2 4WL,51.505556000000000,-0.375073000000000
Wader and Grouse,UB6 0PA,51.550768633299300,-0.336054802629590
Marmoset and Parrotbill,NW4 1AA,51.592276531632500,-0.221974767100213
Philippine hawk-owl and Piping shrike,W14 8RY,51.495468784827600,-0.208067746670152
Viscacha and Cuscus,N20 9BP,51.632765000000000,-0.177436000000000
Black cockatoo and Fox,W14 9HE,51.489394736593200,-0.206620591937896
Badger and Grouse,W2 7XA,51.500496000000000,-0.276962000000000
Philippine hawk-owl and Jerboa,W10 6LS,51.518450827560000,-0.219705668362622
Maya and White ibis,EN4 8RZ,51.642400460854400,-0.165917590570825
Pheasant and Chipmunk,UB3 2HF,51.513917223707400,-0.413867160101431
Dorcopsis and Pratincole,HA3 0PJ,51.575439523481900,-0.298786896998314
Mink and Lemming,SW7 1PL,51.499590964914300,-0.168717292278861
Egret and Polecat,W7 3AJ,51.521243713044100,-0.343444541900272
Meadowlark and Triller,HA4 9AT,51.568604920390400,-0.405702507030800
Lemming and Night heron,NW9 0SE,51.586231895723500,-0.254209000000000
Tree warbler and Triller,NW10 6EA,51.523806865018800,-0.253574320221771
Civet and Wader,SW15 5RR,51.463281000000000,-0.253007000000000
Guillemot and Stint,TW7 4RN,51.475367246936900,-0.340427041215766
Solitaire and Coati,TW8 9AA,51.491292073741100,-0.305795920131954
Tree warbler and Maya,SW7 5AT,51.492620344178100,-0.179599068431266
Black cockatoo and Buzzard,HA2 6JR,51.596093655757600,-0.356142403814987
Black jay and Kākāriki,NW2 6QG,51.559737137557400,-0.218670912556754
Parrotbill and Petrel,HA2 8XB,51.568267483344500,-0.353264800096444
Treepie and Greenbul,W5 2EH,51.513973997761800,-0.293612311011054
Coati and Rat,W2 6BN,51.517047724085900,-0.185067985048516
Ice seal and Rabbit,UB4 8RY,51.533070006375200,-0.419819358321480
Maya and Eagle,NW9 5PN,51.599978000000000,-0.242432939623961
Mamo and Tit-tyrant,HA7 4RG,51.618256536485500,-0.300378626105451
White ibis and Nukupuʻu,W9 3RH,51.523169270129500,-0.197163914379472
Chickadee and River dolphin,SW11 3AT,51.477050044111900,-0.168352982846468
Partridge and Towhee,W2 4AG,51.510964637008800,-0.188869323661522
Zebra and Warbler,W3 7HN,51.507827841842800,-0.245769853070616
Siskin and Moluccan boobook,NW6 4LE,51.542901440079200,-0.194422863805720
Egret and Tree warbler,NW2 9NS,51.562193726200000,-0.213498000000000
Dolphin and Bronzewing pigeon,HA5 1HH,51.588197209994000,-0.382584298334426
Ibex and Marsh harrier,NW10 1LS,51.553333582228800,-0.241856112084794
Jackal and Parrotlet,HA1 3BN,51.578261792588500,-0.334430313165104
Moluccan boobook and Triller,HA2 0AH,51.571711486490600,-0.353905152080664
Rat and Old World quail,W13 8DR,51.524669547931300,-0.319405220397765
Viscacha and Greenbul,SW14 7LS,51.467509753450800,-0.269027848548710
Badger and Philippine hawk-owl,W11 2BD,51.515712357411400,-0.203468454850330
Warbler and Mamo,NW10 5HH,51.535664450774400,-0.222220709630075
Boto and Tit-tyrant,W10 5ST,51.521002721440000,-0.210712498641167
Quetzal and Rat,SW14 8AW,51.465260667357000,-0.262274530616753
Pitohui and Hawaiian honeycreeper,TW7 5BE,51.474561289714400,-0.333688527558759
Argus and Quetzal,UB11 1FE,51.508118233314400,-0.445511001062234
Shearwater and Quetzal,NW10 0EF,51.563508066328200,-0.257810332555406
Eagle and Skunk,UB10 0NL,51.527389925174700,-0.441553525001528
Moluccan boobook and Rat,HA1 1RQ,51.586573000897700,-0.342859515692410
White ibis and Old World warbler,HA5 4SS,51.603569999362100,-0.376449766238882
Chickadee and Warbler,SW15 1DZ,51.467720922219900,-0.226000160228311
New World blackbird and Logrunners,HA9 8RF,51.572192540808700,-0.306815973494896
Vulture and Guillemot,UB3 4NJ,51.500789849028900,-0.423298883925236
American sparrow and Crow,TW7 5HD,51.479731708160000,-0.329251768141434
Shearwater and Chicken,HA3 9EH,51.589636434347700,-0.301143803019210
Crow and Badger,HA4 0JP,51.555505738064900,-0.385489572869985
Wallaby and Boto,W5 3SL,51.511444416890900,-0.298376054903532
Dorcopsis and Parakeet,TW7 5JR,51.481978863653600,-0.326663727369524
Moluccan boobook and Armadillo,W13 0TU,51.511315179419200,-0.322490689412526
Stilt and Quetzal,HA9 9RB,51.573163653600300,-0.283907204169336
Flameback and Rabbit,W11 1QB,51.515423719243800,-0.210469924477157
Minke whale and Snipe,HA0 4YF,51.551119609258000,-0.297833615722120
Black jay and Mouse,NW10 9AN,51.537631832917800,-0.253823842711425
Guillemot and Maya,HA8 5PT,51.595770226087900,-0.281452671340520
Maya and Partridge,NW3 9XL,51.554295000000000,-0.173838000000000
Night heron and Logrunners,N3 3NJ,51.593318343892300,-0.195961459510627
Magpie and Kestrel,W10 6SX,51.514737479140500,-0.217371521832880
Petrel and Petrel,NW10 5HD,51.535590066557900,-0.226217656040810
Macaw and Chicken,NW4 4XL,51.588618043067200,-0.234575642489895
Dolphin and Chicken,NW11 7HD,51.579089000000000,-0.198603000000000
Badger and Minke whale,TW7 6XG,51.466843910888000,-0.337352977358455
Herring gull and Black jay,W6 9BB,51.491763205928900,-0.241287172184237
Pheasant and Piping shrike,NW2 3LX,51.555254543951300,-0.211878679275559
Marmoset and Stilt,UB2 4LD,51.492734133120800,-0.368174694165403
Black jay and Vulture,W3 7DD,51.514648430726700,-0.249672991438559
Flameback and Cuscus,SW10 0XH,51.484751444065900,-0.183628425743189
Maya and Armadillo,W9 3BA,51.526380658352700,-0.203682883059193
Coati and Tit-tyrant,UB3 4EB,51.495909142894600,-0.427472180305509
B and Quetzal,TW9 3JY,51.477048846898000,-0.290353723252171
Jerboa and Masked owl,NW8 8QB,51.524380322809600,-0.170260052369924
Grouse and B,TW7 7AT,51.467039258775700,-0.326432850184825
Fish eagle and Thrasher,UB5 4NJ,51.550005350485500,-0.359116655423288
Civet and B,SW13 9EN,51.483628053195600,-0.236098405974386
Fulmarine petrel and Booted eagles,NW1 6NU,51.523923379805600,-0.164036517837413
American sparrow and Myna,HA4 0NL,51.562344886253200,-0.391754010469023
Jay and Vole,UB1 1LZ,51.512286974586100,-0.385503000000000
Capuchin and Scimitar babbler,WD19 7QP,51.629843583551700,-0.402574089168500
Hawaiian honeycreeper and Mouse,UB6 0JG,51.554433524922800,-0.335776825676869
Old World warbler and Tree warbler,UB10 8QS,51.557072570742200,-0.445588112207491
Thrasher and B,W5 1XX,51.509854000000000,-0.307593000000000
Zebra and Fulmarine petrel,HA6 2XW,51.611240637723600,-0.423316835828718
Ground sloth and Chickadee,HA4 9PE,51.570688743240600,-0.391690460630651
Badger and Perching duck,WD6 3HR,51.642242400821600,-0.301881053458824
Chipmunk and Wallaby,TW9 2LN,51.466610665329800,-0.292341954784447
Myna and Badger,N20 9BU,51.636144184450400,-0.174724949349822
Ground sloth and Capuchin,NW10 7AW,51.534089820715900,-0.268449888507527
Meadowlark and Crow,HA4 7EJ,51.570061970207500,-0.427050539093556
Fulmarine petrel and White ibis,HA5 2AU,51.594839881215700,-0.399456711593510
Cuscus and Skunk,UB5 6EG,51.532387131269500,-0.385514611180512
Polecat and River dolphin,NW6 2AF,51.546918395600000,-0.192980303000000
Pitohui and Magpie,W6 8FX,51.492364569747800,-0.238815133557647
Myna and Songlark,SW15 6NF,51.462566305848400,-0.225278712731469
Guillemot and Ice seal,NW9 6DB,51.591560633962500,-0.254557361395287
New World blackbird and Kangaroo,HA6 2NG,51.612427422789400,-0.429341758598598
Pitohui and Pheasant,NW10 4EH,51.540593247800500,-0.248705000000000
Vole and Macaw,W3 6NA,51.506581433400400,-0.268397761895469
Wallaby and Viscacha,W7 3JS,51.509565881220700,-0.336677273995110
Logrunners and Logrunners,W11 3EP,51.512943985991000,-0.197106455997757
Fox and Darwin's finches,UB10 0QU,51.531847834567000,-0.442064504014005
Wader and Ground sloth,WD19 5AH,51.629205359673200,-0.384076000000000
Snipe and Petrel,W12 0BJ,51.515511609865000,-0.246656503896059
Prion and Coati,NW9 4EG,51.593083000000000,-0.244166000000000
Mamo and Chipmunk,N20 8PH,51.624770706869400,-0.194613036075321
Kākāriki and Partridge,W4 3XH,51.487914799856200,-0.273382962962351
Snipe and Stilt,SW6 6LD,51.478858474006000,-0.219202794615357
Argus and Jay,TW10 7YX,51.463747000000000,-0.304974000000000
Mole and Nukupuʻu,NW6 3NN,51.546012713419700,-0.189165361847622
Elephant and Parakeet,W12 9PY,51.504912255627200,-0.236040322393303
Gull and Vulture,UB2 5BJ,51.502625095791600,-0.388295584736922
Guillemot and Flameback,EN4 8DR,51.638519360825800,-0.166146441512232
Jerboa and Prion,NW11 9LS,51.579669000000000,-0.207096000000000
Goose and Skunk,TW4 5HG,51.463185752053300,-0.378571761237167
Guillemot and Pratincole,UB6 9FL,51.532258000000000,-0.370792000000000
Grackle and Hawk,W1H 1NH,51.519646040238900,-0.163084244979485
Argus and Mouse,HA4 0GD,51.558574000000000,-0.398560000000000
Black cockatoo and Songlark,UB2 5DT,51.501928000000000,-0.396403000000000
Polecat and Minke whale,W9 1RP,51.530097804202400,-0.182876634566998
Treepie and Buzzard,UB10 8TW,51.565825675907200,-0.438421842591333
Asiatic leopard and Chicken,W6 0PW,51.497225892874300,-0.228427735679031
Magpie and Condor,W6 8DY,51.483939097673000,-0.218011097608063
Duck and Cuscus,W11 2RN,51.514945738882500,-0.197459794349404
Jay and Peafowl,NW26 9NT,51.534061000000000,-0.248126000000000
Badger and Dolphin,UB5 5PL,51.536556257562600,-0.389202550919321
Buzzard and Pitohui,HA1 3HF,51.574520000000000,-0.335548000000000
Viscacha and Fulmarine petrel,UB5 5ND,51.541877947582500,-0.381890851200820
Zebra and Chicken,WD23 4HP,51.641181304626700,-0.352373521999813
American sparrow and Fox,HA4 9TX,51.571696526078300,-0.401611653406811
Thrasher and Tahr,HA1 3UQ,51.566870982767500,-0.324486811554537
Marmoset and Grouse,HA7 4QS,51.619039107506600,-0.291104415759538
Kestrel and Logrunners,UB3 4PA,51.499228945688400,-0.420903534027977
Mole and Skunk,W7 3PQ,51.506550710803200,-0.334582404354558
Logrunners and Grackle,W2 4SN,51.512728655427900,-0.189548774228584
Grackle and New World blackbird,NW2 1AY,51.571911038306300,-0.215135000000000
Masked owl and Shearwater,W4 5AR,51.501068094489500,-0.266503175669114
Skunk and Stilt,NW10 3LH,51.539364697527100,-0.225479677005500
Polecat and Masked owl,W4 2JN,51.488765251885400,-0.254899193832938
Magpie and Peafowl,NW3 4ND,51.546982200055900,-0.164175711516124
Scimitar babbler and Philippine hawk-owl,SW7 9BB,51.497992548614100,-0.174529886594787
Bunting and Dolphin,UB5 5UB,51.539364458567200,-0.380249609133136
Polecat and Parrotlet,HA6 1EQ,51.608794148257400,-0.419256791517408
Guillemot and Pitohui,NW10 8DZ,51.543101904472700,-0.260666457849812
Crow and Linsang,NW8 6LA,51.535459421920200,-0.166254300364330
Kangaroo and Mouse,TW4 6HS,51.468640839408900,-0.401256095704930
Grosbeak and Cuscus,W14 8ES,51.500466094215800,-0.205552074109101
Herring gull and Pitohui,SW18 1TE,51.462839909071600,-0.183836334495935
Logrunners and Lemming,HA8 0PR,51.609959088294800,-0.255787059857799
Eagle and Meadowlark,UB10 9AZ,51.545438013347800,-0.443648284878317
Minke whale and Wader,W4 3SG,51.481613890560800,-0.269300391123073
Hawaiian honeycreeper and Marsh harrier,TW9 1YA,51.463986698384500,-0.288149824750875
Booted eagles and Tit-tyrant,HA3 0BU,51.580819000000000,-0.313879141047103
River dolphin and Logrunners,UB4 8RD,51.528334000000000,-0.417936000000000
Chipmunk and Tattler,HA8 5NH,51.594703459830100,-0.276771848320177
Rabbit and Vulture,SW6 1BY,51.480600948258700,-0.194954608103916
Grackle and Chipmunk,TW3 2QR,51.462738603027000,-0.354863457568066
Myna and Kite,NW9 7NU,51.572756117024400,-0.258683382358402
Vole and Chickadee,EN5 2NZ,51.642862147713300,-0.206280753584297
Buzzard and Siskin,W10 5JU,51.526670126180600,-0.213806047193036
Meadowlark and Nukupuʻu,SW3 5QD,51.485754047194200,-0.166578289437489
Nukupuʻu and Gull,UB2 4JU,51.495635111533900,-0.373747098982931
Towhee and Mink,NW11 7JD,51.570081000000000,-0.182996654371823
Pitohui and Marmoset,W4 9HD,51.491534000000000,-0.262564000000000
Fox and Macaw,NW9 7FJ,51.575810000000000,-0.238236000000000
Partridge and Gull,W11 2QB,51.512498000000000,-0.201952000000000
Argus and Triller,W2 5RD,51.516359955621500,-0.190024547421890
Mouse and Kestrel,NW8 9TY,51.535322138227100,-0.175906099868557
Snipe and Kestrel,UB5 4EA,51.552549980074900,-0.363611953894991
Kangaroo and Greenbul,N20 8DD,51.627517783603100,-0.188479103803953
Fulmarine petrel and Wader,N12 9DJ,51.615275261229800,-0.170824581197159
Jerboa and River dolphin,HA8 7HF,51.611575956067600,-0.279929000000000
Zebra and Viscacha,HA6 3BE,51.614713185179500,-0.424106465692191
Songlark and Shearwater,W14 9TN,51.484954587989500,-0.208968000000000
Magpie and Jay,W8 7JJ,51.506749368086600,-0.203042883432385
Bronzewing pigeon and Solitaire,W11 3NT,51.508612935303300,-0.204943795676905
Marmoset and Mockingbird,W3 6GR,51.513386000000000,-0.265056000000000
Wallaby and Tattler,NW11 1LG,51.580293550300000,-0.199118647300000
Minke whale and Grosbeak,NW4 4ER,51.588341074189600,-0.222778022639780
Chickadee and Eagle,W2 3PD,51.512591909964000,-0.176079206500326
Condor and Condor,N20 8LN,51.631996767920300,-0.208457803536023
Old World vulture and Parakeet,HA4 8FW,51.583273000000000,-0.407744000000000
Meadowlark and Mockingbird,W12 0LX,51.509271000000000,-0.241222705000179
Wallaby and Kite,TW3 4LU,51.474108181509000,-0.379638866180612
Rabbit and Fulmarine petrel,HA0 4AE,51.550318265293400,-0.297936000000000
Piping shrike and Grouse,SW6 4ER,51.472916838775800,-0.204617411953367
Darwin's finches and Rabbit,UB6 9SG,51.533012608461100,-0.359943997114355
Zebra and Black cockatoo,W11 3PD,51.509620235931800,-0.199673091313631
Shearwater and Old World quail,TW9 1AS,51.461264141447800,-0.300660508832439
B and Badger,W3 6QQ,51.515404847414900,-0.261231657439263
Macaw and Kākāriki,TW7 6GS,51.475646201458200,-0.324505166935244
Jerboa and Kangaroo,W2 3SN,51.511254570118300,-0.184937945201631
Coati and Pitohui,SW6 3AL,51.470943813381600,-0.192672046406037
Jay and Ground sloth,W8 5EA,51.502169386409800,-0.188829014938948
Skunk and New World blackbird,N12 0QE,51.609139104150800,-0.164846585142020
Herring gull and Old World warbler,N2 0RE,51.583005024247200,-0.173925039608097
Gull and Snipe,TW3 1AH,51.471464978418500,-0.352965000000000
Masked owl and Puffleg,UB3 4LF,51.493823380620300,-0.419476911068367
Zebra and Shearwater,N3 2QR,51.597058000000000,-0.185880000000000
Goose and Guillemot,NW3 6AE,51.553211663973800,-0.177873522669411
Snipe and Old World vulture,TW4 7BX,51.468522711502900,-0.379548785006571
Grouse and Black jay,SW6 4UR,51.475020664760100,-0.200074000000000
Linsang and Partridge,UB4 9SX,51.523391467293000,-0.381349756817480
Mouse and Kangaroo,TW8 9LE,51.492988365942700,-0.318064009348059
Argus and Shearwater,W12 8NZ,51.503208143609500,-0.230962219806462
Boto and Thrasher,HA8 5SF,51.599462090064800,-0.278728712230663
Francolin and Macaw,NW1 5RA,51.518229217616800,-0.166787882545279
River dolphin and Warbler,UB3 1PH,51.498986515636700,-0.442450442780109
Hawaiian honeycreeper and Shearwater,W5 1NX,51.527824814772000,-0.308073132904256
Tree warbler and Greenbul,TW7 4DA,51.474745894911300,-0.339729613020180
Wallaby and Lemming,UB5 4HP,51.551694000000000,-0.375066000000000
Dorcopsis and Cloud rat,TW7 5TQ,51.478262852927900,-0.326511708940804
Scimitar babbler and Tree warbler,NW2 3RU,51.553652570630800,-0.206488968848513
Prion and Viscacha,NW10 5NF,51.532428490911700,-0.237933000000000
Philippine hawk-owl and Perching duck,W12 8HD,51.502077079881400,-0.229305834023680
Fish eagle and Viscacha,UB4 8JB,51.524987814568200,-0.431873000000000
Jackal and Black cockatoo,W13 0WD,51.513919646648800,-0.321631184961259
Chipmunk and Asiatic leopard,HA9 6LW,51.552217102678900,-0.283051228843373
Boto and River dolphin,NW2 6GY,51.567837365000000,-0.229132977400000
White ibis and Darwin's finches,NW2 5JY,51.543795315816600,-0.222336483438671
Mamo and Dorcopsis,NW3 4NX,51.546154054211300,-0.171030835345720
Herring gull and Wader,W4 2SX,51.475470000000000,-0.256343000000000
Siskin and Kangaroo,NW9 5JA,51.595918654654600,-0.245049000000000
Argus and Moluccan boobook,NW6 5QT,51.533783223712200,-0.196182276929160
Pratincole and Meadowlark,NW4 1DP,51.589418714656300,-0.220902595763689
Fox and Grouse,W12 9NW,51.501454889642800,-0.236951860358709
Magpie and Stilt,HA4 8JY,51.572698730334100,-0.422514979815137
Ice seal and Buzzard,UB5 5PZ,51.540288095740500,-0.378111472948631
Thicketbird and Flameback,UB1 2AU,51.515344563421900,-0.381433235468908
Eagle and Cloud rat,HA5 9QA,51.595050000000000,-0.385171000000000
Pheasant and Maya,NW7 1FW,51.611872000000000,-0.207564000000000
Tattler and Cuscus,W5 3AL,51.518566378327500,-0.289722012498129
B and Rat,HA3 0BY,51.577967932025200,-0.311221000000000
Eagle and Logrunners,HA9 8QN,51.568481821636400,-0.299566072672104
Myna and Hawaiian honeycreeper,NW2 7RJ,51.561468888077700,-0.241672215573711
Tattler and Black cockatoo,W2 6EZ,51.519231576196300,-0.180453000000000
Mouse and Elephant,W3 8HN,51.503069718254100,-0.280302692947273
Thrasher and Tahr,HA8 9UB,51.621177770280000,-0.265252443664390
Piping shrike and Towhee,HA8 0TN,51.605346540275600,-0.263704195903455
Dolphin and Mole,SW6 3EH,51.465155939390200,-0.196975022799297
Guillemot and Flameback,UB3 1DR,51.503693000000000,-0.425671000000000
Bunting and Chipmunk,NW4 1TD,51.591287000000000,-0.217056813051391
Francolin and Asiatic leopard,UB1 3JL,51.516292729031100,-0.361639951267683
Shearwater and Kite,NW4 3ES,51.579863151019400,-0.235838000000000
Greenbul and White ibis,W13 9EJ,51.505024891698800,-0.322793741899488
Diving bird and Francolin,N12 8JH,51.616661381839400,-0.177846768731141
Kangaroo and Rat,HA4 8ST,51.580691768815400,-0.403821838840790
Bunting and Pratincole,W5 3HN,51.511557479739600,-0.290690655376502
Diving bird and Booted eagles,HA8 5EN,51.601796707496400,-0.269326742605733
Kangaroo and Moluccan boobook,UB5 6LH,51.532425747984900,-0.398171955322713
Minke whale and Tahr,W14 9RL,51.486134000000000,-0.210359561070129
Skunk and Cloud rat,W3 0DU,51.520008185918200,-0.280702545444810
Maya and Fish eagle,SW6 6EG,51.472641000000000,-0.214751000000000
Ice seal and Grackle,NW10 5QU,51.532260252022500,-0.218921872049884
Logrunners and Boto,UB1 1JD,51.509500660052300,-0.384118931040219
Partridge and Fox,UB5 6RA,51.542268251025500,-0.402842000000000
Mink and Petrel,NW4 2DT,51.586720230529800,-0.220257381044655
Pitohui and Philippine hawk-owl,TW7 4PF,51.479697905030200,-0.343985341952987
Coati and Pheasant,SW11 2WP,51.464565114601500,-0.164321000000000
Scimitar babbler and Civet,HA4 0ED,51.561695900276900,-0.404155198395563
Old World warbler and Mink,UB2 4LF,51.495623656527700,-0.365161482413068
Perching duck and Polecat,N12 8AB,51.614034355529000,-0.184148405313017
Philippine hawk-owl and Treepie,HA5 5SF,51.595356858413300,-0.365842225329995
Old World quail and Argus,W2 7BP,51.500495888578100,-0.276985008141239
Cloud rat and Greenbul,HA6 1JQ,51.598042601499600,-0.413479340584907
Moluccan boobook and Myna,N3 1YL,51.607726804510700,-0.187967234773118
Nukupuʻu and Magpie,W2 6PN,51.521775289066300,-0.186653037103885
Parakeet and Chicken,UB8 3HE,51.522275053950100,-0.447104693278926
Guillemot and Argus,TW7 7AX,51.466540056060500,-0.326611000000000
Armadillo and Maya,NW10 1NP,51.553276804274100,-0.232092901520953
Towhee and Wader,N12 8AJ,51.616499831203600,-0.181926636013706
Tahr and Booted eagles,SW6 4BA,51.475419638076200,-0.195432747248754
Pratincole and American sparrow,W12 8HY,51.503112777780200,-0.229409775779982
Stint and Prion,SW5 9PN,51.492849970391000,-0.196790103486817
Badger and Night heron,TW8 0JA,51.490506000000000,-0.291190000000000
Quetzal and Myna,NW4 4EB,51.589834519686300,-0.225202753486626
Peafowl and Jay,W3 8SG,51.501352000000000,-0.275849000000000
Flameback and Puffleg,UB1 3HU,51.512342962732400,-0.364707158801719
Wallaby and Vulture,NW9 5NJ,51.597997677400100,-0.243611527268518
Towhee and Myna,SW6 3BT,51.471511583834900,-0.198596301978224
River dolphin and Parakeet,W5 3RS,51.513557684942400,-0.285413100128307
B and Pratincole,WD23 4GG,51.637493989611700,-0.344024389426696
Tit-tyrant and Perching duck,TW3 3AS,51.469010000000000,-0.369226659689338
Partridge and Black cockatoo,HA6 1RQ,51.605019692265400,-0.407445475945746
Jackal and Solitaire,W5 4EG,51.496803878595300,-0.312621961182688
Grackle and Recurvebill,UB2 5SB,51.495993887893300,-0.378877339423771
Partridge and Crow,W6 9UB,51.490633367952700,-0.239702917222679
Pratincole and American sparrow,N20 9HB,51.630175174465900,-0.169647314755836
Grackle and Gull,W8 4JE,51.503176539057800,-0.194077100013975
B and Philippine hawk-owl,NW10 5NN,51.531167300718400,-0.230484149044905
New World blackbird and Guillemot,SW3 2NT,51.492816337696500,-0.164880000000000
Tahr and Diving bird,HA3 0QT,51.576626217246500,-0.295668612868183
Black jay and Mockingbird,UB10 8PR,51.559995966108600,-0.440915306420699
New World blackbird and Flameback,HA7 3DY,51.619433772208100,-0.315300053871613
Hawaiian honeycreeper and Songlark,SW7 4DA,51.493438058395800,-0.184781360242674
Old World quail and Argus,NW3 4ET,51.547065000000000,-0.172273651613831
Mole and Macaw,UB6 8HA,51.532872963071800,-0.342330375590605
Asiatic leopard and Mouse,TW9 2JY,51.465528055238600,-0.294957000000000
Pitohui and Jerboa,W8 6HW,51.496655502117100,-0.200414476983103
Black jay and Siskin,W11 3HD,51.510995935686300,-0.203769289085276
Armadillo and Puffleg,W8 9GR,51.498288000000000,-0.198319000000000
Viscacha and Tattler,NW9 1NY,51.582756000000000,-0.246581000000000
Eagle and Parrotbill,W11 4DG,51.510540752966800,-0.215777191988118
Parakeet and Maya,NW3 7AG,51.556443284515100,-0.194377105060308
Piping shrike and Partridge,HA1 3LF,51.567419000000000,-0.343383000000000
Boto and Chipmunk,HA4 8GH,51.582517000000000,-0.407034000000000
Wallaby and Treepie,HA5 3NN,51.596775000000000,-0.392018000000000
Kangaroo and Rabbit,NW8 9JT,51.530462089217800,-0.175062312842494
Parrotbill and Guillemot,NW6 4BF,51.540147000000000,-0.193570758000000
Marsh harrier and Perching duck,HA4 8FS,51.583374000000000,-0.405922000000000
Mamo and Magpie,NW7 1GU,51.607685340608800,-0.210469264741028
Petrel and Kestrel,NW10 8GT,51.540630000000000,-0.259309000000000
Pheasant and White ibis,HA4 9QQ,51.571479023989700,-0.388993016143983
Armadillo and Civet,NW9 7FB,51.577919000000000,-0.240363000000000
Lemming and Wallaby,TW8 0AJ,51.484554156707000,-0.301883267775763
Cloud rat and Partridge,TW9 4DX,51.481427531277000,-0.278182000000000
Parrotlet and Myna,W5 9DP,51.509851349249500,-0.307600601420207
Masked owl and Bunting,SW11 3GT,51.471430000000000,-0.174529000000000
Armadillo and Pitohui,NW7 2JS,51.612557914027800,-0.247339222233340
Fulmarine petrel and Perching duck,HA8 7EQ,51.610122203695500,-0.277184577416136
Ice seal and Vulture,HA5 2BH,51.592307862776100,-0.393150283437160
Grosbeak and Snipe,NW2 3ED,51.556675655704100,-0.214852329246628
Dolphin and Ground sloth,TW9 3HJ,51.480207000000000,-0.286059000000000
Rabbit and Black jay,UB1 1AX,51.515254094965500,-0.385961889659184
Tree warbler and Herring gull,W13 9BW,51.508406017975200,-0.324052966120626
Herring gull and Parrotbill,HA4 8JT,51.573481455252200,-0.420539752147005
Quetzal and Wader,W11 1DR,51.517809682249500,-0.200085268495922
Boto and Marsh harrier,W9 1QQ,51.534712072683200,-0.189931087531914
Logrunners and Buzzard,NW6 3AB,51.541569123250800,-0.190827111999894
Francolin and Stilt,NW9 9HL,51.585344894114900,-0.278771483586566
Crow and Crow,HA1 3TZ,51.572349000000000,-0.323261000000000
Siskin and Argus,UB4 8NZ,51.536725016912700,-0.438539000000000
Tahr and Jerboa,NW3 5LF,51.545703655714900,-0.177336990639242
Mouse and River dolphin,UB2 4BX,51.502244065787500,-0.378266547879678
Pitohui and Hawaiian honeycreeper,W4 2TB,51.476106170911500,-0.258679982351850
Shearwater and Old World vulture,NW10 8TP,51.551377246770300,-0.257797822094606
Thrasher and Parrotbill,W3 7TN,51.504760176787000,-0.248092266397375
Marmoset and Wallaby,W4 5AN,51.493208289326400,-0.274090000000000
Shearwater and Herring gull,TW7 5LD,51.478833722159200,-0.337565067339474
Warbler and Night heron,HA3 6DD,51.610835722635900,-0.336632383901232
Piping shrike and Marsh harrier,SW3 3TB,51.490329942759400,-0.166495555365489
Kestrel and Duck,W13 9UJ,51.499723850949600,-0.323103605268534
Old World vulture and Egret,SW5 0NT,51.493959166371900,-0.188823113829053
Parakeet and Duck,W6 7AN,51.493817827554300,-0.223676312667242
Cuscus and Parakeet,W3 6EA,51.509467465452500,-0.265319755862421
Quetzal and Maya,SW3 3QR,51.490385903930200,-0.167385000000000
Maya and Warbler,N2 2FA,51.590698000000000,-0.167600000000000
Pratincole and Hawk,W13 0SU,51.510678631318500,-0.322227000000000
Solitaire and Elephant,SW3 5UF,51.487231084085200,-0.170379000000000
Rabbit and Zebra,HA6 1BN,51.605893561610700,-0.416873693260432
Ice seal and Wader,W4 5DG,51.501808767031400,-0.265509721406504
Mamo and Duck,NW3 5RB,51.550277403519500,-0.173649239261318
Moluccan boobook and Hawk,W11 1AS,51.519115846871600,-0.203752529271810
Chicken and Goose,SW6 4NP,51.471340682428900,-0.210337977326701
Shearwater and Condor,SW6 1FY,51.486260000000000,-0.194967000000000
B and Argus,HA0 1LF,51.538739000000000,-0.302226512753207
Old World quail and Diving bird,NW3 4DG,51.549629587591400,-0.166131700418763
Kangaroo and Vole,W2 3DS,51.513359777311500,-0.180357725332140
Dolphin and Stint,HA7 2LD,51.595875555095400,-0.309761451707465
Eagle and Boto,HA5 5AX,51.578779260745400,-0.378444630613148
Snipe and Dolphin,NW11 0LA,51.580615509908700,-0.204388417166966
Chipmunk and Mink,NW10 8GH,51.541461509934600,-0.261188000000000
Shearwater and Towhee,HA5 3JB,51.595048860067800,-0.385170683550690
Mockingbird and New World blackbird,HA6 1DH,51.603406931593800,-0.415184041360413
Mockingbird and Grouse,W14 8BG,51.502926268848100,-0.212962344966783
Egret and Fish eagle,HA3 7LF,51.603437032233500,-0.327271110759608
Old World quail and Wader,NW3 2RU,51.554860859939200,-0.167710022272984
Maya and Egret,W13 0SJ,51.511775118348300,-0.325730738035498
Warbler and Grosbeak,NW7 1BA,51.607736235460300,-0.207911058976029
Eagle and Magpie,NW7 1GY,51.607928270366500,-0.211658389163138
Civet and Kite,SW13 8DY,51.486026767405700,-0.230575806055919
Mink and Jerboa,SW6 5BW,51.478485693887100,-0.203606691686852
Maya and Old World quail,W14 0QW,51.494306532598100,-0.212046144027247
Mockingbird and Partridge,UB10 8SX,51.557162612069400,-0.446955456123159
Chicken and Skunk,NW9 8SA,51.565804937724300,-0.259886807412588
Rat and River dolphin,WD19 6HA,51.622722295915400,-0.383552841284434
