name,postcode,lat,lon
Duck and Petrel,LE14 3BF,52.829284000000000,-0.986662735889904
horned viper and glass snake,LE14 3HF,52.825417149610600,-0.971905537405306
B and habu,LE14 3QA,52.847834872849000,-1.005350321396780
Snipe and boomslang,LE14 4BG,52.872157762125900,-0.890289542469175
Songlark and Goose,LE14 4DA,52.871578625175700,-0.888002000000000
harlequin snake and boomslang,LE14 4DE,52.871416136208300,-0.893666157341588
black snake and rat snake,LE14 4EJ,52.848566590945700,-0.851332676220910
Argus and black snake,LE14 4EZ,52.873545000000000,-0.853441563913912
American sparrow and Songlark,LE14 4HF,52.869763033247100,-0.853952219284470
amphisbaena and Mouse,LE14 4JE,52.855942101635500,-0.907960854721658
gecko and tree snake,LE14 4NA,52.838406237803100,-0.925072472434994
Old World quail and krait,LE14 4PF,52.836508936788900,-0.930879000000000
Civet and worm lizard,LE14 4PH,52.835389686241900,-0.932495057627491
pit viper and smooth snake,LE14 4RN,52.826489112532900,-0.738998221117774
Badger and Thicketbird,NG12 2GF,52.949228170627100,-1.019249502423440
iguana and black snake,NG12 2HP,52.947280858877500,-1.019665608469510
Kestrel and loggerhead,NG12 2JA,52.947733358456700,-1.022215258712560
Kangaroo and Peafowl,NG12 2JU,52.916855607305100,-1.008306022773860
iguana and grass snake,NG12 2LL,52.948153141812200,-1.002411181464200
carpet snake and death adder,NG12 2NR,52.943077524579800,-1.007126275788830
Pitohui and Towhee,NG12 2PP,52.950072964164000,-1.021403434834310
Buzzard and whip snake,NG12 3BD,52.912009000000000,-0.990955914582542
Kite and sidewinder,NG12 3EP,52.865486792198900,-1.012418751166870
Boto and cerastes,NG12 3FT,52.909267000000000,-0.955557000000000
Wallaby and Scimitar babbler,NG12 3RA,52.872184783302900,-0.993219782044519
alligator and moloch,NG12 3RD,52.871066261447000,-0.994894778060285
skink and Polecat,NG12 3UG,52.888845808881900,-1.007473807585130
smooth snake and Grouse,NG12 3XG,52.913557000000000,-0.983379000000000
Cloud rat and anaconda,NG13 0AJ,52.942463655466300,-0.805572393726427
Pheasant and Fulmarine petrel,NG13 0AL,52.939895655968200,-0.806774030213837
Pratincole and Kestrel,NG13 0DW,52.936824740445400,-0.794657249599650
Flameback and Hawk,NG13 0EN,52.944578000000000,-0.798534000000000
Fulmarine petrel and horned toad,NG13 0ER,52.945373347990100,-0.798140307974405
Stilt and horned toad,NG13 0EX,52.942464531332200,-0.806718000000000
Bronzewing pigeon and gavial,NG13 0FT,52.942330197446100,-0.811989970894073
Francolin and diamondback turtle,NG13 0FU,52.936674337289200,-0.805582992555682
cobra and whip snake,NG13 8BN,52.950330522134500,-0.954509170650514
Philippine hawk-owl and chameleon,NG13 8EF,52.953081466449800,-0.938292679739589
Macaw and viper,NG13 8ER,52.949928879622300,-0.946689945762010
Philippine hawk-owl and Chicken,NG13 8JP,52.986413471004100,-0.906523000000000
perentie and Partridge,NG13 8LY,52.982054138845600,-0.963663624082210
Capuchin and loggerhead,NG13 8PD,52.980096553418900,-0.971157557383850
Treepie and Dorcopsis,NG13 8PN,52.984229130431800,-0.964639381808657
Crow and bandy-bandy,NG13 8QG,52.946891028804000,-0.946763724941547
Tit-tyrant and snapping turtle,NG13 8UA,52.949973399662900,-0.937550161083239
Tahr and skink,NG13 8UE,52.949979914202400,-0.938279312059773
python and Night heron,NG13 8UN,52.948823048626000,-0.970277330013641
Grouse and horned viper,NG13 8UT,52.949411040424000,-0.968626166808228
Mink and gopher snake,NG13 9AH,52.951390000000000,-0.914132000000000
viper and Wallaby,NG13 9BN,52.952735000000000,-0.898112000000000
agama and mud turtle,NG13 9DA,52.981484023385700,-0.881875368637744
puff adder and rock snake,NG13 9DH,52.979279000000000,-0.884951000000000
Egret and Booted eagles,NG13 9HB,52.899558727082500,-0.930487890523205
flying dragon and Gull,NG13 9HE,52.904071793151100,-0.925529754840399
tuatara and tokay,NG13 9JP,52.912602378154800,-0.906729817666105
Tattler and Kestrel,NG13 9NL,52.960837000000000,-0.856440095424391
box turtle and Siskin,NG13 9NN,52.961230000000000,-0.856217309711836
Cloud rat and rock python,NG13 9NW,52.963268241177800,-0.855143955649057
Argus and copperhead,NG13 9NY,52.960457219029600,-0.856364544252830
Jackal and Perching duck,NG14 6AY,53.027000093162800,-1.024032284945610
Darwin's finches and snapping turtle,NG14 6BD,53.021639000000000,-1.006214681456890
Badger and Masked owl,NG14 7AD,53.010341847642700,-1.004421031645990
sand viper and Ground sloth,NG14 7BD,53.012009950529300,-1.005023571855690
caiman and Thrasher,NG14 7EH,53.011691249853200,-1.005612196490970
moloch and taipan,NG14 7FW,53.037017000000000,-0.961556000000000
Pheasant and American sparrow,NG14 7GG,53.040221884427100,-0.929740036955095
wall lizard and Pitohui,NG14 7GU,53.036572942236100,-0.985234670975657
iguana and gopher snake,NG14 7HB,53.034030652795600,-0.963536607657335
sidewinder and Duck,NG14 7HL,53.016775000000000,-0.981343000000000
whip snake and Mouse,NG14 7HW,53.039916771950400,-0.933804433791006
Old World warbler and Marmoset,NG23 5AD,53.031100137258700,-0.740852437934296
puff adder and Grosbeak,NG23 5AS,53.043822819155200,-0.713333715189364
Chickadee and deaf adder,NG23 5DS,52.997830336531400,-0.753770720105520
Logrunners and Triller,NG23 5EF,52.993964385700000,-0.756951362300000
Grosbeak and sand viper,NG23 5EU,52.985407000000000,-0.746852638910121
Piping shrike and Gila monster,NG23 5FA,53.032216379827800,-0.735316000000000
elapid and viper,NG23 5FZ,53.048590269467900,-0.687263915581723
Black cockatoo and Kestrel,NG23 5LH,53.016082441283100,-0.901850701916067
terrapin and Cloud rat,NG23 5PY,53.033618448988400,-0.844617509933621
smooth snake and Guillemot,NG23 5RW,53.002931963300000,-0.846644052300000
grass snake and Old World warbler,NG24 3FN,53.046476848321600,-0.774848627952958
harlequin snake and puff adder,NG24 3NG,53.045172108746900,-0.775201000000000
rock snake and Fox,NG24 3RQ,53.046152253623600,-0.770190000000000
worm lizard and tuatara,NG25 0XJ,53.044804671243500,-0.916619306504251
Scimitar babbler and harlequin snake,NG31 0TH,52.910858820938800,-0.639487593593744
boa and Recurvebill,NG31 0TT,52.910858820938800,-0.639487593593744
Thicketbird and Wader,NG31 0ZZ,52.909785000000000,-0.640577000000000
Fish eagle and Condor,NG31 6BF,52.908387878854800,-0.641959089417132
Herring gull and Eagle,NG31 6ET,52.908253772296900,-0.638097076852959
Vole and chuckwalla,NG31 6HF,52.908349739989000,-0.635491806152302
Ground sloth and water snake,NG31 6HX,52.906914000000000,-0.638719000000000
diamondback terrapin and diamond snake,NG31 6JZ,52.910225283335500,-0.645411109721348
rattlesnake and jew lizard,NG31 6PG,52.912540300982400,-0.646602963614407
Logrunners and worm lizard,NG31 6PS,52.915337909905900,-0.643600755219754
Kangaroo and swift,NG31 6QU,52.912070930219600,-0.637784024537938
Rat and deaf adder,NG31 6RT,52.916470725311600,-0.642033459835686
Dorcopsis and Vulture,NG31 6SF,52.911823000000000,-0.640465251326605
Duck and Hawk,NG31 6TF,52.911496502735800,-0.638529000000000
Parakeet and sea snake,NG31 7DZ,52.909962415972500,-0.661881049958478
Diving bird and worm lizard,NG31 7EJ,52.910998000000000,-0.649268000000000
snake and deaf adder,NG31 7EN,52.903094826720200,-0.628832361505157
kabaragoya and Masked owl,NG31 7GX,52.900162113457400,-0.625550064647986
Ground sloth and B,NG31 7LQ,52.909963805515600,-0.662802982688970
Lemming and boa constrictor,NG31 7LS,52.909927731600500,-0.669198432202485
death adder and Marmoset,NG31 7PG,52.908427767149800,-0.657333492519461
Komodo dragon and Asiatic leopard,NG31 7QU,52.904634204847100,-0.659740558148089
black snake and thorny devil,NG31 7SS,52.904916684373600,-0.656891890565297
River dolphin and hawksbill,NG31 7SU,52.904051775200000,-0.651582000000000
Chicken and Siskin,NG31 7TB,52.901434665791300,-0.612827629268394
Partridge and sand viper,NG31 7UJ,52.894070163728600,-0.636757886438337
lizard and king cobra,NG31 7XJ,52.902711380751000,-0.666222904596688
sand viper and bearded dragon,NG31 8BS,52.930384126000900,-0.643338747984072
Mockingbird and gavial,NG31 8BX,52.916948609248800,-0.639014164763743
Guillemot and swift,NG31 8DY,52.929721300520700,-0.642764376208958
Chickadee and constrictor,NG31 8EB,52.926235623611000,-0.638261772936246
New World blackbird and Ice seal,NG31 8ED,52.923809823323800,-0.640747692315945
viper and Meadowlark,NG31 8GQ,52.926481895814000,-0.661520509455507
monitor and turtle,NG31 8LJ,52.933675000000000,-0.668764153108195
Old World quail and Night heron,NG31 8NG,52.929538354931600,-0.632296461762309
boomslang and Rat,NG31 8PS,52.935302022508600,-0.660013427534033
chameleon and Mamo,NG31 8PY,52.929213542633400,-0.636888882805100
asp and python,NG31 8PZ,52.928552734368200,-0.636493084819918
python and milk snake,NG31 8QB,52.928913734957800,-0.650793511975604
Stint and Grackle,NG31 8QJ,52.926876099047200,-0.651065132221519
Hawaiian honeycreeper and turtle,NG31 8RJ,52.915152431764600,-0.670941947058775
Duck and Cuscus,NG31 8SG,52.914973328531600,-0.662990758787407
puff adder and Stint,NG31 8UR,52.918529796400000,-0.666480709400000
River dolphin and leathery turtle,NG31 8US,52.917495446000000,-0.665188000000000
box turtle and diamond python,NG31 8WS,52.920649000000000,-0.662842000000000
Mamo and Hawk,NG31 8XE,52.921258000000000,-0.664161000000000
tree snake and diamondback turtle,NG31 9BG,52.917469873852900,-0.631174524359444
Fish eagle and Moluccan boobook,NG31 9DN,52.912415952755600,-0.626366787163487
gopher snake and Siskin,NG31 9FA,52.926245808800000,-0.628800282400000
Chickadee and adder,NG31 9JN,52.924951215115300,-0.628201433488074
hoop snake and Perching duck,NG31 9LD,52.916335361824100,-0.626346886226678
Parrotlet and Badger,NG31 9LF,52.917228601738400,-0.627404360002628
moloch and Logrunners,NG31 9NE,52.918472694934600,-0.617622843573686
thorny devil and gaboon viper,NG31 9QX,52.920727801859200,-0.615959470689553
Recurvebill and Solitaire,NG31 9RN,52.922395901574600,-0.619476257306113
Grosbeak and Egret,NG32 1AN,52.858425842472500,-0.698564170982482
amethystine python and Macaw,NG32 1AS,52.888497335987500,-0.687125819718231
Black jay and blind snake,NG32 1AW,52.854723000000000,-0.690358000000000
deaf adder and swift,NG32 1DF,52.909893894559400,-0.687980939544796
diamondback and leathery turtle,NG32 1DH,52.903332698283700,-0.697100091557189
thorny devil and bushmaster,NG32 1DJ,52.912144000000000,-0.689700808268318
tortoise and Marmoset,NG32 1DU,52.915744064936300,-0.695121425837436
Civet and cobra de capello,NG32 1HL,52.885946342449600,-0.692211476758373
Lemming and slowworm,NG32 1JQ,52.884459798929300,-0.688449000000000
sidewinder and rattlesnake,NG32 1JW,52.881947458672100,-0.708797690291988
Philippine hawk-owl and giant tortoise,NG32 1LB,52.882700215144300,-0.710231724054047
carpet snake and dugite,NG32 1LH,52.883091000000000,-0.713044000000000
kabaragoya and Treepie,NG32 1LY,52.898554735736200,-0.757111039569787
king snake and Maya,NG32 1NN,52.886032000000000,-0.757885000000000
Logrunners and king snake,NG32 1PF,52.895858000000000,-0.778684000000000
Fox and Badger,NG32 1QY,52.839729528301300,-0.780125315716404
Polecat and Chipmunk,NG32 1RW,52.871411000000000,-0.774884000000000
python and chuckwalla,NG32 2BF,52.952812000000000,-0.729269000000000
Old World quail and Marmoset,NG32 2BP,52.941056000000000,-0.681622000000000
viper and chuckwalla,NG32 2DT,52.952485594306100,-0.723250230647635
Komodo dragon and Mamo,NG32 2DX,52.952133242256500,-0.721414873477488
Masked owl and moloch,NG32 2EJ,52.941033168384200,-0.729182656116661
diamond snake and constrictor,NG32 2FG,52.947865736630100,-0.719992819433154
Chipmunk and racer,NG32 2HH,52.981967087094200,-0.674314408504023
Capuchin and leathery turtle,NG32 2HL,52.983808578075700,-0.672574801530291
chuckwalla and Kangaroo,NG32 2JD,52.991153316595300,-0.676804000000000
harlequin snake and Hawk,NG32 2NJ,52.961471188038400,-0.617576866293530
alligator and Wader,NG33 5ED,52.836370003434500,-0.635803935373163
Towhee and Black jay,NG33 5EH,52.849692847467000,-0.665828798023805
Asiatic leopard and glass snake,NG33 5EL,52.836983000000000,-0.635042000000000
