name,postcode,lat,lon
The Plough Inn,LE14 3AH,52.85818500000000,-0.97589900000000
The Tap & Run,LE14 3BG,52.82893371582030,-0.98764401674271
NAGS HEAD,LE14 4BN,52.87208740000000,-0.89581360000000
The Plough Inn,LE14 4HW,52.87201000000000,-0.85468000000000
Venezia,NG12 2NL,52.94462800000000,-1.00640500000000
plough inn,NG12 3AB,52.92626200000000,-0.98302500000000
Sarsfield's Chocolaterie and Tearooms,NG12 3ED,52.8719,-0.9866
The Nevile Arms,NG12 3EH,52.8734,-0.9912
THE MARTINS ARMS,NG12 3FD,52.89071000000000,-0.96456500000000
THE THATCH RESTAURANT,NG13 0AA,52.94198380000000,-0.80657830000000
The Poppy Seed,NG13 0AH,52.94210000000000,-0.80320100000000
Little jacks farm & garden centre ltd,NG13 0AU,52.94415900000000,-0.81412700000000
Pauls Restaurant,NG13 0BW,52.94169300000000,-0.80220000000000
Windmill Inn,NG13 0GA,52.91057205200200,-0.81558001041412
Anchor Inn,NG13 0JJ,52.89797770000000,-0.85989400000000
Yeung Sing Cantonese Restaurant,NG13 8AB,52.95186200000000,-0.95268600000000
Butlers Coffee House,NG13 8AD,52.95169067382810,-0.95356798171997
Horse & Plough,NG13 8AF,52.95141000000000,-0.95440900000000
Rose & May,NG13 8AF,52.95146700000000,-0.95482300000000
COPPER,NG13 8AP,52.95269393920900,-0.95214200019836
Number Sixteen,NG13 8AP,52.95271301269530,-0.95239698886871
Pizza Pizza Plus Ltd,NG13 8AR,52.9525,-0.9533
The White Lion,NG13 8AT,52.95040900000000,-0.96025200000000
Costa Bingham,NG13 8BD,52.95218300000000,-0.95342200000000
Costa Coffee,NG13 8BD,52.95218300000000,-0.95342200000000
The Wheatsheaf Bingham,NG13 8BG,52.95123700000000,-0.95429300000000
the royal oak,NG13 8JE,52.97772700000000,-0.93071800000000
Caffe Velo Verde,NG13 8JL,52.9852,-0.9124
INDIANNIGHTS ,NG13 8LA,52.9733,-0.9526
Indian Nights,NG13 8LA,52.97384500000000,-0.95208000000000
The Royal Oak,NG13 8PA,52.98025400000000,-0.96954500000000
The Unicorns Head ,NG13 9HE,52.90408200000000,-0.92554400000000
Langar Hall,NG13 9HG,52.90431594848630,-0.92759001255035
COACH GAP CAFE,NG13 9HP,52.90018463134770,-0.91394001245499
Wildflower Farm & Tearoom,NG13 9HP,52.90018463134770,-0.91394001245499
abm catering at John Deere,NG13 9HT,52.89619300000000,-0.91216700000000
The Orston Durham Ox LTD,NG13 9NS,52.96294900000000,-0.85455600000000
staunton arms ,NG13 9PE,52.98643000000000,-0.80078400000000
Jo-Hanna's Cafge & Bistro,NG14 7AB,53.01066000000000,-1.00362300000000
The Worlds End,NG14 7AT,53.01114654541020,-1.00797700881958
The Old Ship Inn,NG14 7BE,53.01267623901370,-1.00490105152130
The Railway,NG14 7DU,53.00776500000000,-0.99926400000000
The Old Volunteer,NG14 7EB,53.00697400000000,-0.98338000000000
Tom Browns (Gunthorpe) limited,NG14 7FB,52.98674900000000,-0.98258800000000
red lion ,NG14 7GP,53.03781400000000,-0.96423600000000
The Reindeer Inn,NG14 7JR,53.0151,-0.9587
The Five Bells Inn,NG23 5BJ,53.03114100000000,-0.72930900000000
The Royal Oak,NG23 5DJ,52.99665300000000,-0.75878100000000
sixtytwo,NG23 5DL,52.9943,-0.7573
the reindeer inn,NG23 5EH,52.98971000000000,-0.75598600000000
The Wheatsheaf Inn,NG23 5HU,53.01038700000000,-0.73215500000000
The Boot & Shoe Pub,NG23 5LA,53.0056,-0.8949
The Brews Brothers,NG24 3RQ,53.0462,-0.7702
Tinel Ltd,NG31 6BA,52.90917400000000,-0.64061100000000
shiva shakti company limited,NG31 6BA,52.9092,-0.6406
Costa Coffee,NG31 6BT,52.90695000000000,-0.64343100000000
Starbucks,NG31 6BT,52.90694900000000,-0.64343100000000
Costa Coffee,NG31 6EE,52.90983700000000,-0.64276100000000
BOMBAY BRASSERIE,NG31 6EY,52.90930100000000,-0.63915000000000
Pizza Hut Restaurant,NG31 6HS,52.90482500000000,-0.63610800000000
McDonalds,NG31 6HT,52.90223900000000,-0.63476200000000
Kitchen and Coffee,NG31 6LA,52.91087800000000,-0.64500400000000
Pizza Express,NG31 6LH,52.91224200000000,-0.64317700000000
Eden Wine Bar,NG31 6LJ,52.91339300000000,-0.64397400000000
Conduit Tea Gardens Ltd,NG31 6LQ,52.91281400000000,-0.64443800000000
Everest Inn Grantham LTD,NG31 6LT,52.91187000000000,-0.64366400000000
The Leaf Restaurant,NG31 6LT,52.91187000000000,-0.64366400000000
HOP SING LTD,NG31 6LU,52.91089200000000,-0.64387300000000
angelos coffee,NG31 6LX,52.9106,-0.6446
KATANA JAPANESE CUISINE GRANTHAM,NG31 6NJ,52.9115,-0.6434
Knightingales,NG31 6NJ,52.91153500000000,-0.64343700000000
Kings Walk Cafe,NG31 6NL,52.91169600000000,-0.64334300000000
The Black Dog,NG31 6NS,52.91382900000000,-0.64361800000000
The Garden Yard,NG31 6NZ,52.91416290000000,-0.64538190000000
Teaspoon tea company,NG31 6PN,52.91301700000000,-0.64257200000000
Prezzo,NG31 6QF,52.91026800000000,-0.64118600000000
Finkins,NG31 6QZ,52.91286280000000,-0.64133880000000
Compass Group at Crown House Restaurant,NG31 6SY,52.91381100000000,-0.63884500000000
Avenue Hotel Grantham LTD,NG31 6TH,52.91129200000000,-0.63792700000000
CM Restaurants (Holdings) Ltd,NG31 7ES,52.9039,-0.6303
Fun Farm Grantham,NG31 7LE,52.9098,-0.6529
Grantham Bowl,NG31 7LE,52.90903100000000,-0.65410300000000
BURGER KING-Grantham,NG31 7SA,52.9023,-0.6509
Burger King,NG31 7SA,52.90230560302730,-0.65096598863602
Costa Coffee,NG31 7SA,52.90230560302730,-0.65096598863602
KFC Grantham DT,NG31 7SA,52.90216500000000,-0.65110400000000
KFC,NG31 7SA,52.90216500000000,-0.65110400000000
Buzz Bingo,NG31 7XQ,52.90704200000000,-0.66501900000000
Urban Hotel Grantham,NG31 7XT,52.90073000000000,-0.66334000000000
Recruiting Sergeant,NG31 8JP,52.93487100000000,-0.66629100000000
Elior (Belton Lane Community Primary School),NG31 9PP,52.92558200000000,-0.62660400000000
The Chequers Inn,NG32 1LU,52.89806200000000,-0.75627800000000
The Rutland by Belvoir ltd,NG32 1NY,52.90693800000000,-0.74806800000000
The Fuel Tank,NG32 1PA,52.89614486694340,-0.78311997652054
Cafe Allez! Belvoir Castle,NG32 1PE,52.89474800000000,-0.78266900000000
The Geese and Fountain,NG32 1QR,52.85280300000000,-0.76202600000000
The Manners Arms,NG32 1RH,52.87294769287110,-0.77363198995590
The Wheel Inn,NG32 1RU,52.85675811767580,-0.79856902360916
BB's Coffee Shop c/o Boundary Mill Stores,NG32 2AB,52.9480,-0.6785
Downtown Garden Centre Restaurant,NG32 2AB,52.94805100000000,-0.67849200000000
Downtown Grantham Restaurant,NG32 2AB,52.9480,-0.6785
Moto 101 Ltd,NG32 2AB,52.94805145263670,-0.67849200963974
The Welby Arms ,NG32 2EA,52.95328100000000,-0.72599500000000
Burger King,NG32 2HB,52.91917800000000,-0.73996600000000
Moto Hospitality,NG32 2HB,52.91917800000000,-0.73996600000000
The Thorold,NG32 2HH,52.98197800000000,-0.67432900000000
The Olde Barn Hotel,NG32 2HT,52.98001098632810,-0.67684698104858
Belton Garden Centre,NG32 2LN,52.94319000000000,-0.62711800000000
Belton Woods,NG32 2LN,52.94319000000000,-0.62711800000000
The Stag,NG32 2NB,52.96308000000000,-0.61435400000000
Stoke Rochford Catering,NG33 5EW,52.83887100219730,-0.63016599416733
