name,postcode,lat,lon
The Plough Inn,LE14 3AH,52.8582,-0.9759
The Tap & Run,LE14 3BG,52.8289,-0.9876
NAGS HEAD,LE14 4BN,52.8716,-0.8957
The Plough Inn,LE14 4HW,52.8720,-0.8547
Venezia,NG12 2NL,52.9446,-1.0064
plough inn,NG12 3AB,52.9263,-0.9830
Sarsfield's Chocolaterie and Tearooms,NG12 3ED,52.8719,-0.9866
The Nevile Arms,NG12 3EH,52.8734,-0.9912
THE MARTINS ARMS,NG12 3FD,52.8905,-0.9641
THE THATCH RESTAURANT,NG13 0AA,52.9417,-0.8056
The Poppy Seed,NG13 0AH,52.9421,-0.8032
Little jacks farm & garden centre ltd,NG13 0AU,52.9442,-0.8141
Pauls Restaurant,NG13 0BW,52.9418,-0.8021
Windmill Inn,NG13 0GA,52.9106,-0.8156
Anchor Inn,NG13 0JJ,52.8989,-0.8603
Yeung Sing Cantonese Restaurant,NG13 8AB,52.9516,-0.9530
Butlers Coffee House,NG13 8AD,52.9517,-0.9536
Horse & Plough,NG13 8AF,52.9514,-0.9544
Rose & May,NG13 8AF,52.9514,-0.9544
COPPER,NG13 8AP,52.9527,-0.9520
Number Sixteen,NG13 8AP,52.9527,-0.9520
Pizza Pizza Plus Ltd,NG13 8AR,52.9525,-0.9533
The White Lion,NG13 8AT,52.9505,-0.9595
Costa Bingham,NG13 8BD,52.9522,-0.9535
The Wheatsheaf Bingham,NG13 8BG,52.9512,-0.9543
the royal oak,NG13 8JE,52.9768,-0.9299
Caffe Velo Verde,NG13 8JL,52.9852,-0.9124
INDIANNIGHTS ,NG13 8LA,52.9733,-0.9526
Indian Nights,NG13 8LA,52.9733,-0.9526
The Royal Oak,NG13 8PA,52.9802,-0.9695
The Unicorns Head ,NG13 9HE,52.9041,-0.9255
Langar Hall,NG13 9HG,52.9046,-0.9295
COACH GAP CAFE,NG13 9HP,52.9002,-0.9139
Wildflower Farm & Tearoom,NG13 9HP,52.9002,-0.9139
abm catering at John Deere,NG13 9HT,52.8962,-0.9122
The Orston Durham Ox LTD,NG13 9NS,52.9626,-0.8552
staunton arms ,NG13 9PE,52.9842,-0.8007
Jo-Hanna's Cafge & Bistro,NG14 7AB,53.0106,-1.0036
The Worlds End,NG14 7AT,53.0111,-1.0080
The Old Ship Inn,NG14 7BE,53.0126,-1.0049
The Railway,NG14 7DU,53.0078,-0.9992
The Old Volunteer,NG14 7EB,53.0070,-0.9830
The Bridge and Bayleaf,NG14 7FB,52.9867,-0.9825
Tom Browns (Gunthorpe) limited,NG14 7FB,52.9867,-0.9825
red lion ,NG14 7GP,53.0378,-0.9642
The Reindeer Inn,NG14 7JR,53.0151,-0.9587
The Five Bells Inn,NG23 5BJ,53.0311,-0.7293
the Five bells inn,NG23 5BJ,53.0311,-0.7293
The Royal Oak,NG23 5DJ,52.9963,-0.7588
sixtytwo,NG23 5DL,52.9943,-0.7573
the reindeer inn,NG23 5EH,52.9897,-0.7560
The Wheatsheaf Inn,NG23 5HU,53.0104,-0.7321
The Boot & Shoe Pub,NG23 5LA,53.0056,-0.8949
The Brews Brothers,NG24 3RQ,53.0462,-0.7702
Tinel Ltd,NG31 6BA,52.9092,-0.6406
shiva shakti company limited,NG31 6BA,52.9092,-0.6406
BOMBAY BRASSERIE,NG31 6EY,52.9093,-0.6391
Kitchen and Coffee,NG31 6LA,52.9109,-0.6450
Eden Wine Bar,NG31 6LJ,52.9134,-0.6440
Conduit Tea Gardens Ltd,NG31 6LQ,52.9128,-0.6443
Everest Inn Grantham LTD,NG31 6LT,52.9119,-0.6436
The Leaf Restaurant,NG31 6LT,52.9119,-0.6436
HOP SING LTD,NG31 6LU,52.9109,-0.6440
angelos coffee,NG31 6LX,52.9106,-0.6446
KATANA JAPANESE CUISINEGRANTHAM,NG31 6NJ,52.9115,-0.6434
Knightingales,NG31 6NJ,52.9115,-0.6434
Kings Walk Cafe,NG31 6NL,52.9117,-0.6433
The Black Dog,NG31 6NS,52.9138,-0.6436
The Garden Yard,NG31 6NZ,52.9139,-0.6457
Teaspoon tea company,NG31 6PN,52.9131,-0.6424
Finkins,NG31 6QZ,52.9125,-0.6413
Avenue Hotel Grantham LTD,NG31 6TH,52.9113,-0.6379
CM Restaurants (Holdings) Ltd,NG31 7ES,52.9039,-0.6303
Fun Farm Grantham,NG31 7LE,52.9098,-0.6529
Grantham Bowl,NG31 7LE,52.9098,-0.6529
BURGER KING-Grantham,NG31 7SA,52.9023,-0.6509
KFC,NG31 7SA,52.9023,-0.6509
Urban Hotel Grantham,NG31 7XT,52.9007,-0.6633
Recruiting Sergeant,NG31 8JP,52.9351,-0.6666
The Chequers Inn,NG32 1LU,52.8981,-0.7562
The Rutland by Belvoir ltd,NG32 1NY,52.9069,-0.7481
The Fuel Tank,NG32 1PA,52.8961,-0.7831
Cafe Allez! Belvoir Castle,NG32 1PE,52.8947,-0.7827
The Geese and Fountain,NG32 1QR,52.8528,-0.7620
The Manners Arms,NG32 1RH,52.8729,-0.7737
The Wheel Inn,NG32 1RU,52.8567,-0.7993
BB's Coffee Shop c/o Boundary Mill Stores,NG32 2AB,52.9480,-0.6785
Downtown Garden Centre Restaurant,NG32 2AB,52.9480,-0.6785
Downtown Grantham Restaurant,NG32 2AB,52.9480,-0.6785
The Welby Arms ,NG32 2EA,52.9533,-0.7260
The Thorold,NG32 2HH,52.9820,-0.6743
The Olde Barn Hotel,NG32 2HT,52.9797,-0.6762
Belton Garden Centre,NG32 2LN,52.9432,-0.6271
Belton Woods,NG32 2LN,52.9432,-0.6271
The Stag,NG32 2NB,52.9631,-0.6143
Stoke Rochford Catering,NG33 5EW,52.8388,-0.6301
CM Restaurants (Holdings) Ltd,NG33 5FF,52.8305,-0.7001
