name,postcode,lat,lon
Hawaiian honeycreeper and dugite,LE14 3BQ,52.827705454112500,-0.996654000000000
Moluccan boobook and rattlesnake,LE14 3EN,52.825078922976400,-0.970221631616921
adder and Ice seal,LE14 4BL,52.875672277689000,-0.896024379477942
Recurvebill and Night heron,LE14 4DE,52.871416136208300,-0.893666157341588
viper and king snake,LE14 4FD,52.874566000000000,-0.896494000000000
Shearwater and Old World vulture,LE14 4HX,52.870585773221000,-0.854435669833765
Mockingbird and box turtle,LE14 4JJ,52.856197387887800,-0.906395006896582
tokay and sidewinder,LE14 4NP,52.835075384831500,-0.926550084817393
Fish eagle and Jackal,NG12 1ED,52.969537653200300,-1.015141765524490
Puffleg and Fox,NG12 1EG,52.973290333386900,-1.012375948704400
caiman and Towhee,NG12 1EU,52.972739000000000,-1.014012000000000
gavial and garter snake,NG12 2HW,52.947624782040300,-1.015594781125020
cerastes and boomslang,NG12 2JQ,52.948429738287000,-1.000023494951420
Duck and Meadowlark,NG12 2PP,52.950072964164000,-1.021403434834310
rock python and fer-de-lance,NG12 3AT,52.925666761648900,-0.981879262759434
Peafowl and milk snake,NG12 3BY,52.914106631729800,-0.982998004327059
leguaan and mountain devil,NG12 3DQ,52.913730515120600,-0.989490741259319
Polecat and box turtle,NG12 3FF,52.890988984014400,-0.959564031753172
worm lizard and tree snake,NG12 3FS,52.902857000000000,-0.961283000000000
blindworm and Buzzard,NG12 3HF,52.907966112172600,-1.018203843949540
Skunk and gecko,NG13 0AS,52.945226107406800,-0.808517452752548
garter snake and Ground sloth,NG13 0BJ,52.942850260345700,-0.801112140237538
Kākāriki and loggerhead,NG13 0BL,52.937241135595900,-0.805626906515694
terrapin and bicycle lizard,NG13 0EH,52.940501840871600,-0.784971813053989
Elephant and alligator,NG13 0FT,52.942330197446100,-0.811989970894073
krait and Black jay,NG13 0GB,52.911641762744800,-0.816770521208076
Black jay and Egret,NG13 0GS,52.922203850731300,-0.841308190406139
Quetzal and soft-shelled turtle,NG13 0WG,52.909690000000000,-0.640635000000000
Parakeet and hognose snake,NG13 8BB,52.950862238508000,-0.954660077285864
Hawk and cobra,NG13 8DE,52.953217604754000,-0.942472030748737
Grouse and Jay,NG13 8GN,52.950161781118200,-0.956790479866222
Dolphin and leathery turtle,NG13 8GP,52.948241000000000,-0.956952328480836
puff adder and Guillemot,NG13 8JA,52.971659199698100,-0.952043873008426
pit viper and tree snake,NG13 8LJ,52.983565683290400,-0.961750638000710
frilled lizard and Parrotlet,NG13 8NH,52.979612161955900,-0.965062508084465
chuckwalla and bearded dragon,NG13 8SE,52.952222279569500,-0.968336034170424
Cloud rat and Minke whale,NG13 8SH,52.952088060872300,-0.945863499082643
Grouse and Vole,NG13 8UF,52.948737618135800,-0.938086474027038
caiman and diamondback terrapin,NG13 8US,52.948170467711700,-0.968625902943433
Meadowlark and ringhals,NG13 8YJ,52.946284000000000,-0.961393000000000
Dolphin and Cloud rat,NG13 9AG,52.952876506743800,-0.903824254886756
krait and sand viper,NG13 9DS,52.973582587810200,-0.865398000000000
Mole and skink,NG13 9EH,52.949178913994200,-0.889956839738535
king snake and bearded dragon,NG13 9EW,52.941285000000000,-0.885888000000000
Macaw and pit viper,NG13 9EY,52.945436553812100,-0.891600391202487
moloch and saltwater crocodile,NG13 9FA,52.937470737800000,-0.873070522400000
Tree warbler and box turtle,NG13 9HS,52.905267914833900,-0.923596989231463
Macaw and flying dragon,NG13 9JF,52.910314023980200,-0.912066391521437
Magpie and thorn lizard,NG13 9NQ,52.970027000000000,-0.843753000000000
Nukupuʻu and deaf adder,NG13 9PH,52.976693731009800,-0.810660601366208
Cloud rat and Rat,NG14 5GU,52.994142414139600,-1.021718798155130
sand viper and bicycle lizard,NG14 7AA,53.009111352317300,-1.000261276528970
Triller and amphisbaena,NG14 7BF,53.012492409075900,-1.006084000000000
bushmaster and Logrunners,NG14 7EH,53.011691249853200,-1.005612196490970
Stilt and flying lizard,NG14 7EL,53.014639885129500,-1.003472486975010
Grackle and dugite,NG14 7GQ,53.038561000000000,-0.965456000000000
Philippine hawk-owl and Eagle,NG14 7GW,53.036617683438300,-0.966412577197098
Minke whale and flying dragon,NG14 7JT,53.015182800874300,-0.958756095495062
flying dragon and Nukupuʻu,NG14 7JW,53.018576741505800,-0.958286809212085
Dolphin and Night heron,NG14 7WA,53.009507816611900,-1.000371351306940
caiman and Thicketbird,NG14 7WH,53.008339025371700,-0.997149303413442
frill-necked lizard and Parrotlet,NG23 5AL,53.033750889755400,-0.737345238420447
Badger and Quetzal,NG23 5BG,53.031727961198300,-0.733094659483034
mountain devil and Grouse,NG23 5BJ,53.031130069328100,-0.729294676755624
Francolin and bearded dragon,NG23 5DD,53.031155000000000,-0.695771000000000
ringhals and Jerboa,NG23 5DE,53.047136832817100,-0.689157871027377
bearded dragon and Kākāriki,NG23 5DR,52.997892899155500,-0.755452689830547
massasauga and Thrasher,NG23 5FH,53.033856864534400,-0.734627967113158
wall lizard and Booted eagles,NG23 5FR,52.997583493595600,-0.759395321923536
Vole and Stilt,NG23 5GS,52.990763263244200,-0.734934253585855
alligator and Buzzard,NG23 5HB,52.992862200281100,-0.760096771881107
blue tongue and Vole,NG23 5LU,52.999754725314300,-0.879406730420146
Tit-tyrant and Rabbit,NG24 3WE,53.048513799100000,-0.767302108800000
Solitaire and giant tortoise,NG31 0GZ,52.909668000000000,-0.640577121500000
cycling lizard and black snake,NG31 0HT,52.909669491600000,-0.640640239600000
milk snake and horned viper,NG31 0HZ,52.909690000000000,-0.640635000000000
Myna and Moluccan boobook,NG31 0JR,52.909690000000000,-0.640635000000000
chuckwalla and Viscacha,NG31 0SA,52.910858820938800,-0.639487593593744
Ice seal and bandy-bandy,NG31 0SN,52.910858820938800,-0.639487593593744
Francolin and iguana,NG31 0TU,52.910858820938800,-0.639487593593744
Polecat and Vole,NG31 6BT,52.906383000000000,-0.642646000000000
asp and Lemming,NG31 6DP,52.909011024640800,-0.642207266746041
Viscacha and River dolphin,NG31 6HL,52.908385063161700,-0.636219329996716
Marsh harrier and Komodo dragon,NG31 6HY,52.901067357299100,-0.633103887396621
anaconda and dugite,NG31 6LT,52.911859348487800,-0.643649938385269
Scimitar babbler and grass snake,NG31 6LU,52.910881825687000,-0.644021000000000
harlequin snake and gavial,NG31 6PB,52.913322000000000,-0.644928000000000
crocodile and Bunting,NG31 6RE,52.913258000000000,-0.641613000000000
horned toad and Tit-tyrant,NG31 6SE,52.912256735344900,-0.640663246347758
Armadillo and Zebra,NG31 7AZ,52.905351372664500,-0.646871603624275
diamondback terrapin and Cuscus,NG31 7DZ,52.909962415972500,-0.661881049958478
agamid and Boto,NG31 7ES,52.903885345172700,-0.630338865330225
Flameback and diamondback,NG31 7FD,52.899227397830700,-0.649084268114570
Viscacha and gecko,NG31 7FW,52.900040151583000,-0.647825015074068
brown snake and bushmaster,NG31 7GT,52.899868252309700,-0.626570330659286
Jerboa and Mamo,NG31 7NG,52.907946228933200,-0.673690375505429
brown snake and Songlark,NG31 7NT,52.905123047558300,-0.652885767327021
Triller and cerastes,NG31 7NU,52.908515000000000,-0.655427000000000
Old World warbler and alligator,NG31 7PA,52.906365130380100,-0.654601823958053
Tahr and blindworm,NG31 7PL,52.907651029326700,-0.658606569644029
Kangaroo and Masked owl,NG31 7PP,52.908639726346800,-0.662576092720372
puff adder and Fish eagle,NG31 7QB,52.905859123178900,-0.658349662731264
glass snake and Linsang,NG31 7YE,52.903019000000000,-0.663592000000000
Old World quail and racer,NG31 8AY,52.918821731503500,-0.645589083206069
Diving bird and anaconda,NG31 8EL,52.925172664220200,-0.644364460586405
cobra de capello and cobra,NG31 8FJ,52.917892425177100,-0.639787734877413
Eagle and massasauga,NG31 8GH,52.925368430153800,-0.658445795845581
whip snake and Grouse,NG31 8HB,52.928560838679500,-0.659328982373446
death adder and saltwater crocodile,NG31 8HR,52.927652244636000,-0.652915464587443
Gila monster and garter snake,NG31 8HW,52.929199152321300,-0.652971583747232
flying lizard and crocodile,NG31 8QQ,52.927773125132600,-0.650100016684698
elapid and Diving bird,NG31 8RS,52.914006736523100,-0.658588680047214
rat snake and box turtle,NG31 8UA,52.918954419960000,-0.654509000000000
turtle and deaf adder,NG31 8XE,52.921258000000000,-0.664161000000000
Vulture and Black cockatoo,NG31 9AB,52.907097372240300,-0.633687320929754
Mamo and Parrotbill,NG31 9AJ,52.905590000000000,-0.632763000000000
Ground sloth and elapid,NG31 9BL,52.917900939687000,-0.628796069834037
B and Thicketbird,NG31 9BY,52.913260823741600,-0.627128261181991
gopher snake and brown snake,NG31 9DX,52.906047906568600,-0.631549422749614
Old World quail and sidewinder,NG31 9EB,52.905854783704100,-0.628834440811993
frill-necked lizard and racer,NG31 9GB,52.924963824924500,-0.616880565352015
sidewinder and Puffleg,NG31 9JU,52.914359316899900,-0.626498640273014
Coati and Pratincole,NG31 9LL,52.918386863547700,-0.624169929720586
Elephant and turtle,NG31 9NH,52.918733689613200,-0.613018571937769
turtle and boa,NG31 9PE,52.925813313542300,-0.624232025482850
goanna and Warbler,NG31 9PZ,52.921311774339500,-0.621340306330289
Tit-tyrant and Polecat,NG31 9QJ,52.927918322648300,-0.622796625245428
Maya and Vulture,NG31 9QQ,52.927504095387000,-0.621961802058195
swift and garter snake,NG31 9QZ,52.921715000000000,-0.616473525124748
Treepie and Marmoset,NG31 9SB,52.925412253758700,-0.615244795782278
amethystine python and Badger,NG32 1AS,52.888497335987500,-0.687125819718231
Kite and Siskin,NG32 1DR,52.911143718804400,-0.709342428072116
box turtle and terrapin,NG32 1EA,52.919964460141000,-0.733726241402601
Minke whale and Magpie,NG32 1HW,52.882724453850000,-0.687820330982494
Kākāriki and Towhee,NG32 1LU,52.898080869406300,-0.756234000000000
worm lizard and thorny devil,NG32 1NB,52.892521118706400,-0.759557886474249
Pitohui and Mockingbird,NG32 1NW,52.898389419513000,-0.757636095173126
tuatara and Marmoset,NG32 1PN,52.875399498842200,-0.753135000000000
ringhals and Civet,NG32 1SE,52.852774333510200,-0.816589661597943
thorn lizard and king cobra,NG32 1TD,52.912783749298000,-0.687536702450609
Vole and Fish eagle,NG32 2FD,52.909668000000000,-0.640577093679687
Jay and milk snake,NG32 2FH,52.947653000000000,-0.721915887565605
diamondback turtle and Marsh harrier,NG32 2FT,52.953232120551300,-0.726636984355709
garter snake and agama,NG32 2FW,52.952334006411000,-0.729238466027745
Vole and Warbler,NG32 2HT,52.979695197738500,-0.676156388413637
bearded dragon and brown snake,NG32 2JF,52.989100142535400,-0.681962024382282
coral snake and Piping shrike,NG32 2JX,52.974791295043600,-0.722592962281256
harlequin snake and wall lizard,NG32 2NF,52.964474314158300,-0.613758730853497
Siskin and tokay,NG33 5HL,52.825145210411100,-0.703536271385532
