name,postcode,lat,lon
tuatara and cayman,LE14 3AP,52.854016717407500,-0.974333873389579
Schneider python and blindworm,LE14 4BL,52.875672277689000,-0.896024379477942
Cuscus and diamondback,LE14 4BU,52.872831365470800,-0.886379681201360
fer-de-lance and loggerhead,LE14 4EU,52.842036491500000,-0.894264550000000
gopher snake and habu,LE14 4EX,52.886332000000000,-0.881293000000000
Solitaire and worm lizard,LE14 4EY,52.872371962413700,-0.853214881191798
tokay and moloch,LE14 4QR,52.826380723693400,-0.737042331897078
frilled lizard and agama,NG12 1EE,52.973178000000000,-1.013745122069310
Ibex and mountain devil,NG12 2GF,52.949228170627100,-1.019249502423440
king cobra and Prion,NG12 2HR,52.948950249596600,-1.020431578515790
Masked owl and B,NG12 2HU,52.947363020176100,-1.017639678477980
rat snake and asp,NG12 2HW,52.947624782040300,-1.015594781125020
bull snake and Siskin,NG12 2JB,52.948791308912200,-1.022965342296550
Chicken and constrictor,NG12 2JS,52.944629000000000,-0.995795000000000
galliwasp and perentie,NG12 2NJ,52.944700668773800,-1.003428152211170
whip snake and sand lizard,NG12 3BT,52.913039686866800,-0.985432120087406
Prion and gavial,NG12 3DA,52.914469327508200,-0.983361300965418
Hawk and asp,NG12 3DE,52.916731549025000,-0.985093024056241
Tahr and Macaw,NG12 3DG,52.916296000000000,-0.986590000000000
diamondback terrapin and Dolphin,NG12 3DP,52.913728237808600,-0.987111371617453
galliwasp and Viscacha,NG12 3DY,52.915204497828300,-0.985232819950939
Linsang and box turtle,NG12 3EG,52.872745202410700,-0.988289020528074
Jerboa and Dorcopsis,NG12 3GE,52.894005823380200,-1.006389756890760
New World blackbird and Lemming,NG12 3SG,52.885223951000000,-1.016993751800000
gecko and diamondback,NG13 0AB,52.941058658367300,-0.804420600721805
Mouse and grass snake,NG13 0AD,52.940844309951200,-0.804560437080286
Tit-tyrant and thorny devil,NG13 0AX,52.937187759093900,-0.807473456574969
Petrel and thorny devil,NG13 0BN,52.938965000000000,-0.804419000000000
Grosbeak and Warbler,NG13 0EG,52.940799781083400,-0.789502157399081
Lemming and Maya,NG13 0EQ,52.973749632781600,-0.783563056805479
bandy-bandy and amethystine python,NG13 0ER,52.945373347990100,-0.798140307974405
amphisbaena and rat snake,NG13 0FP,52.942544784331100,-0.812772813664553
Mink and brown snake,NG13 0FW,52.936932109508000,-0.806185959154352
boa and puff adder,NG13 0FZ,52.941372859424000,-0.807060779782967
Jerboa and Darwin's finches,NG13 0GP,52.905555120300000,-0.790588858900000
bearded dragon and Kangaroo,NG13 0HQ,52.894770010611700,-0.816085401632009
Songlark and Snipe,NG13 0WG,52.909690000000000,-0.640635000000000
Diving bird and Goose,NG13 8AU,52.951755615921400,-0.957094479650482
ringhals and wall lizard,NG13 8AX,52.949963000000000,-0.964758000000000
Boto and bearded lizard,NG13 8AZ,52.946530000000000,-0.981538000000000
dukite and saltwater crocodile,NG13 8EB,52.952392986067300,-0.943102000000000
Dolphin and diamondback turtle,NG13 8EP,52.953503440469800,-0.940247180297336
Siskin and Rabbit,NG13 8GF,52.956249619203300,-0.957001268672302
Mouse and Black cockatoo,NG13 8GH,52.949009901265800,-0.942410920790297
Dolphin and bearded dragon,NG13 8JF,52.979930000000000,-0.928788000000000
Coati and Partridge,NG13 8LJ,52.983565683290400,-0.961750638000710
amphisbaena and Chickadee,NG13 8TD,52.950990652557500,-0.970404470078622
Bunting and Shearwater,NG13 8UE,52.949979914202400,-0.938279312059773
White ibis and Towhee,NG13 8XG,52.954004000000000,-0.951920000000000
Meadowlark and Pheasant,NG13 8YP,52.946852387200000,-0.961483868400000
White ibis and giant tortoise,NG13 8ZX,52.964565074300000,-0.974265937900000
kabaragoya and Vulture,NG13 9BY,52.972099622738600,-0.910039196026939
coral snake and diamond snake,NG13 9DL,52.952421000000000,-0.906660000000000
Dorcopsis and Zebra,NG13 9FA,52.937470737800000,-0.873070522400000
Petrel and frill-necked lizard,NG13 9HP,52.900174000000000,-0.913911000000000
diamondback terrapin and amethystine python,NG13 9JH,52.910078000000000,-0.915641000000000
soft-shelled turtle and Petrel,NG13 9LD,52.941230745900300,-0.852898276739023
Lemming and Ice seal,NG13 9NQ,52.970027000000000,-0.843753000000000
tree snake and Petrel,NG14 5GY,52.992986630163400,-1.018914183088930
loggerhead and Elephant,NG14 7AF,53.011472813508800,-1.003142993645460
Kākāriki and diamond snake,NG14 7BJ,53.014327537633700,-1.005894443448600
Shearwater and blue tongue,NG14 7BZ,53.021738723093900,-1.022630339873750
Hawaiian honeycreeper and Gull,NG14 7FD,53.006764000000000,-0.984145000000000
Linsang and Pheasant,NG14 7FU,53.037776000000000,-0.928548000000000
Snipe and Grouse,NG14 7JB,53.025155779485900,-0.974693046072447
Flameback and Schneider python,NG14 7JG,53.013136149589300,-0.967346248863683
Polecat and Cuscus,NG14 7JL,53.012448753860600,-0.967899246921439
brown snake and Stilt,NG14 7JX,53.022834078568800,-0.949686179386861
boa constrictor and hawksbill,NG14 7RA,52.988671000000000,-0.985523000000000
Mockingbird and thorn lizard,NG14 7UU,53.012012662900000,-1.005023634700000
Diving bird and Kestrel,NG14 7WG,53.007650000000000,-0.997344000000000
diamond snake and Mink,NG23 5AL,53.033750889755400,-0.737345238420447
Towhee and copperhead,NG23 5BD,53.033212072935200,-0.735705651581129
elapid and Jackal,NG23 5BH,53.032296860997400,-0.731646385945202
White ibis and tiger snake,NG23 5DP,52.997383131407100,-0.755705753269670
bicycle lizard and Parrotlet,NG23 5FZ,53.048590269467900,-0.687263915581723
worm lizard and soft-shelled turtle,NG23 5GD,52.992735004564200,-0.756524691578962
Nukupuʻu and Logrunners,NG23 5HB,52.992862200281100,-0.760096771881107
Civet and Pitohui,NG23 5HF,52.999455086012700,-0.755258761290421
loggerhead and skink,NG23 5LE,53.007176151437200,-0.901137795352958
Polecat and Ice seal,NG23 5LL,53.012966444785300,-0.915941051913657
tortoise and Parrotlet,NG23 5QA,53.027987000000000,-0.871886000000000
copperhead and Bronzewing pigeon,NG24 3GF,53.044254957575900,-0.769481983228669
Grackle and Duck,NG24 3RS,53.046909884144000,-0.771509746680118
Pratincole and Logrunners,NG31 0SD,52.910858820938800,-0.639487593593744
wall lizard and Gila monster,NG31 6DA,52.908890968511000,-0.641928486042888
leguaan and bull snake,NG31 6DY,52.910564064180300,-0.643586302657498
Myna and snake,NG31 6ET,52.908253772296900,-0.638097076852959
carpet snake and Booted eagles,NG31 6HA,52.909870026353400,-0.637927421795749
bicycle lizard and cycling lizard,NG31 6JR,52.906139738285700,-0.636142000000000
turtle and gavial,NG31 6JT,52.903523891874800,-0.634082236521490
Wallaby and agama,NG31 6LE,52.912037000000000,-0.644109660471263
Mockingbird and tokay,NG31 6LU,52.910881825687000,-0.644021000000000
bearded lizard and Jackal,NG31 6PE,52.915901345669400,-0.647286438062318
gavial and mud turtle,NG31 6SU,52.916361645265200,-0.640356245362451
mud turtle and soft-shelled turtle,NG31 6TJ,52.911090263765200,-0.639287018936373
amethystine python and Siskin,NG31 7AT,52.906822991414300,-0.647420532883468
smooth snake and gecko,NG31 7FX,52.899170000000000,-0.647124000000000
Rat and bicycle lizard,NG31 7GQ,52.902830580200000,-0.647946397000000
Towhee and Cloud rat,NG31 7JR,52.897779868266900,-0.657796401662438
Old World warbler and Chipmunk,NG31 7JY,52.899408421305400,-0.656823000000000
Peafowl and black snake,NG31 7NA,52.909551101856900,-0.671693334437075
Moluccan boobook and cobra de capello,NG31 7NQ,52.908659039449500,-0.673118411121259
skink and Shearwater,NG31 7NR,52.909668000000000,-0.640577093679687
Greenbul and green turtle,NG31 7NT,52.905123047558300,-0.652885767327021
Greenbul and Old World quail,NG31 7QB,52.905859123178900,-0.658349662731264
Fox and gecko,NG31 7QY,52.904021655497300,-0.660428544622476
bushmaster and kabaragoya,NG31 7SG,52.900269027969200,-0.654523029990064
indigo snake and Goose,NG31 7WU,52.903376733100000,-0.641446796400000
frilled lizard and flying lizard,NG31 8AL,52.915988210632000,-0.657322773136510
Black cockatoo and Asiatic leopard,NG31 8AN,52.916845487723800,-0.645725104696622
saltwater crocodile and hawksbill,NG31 8BQ,52.916377477093600,-0.642527179181463
Petrel and Piping shrike,NG31 8DP,52.926520847976100,-0.644337223023695
Ibex and Black jay,NG31 8DU,52.927254208505300,-0.636147094814741
anaconda and Ice seal,NG31 8EB,52.926235623611000,-0.638261772936246
hognose snake and chameleon,NG31 8EL,52.925172664220200,-0.644364460586405
worm lizard and Kākāriki,NG31 8ER,52.927643134270800,-0.641847513658675
Jerboa and Prion,NG31 8FL,52.916788687407100,-0.644685770769432
Fox and Jackal,NG31 8FU,52.927287056298800,-0.664366842464203
constrictor and mud turtle,NG31 8GA,52.927785761711600,-0.660751336331581
Magpie and Partridge,NG31 8HG,52.927147296137300,-0.659937957738004
frilled lizard and Jerboa,NG31 8JJ,52.929511950209300,-0.653601597125263
black snake and perentie,NG31 8JL,52.929787219487900,-0.654887388207890
Wader and Francolin,NG31 8LJ,52.933675000000000,-0.668764153108195
green turtle and Badger,NG31 8QB,52.928913734957800,-0.650793511975604
snake and giant tortoise,NG31 8RQ,52.912894003198100,-0.665954745274873
Tit-tyrant and dukite,NG31 8RZ,52.914192557708600,-0.664604000000000
Argus and sea snake,NG31 8SH,52.914608000000000,-0.660816000000000
Scimitar babbler and worm lizard,NG31 8UE,52.918073712486100,-0.654923152613928
gopher snake and Fish eagle,NG31 8UF,52.916560000000000,-0.668103000000000
boa and Masked owl,NG31 8XJ,52.921466000000000,-0.666684000000000
crocodile and thorny devil,NG31 9AZ,52.916669199827200,-0.632687062358917
jew lizard and Crow,NG31 9BL,52.917900939687000,-0.628796069834037
king cobra and giant tortoise,NG31 9HX,52.919398079086400,-0.630771622989194
Piping shrike and Moluccan boobook,NG31 9JY,52.915502649597800,-0.624305951673794
amethystine python and Masked owl,NG31 9LJ,52.919043580982800,-0.624208610327882
Booted eagles and adder,NG31 9PP,52.924942000000000,-0.625732000000000
turtle and Chipmunk,NG31 9PR,52.924050251514000,-0.628810053776471
Cuscus and Pheasant,NG31 9RA,52.923051016147300,-0.615513509292127
viper and Chipmunk,NG32 1AB,52.896695437424100,-0.679757282825455
Old World quail and Bronzewing pigeon,NG32 1AS,52.888497335987500,-0.687125819718231
cobra and Cloud rat,NG32 1BN,52.917458495614200,-0.685908067831676
Argus and fer-de-lance,NG32 1DD,52.909859277101300,-0.685662187843155
smooth snake and anole,NG32 1DN,52.915333441272400,-0.692932657755260
king snake and Pratincole,NG32 1DR,52.911143718804400,-0.709342428072116
Grosbeak and tortoise,NG32 1HQ,52.884217729438600,-0.695459000000000
bearded dragon and leguaan,NG32 1PT,52.878063000000000,-0.754123200374634
giant tortoise and Meadowlark,NG32 1QF,52.852895543996200,-0.760613478106664
thorny devil and constrictor,NG32 1QY,52.839729528301300,-0.780125315716404
Greenbul and taipan,NG32 1RU,52.856746587651500,-0.799325000000000
Mole and Viscacha,NG32 1SG,52.853080203424200,-0.816611045421255
gaboon viper and Old World quail,NG32 2AH,53.023174757261600,-0.655741622494386
Thicketbird and Nukupuʻu,NG32 2BG,53.006460000000000,-0.620894000000000
agamid and copperhead,NG32 2BX,52.958263000000000,-0.617671161312581
jew lizard and Meadowlark,NG32 2DS,52.954096784432400,-0.724274548087988
Booted eagles and diamondback terrapin,NG32 2EE,52.959881258472700,-0.737279827913275
puff adder and Gila monster,NG32 2FT,52.953232120551300,-0.726636984355709
Petrel and leathery turtle,NG32 2JD,52.991153316595300,-0.676804000000000
copperhead and boomslang,NG32 2JG,53.002009248654400,-0.693341618056225
flying lizard and Armadillo,NG32 2JW,52.980099109606600,-0.720440561228458
diamond python and Polecat,NG33 5DU,52.861318833242100,-0.621905583724898
jew lizard and Dolphin,NG33 5FD,52.845888000000000,-0.665256000000000
