name,postcode,lat,lon
The Plough Inn,LE14 3AH,52.8582,-0.9759
The Tap & Run,LE14 3BG,52.8289,-0.9876
NAGS HEAD,LE14 4BN,52.8721,-0.8958
The Plough Inn,LE14 4HW,52.8720,-0.8547
Venezia,NG12 2NL,52.9446,-1.0064
plough inn,NG12 3AB,52.9263,-0.9830
Sarsfield's Chocolaterie and Tearooms,NG12 3ED,52.8719,-0.9866
The Nevile Arms,NG12 3EH,52.8734,-0.9912
THE MARTINS ARMS,NG12 3FD,52.8907,-0.9646
THE THATCH RESTAURANT,NG13 0AA,52.9420,-0.8066
The Poppy Seed,NG13 0AH,52.9421,-0.8032
Little jacks farm & garden centre ltd,NG13 0AU,52.9442,-0.8141
Pauls Restaurant,NG13 0BW,52.9417,-0.8022
Windmill Inn,NG13 0GA,52.9106,-0.8156
Anchor Inn,NG13 0JJ,52.8980,-0.8599
Yeung Sing Cantonese Restaurant,NG13 8AB,52.9519,-0.9527
Butlers Coffee House,NG13 8AD,52.9517,-0.9536
Horse & Plough,NG13 8AF,52.9514,-0.9544
Rose & May,NG13 8AF,52.9515,-0.9548
COPPER,NG13 8AP,52.9527,-0.9521
Number Sixteen,NG13 8AP,52.9527,-0.9524
Pizza Pizza Plus Ltd,NG13 8AR,52.9525,-0.9532
The White Lion,NG13 8AT,52.9504,-0.9603
Costa Bingham,NG13 8BD,52.9522,-0.9534
Costa Coffee,NG13 8BD,52.9522,-0.9534
The Wheatsheaf Bingham,NG13 8BG,52.9512,-0.9543
the royal oak,NG13 8JE,52.9777,-0.9307
Caffe Velo Verde,NG13 8JL,52.9852,-0.9125
INDIANNIGHTS ,NG13 8LA,52.9739,-0.9521
Indian Nights,NG13 8LA,52.9738,-0.9521
The Royal Oak,NG13 8PA,52.9803,-0.9695
The Unicorns Head ,NG13 9HE,52.9041,-0.9255
Langar Hall,NG13 9HG,52.9043,-0.9276
COACH GAP CAFE,NG13 9HP,52.9002,-0.9139
Wildflower Farm & Tearoom,NG13 9HP,52.9002,-0.9139
abm catering at John Deere,NG13 9HT,52.8962,-0.9122
The Orston Durham Ox LTD,NG13 9NS,52.9629,-0.8546
staunton arms ,NG13 9PE,52.9864,-0.8008
Jo-Hanna's Cafge & Bistro,NG14 7AB,53.0107,-1.0036
The Worlds End,NG14 7AT,53.0111,-1.0080
The Old Ship Inn,NG14 7BE,53.0127,-1.0049
The Railway,NG14 7DU,53.0078,-0.9993
The Old Volunteer,NG14 7EB,53.0070,-0.9834
Tom Browns (Gunthorpe) limited,NG14 7FB,52.9867,-0.9826
red lion ,NG14 7GP,53.0378,-0.9642
The Reindeer Inn,NG14 7JR,53.0151,-0.9586
The Five Bells Inn,NG23 5BJ,53.0311,-0.7293
The Royal Oak,NG23 5DJ,52.9967,-0.7588
sixtytwo,NG23 5DL,52.9943,-0.7573
the reindeer inn,NG23 5EH,52.9897,-0.7560
The Wheatsheaf Inn,NG23 5HU,53.0104,-0.7322
The Boot & Shoe Pub,NG23 5LA,53.0056,-0.8949
The Brews Brothers,NG24 3RQ,53.0461,-0.7702
Iuliano's Italian Restaurant ,NG31 6BA,52.9092,-0.6406
Tinel Ltd,NG31 6BA,52.9092,-0.6406
shiva shakti company limited,NG31 6BA,52.9092,-0.6407
Costa Coffee,NG31 6BT,52.9070,-0.6434
Starbucks,NG31 6BT,52.9069,-0.6434
Costa Coffee,NG31 6EE,52.9098,-0.6428
BOMBAY BRASSERIE,NG31 6EY,52.9093,-0.6391
Pizza Hut Restaurant,NG31 6HS,52.9048,-0.6361
McDonalds,NG31 6HT,52.9022,-0.6348
Kitchen and Coffee,NG31 6LA,52.9109,-0.6450
Pizza Express,NG31 6LH,52.9122,-0.6432
Eden Wine Bar,NG31 6LJ,52.9134,-0.6440
Conduit Tea Gardens Ltd,NG31 6LQ,52.9128,-0.6444
Everest Inn Grantham LTD,NG31 6LT,52.9119,-0.6437
The Leaf Restaurant,NG31 6LT,52.9119,-0.6437
HOP SING LTD,NG31 6LU,52.9109,-0.6439
angelos coffee,NG31 6LX,52.9106,-0.6445
KATANA JAPANESE CUISINE GRANTHAM,NG31 6NJ,52.9115,-0.6434
Knightingales,NG31 6NJ,52.9115,-0.6434
Kings Walk Cafe,NG31 6NL,52.9117,-0.6433
Subway Grantham,NG31 6NN,52.9127,-0.6429
The Black Dog,NG31 6NS,52.9138,-0.6436
The Garden Yard,NG31 6NZ,52.9142,-0.6454
O alentejano,NG31 6PN,52.9130,-0.6426
Teaspoon tea company,NG31 6PN,52.9130,-0.6426
Prezzo,NG31 6QF,52.9103,-0.6412
Finkins,NG31 6QZ,52.9129,-0.6413
Compass Group at Crown House Restaurant,NG31 6SY,52.9138,-0.6388
Avenue Hotel Grantham LTD,NG31 6TH,52.9113,-0.6379
CM Restaurants (Holdings) Ltd,NG31 7ES,52.9039,-0.6303
Fun Farm Grantham,NG31 7LE,52.9098,-0.6529
Grantham Bowl,NG31 7LE,52.9090,-0.6541
BURGER KING-Grantham,NG31 7SA,52.9020,-0.6509
Burger King,NG31 7SA,52.9023,-0.6510
Costa Coffee,NG31 7SA,52.9023,-0.6510
KFC Grantham DT,NG31 7SA,52.9022,-0.6511
KFC,NG31 7SA,52.9022,-0.6511
Buzz Bingo,NG31 7XQ,52.9070,-0.6650
Urban Hotel Grantham,NG31 7XT,52.9007,-0.6633
Moy Park,NG31 8HZ,52.9221,-0.6514
Recruiting Sergeant,NG31 8JP,52.9349,-0.6663
Miller & Carter Grantham,NG31 8SR,52.9179,-0.6640
Elior (Belton Lane Community Primary School),NG31 9PP,52.9256,-0.6266
The Gregory Arms,NG32 1AD,52.8880,-0.6876
The Chequers Inn,NG32 1LU,52.8981,-0.7563
The Rutland by Belvoir ltd,NG32 1NY,52.9069,-0.7481
The Fuel Tank,NG32 1PA,52.8961,-0.7831
Cafe Allez! Belvoir Castle,NG32 1PE,52.8947,-0.7827
The Geese and Fountain,NG32 1QR,52.8528,-0.7620
The Manners Arms,NG32 1RH,52.8729,-0.7736
The Wheel Inn,NG32 1RU,52.8568,-0.7986
BB's Coffee Shop c/o Boundary Mill Stores,NG32 2AB,52.9480,-0.6784
Downtown Garden Centre Restaurant,NG32 2AB,52.9481,-0.6785
Downtown Grantham Restaurant,NG32 2AB,52.9480,-0.6784
Moto 101 Ltd,NG32 2AB,52.9481,-0.6785
The Welby Arms ,NG32 2EA,52.9533,-0.7260
Burger King,NG32 2HB,52.9192,-0.7400
Moto Hospitality,NG32 2HB,52.9192,-0.7400
The Thorold,NG32 2HH,52.9820,-0.6743
The Olde Barn Hotel,NG32 2HT,52.9800,-0.6768
Belton Garden Centre,NG32 2LN,52.9432,-0.6271
Belton Woods,NG32 2LN,52.9432,-0.6271
The Stag,NG32 2NB,52.9631,-0.6144
Stoke Rochford Hall,NG33 5EJ,52.8419,-0.6379
Stoke Rochford Catering,NG33 5EW,52.8389,-0.6302
CM Restaurants (Holdings) Ltd,NG33 5FF,52.8305,-0.7001
McDonalds,NG33 5FF,52.8305,-0.7001
