name,id,postcode,lat,lon
harlequin snake and diamondback,2627459,LE14 4FD,52.874566000000000,-0.896494000000000
crocodile and saltwater crocodile,706246,NG31 8BP,52.914823178056200,-0.655261815970138
Polecat and monitor,721736,NG12 1EJ,52.973178001259700,-1.016175908580900
puff adder and saltwater crocodile,706220,NG31 9HJ,52.919333823793300,-0.636128229510559
Minke whale and tokay,720413,NG13 9JT,52.908062000000000,-0.905550000000000
Chickadee and Scimitar babbler,720482,NG13 9PG,52.958243309431700,-0.853311599906973
box turtle and amphisbaena,721017,NG13 0AR,52.943994995739900,-0.808566154609820
Capuchin and Fox,706139,NG31 8AB,52.916262865582200,-0.651409799014515
River dolphin and Rabbit,706632,NG31 6PD,52.915705512716200,-0.646667892071306
Greenbul and smooth snake,719792,NG14 7GZ,53.030119672515000,-0.969684398555466
Polecat and bicycle lizard,706329,NG31 7FP,52.899305000000000,-0.648680000000000
rat snake and diamond snake,705909,NG31 9QF,52.922748051349200,-0.622707811663396
turtle and tortoise,720448,NG13 8JE,52.976803000000000,-0.929907000000000
Pratincole and Mink,719775,NG14 7GA,52.991175002634000,-0.986194596945599
whip snake and Magpie,709956,NG23 5NZ,53.028444945214700,-0.862932000000000
puff adder and amethystine python,720541,NG13 8NB,52.981405102706500,-0.962428000966115
Solitaire and Parakeet,721525,NG12 2NH,52.945230319826100,-1.004413088734690
turtle and Partridge,706027,NG31 8PH,52.914003371015700,-0.652729228429032
copperhead and Darwin's finches,706254,NG31 8BZ,52.917017678728300,-0.640335698928875
Vole and Partridge,720797,NG13 8BX,52.950531979889200,-0.946779485370696
Ice seal and amethystine python,710189,NG23 5BB,53.032910073337900,-0.737742614438208
Guillemot and Dolphin,706882,NG31 0SP,52.910858820938800,-0.639487593593744
Treepie and Kangaroo,721015,NG13 0AP,52.941592642372100,-0.811950646596962
tortoise and Logrunners,719850,NG14 7WE,53.009219000000000,-0.995862000000000
Philippine hawk-owl and wall lizard,720660,NG13 0FZ,52.941372859424000,-0.807060779782967
tortoise and Stint,706095,NG31 8TR,52.909668000000000,-0.640577093679687
Snipe and leguaan,720798,NG13 8BY,52.950692729782400,-0.944632267322346
Bronzewing pigeon and Hawaiian honeycreeper,704933,NG33 5BW,52.862583643108200,-0.628653985154198
blue tongue and New World blackbird,706552,NG31 6LU,52.910881825687000,-0.644021000000000
Tit-tyrant and Schneider python,706835,NG31 0AR,52.909668000000000,-0.640577093679687
sand viper and turtle,719729,NG14 7DS,53.012563770496000,-0.994979544343532
lizard and Tree warbler,704958,NG33 5ED,52.836370003434500,-0.635803935373163
Songlark and Thicketbird,1796591,NG31 6FA,52.910003840500000,-0.636867504200000
cayman and tuatara,708857,NG24 3GQ,53.049569247052500,-0.782727373510500
loggerhead and water snake,720339,NG13 9BU,52.976192318820400,-0.887969133429517
Chickadee and bushmaster,1796452,NG23 5RW,53.002931963300000,-0.846644052300000
Masked owl and Wader,719809,NG14 7JH,53.012475000703500,-0.963680406648209
Partridge and milk snake,706453,NG31 7LE,52.909772000000000,-0.652875000000000
whip snake and crocodile,705921,NG31 9QW,52.921146753922400,-0.619515987215933
worm lizard and Rat,706410,NG31 8LT,52.934924353674600,-0.663997820526119
Eagle and boa constrictor,720549,NG13 8NN,52.978988472087800,-0.967773189832801
king cobra and Viscacha,2254994,NG13 0EZ,52.943432000000000,-0.803949000000000
galliwasp and harlequin snake,705891,NG31 9PH,52.922932675608700,-0.630124617050891
diamondback terrapin and Ground sloth,705509,NG32 2EY,52.932031566395900,-0.724729975110589
Grackle and Snipe,706915,NG31 6BH,52.909555000000000,-0.644837000000000
Logrunners and Old World vulture,706363,NG31 8HG,52.927147296137300,-0.659937957738004
indigo snake and Guillemot,706255,NG31 8DA,52.917263553388200,-0.640610587240061
Argus and Triller,919728,LE14 4BZ,52.873034195907600,-0.893654708173655
New World blackbird and Grouse,2655619,NG12 2PU,52.916895000000000,-1.005030000000000
Piping shrike and harlequin snake,706625,NG31 6NR,52.913092903737500,-0.643031408330909
horned toad and Marsh harrier,1796047,NG13 0HX,52.905749372100000,-0.844423702400000
diamond snake and Songlark,720785,NG13 8BE,52.952232389003000,-0.954061431026121
blue tongue and Diving bird,705917,NG31 9QR,52.921368000000000,-0.617560000000000
garter snake and turtle,705662,NG32 1DQ,52.909230211390500,-0.688937819178429
Skunk and Meadowlark,704955,NG33 5DZ,52.863127215590800,-0.625903600067310
Mole and frill-necked lizard,720253,NG13 9AP,52.956257673260400,-0.890640000000000
blue racer and kabaragoya,720748,NG13 0JE,52.896670901761100,-0.860630857291428
Jay and Gila monster,707013,NG31 6HR,52.906499000000000,-0.638613000000000
leguaan and puff adder,706666,NG31 6RS,52.915321098716800,-0.642128908747124
Old World warbler and bushmaster,705552,NG32 2JA,52.989014254806600,-0.671014832384767
Marsh harrier and cobra de capello,705665,NG32 1DT,52.915909265469700,-0.693972000000000
Coati and gopher snake,720106,NG14 7AY,53.013044704178500,-1.013154000000000
tuatara and Pheasant,706069,NG31 8RS,52.914006736523100,-0.658588680047214
grass snake and gecko,721447,NG12 2HF,52.948662602508400,-1.023712408279090
Rat and hawksbill,919856,LE14 3AH,52.858174383523100,-0.975884487779967
brown snake and alligator,706895,NG31 0TE,52.910858820938800,-0.639487593593744
Prion and diamond python,920002,LE14 3QF,52.839470000000000,-0.995045000000000
Stint and puff adder,720446,NG13 8JB,52.988788819910500,-0.928330128247398
leguaan and Tahr,706879,NG31 0SH,52.910858820938800,-0.639487593593744
Old World quail and Herring gull,705427,NG32 1TB,52.912788510749000,-0.687967832016416
snake and bandy-bandy,706371,NG31 8HS,52.926641672468600,-0.654970011017812
Philippine hawk-owl and Solitaire,721530,NG12 2NQ,52.943553217743300,-1.008112454407450
pit viper and Flameback,705708,NG32 1JB,52.886665096054600,-0.686467765971887
amphisbaena and Magpie,705586,NG32 2LX,52.951801000000000,-0.617345000000000
Schneider python and alligator,721604,NG12 3EF,52.873990984985100,-0.987844019733295
rock snake and mud turtle,1796592,NG31 7EU,52.910832160600000,-0.654580000000000
goanna and Bronzewing pigeon,709826,NG23 5FT,52.988872078333400,-0.755920545247183
crocodile and Lemming,720236,NG13 8YX,52.946994562677600,-0.965721949616654
mud turtle and Quetzal,706909,NG31 6AP,52.909668000000000,-0.640577093679687
Black jay and ringhals,706277,NG31 8ED,52.923809823323800,-0.640747692315945
Warbler and Maya,706513,NG31 7QP,52.905362572414200,-0.658959762114815
Goose and tiger snake,919783,LE14 4JG,52.858435000000000,-0.905191529134962
king cobra and Dorcopsis,710200,NG23 5BS,53.030457711632400,-0.728628490831345
tokay and Capuchin,721450,NG12 2HJ,52.948280567808900,-1.020982499437730
jew lizard and viper,720630,NG13 0EJ,52.944015253083700,-0.798966689288289
terrapin and Bronzewing pigeon,705625,NG32 1AQ,52.872509271988800,-0.690847571462510
Parrotlet and cycling lizard,720583,NG13 8QF,52.947283471470900,-0.945399845858366
diamond python and sea snake,706385,NG31 8JN,52.930465501476000,-0.654449788650042
puff adder and Minke whale,706388,NG31 8JR,52.935992911829100,-0.667089607173363
lizard and Skunk,706276,NG31 8EB,52.926235623611000,-0.638261772936246
Shearwater and galliwasp,2617268,NG23 5NN,53.019003000000000,-0.910076000000000
giant tortoise and Dolphin,720421,NG13 9LH,52.951484988785300,-0.852773000000000
gaboon viper and black snake,720571,NG13 8PR,52.983634115478000,-0.970656458336411
sea snake and Grouse,720340,NG13 9BW,52.965676890676100,-0.909590264934543
Mockingbird and coral snake,709842,NG23 5HG,52.994551649762100,-0.734436165130488
Argus and brown snake,919776,LE14 4HY,52.870648460110600,-0.856276265092463
blue racer and Chipmunk,709951,NG23 5NT,53.023367447692200,-0.865809071843263
blindworm and monitor,705680,NG32 1EN,52.908886116125400,-0.689528143930451
Fulmarine petrel and American sparrow,2655640,NG13 7AS,52.960854000000000,-0.963974000000000
indigo snake and Mockingbird,706060,NG31 8RF,52.913854662838000,-0.670654491595470
deaf adder and Maya,720530,NG13 8LL,52.984350734430300,-0.962745000000000
fer-de-lance and Thrasher,706243,NG31 8BJ,52.916634550878700,-0.643783336533924
Prion and kabaragoya,705913,NG31 9QL,52.926679947672000,-0.619890404035039
Fulmarine petrel and Flameback,706916,NG31 6BJ,52.909095154246900,-0.644851550860331
flying lizard and gavial,2636137,NG31 8WP,52.921135000000000,-0.663615000000000
leguaan and indigo snake,710205,NG23 5BY,53.029487493224500,-0.698102000000000
snake and mud turtle,719776,NG14 7GB,53.037715923692600,-0.932978786389278
Viscacha and Maya,706664,NG31 6RQ,52.913790000000000,-0.642555634899097
wall lizard and Partridge,719755,NG14 7EZ,52.989426973849500,-0.987829540999412
hoop snake and bearded dragon,709852,NG23 5HW,52.994569673532100,-0.732751992910630
Cuscus and Old World quail,706082,NG31 8SH,52.914608000000000,-0.660816000000000
Parrotbill and worm lizard,706228,NG31 8AQ,52.915205291156400,-0.651695480746122
Old World quail and Stilt,706304,NG31 8FQ,52.932238291080800,-0.645899342926602
black snake and anaconda,706168,NG31 9DJ,52.911270112435000,-0.629124443647948
American sparrow and rock snake,705875,NG31 9NP,52.919207670285700,-0.615888948760703
bull snake and bearded dragon,706438,NG31 7JF,52.896185133987500,-0.651929054681195
Condor and jew lizard,706794,NG31 7DT,52.910762394452600,-0.659477061831093
Chickadee and Piping shrike,720819,NG13 8DZ,52.952279722882000,-0.944161987432457
Chickadee and Kangaroo,721551,NG12 3AH,52.929105000000000,-0.985296980302409
cerastes and Quetzal,2255027,NG13 8SW,52.952051000000000,-0.974443000000000
Eagle and Grosbeak,704964,NG33 5EL,52.836983000000000,-0.635042000000000
Kangaroo and amphisbaena,705579,NG32 2LN,52.943179189176100,-0.627104089668864
Hawaiian honeycreeper and chuckwalla,919874,LE14 3BN,52.828283324788700,-0.995882250306112
Marsh harrier and Stint,706025,NG31 8PF,52.913810770367200,-0.652393151060485
swift and constrictor,720683,NG13 8TE,52.953131927054200,-0.967495720459229
Viscacha and smooth snake,706712,NG31 7AS,52.908362730870000,-0.649216461557651
Pratincole and dukite,720328,NG13 9AY,52.953281189736800,-0.898976375814229
Bronzewing pigeon and wall lizard,919774,LE14 4HW,52.871999399094300,-0.854665863061536
Gila monster and Marmoset,2655733,NG33 5FF,52.830541000000000,-0.700059000000000
puff adder and Marmoset,720540,NG13 8NA,52.982156581411500,-0.959818000000000
Argus and Wader,719734,NG14 7DY,53.006780635388900,-0.999972341666681
puff adder and box turtle,709836,NG23 5GZ,52.993986842876800,-0.761047914600966
taipan and boa constrictor,706984,NG31 6DP,52.909011024640800,-0.642207266746041
sidewinder and Meadowlark,710195,NG23 5BJ,53.031130069328100,-0.729294676755624
king snake and frill-necked lizard,720628,NG13 0EG,52.940799781083400,-0.789502157399081
king snake and blind snake,710223,NG23 5DW,52.996352114109300,-0.756168000000000
green turtle and Black jay,1796568,NG31 0FU,52.909668000000000,-0.640577121500000
Marsh harrier and copperhead,720824,NG13 8EF,52.953081466449800,-0.938292679739589
Partridge and Stint,720546,NG13 8NH,52.979612161955900,-0.965062508084465
galliwasp and Cloud rat,2258055,NG31 6PF,52.916793000000000,-0.647805000000000
box turtle and hoop snake,721389,NG12 3RB,52.872686043967800,-0.990845860273211
River dolphin and Fish eagle,706205,NG31 9GB,52.924963824924500,-0.616880565352015
boa and bull snake,705676,NG32 1EG,52.924232287093200,-0.691192014616034
caiman and Siskin,706707,NG31 7AJ,52.906963860019700,-0.648739537190215
Parrotlet and Perching duck,719738,NG14 7ED,53.002916000000000,-0.975667000000000
Vulture and diamond python,721716,NG12 3FX,52.895643176625800,-0.970631244626091
puff adder and horned toad,720095,NG14 7AJ,53.010957511959000,-1.002797150270680
slowworm and mud turtle,721105,NG13 0DB,52.942693221563200,-0.798438000000000
giant tortoise and Badger,705679,NG32 1EL,52.916386689244400,-0.687353420098153
leguaan and constrictor,720722,NG13 8XG,52.954004000000000,-0.951920000000000
bandy-bandy and glass snake,919767,LE14 4HJ,52.872783252689500,-0.860320000000000
Kangaroo and Tree warbler,710293,NG23 5DY,52.996165733775600,-0.760508754662769
Argus and Moluccan boobook,706693,NG31 6TL,52.910950141713200,-0.638042250095916
