name,postcode,lat,lon
Mouse and Kākāriki,BB12 9AF,53.812830000000000,-2.290842781000000
Nukupuʻu and Macaw,BB5 2HB,53.748827550000000,-2.362854346000000
Fish eagle and Jackal,OL13 8JG,53.694216960257500,-2.207728863015020
Asiatic leopard and Tattler,BB5 6AX,53.758789080000000,-2.364912072000000
Goose and Argus,BB11 3RW,53.771708700000000,-2.251686660000000
Stilt and Quetzal,HX7 6NL,53.737175861963600,-2.034072382841490
Fox and Egret,BD22 0LS,53.890144380000000,-2.051147310000000
Fox and Jay,OL14 8NL,53.734087388006400,-2.140272061662200
Parrotbill and Bronzewing pigeon,BB9 8JX,53.842701650000000,-2.189892134000000
Cuscus and Marmoset,BB9 7XD,53.839193920000000,-2.212747285000000
Chipmunk and Francolin,BB12 7AP,53.797611660000000,-2.312917853000000
Gull and Triller,BB9 0QR,53.829836310000000,-2.213413894000000
Siskin and Black cockatoo,BB4 5QF,53.706575880000000,-2.328087251000000
Fish eagle and Quetzal,BB4 8NS,53.723673000000000,-2.285678630000000
Marsh harrier and Parakeet,BB12 9PG,53.834226220000000,-2.261528000000000
Egret and Francolin,BB4 4HQ,53.691303380000000,-2.328680150000000
Stint and Kākāriki,BB9 8NZ,53.846227730000000,-2.219789847000000
Marmoset and Elephant,BB10 4EN,53.786300270000000,-2.227186363000000
Petrel and Chicken,BB12 6PU,53.790034280000000,-2.299033370000000
Puffleg and Chickadee,OL14 6SD,53.696141063658600,-2.103676199337570
Hawk and Lemming,BB9 7RF,53.841439320000000,-2.208533770000000
Vole and Ground sloth,BB10 1BE,53.800300000000000,-2.238604458725980
Masked owl and Mouse,BB8 9NU,53.854413620000000,-2.183651504000000
Thrasher and Argus,OL13 0LF,53.691250424638500,-2.227733795921200
Puffleg and Stint,OL13 8HP,53.697149502247700,-2.206334787874680
Parrotlet and Old World vulture,OL14 8SF,53.736658043213500,-2.132321803945250
Philippine hawk-owl and Egret,BB10 4DJ,53.787804120000000,-2.225676684000000
Recurvebill and Diving bird,BB4 6LY,53.694015000000000,-2.316630104000000
Mole and Cuscus,BB8 0SL,53.855331870000000,-2.170474923000000
Ice seal and Ground sloth,BB11 5PJ,53.746812190000000,-2.275996211000000
Grosbeak and Armadillo,OL14 5BT,53.715135000000000,-2.091177000000000
Chipmunk and Chickadee,BD20 8HS,53.909289120000000,-2.094447000000000
Capuchin and Chipmunk,BB5 6AD,53.756819860000000,-2.362225596000000
Night heron and Meadowlark,BB10 4LQ,53.786860980000000,-2.220526344000000
Pratincole and Black cockatoo,BB12 6LS,53.791378060000000,-2.289859368000000
White ibis and Night heron,OL14 6LJ,53.712010098744100,-2.097700437090560
Treepie and American sparrow,BB9 7UZ,53.839265000000000,-2.218568000000000
B and Warbler,BB12 7AJ,53.796575400000000,-2.313927282000000
Stint and Tree warbler,BB9 6HL,53.854398200000000,-2.214572737000000
Partridge and Macaw,BB10 3HN,53.804272660000000,-2.229060158000000
Grouse and Armadillo,BB5 6HF,53.760045050000000,-2.353713684000000
Mink and Boto,BB9 6JL,53.856292030000000,-2.210979349000000
Stint and Myna,BB11 9SE,53.787596100000000,-2.244648146000000
Meadowlark and Hawaiian honeycreeper,BB4 4NQ,53.688354390000000,-2.338666285000000
Old World warbler and Night heron,OL13 8GZ,53.702405837258900,-2.202073820428860
Stilt and Snipe,BB10 4BX,53.788469370000000,-2.230324841000000
Gull and American sparrow,BB4 9QU,53.731570780000000,-2.241639460000000
Puffleg and Treepie,OL12 8XE,53.684495792078700,-2.158094343854650
White ibis and Wallaby,BB4 8DW,53.728843000000000,-2.281259000000000
Ice seal and Thrasher,BB9 7LT,53.838153220000000,-2.216708246000000
American sparrow and Macaw,BB5 6PZ,53.755009760000000,-2.360405213000000
Puffleg and Grosbeak,BB4 8LR,53.714306930000000,-2.289253046000000
Grosbeak and Grouse,BB12 7EJ,53.788121000000000,-2.299156000000000
Prion and Tahr,BB9 8AL,53.848723420000000,-2.216474100000000
Ice seal and Coati,BB10 1TU,53.808533040000000,-2.224269566000000
Zebra and Peafowl,BB9 0BZ,53.830610540000000,-2.212703735000000
American sparrow and Peafowl,BB5 6LX,53.770122320000000,-2.340735527000000
Tree warbler and Stint,OL13 0QX,53.692553292125100,-2.223182535025020
Kangaroo and Eagle,BB11 9SG,53.787596100000000,-2.244648146000000
Recurvebill and Wallaby,BB4 5ND,53.703400730000000,-2.318973863000000
Tree warbler and Viscacha,BB12 8JG,53.801977030000000,-2.317399083000000
Thrasher and Grackle,OL13 9TE,53.693175532387900,-2.190822947839370
Tahr and Cloud rat,OL14 6PG,53.699960184311700,-2.104624690507860
Fish eagle and Rat,BB9 0NF,53.833592840000000,-2.192433968000000
Fox and Warbler,BB4 8UR,53.711128140000000,-2.284246692000000
Parrotbill and Quetzal,BB11 5LS,53.784798780000000,-2.270675693000000
Darwin's finches and Jay,BB9 7HE,53.835379650000000,-2.219459000000000
Mole and Capuchin,BB10 2JX,53.814853240000000,-2.203176972000000
Kestrel and Scimitar babbler,BB9 4GZ,53.834157000000000,-2.218269000000000
Mole and Grackle,BB4 9BH,53.694662590000000,-2.247515955000000
Masked owl and New World blackbird,BB11 3QZ,53.758725190000000,-2.217421059000000
Asiatic leopard and Ibex,BB12 7QX,53.812656000000000,-2.327184000000000
Cloud rat and Argus,BB11 5EX,53.786067360000000,-2.274068454000000
Jerboa and Black cockatoo,BB10 3QT,53.816686810000000,-2.186584755000000
Jerboa and Tit-tyrant,OL13 8QR,53.726985000000000,-2.199115000000000
American sparrow and Siskin,BB4 8HJ,53.707081580000000,-2.288794420000000
Grosbeak and Flameback,BB11 4LH,53.785754130000000,-2.257249841000000
Dolphin and Civet,BB8 8ST,53.835099350000000,-2.119200000000000
Duck and Old World quail,BB10 1SD,53.806203620000000,-2.234461293000000
Herring gull and Scimitar babbler,BB9 5BF,53.824612800000000,-2.228958000000000
Towhee and Tahr,OL14 6QW,53.696142704107500,-2.101767918922170
Bronzewing pigeon and Duck,BB4 8HS,53.709418710000000,-2.288704389000000
Armadillo and Recurvebill,BB9 4WB,53.834130000000000,-2.218087000000000
Black cockatoo and Meadowlark,BB4 7RE,53.705779950000000,-2.280544648000000
Petrel and Puffleg,BB10 4TU,53.761410670000000,-2.197806764000000
Bunting and Kestrel,BB4 5LR,53.705568880000000,-2.321580677000000
Booted eagles and Warbler,BB9 8DD,53.841519110000000,-2.187439972000000
Snipe and Kākāriki,BB11 5RH,53.780004720000000,-2.316125324000000
Old World vulture and Ground sloth,BB9 0WD,53.832666000000000,-2.193690341000000
Macaw and Old World vulture,BB10 4EQ,53.785923810000000,-2.231342951000000
Flameback and Asiatic leopard,BB9 9LH,53.836245450000000,-2.186003195000000
Songlark and Thrasher,OL13 0DS,53.697913904361400,-2.200810324243180
Dolphin and Greenbul,BB9 6NH,53.898542200000000,-2.236028563000000
Thrasher and Rat,BB9 5LP,53.823566870000000,-2.235211544000000
Moluccan boobook and Condor,BB18 5WF,53.901224000000000,-2.186736000000000
Fulmarine petrel and Rabbit,BB4 6HB,53.693819262423400,-2.289006726787290
American sparrow and Perching duck,BB5 1AG,53.756192950000000,-2.361477025000000
Skunk and Nukupuʻu,BB10 1AH,53.797721950000000,-2.242004790000000
Shearwater and Vulture,BB18 5QR,53.909247000000000,-2.191030696000000
Jerboa and B,BB9 8BY,53.840755140000000,-2.187436555000000
Duck and Philippine hawk-owl,OL14 7TH,53.689256310207500,-2.103507816577330
Macaw and Recurvebill,BD20 8HL,53.900129000000000,-2.097105000000000
Fulmarine petrel and Peafowl,BB10 3BU,53.800700950000000,-2.230877789000000
Cloud rat and Rat,BB9 9XN,53.840238160000000,-2.206673750000000
Peafowl and Shearwater,OL14 5LH,53.717331000000000,-2.099122000000000
Ibex and Tree warbler,BB9 7PS,53.838008010000000,-2.217482506000000
Tree warbler and Night heron,BB5 6DZ,53.758488700000000,-2.357219484000000
Tit-tyrant and Piping shrike,BB4 7RR,53.702698560000000,-2.283705114000000
Kākāriki and Kākāriki,OL13 8RB,53.732422479133800,-2.198701000000000
Tattler and Armadillo,OL14 6XB,53.680098349990300,-2.078324000000000
Meadowlark and Recurvebill,BB10 2NB,53.821011000000000,-2.228134000000000
Stilt and Bronzewing pigeon,OL14 7UN,53.687193779566300,-2.108302729114530
Quetzal and Petrel,BB11 2DE,53.789763350000000,-2.239636570000000
Ibex and Triller,BB12 7QG,53.809444450000000,-2.350242097000000
Civet and Vulture,OL14 6JE,53.707356346993500,-2.068951711226250
Coati and Jay,BB4 8SH,53.700797190000000,-2.289493553000000
Jackal and Shearwater,BB11 1DF,53.791526000000000,-2.244140897000000
Dolphin and B,BB4 7RB,53.704687700000000,-2.282536943000000
Nukupuʻu and Parrotlet,BB4 5QT,53.705882670000000,-2.325203605000000
Minke whale and Rat,BB9 8PZ,53.849296960000000,-2.217404285000000
Pitohui and Myna,BB4 6QR,53.698442480000000,-2.314362252000000
Darwin's finches and Booted eagles,BB10 1JD,53.806367380000000,-2.238015461000000
Black cockatoo and B,BB12 0LL,53.800013520000000,-2.271532885000000
Dolphin and Prion,BB9 0QD,53.827018600000000,-2.215921478000000
Old World vulture and Treepie,BB11 9DG,53.790929280000000,-2.240887922000000
Kangaroo and Cuscus,BB4 8JD,53.711692490000000,-2.288795724000000
Mouse and Scimitar babbler,BB4 7TB,53.701722700000000,-2.266385337000000
Partridge and Eagle,BB11 5PQ,53.747700000000000,-2.273591000000000
Fish eagle and B,BB8 8SD,53.843781820000000,-2.135806074000000
Treepie and Masked owl,OL14 5JS,53.719430438751800,-2.102263723044520
Bronzewing pigeon and Chicken,BB7 9HJ,53.835990140000000,-2.339401316000000
Prion and Magpie,BB10 1DF,53.800060720000000,-2.241061769000000
Zebra and Rat,BB4 5HQ,53.706930260000000,-2.326681148000000
Dorcopsis and Thrasher,BB8 0DD,53.854188650000000,-2.177873707000000
Masked owl and Wallaby,BB12 9BU,53.831770210000000,-2.289773763000000
Civet and Argus,OL13 9QY,53.698030926928700,-2.200704861263600
Scimitar babbler and Capuchin,BB11 4AA,53.788694110000000,-2.256827670000000
Booted eagles and Argus,BB9 7SH,53.831192710000000,-2.228462675000000
Grackle and Quetzal,BB18 6TP,53.898251700000000,-2.148035725000000
Chickadee and Chicken,BB4 5DY,53.703834590000000,-2.328050763000000
Parrotbill and Logrunners,BB9 0TF,53.834704340000000,-2.205081376000000
Booted eagles and Old World quail,BB10 4UB,53.768724070000000,-2.210038867000000
Armadillo and Fulmarine petrel,BB12 8HF,53.801601470000000,-2.316394000000000
Cuscus and Kite,BB4 8NH,53.723570690000000,-2.286755473000000
Partridge and Moluccan boobook,BB11 4BW,53.786335900000000,-2.262520037000000
Mole and Quetzal,BB12 9NZ,53.826508140000000,-2.251817841000000
Minke whale and Pitohui,BB11 4LN,53.786499400000000,-2.257588314000000
Wallaby and New World blackbird,BB7 9HU,53.833688260000000,-2.336556465000000
Parrotlet and New World blackbird,BB12 6BB,53.795707430000000,-2.287308473000000
Magpie and Snipe,BB9 0AN,53.832686880000000,-2.217637239000000
Parrotbill and Coati,BB9 8NP,53.847316850000000,-2.218929178000000
Zebra and Philippine hawk-owl,BB10 3LB,53.795702410000000,-2.226812162000000
Egret and Chicken,BB4 8RY,53.735193050000000,-2.286198000000000
Kite and Shearwater,BB9 6QE,53.841520260000000,-2.232911049000000
Hawaiian honeycreeper and Mink,OL14 8AH,53.718260215450000,-2.081152667992360
Mink and Parakeet,OL13 9QU,53.696953780380000,-2.199851586732570
Cloud rat and Masked owl,BB12 0RE,53.792647350000000,-2.253299747000000
Songlark and Asiatic leopard,BB9 7YE,53.842150920000000,-2.212762293000000
Magpie and Macaw,BB9 5QR,53.819778250000000,-2.246613000000000
Old World warbler and Thrasher,OL14 7EE,53.732367009131700,-2.143358584037380
Buzzard and Vole,BB9 0ND,53.833733160000000,-2.194592263000000
Coati and Logrunners,HX7 6DT,53.742588869788200,-2.025237463882710
Jackal and Vole,BB12 0JP,53.796075300000000,-2.260045665000000
Minke whale and Ice seal,OL14 8AQ,53.718116959532000,-2.080334129090440
Fulmarine petrel and Bunting,BB8 8RU,53.845247680000000,-2.135066082000000
Moluccan boobook and Thicketbird,BB10 3PT,53.787582680000000,-2.187290206000000
Kākāriki and Thrasher,BB12 7QB,53.805408030000000,-2.353579398000000
Puffleg and Condor,BB12 6JA,53.791781050000000,-2.282955434000000
Duck and Jerboa,BB8 9QU,53.852744990000000,-2.198602574000000
Wader and Ibex,BB10 3LY,53.789706780000000,-2.191124740000000
Cuscus and Fox,BB4 7TZ,53.697042530000000,-2.256950417000000
Vole and Wader,BB4 4AY,53.690245000000000,-2.328142000000000
Towhee and Bunting,BB12 0LF,53.794349530000000,-2.268232455000000
Elephant and Black cockatoo,BB10 4DE,53.786902660000000,-2.227083377000000
Bronzewing pigeon and Guillemot,BB8 8PQ,53.845019690000000,-2.137953118000000
Siskin and Diving bird,BB4 9SS,53.697316090000000,-2.246547076000000
White ibis and Wallaby,BB4 9RA,53.729205690000000,-2.237760842000000
Civet and Old World vulture,OL13 3DA,53.703933000000000,-2.201384000000000
Vole and Armadillo,OL14 7UR,53.687746922688100,-2.102792426702750
Armadillo and Mink,BB12 0DN,53.790929280000000,-2.240887922000000
River dolphin and Grackle,OL13 8QF,53.723697332152300,-2.197477951752720
Old World vulture and White ibis,BB9 9JD,53.838988770000000,-2.201439948000000
Myna and Boto,BB11 4QF,53.785602900000000,-2.252058000000000
Scimitar babbler and Argus,BB11 9SH,53.787596100000000,-2.244648146000000
Black jay and Solitaire,OL14 6NP,53.711625375460600,-2.095775000000000
Jackal and Fox,BB4 9TF,53.698885250000000,-2.243996559000000
Skunk and Magpie,BB11 1RY,53.790627640000000,-2.252073234000000
Linsang and Crow,BB4 6BN,53.694144980000000,-2.289902204000000
Armadillo and Hawaiian honeycreeper,OL13 0NH,53.691400643681400,-2.238289587251980
Rabbit and Masked owl,BB9 7HU,53.835517990000000,-2.222575238000000
Argus and Black cockatoo,BB4 7EF,53.682905200000000,-2.243570996000000
Magpie and Jay,BB12 7JE,53.811425230000000,-2.336499458000000
Badger and Puffleg,BB10 4QB,53.790191250000000,-2.222835859000000
Thrasher and Masked owl,BB11 4PZ,53.786894980000000,-2.253325773000000
Logrunners and Minke whale,BB8 8PP,53.839509330000000,-2.146186837000000
Recurvebill and Herring gull,BB4 6JH,53.693568910000000,-2.304709314000000
Siskin and Boto,BB5 6EG,53.755982220000000,-2.359822042000000
Vulture and Coati,BB12 6LU,53.790803650000000,-2.289521461000000
Eagle and Boto,BB5 2DR,53.731299380000000,-2.325824303000000
Tree warbler and Argus,BB9 7XR,53.840898030000000,-2.214761981000000
Black jay and Grackle,OL14 7PW,53.704524000000000,-2.107846679040960
Parrotlet and Logrunners,BB4 8TJ,53.724680840000000,-2.281019130000000
Thicketbird and Polecat,BB4 4QS,53.687730382284300,-2.335330281585300
Chipmunk and Shearwater,BB9 6NN,53.859837040000000,-2.237771785000000
Tattler and Grouse,OL14 7HZ,53.715294000000000,-2.132861000000000
Warbler and Civet,OL13 9HR,53.705453794879800,-2.190515004962600
Warbler and Partridge,BB10 1RR,53.804594280000000,-2.234710436000000
Mink and Moluccan boobook,BB11 5PW,53.745501810000000,-2.279065686000000
Snipe and Jerboa,BB4 9BL,53.694655100000000,-2.246788970000000
Logrunners and Cuscus,BB11 1LQ,53.787091000000000,-2.245950000000000
Argus and Moluccan boobook,OL14 5JP,53.719395543222400,-2.101021053889760
Hawk and Lemming,OL14 5NR,53.720914550880300,-2.100994395467340
Myna and Old World quail,BB18 5TT,53.904098050000000,-2.171784786000000
Mole and Parrotlet,BB11 5BW,53.780345030000000,-2.280526230000000
Jerboa and Meadowlark,OL14 6LF,53.711595838193000,-2.098684267856090
Shearwater and Hawk,BB4 7AT,53.693028780000000,-2.250853193000000
Kite and Kangaroo,BB9 9UP,53.837421810000000,-2.213589272000000
Greenbul and Ice seal,BB8 0PZ,53.857810990000000,-2.151556731000000
Flameback and River dolphin,BB11 5HE,53.784660830000000,-2.275986761000000
Tree warbler and Gull,OL14 7NF,53.707807098554300,-2.104280621009010
Solitaire and Philippine hawk-owl,OL13 0HP,53.689506461157400,-2.218229863779430
Masked owl and Parrotbill,BB11 3DU,53.793028220000000,-2.233962689000000
Hawaiian honeycreeper and Rabbit,BB9 7YN,53.842088670000000,-2.217397293000000
Moluccan boobook and Perching duck,BB5 6AG,53.757434150000000,-2.361199513000000
Kangaroo and B,BB8 7JE,53.863336830000000,-2.121500379000000
Fish eagle and Jackal,BB11 4QG,53.786964660000000,-2.254373464000000
Petrel and Quetzal,BB11 5RY,53.784776760000000,-2.276382126000000
Marmoset and Magpie,BL0 0GZ,53.677909340000000,-2.305565063000000
Tree warbler and Boto,BB8 7NY,53.875554460000000,-2.170557285000000
Guillemot and Bronzewing pigeon,BB9 7LZ,53.839802420000000,-2.214254869000000
Booted eagles and Nukupuʻu,OL13 8QU,53.725859591097000,-2.194350843450320
Herring gull and White ibis,BB9 9SJ,53.835905000000000,-2.213050000000000
Petrel and Armadillo,BB9 0PY,53.827977500000000,-2.217476065000000
Armadillo and Perching duck,BB5 6BQ,53.761055100000000,-2.361609820000000
Towhee and Grackle,BB18 6TT,53.895131400000000,-2.149272469000000
Skunk and Duck,BB4 9SA,53.712340640000000,-2.234923311000000
Chickadee and Quetzal,BB4 4AF,53.682979810000000,-2.328872674000000
Pheasant and Capuchin,BB12 7DX,53.794485430000000,-2.308841349000000
Petrel and Chipmunk,BB10 1EY,53.811043030000000,-2.237054852000000
Capuchin and Dolphin,BB9 4UW,53.836984000000000,-2.215519000000000
Solitaire and Fulmarine petrel,BD20 8FP,53.902387000000000,-2.111024000000000
Scimitar babbler and Capuchin,BB9 5AF,53.823893140000000,-2.233830976000000
Ibex and Peafowl,BB10 3JG,53.789382250000000,-2.202643894000000
Bronzewing pigeon and Ibex,OL14 6NF,53.712354300389500,-2.094398332727560
Badger and Thrasher,BB12 0LE,53.794439270000000,-2.268293751000000
Treepie and Kangaroo,BB12 8UA,53.802496670000000,-2.297011609000000
Duck and Partridge,OL14 5SQ,53.716840336929800,-2.080801417566530
Mouse and Night heron,BB8 8RR,53.847746900000000,-2.134542149000000
Magpie and Mole,BB9 9JN,53.837893470000000,-2.200705266000000
Chickadee and Stint,BB4 7EQ,53.681698950000000,-2.244472427000000
Songlark and Bronzewing pigeon,BB5 6DG,53.760394390000000,-2.357144658000000
Towhee and Herring gull,BB12 8DU,53.804626270000000,-2.307793000000000
Kite and Civet,BB18 5TP,53.904388180000000,-2.170020418000000
Tahr and Maya,BB12 6HH,53.789468000000000,-2.284625000000000
Tree warbler and Elephant,BB9 5RH,53.827744130000000,-2.231695100000000
Viscacha and Vole,HX7 7JS,53.744325243072700,-2.067132000000000
Old World vulture and Grackle,BB7 4BA,53.893681950000000,-2.349333634000000
Masked owl and Towhee,BB18 6ND,53.910721730000000,-2.152068230000000
Masked owl and Egret,BB4 7JH,53.693421000000000,-2.265470385000000
Mouse and Coati,BB8 8QS,53.848804590000000,-2.137083976000000
Parrotbill and Siskin,BB9 6DA,53.839291210000000,-2.228263657000000
Petrel and Old World quail,BB4 5RA,53.708633060000000,-2.325194531000000
Ice seal and Snipe,BB9 7DS,53.834115140000000,-2.218268000000000
Tree warbler and Mink,BB11 1DX,53.789178190000000,-2.244551110000000
Linsang and Piping shrike,OL14 7JR,53.706626213795600,-2.108155807097840
Vole and Solitaire,OL13 0SF,53.693389896132800,-2.227382000000000
Fish eagle and Polecat,BB8 9BH,53.857142210000000,-2.174100654000000
Parrotbill and Masked owl,BB9 5JU,53.819842370000000,-2.236983049000000
Buzzard and Partridge,BB8 9LT,53.862114890000000,-2.166093087000000
Treepie and Rabbit,BB9 4GY,53.834157000000000,-2.218269000000000
Night heron and Hawaiian honeycreeper,BB9 5DN,53.824535000000000,-2.231920436000000
Parakeet and Francolin,OL13 0RQ,53.692742464594300,-2.222956377889990
Gull and Dolphin,OL14 6LT,53.712091878304200,-2.096609766479070
Chickadee and Minke whale,BB4 5RF,53.708012960000000,-2.321841719000000
Siskin and Thrasher,BB8 0ES,53.855556680000000,-2.170399825000000
Skunk and Darwin's finches,BB8 9PY,53.858960030000000,-2.178669369000000
Perching duck and Crow,OL13 8AD,53.704526016099500,-2.202674768344010
Buzzard and Pitohui,BB4 5RX,53.707197700000000,-2.324183611000000
Scimitar babbler and Songlark,BB4 7RQ,53.704504100000000,-2.284156566000000
Buzzard and Jerboa,BB9 7XL,53.840020160000000,-2.213116206000000
Mamo and Kākāriki,BB4 7AA,53.688019490000000,-2.247931221000000
Rat and Goose,BB4 9JZ,53.705040180000000,-2.245410000000000
Quetzal and Chickadee,OL14 7AR,53.714777037565300,-2.099388716083910
Stilt and Kākāriki,BD22 0BY,53.884098040000000,-2.045039495000000
Hawk and Jay,BB7 4BY,53.885095840000000,-2.285852577000000
Chipmunk and Thrasher,BB8 0HG,53.855299720000000,-2.167783944000000
Hawk and Solitaire,BB11 3HX,53.783433570000000,-2.231632769000000
Ground sloth and Piping shrike,BB9 5AE,53.823633910000000,-2.233100359000000
Fox and Piping shrike,BB9 6RG,53.870280710000000,-2.203734791000000
Dolphin and Puffleg,BB11 1RW,53.789698680000000,-2.249305113000000
Polecat and Perching duck,OL14 8RN,53.728921812028700,-2.063424547106550
Minke whale and Dorcopsis,BB9 0XD,53.829070060000000,-2.209611734000000
Solitaire and Kangaroo,BB11 3LT,53.782470610000000,-2.236863253000000
Linsang and White ibis,BB4 9BS,53.694207770000000,-2.241849000000000
Wallaby and Eagle,BB4 9BW,53.695341640000000,-2.245111910000000
Duck and Pheasant,BB10 3HJ,53.807210790000000,-2.224809166000000
Pheasant and Vole,BB5 1JR,53.752523910000000,-2.365404000000000
Buzzard and Magpie,OL14 8SS,53.719196437798900,-2.064077000000000
Jackal and Piping shrike,BB9 4GP,53.834157000000000,-2.218269000000000
Peafowl and Towhee,BB9 9RL,53.836458650000000,-2.209314368000000
Shearwater and Duck,BB4 4AS,53.694230060000000,-2.352025496000000
Thrasher and Masked owl,OL13 9EP,53.705020000000000,-2.192573000000000
Kākāriki and Tit-tyrant,BB4 6ND,53.696906910000000,-2.310382693000000
Marsh harrier and Parrotlet,BB9 8QH,53.849242450000000,-2.217723210000000
Macaw and Bronzewing pigeon,BB10 3DU,53.804947740000000,-2.228547575000000
Egret and Partridge,BB4 6SW,53.700967000000000,-2.304869000000000
Asiatic leopard and Flameback,OL13 9HG,53.708308450304100,-2.192588000000000
Solitaire and Black jay,BB11 5QZ,53.774876470000000,-2.318044139000000
Crow and Kākāriki,BB9 6HX,53.854713970000000,-2.213905452000000
White ibis and B,BB10 3AH,53.799142070000000,-2.237503852000000
Ibex and Linsang,BB5 6PU,53.754870640000000,-2.361829655000000
Warbler and Moluccan boobook,BB4 6EA,53.693634270000000,-2.292927545000000
Vole and Prion,BB5 2SX,53.734254860000000,-2.342506786000000
Rabbit and Fish eagle,BB10 1DA,53.800356860000000,-2.241291209000000
Booted eagles and Elephant,BB4 6AT,53.696630340000000,-2.287980693000000
Quetzal and Kestrel,BB4 6NU,53.702006960000000,-2.322553222000000
Booted eagles and Capuchin,BB11 5DA,53.778810390000000,-2.275660015000000
Kestrel and Cloud rat,BB4 8FG,53.734257740000000,-2.282886964000000
Stilt and Tattler,BB8 0HR,53.856997930000000,-2.168140420000000
Elephant and Fulmarine petrel,BB5 1EQ,53.751464480000000,-2.361724539000000
Marsh harrier and Tattler,BB9 8SR,53.845980990000000,-2.206930057000000
Viscacha and Civet,OL13 0BA,53.688265000000000,-2.214332000000000
Tattler and Moluccan boobook,BB9 9SL,53.836335000000000,-2.213673851000000
Kākāriki and Buzzard,BB10 3SQ,53.789021510000000,-2.197997512000000
Black jay and Hawaiian honeycreeper,BB8 0QZ,53.861794730000000,-2.156892862000000
Fish eagle and Bronzewing pigeon,BB18 5TE,53.905169090000000,-2.170738963000000
Ibex and Parrotbill,OL14 7PS,53.703148659194200,-2.107222863334740
Ibex and Meadowlark,HX7 7PF,53.755646650905100,-2.056534000000000
Zebra and Towhee,BB5 2JS,53.741172000000000,-2.356572000000000
Macaw and Kite,BB8 9EG,53.864082440000000,-2.166663503000000
Dolphin and Prion,BB4 8LG,53.715075040000000,-2.291258379000000
Old World vulture and Cloud rat,BB12 8RF,53.796806000000000,-2.305154000000000
Piping shrike and Boto,BB8 7AH,53.862142560000000,-2.144760568000000
Chickadee and Maya,BB9 7NF,53.839010810000000,-2.214630739000000
Boto and Greenbul,BB4 6SQ,53.699322020000000,-2.304432828000000
Partridge and Prion,BB10 3NZ,53.786256860000000,-2.190198385000000
Coati and Darwin's finches,BB5 6LY,53.774334110000000,-2.341604000000000
River dolphin and Darwin's finches,BB8 0JL,53.857167990000000,-2.162135835000000
Night heron and Polecat,OL13 8BU,53.706288000000000,-2.203365000000000
Stilt and Chipmunk,BB12 9PF,53.835547660000000,-2.261308466000000
Thicketbird and Ibex,BD22 0LY,53.889201750000000,-2.067121707000000
Old World quail and River dolphin,BB9 7EW,53.836597000000000,-2.218068000000000
Rat and Flameback,BB12 8TD,53.795750960000000,-2.302489801000000
Flameback and Rat,BB4 4LH,53.687784760000000,-2.333467940000000
Egret and Solitaire,HX7 6PB,53.737380798248900,-2.039833322890000
Polecat and Minke whale,OL14 6JA,53.707277308167500,-2.065664224945040
Nukupuʻu and Dolphin,BB9 5SR,53.833388030000000,-2.235555000000000
Badger and Triller,OL14 5QW,53.712825000000000,-2.091248757509980
Booted eagles and Maya,BB9 0BB,53.832519160000000,-2.215949802000000
Badger and Condor,BB4 7TS,53.698050120000000,-2.260682436000000
Peafowl and Shearwater,BB8 0LR,53.857690530000000,-2.161210451000000
Chipmunk and Nukupuʻu,OL14 5SZ,53.717481768368500,-2.075802234741570
Asiatic leopard and Grosbeak,BB4 5AP,53.715424060000000,-2.320019473000000
Kite and Petrel,BB9 0RH,53.830012700000000,-2.210239374000000
Warbler and Puffleg,BB4 8SJ,53.701084840000000,-2.289480381000000
White ibis and Piping shrike,BB8 8RA,53.849873610000000,-2.137558693000000
Bronzewing pigeon and Dorcopsis,OL13 9JW,53.701894000000000,-2.191226000000000
Towhee and Macaw,OL13 9JQ,53.702875452736600,-2.189730818843890
Diving bird and Chicken,BB5 6UD,53.766317830000000,-2.341630096000000
River dolphin and Vole,BB11 1UF,53.793499910000000,-2.240857126000000
Tit-tyrant and Marmoset,BB4 9AJ,53.693520450000000,-2.252128233000000
Lemming and Eagle,BB12 7FB,53.787436000000000,-2.298362000000000
Maya and Kākāriki,BB4 4HZ,53.686307880000000,-2.331245581000000
Skunk and Pitohui,BB9 5QE,53.824695000000000,-2.240536000000000
Chickadee and Skunk,BB9 0PR,53.826360060000000,-2.222162027000000
Wallaby and Black cockatoo,BB12 0AT,53.796868830000000,-2.246053311000000
Thicketbird and Solitaire,OL13 0HG,53.691152130222400,-2.217768940198980
Kite and Old World quail,BB8 7JX,53.864987590000000,-2.168537450000000
Maya and Chipmunk,BB4 5LH,53.705095920000000,-2.323652398000000
Zebra and Dorcopsis,HX7 7HS,53.750306635249500,-2.059013662318160
Perching duck and Herring gull,BB12 8PF,53.806677110000000,-2.314230580000000
Snipe and Tahr,BB11 4HX,53.785996020000000,-2.249116187000000
Magpie and Coati,BB9 8JP,53.841546230000000,-2.198503913000000
Linsang and Ice seal,BB5 6QZ,53.755689170000000,-2.358636540000000
B and B,BB10 1SF,53.807138150000000,-2.234572809000000
Ground sloth and Black cockatoo,BB10 3PR,53.789884300000000,-2.186845105000000
Thrasher and Hawaiian honeycreeper,BB9 5LN,53.823349910000000,-2.234998000000000
Polecat and Goose,BB10 4DL,53.788325820000000,-2.225466990000000
Snipe and Mamo,BB11 5QT,53.769211470000000,-2.325678047000000
Boto and Puffleg,BB11 5AX,53.788369000000000,-2.266145000000000
Jerboa and Linsang,BB12 7NZ,53.806837560000000,-2.350372203000000
Skunk and Skunk,BB4 8EP,53.713438930000000,-2.287656191000000
Stint and Guillemot,BB4 9EL,53.698522390000000,-2.254233158000000
Grackle and Thrasher,OL14 6SJ,53.694633933268700,-2.100310391626980
Grouse and Diving bird,OL12 8BD,53.672215000000000,-2.172231000000000
Francolin and Ground sloth,BB12 8RS,53.799230300000000,-2.312611084000000
Cuscus and Rat,OL13 8AB,53.704176097740800,-2.202309532358460
Shearwater and Bronzewing pigeon,BB8 7RA,53.862724030000000,-2.154159404000000
Pratincole and Goose,BB10 3ED,53.804818160000000,-2.225783330000000
Duck and Old World vulture,BB5 5UH,53.790754850000000,-2.354503442000000
Petrel and Meadowlark,BB9 8AB,53.839436620000000,-2.202353908000000
Scimitar babbler and Prion,BB11 5NL,53.772678010000000,-2.256578069000000
Logrunners and Old World vulture,OL13 9SB,53.688647675139500,-2.183700641789140
Mamo and Stilt,BD22 0NP,53.878661390000000,-2.042326063000000
Night heron and Crow,BB9 5DJ,53.825624320000000,-2.230999759000000
Perching duck and Scimitar babbler,BB11 5QU,53.774607510000000,-2.317784156000000
Puffleg and Greenbul,BD22 0AH,53.886086270000000,-2.039625574000000
Mamo and Perching duck,BB12 8JU,53.801821580000000,-2.325095808000000
Kangaroo and Goose,BB9 7AN,53.833562000000000,-2.221273000000000
Marmoset and Mamo,BB8 7AD,53.862663500000000,-2.145051269000000
Old World warbler and Snipe,OL13 9QD,53.695124490001800,-2.197268300240510
Shearwater and Chicken,BB11 5HX,53.777605300000000,-2.263998118000000
Bronzewing pigeon and Buzzard,BB12 8RE,53.796479950000000,-2.305652760000000
Scimitar babbler and Old World vulture,BB10 2QQ,53.811097300000000,-2.222825361000000
Pitohui and Perching duck,BB9 0JL,53.829549120000000,-2.202822761000000
Pheasant and Cuscus,BB7 4DB,53.890970490000000,-2.287277310000000
Warbler and Vole,BB12 8TF,53.796055970000000,-2.302719714000000
Macaw and Wallaby,BB9 4SY,53.836968960000000,-2.215516844000000
Thicketbird and Vulture,BB4 9HG,53.699384230000000,-2.258903422000000
Fish eagle and Tree warbler,OL13 8QP,53.726849260822600,-2.199220542772310
Petrel and Tree warbler,BB9 5TD,53.817670090000000,-2.226232208000000
Kangaroo and Stint,BB8 0EN,53.855782190000000,-2.169823039000000
Pheasant and Diving bird,BB10 3JR,53.788102270000000,-2.204808206000000
Tahr and Tattler,BB4 8HX,53.709710840000000,-2.290554696000000
Puffleg and Badger,BB9 7BW,53.834393330000000,-2.223207457000000
Cuscus and Macaw,BB9 5DR,53.822157780000000,-2.229537568000000
Stint and Parrotbill,BB18 5TY,53.905638400000000,-2.169371008000000
Magpie and Tree warbler,OL13 9NS,53.697550715234200,-2.197612863274300
Boto and Ibex,OL14 6NH,53.710780423764800,-2.095606829408820
Crow and Chicken,BB11 5QY,53.775068230000000,-2.316907572000000
Philippine hawk-owl and Eagle,BB9 9QT,53.836201940000000,-2.207048938000000
Herring gull and Mockingbird,OL14 7HX,53.710854746865000,-2.138952293401100
Coati and Crow,BB4 7HG,53.692283030000000,-2.254983003000000
Fish eagle and Polecat,BB9 4TE,53.836973503019500,-2.215517134948150
Stilt and Old World vulture,BD22 0LL,53.891943000000000,-2.083133000000000
Asiatic leopard and Maya,BB7 9HP,53.831792560000000,-2.345764063000000
Hawaiian honeycreeper and Warbler,BB4 9BU,53.695868690000000,-2.242297996000000
Black jay and Bronzewing pigeon,OL13 9HL,53.706703350141200,-2.190384316671030
Bronzewing pigeon and Macaw,OL14 8HN,53.730408000000000,-2.119615775079610
Cuscus and Scimitar babbler,OL13 9DN,53.708321730417600,-2.195633361589730
Vulture and Darwin's finches,BB7 4JZ,53.888389670000000,-2.360943860000000
Vole and Marsh harrier,OL14 6BF,53.692468169094300,-2.099866059817000
Mole and Mole,BB10 2DL,53.809879790000000,-2.215256215000000
Pratincole and Boto,BB8 0DJ,53.855174010000000,-2.174001257000000
Zebra and Jay,OL13 8PH,53.717923681783600,-2.199466214061140
Fox and Solitaire,OL14 8JX,53.731686805986300,-2.133079214383300
Elephant and Fulmarine petrel,BB11 4HW,53.780584420000000,-2.253788519000000
Warbler and Tit-tyrant,BB4 8EJ,53.704123070000000,-2.285638503000000
Tit-tyrant and Grackle,BB10 1EQ,53.808174720000000,-2.233060053000000
Tattler and Magpie,BB12 0JQ,53.793389850000000,-2.263262412000000
Rabbit and Egret,OL14 7AD,53.712926022784900,-2.098747993708010
Lemming and Hawaiian honeycreeper,OL13 0WT,53.703917003284300,-2.201384264542500
Mockingbird and Asiatic leopard,BB4 7TF,53.701247720000000,-2.269775261000000
Mouse and Old World warbler,OL14 6QP,53.696250302892300,-2.102071082179540
Macaw and Crow,BD22 0LZ,53.884917550000000,-2.077064289000000
Armadillo and Fox,OL13 9LZ,53.703999001835400,-2.195295178527800
Jay and Pratincole,BB12 6JU,53.790306500000000,-2.279348065000000
Magpie and Marmoset,BB11 5JW,53.776834140000000,-2.263173867000000
Mockingbird and Civet,OL14 5DY,53.718367042314200,-2.094760354025120
Pitohui and Eagle,OL13 0BY,53.693820633901100,-2.202986742623280
Cloud rat and White ibis,BB10 4BW,53.792717660000000,-2.231896491000000
Meadowlark and Grouse,BB9 6NT,53.858309980000000,-2.241822492000000
Argus and Capuchin,BB8 9ER,53.862155960000000,-2.168860563000000
Bronzewing pigeon and B,BB10 2PD,53.811463130000000,-2.229008283000000
Jay and Kestrel,BB4 9EF,53.698292550000000,-2.252414260000000
Chickadee and Kākāriki,OL14 7LB,53.712719196930900,-2.098868716614000
Grackle and Goose,HX7 7PE,53.756193250123300,-2.060098786161800
Kākāriki and Partridge,OL13 9JX,53.700993563963800,-2.197371514962860
Maya and White ibis,BB8 7NZ,53.875742180000000,-2.171272917000000
Elephant and Recurvebill,BB9 0TQ,53.835876510000000,-2.202883762000000
Mouse and Chipmunk,BB4 6SX,53.697363480000000,-2.317928570000000
Petrel and Fox,BB8 7XA,53.834115140000000,-2.218268000000000
Old World warbler and Goose,BB9 5BE,53.822811910000000,-2.230574121000000
Mink and Partridge,OL14 5NY,53.722477481092700,-2.102165052088380
Puffleg and American sparrow,BB4 7JP,53.695706670000000,-2.263666652000000
B and Gull,BB5 6TD,53.770787630000000,-2.346931112000000
Chicken and Vulture,BB10 2NL,53.809689860000000,-2.220843703000000
Parrotlet and Skunk,BB11 5BY,53.779458950000000,-2.271096552000000
Kite and Solitaire,BB8 7AU,53.866349890000000,-2.164847746000000
Crow and Civet,BB11 4NR,53.783879440000000,-2.259651463000000
White ibis and Recurvebill,BB5 1AD,53.754362500000000,-2.363417729000000
Jackal and Piping shrike,BB11 2PQ,53.777493510000000,-2.253329794000000
Night heron and Mockingbird,BB4 7TA,53.699611260000000,-2.270052568000000
Bunting and Pitohui,HX7 7LN,53.748288408352900,-2.019251192342620
Herring gull and Mole,OL13 8DT,53.707798789245900,-2.202023945705040
Buzzard and B,OL14 5EW,53.717711643030400,-2.093834552334050
Mamo and Mink,BB9 5EW,53.818967850000000,-2.219525494000000
Mink and Jackal,BB7 4EG,53.905230560000000,-2.273448299000000
Minke whale and Bunting,BB4 5SN,53.704245000000000,-2.326235136000000
Jay and Peafowl,BB8 0QL,53.859617920000000,-2.158222665000000
Greenbul and Greenbul,OL13 8EA,53.707612487033700,-2.200568723770670
Tattler and Condor,OL14 8BQ,53.718495599855700,-2.091260267912700
Parakeet and Condor,OL13 0AD,53.702040459438200,-2.200208955805070
Herring gull and Boto,BB11 3ND,53.784082000000000,-2.236068821000000
Chickadee and Buzzard,BB11 5LU,53.783234920000000,-2.270650443000000
Puffleg and Parakeet,BB7 4BF,53.893683670000000,-2.354872464000000
Old World quail and Perching duck,BB9 0NB,53.834022300000000,-2.193819000000000
Argus and Pratincole,BB5 1ES,53.753961690000000,-2.365173522000000
Crow and Rat,BB4 7LJ,53.699476950000000,-2.269824512000000
Grouse and Duck,OL14 6NW,53.711266033945500,-2.095289771956530
Boto and Fox,BB11 5LL,53.782733080000000,-2.269994628000000
Lemming and Civet,OL14 6HD,53.716156000000000,-2.052420000000000
Tit-tyrant and Tree warbler,BB10 4PG,53.784514000000000,-2.221910000000000
Myna and Old World vulture,BB9 0QX,53.829365170000000,-2.215523345000000
Myna and Badger,HX7 7LJ,53.746840622695300,-2.023223314851440
Old World quail and Pratincole,BB12 6HZ,53.790650980000000,-2.281930817000000
Rabbit and Guillemot,BB9 8RG,53.848826060000000,-2.224196332000000
Prion and Bronzewing pigeon,BB10 4NE,53.786767080000000,-2.212815550000000
Kite and Capuchin,BB9 9NL,53.835543000000000,-2.192899000000000
Grosbeak and Nukupuʻu,OL13 9TG,53.691147473501700,-2.182984658546950
Dorcopsis and Diving bird,BB9 5NG,53.828383310000000,-2.235770302000000
Polecat and Badger,BB4 4RN,53.697849770000000,-2.331064000000000
Greenbul and Duck,OL14 7SL,53.695503145087800,-2.103402019988880
Thicketbird and Fox,BB4 4LY,53.681917340000000,-2.332800811000000
Bronzewing pigeon and Polecat,BB10 1QD,53.801932000000000,-2.240435000000000
Booted eagles and Darwin's finches,BB4 7AW,53.691951710000000,-2.250135032000000
Moluccan boobook and Tahr,BB9 7DH,53.831655180000000,-2.226307649000000
Treepie and Jerboa,BB12 8ES,53.798441000000000,-2.315733000000000
Fulmarine petrel and Booted eagles,BB10 4AR,53.787685414657800,-2.214490060157070
Logrunners and Jerboa,BB8 8LA,53.846549030000000,-2.195138151000000
Ibex and Tit-tyrant,BB8 0LL,53.857469150000000,-2.165375308000000
Tattler and Condor,BB8 8PW,53.838706870000000,-2.140804471000000
Ground sloth and Moluccan boobook,BB9 5EZ,53.820463640000000,-2.222343459000000
Thrasher and Siskin,OL14 8AU,53.717942054736700,-2.086258595108800
Eagle and Buzzard,BB4 7NH,53.700711030000000,-2.284191579000000
Badger and Stint,BB5 2PU,53.738384120000000,-2.347452343000000
Eagle and Darwin's finches,BB12 7LH,53.783681000000000,-2.313148000000000
Puffleg and Skunk,BB8 7AW,53.865511180000000,-2.166897285000000
Parrotbill and Grosbeak,BB9 0NX,53.834332060000000,-2.191054621000000
Masked owl and Bunting,BB9 9DH,53.832421920000000,-2.209977957000000
Mamo and Tit-tyrant,BB10 4PJ,53.783678710000000,-2.215880762000000
Diving bird and Mockingbird,BB9 0HT,53.828013070000000,-2.202298781000000
Logrunners and Crow,BB10 1BJ,53.800872000000000,-2.240354010000000
Booted eagles and Quetzal,BB10 2FW,53.812275355652500,-2.204653000000000
American sparrow and Minke whale,BB4 7RX,53.702668250000000,-2.281311604000000
Chicken and Coati,BB4 4JL,53.690770530000000,-2.332855535000000
Guillemot and Kestrel,BB4 8UX,53.709583570000000,-2.283660572000000
Parrotbill and Coati,OL13 9UF,53.711164431489600,-2.176723560019870
Nukupuʻu and Chickadee,BB12 0JH,53.794772250000000,-2.264060472000000
Hawk and Jerboa,BB10 4RN,53.770218000000000,-2.188137708000000
Darwin's finches and Old World vulture,BB8 8BS,53.853873630000000,-2.137191784000000
Linsang and Ground sloth,BB10 4QR,53.789177820000000,-2.221646549000000
Scimitar babbler and B,BB11 3PR,53.778626630000000,-2.235399975000000
Greenbul and Stilt,BB4 6JN,53.690664620000000,-2.301599112000000
Vole and Badger,OL13 8DU,53.708563717328700,-2.201467079601570
Moluccan boobook and Booted eagles,BB5 6SL,53.753488420000000,-2.358193138000000
Dorcopsis and New World blackbird,BB4 9NQ,53.731856370000000,-2.251191000000000
Old World vulture and Partridge,BB9 7AJ,53.833033000000000,-2.220739000000000
Guillemot and Chipmunk,BB12 8QZ,53.797519510000000,-2.306844496000000
Diving bird and Jackal,BB8 0QT,53.863105720000000,-2.157840507000000
Zebra and B,BB8 9HT,53.857722000000000,-2.165513000000000
American sparrow and Maya,BB4 4BD,53.698765320000000,-2.321407604000000
White ibis and Stilt,BB4 8HB,53.705979310000000,-2.287438632000000
Ibex and Thicketbird,OL14 5EA,53.718564478706700,-2.095337000000000
Chickadee and Puffleg,OL13 8RH,53.724759091045500,-2.196770628422850
Booted eagles and Grouse,OL13 9XB,53.693945575165400,-2.181149199932350
Stilt and Civet,BB10 3ER,53.800886030000000,-2.228100343000000
Mink and Old World vulture,BB12 8UD,53.800251000000000,-2.285565140000000
Black cockatoo and Wallaby,BB11 4LB,53.785307790000000,-2.255820447000000
Asiatic leopard and Wader,BB9 0PL,53.824785620000000,-2.218112750000000
Meadowlark and New World blackbird,BB12 8BP,53.800548420000000,-2.313805152000000
Tahr and Linsang,BB9 7PG,53.840394440000000,-2.214911372000000
Towhee and Darwin's finches,BB9 8TX,53.843227000000000,-2.204606000000000
Grosbeak and Flameback,OL14 5JN,53.719872076761000,-2.100825201488620
Civet and Tahr,BB4 4AH,53.679485450000000,-2.337822982000000
Grosbeak and Booted eagles,BB12 6NY,53.796139800000000,-2.294325131000000
Minke whale and Jerboa,BB4 9BT,53.694734970000000,-2.242897264000000
Stint and Wader,BB4 5UB,53.719223660000000,-2.317532863000000
Thicketbird and Capuchin,BB9 6LH,53.864129250000000,-2.273377625000000
Diving bird and Partridge,BB12 8AQ,53.794237890000000,-2.269916775000000
Jackal and Bronzewing pigeon,BB4 7DU,53.685790610000000,-2.247842407000000
Gull and Treepie,OL14 7PZ,53.699867435482800,-2.107850654268500
Warbler and Marmoset,BB4 7NR,53.700613810000000,-2.283494173000000
Kangaroo and New World blackbird,OL14 5HY,53.718200832565000,-2.100503000000000
Eagle and Chicken,BB4 8JX,53.710001680000000,-2.285481404000000
Darwin's finches and Parrotbill,BB9 9NS,53.835122150000000,-2.185876649000000
Chickadee and Bunting,OL14 5PE,53.723318669577000,-2.106395307029630
Vulture and Bunting,BB4 9ND,53.714405350000000,-2.253783551000000
Tattler and Parakeet,BB9 6NQ,53.888640780000000,-2.220179915000000
Rat and Philippine hawk-owl,BB10 4HR,53.784798740000000,-2.207675736000000
Thrasher and Treepie,BB4 4PX,53.691399000000000,-2.330072543000000
Jay and Pratincole,BB4 6TL,53.695499720000000,-2.322488289000000
Old World warbler and Egret,BB12 7EA,53.793858940000000,-2.307804479000000
Masked owl and Maya,BB11 2RL,53.777484120000000,-2.235924679000000
Old World vulture and Moluccan boobook,BB11 4EF,53.785084390000000,-2.263377000000000
Rabbit and Prion,BB8 0JS,53.857342790000000,-2.159126265000000
Logrunners and Treepie,OL13 9DG,53.705810981247800,-2.197500127379950
Tattler and Masked owl,BB4 5QJ,53.705793000000000,-2.325279486000000
Asiatic leopard and Duck,OL13 9LP,53.704733082297800,-2.191556972173340
Dolphin and Kestrel,BB12 0JB,53.795586250000000,-2.265826581000000
Treepie and Kestrel,BB5 2PA,53.743775600000000,-2.354062133000000
New World blackbird and Thicketbird,BB7 4BT,53.891825500000000,-2.328822398000000
Triller and Chipmunk,BB12 8HS,53.802660750000000,-2.317161314000000
Bronzewing pigeon and Herring gull,OL14 8EY,53.725734533086900,-2.118025878807720
Skunk and Stilt,BB11 3NU,53.780949760000000,-2.233242871000000
Scimitar babbler and Masked owl,BB4 7NY,53.699396480000000,-2.273595432000000
Partridge and Francolin,OL14 7TP,53.691324279705800,-2.102695158761790
Guillemot and Masked owl,BB12 7JZ,53.783453890000000,-2.316970807000000
Wader and Dorcopsis,OL14 5SY,53.717797753409500,-2.073560177216800
Masked owl and Vulture,BB11 2HH,53.785456430000000,-2.245016000000000
Stint and Boto,BB5 2QG,53.737440730000000,-2.350415923000000
Armadillo and Meadowlark,OL13 9AU,53.690699277500000,-2.185133306600000
Puffleg and Minke whale,OL14 8RX,53.733289154147300,-2.079529000000000
New World blackbird and Tahr,BB11 5DS,53.782939590000000,-2.277948387000000
Myna and Vulture,BB9 6JH,53.856472110000000,-2.210797820000000
Magpie and Siskin,OL13 0SS,53.692829921580700,-2.228999278022140
Francolin and Wader,OL14 8ES,53.724733190038000,-2.112506507391080
Dorcopsis and White ibis,BB4 4QE,53.694865460000000,-2.340551094000000
Petrel and Peafowl,BB12 0BT,53.797742830000000,-2.249352868000000
Wallaby and Snipe,OL14 7AT,53.714876208185800,-2.099025306247300
Thicketbird and River dolphin,OL14 7TD,53.690819819574500,-2.103996243631430
Lemming and Cloud rat,BB8 8AB,53.850685680000000,-2.176308346000000
Recurvebill and Elephant,BB8 7QA,53.877509380000000,-2.167325397000000
Fox and Duck,BB12 7BW,53.792079940000000,-2.314485696000000
Perching duck and Chicken,BB4 7LG,53.698349000000000,-2.268454000000000
Viscacha and Thicketbird,BB11 4DB,53.780880000000000,-2.261105000000000
Buzzard and Capuchin,OL14 8AS,53.720576381753200,-2.071398037093770
Capuchin and Rabbit,BB10 2FT,53.799506000000000,-2.216478000000000
Fulmarine petrel and Dolphin,BB9 8QG,53.850150970000000,-2.217317512000000
Philippine hawk-owl and Logrunners,BB8 0NY,53.863178190000000,-2.164105399000000
Tahr and Cuscus,BB4 5NS,53.702437970000000,-2.319360410000000
Ground sloth and Flameback,BB11 3RD,53.755365000000000,-2.206939000000000
Kākāriki and Eagle,BB11 3RR,53.770753000000000,-2.240378000000000
Zebra and Duck,BB11 1PX,53.790595410000000,-2.245955843000000
Bunting and Old World quail,BB8 0EE,53.856152820000000,-2.168319461000000
Duck and Hawk,BB9 8EB,53.839628690000000,-2.205682949000000
Siskin and Condor,BB8 0AR,53.855440000000000,-2.161569000000000
Black jay and Philippine hawk-owl,HX7 6BT,53.741924025193500,-2.023933166932320
Duck and Chicken,BB12 0HW,53.794612150000000,-2.267353657000000
Ground sloth and Lemming,BB9 0PU,53.825647160000000,-2.218831245000000
Flameback and Tattler,BB9 9XB,53.839319460000000,-2.207793780000000
Diving bird and Nukupuʻu,HX7 6DP,53.744233683870600,-2.025223297299320
Tree warbler and Chipmunk,BB8 9NF,53.854589030000000,-2.180596615000000
Pheasant and Grosbeak,BB11 1SB,53.789995410000000,-2.253526618000000
Skunk and Wader,BD22 0BL,53.883766790000000,-2.041448907000000
Thrasher and Maya,BB12 9AP,53.811638000000000,-2.314723000000000
Argus and Tit-tyrant,OL14 7QW,53.693573000000000,-2.102110000000000
Fulmarine petrel and Marsh harrier,OL14 8HS,53.726581763785100,-2.115618444239690
Condor and Badger,BB12 6NA,53.790512630000000,-2.294604466000000
Moluccan boobook and Snipe,BB8 9PT,53.859138760000000,-2.179354308000000
Chicken and Skunk,BB4 9AU,53.695601010000000,-2.250080964000000
Nukupuʻu and Asiatic leopard,OL14 6LQ,53.709276689409900,-2.098951523507720
Cloud rat and Treepie,BB9 8HD,53.845153310000000,-2.212519153000000
Maya and Polecat,BB12 7JS,53.782680850000000,-2.316995329000000
Hawaiian honeycreeper and Stilt,HX7 6JW,53.739057817257200,-2.018473729206570
Francolin and Wallaby,BB8 9NR,53.853974000000000,-2.183132707000000
Wader and Vole,BB10 2LH,53.817961780000000,-2.238218000000000
Grouse and Dorcopsis,BB4 4BW,53.698823910000000,-2.326330547000000
Grosbeak and Minke whale,OL13 9RS,53.691732548108600,-2.193860267408050
Marsh harrier and Rat,BB10 1SR,53.805777000000000,-2.232531502000000
Egret and Flameback,BB11 9ED,53.790933870641400,-2.240888219424130
Hawk and Black cockatoo,OL14 8HH,53.726640698767700,-2.119665278096040
Scimitar babbler and Parrotlet,BB5 2HA,53.748653380000000,-2.363974986000000
Vole and Snipe,OL14 6HH,53.714095003796500,-2.056569000000000
Tree warbler and Linsang,BB9 5PB,53.824709220000000,-2.234762205000000
Marmoset and Armadillo,OL13 0BL,53.695715051752500,-2.204207466577900
Petrel and Old World warbler,BB5 2DS,53.725559110000000,-2.324673520000000
Piping shrike and Prion,OL13 8PZ,53.722394019880500,-2.197502146916110
Egret and White ibis,OL13 8QY,53.725514233279100,-2.191136243514480
Kestrel and Mink,BB12 0RU,53.806741000000000,-2.257682000000000
Grouse and Herring gull,BB12 8PY,53.801904340000000,-2.314285965000000
Logrunners and Cloud rat,BB12 0TJ,53.793899060000000,-2.256404087000000
Kestrel and Kite,HX7 7AS,53.764886000000000,-2.036856000000000
Fish eagle and Treepie,BB5 2QX,53.735556670000000,-2.343017635000000
Condor and Thrasher,OL14 6AH,53.713576871906000,-2.081961799225370
Scimitar babbler and Civet,BB8 9DX,53.861617910000000,-2.167991718000000
Tree warbler and Peafowl,BB12 8UE,53.798087560000000,-2.329849200000000
River dolphin and Warbler,BB9 7RR,53.842368720000000,-2.206425892000000
Myna and Moluccan boobook,BB10 2QX,53.817764640000000,-2.228511062000000
Coati and Pratincole,OL13 0RP,53.692623441512400,-2.224121826958380
Elephant and Thrasher,HX7 6DN,53.745249128300700,-2.026164002911970
Mamo and New World blackbird,BB5 6DW,53.757477620000000,-2.358697289000000
Masked owl and Solitaire,OL14 8BH,53.719520320094300,-2.091020000000000
New World blackbird and Thicketbird,BB9 6RN,53.850584020000000,-2.226151444000000
Fox and Hawaiian honeycreeper,BB8 7JS,53.866565810000000,-2.171113722000000
Marsh harrier and Peafowl,OL13 9PH,53.699498181917700,-2.193926290815620
Songlark and Cloud rat,BB11 5NH,53.773359200000000,-2.257462258000000
Diving bird and Jay,BB11 3HD,53.777004120000000,-2.233190621000000
Recurvebill and Eagle,BB9 0DX,53.829038390000000,-2.217299250000000
Marsh harrier and Stint,BB9 5RZ,53.826017340000000,-2.232262855000000
Songlark and Guillemot,BB10 1LL,53.799348760000000,-2.237520203000000
Marmoset and Parrotlet,BB4 8BS,53.729652840000000,-2.287918529000000
Peafowl and White ibis,OL14 8EN,53.723279117617400,-2.110365781326390
Parrotlet and Dorcopsis,BB10 3BD,53.800412600000000,-2.235871308000000
Grosbeak and New World blackbird,BB8 9SJ,53.860155430000000,-2.178659264000000
Diving bird and Crow,BB9 7BT,53.841637000000000,-2.217229000000000
Dorcopsis and Warbler,BB11 2LT,53.782815050000000,-2.252694000000000
Guillemot and Capuchin,BB4 8PT,53.719186920000000,-2.285740653000000
Kestrel and Chicken,BB5 1HU,53.750554600000000,-2.362414296000000
Grackle and Francolin,OL14 6DD,53.718399000000000,-2.061696000000000
Prion and Dolphin,BB4 8UD,53.710066300000000,-2.303071186000000
Argus and Cuscus,BB12 6QY,53.791611170000000,-2.270901744000000
Wader and Condor,BB8 7PS,53.877615120000000,-2.168831672000000
Chickadee and Vulture,BB4 5EB,53.702128290000000,-2.327522474000000
Puffleg and Nukupuʻu,BB8 8JD,53.849171200000000,-2.190985476000000
Stilt and Parrotbill,OL14 5PL,53.722295728945600,-2.104468095927500
Kite and Kangaroo,BB11 3EH,53.780873450000000,-2.231027000000000
Flameback and Goose,BB5 6HR,53.765436010000000,-2.345112058000000
Ground sloth and Black cockatoo,BB10 2BH,53.813236780000000,-2.222639286000000
Polecat and Greenbul,BB9 9LZ,53.837329080000000,-2.188500152000000
New World blackbird and Mink,BB5 2QE,53.738356740000000,-2.350681274000000
Piping shrike and Masked owl,BB9 7TP,53.839872980000000,-2.219954088000000
Ibex and Macaw,BB10 2AP,53.801329000000000,-2.227040000000000
Kākāriki and Pitohui,BB10 4HN,53.787215750000000,-2.208112669000000
Condor and Grouse,HX7 6PQ,53.736644852465200,-2.036482336680700
Polecat and Old World warbler,BB10 2PX,53.813344330000000,-2.232268644000000
Masked owl and Diving bird,BB12 6RA,53.791719510000000,-2.270689929000000
Parrotlet and Maya,BB12 9ES,53.831420850000000,-2.277889704000000
Greenbul and Cloud rat,BB9 8NF,53.848317000000000,-2.218144652000000
Tit-tyrant and Scimitar babbler,BB9 6JU,53.853248410000000,-2.219172995000000
Eagle and Peafowl,BB4 7HB,53.692470350000000,-2.255650465000000
Cloud rat and Solitaire,BB5 6BS,53.760880240000000,-2.365916165000000
Solitaire and Elephant,BB11 5JL,53.772787920000000,-2.259795359000000
Marsh harrier and Grouse,OL13 8DL,53.708633087040100,-2.202967223868630
Cuscus and White ibis,BB4 6BH,53.694949700000000,-2.287923777000000
Pheasant and Rabbit,HX7 7NH,53.750652087585000,-2.020283487679620
Myna and Peafowl,BB10 2BF,53.809949146187200,-2.224034424055020
Buzzard and Greenbul,BB11 9HG,53.790944000000000,-2.240889000000000
Logrunners and Cuscus,BB11 4NL,53.782531490000000,-2.259536899000000
Solitaire and Wallaby,BB8 0EZ,53.854859380000000,-2.167736573000000
Stint and Herring gull,BB10 4AL,53.787479650000000,-2.230865823000000
Skunk and Marmoset,OL14 8RP,53.731490914067200,-2.067521000000000
Zebra and Asiatic leopard,BB9 0DG,53.826617000000000,-2.214720423000000
Argus and Asiatic leopard,BB9 6HE,53.854638060000000,-2.216139803000000
River dolphin and Crow,BB4 8DD,53.731119770000000,-2.283366084000000
Boto and Black cockatoo,BB9 7WB,53.834115140000000,-2.218268000000000
Ice seal and Puffleg,BB5 6HH,53.762412900000000,-2.349289072000000
Thrasher and Parrotbill,BB10 2AU,53.805325980000000,-2.223386917000000
Siskin and Ground sloth,OL14 7TE,53.689454179604600,-2.103356875952630
Zebra and Night heron,BB11 2BU,53.787321460000000,-2.242688588000000
Pitohui and Badger,BB4 7LS,53.701556940000000,-2.283758017000000
Warbler and Maya,BB9 8TG,53.849342780000000,-2.221827836000000
Meadowlark and Coati,BB9 0LP,53.830426270000000,-2.199651555000000
Grouse and Elephant,BB12 0DL,53.797276410000000,-2.248894652000000
Towhee and Flameback,BB8 9QD,53.858219930000000,-2.180733900000000
Treepie and Triller,BD22 0JZ,53.886027000000000,-2.030406000000000
Towhee and Badger,OL14 8PT,53.732775498689600,-2.154561950101420
Eagle and Minke whale,BB12 8PB,53.808059960000000,-2.314726865000000
Wader and Quetzal,OL13 0EX,53.691557336042800,-2.217362159374190
Ground sloth and Peafowl,BB9 8QL,53.850380550000000,-2.219568415000000
Eagle and Chicken,BB8 8BJ,53.854381400000000,-2.141100412000000
Elephant and Black jay,BB11 2RU,53.793121990000000,-2.236559002000000
Siskin and Puffleg,BB10 3JT,53.788073280000000,-2.211152563000000
Polecat and Ice seal,OL13 9DU,53.706040398583000,-2.194622952386740
Pitohui and Egret,BB10 3BF,53.800663450000000,-2.231682270000000
Coati and Chickadee,BB4 9AQ,53.693679710000000,-2.253325582000000
Bronzewing pigeon and Mamo,BB9 7XT,53.841374520000000,-2.214688434000000
Recurvebill and Old World vulture,BB10 3HB,53.806374000000000,-2.225625000000000
Partridge and Flameback,BB12 9HF,53.824044940000000,-2.291680078000000
Night heron and Parrotbill,BB4 6DX,53.693098320000000,-2.291560855000000
Kākāriki and Guillemot,BB10 4LE,53.787403680000000,-2.218662301000000
Bronzewing pigeon and Hawaiian honeycreeper,BB4 8SB,53.704811160000000,-2.287309478000000
Mamo and B,HX7 7ER,53.751193000000000,-2.018494000000000
Cloud rat and Capuchin,OL14 5SA,53.713664000000000,-2.087629000000000
Flameback and Bronzewing pigeon,BB5 1EN,53.753199040000000,-2.361769782000000
Asiatic leopard and Bunting,BB4 4AP,53.687446000000000,-2.339280000000000
Mouse and Black jay,BB9 8DB,53.841777920000000,-2.188611347000000
Bunting and Armadillo,BB9 9NN,53.834966420000000,-2.193412764000000
Herring gull and Minke whale,BB12 0PT,53.791851760000000,-2.263784058000000
Kangaroo and Kite,BB11 5HB,53.771231830000000,-2.260331939000000
Kestrel and Elephant,BB4 9TW,53.703699820000000,-2.245493781000000
Fox and American sparrow,BB10 3DY,53.804689140000000,-2.227468086000000
Triller and Herring gull,BB12 0HG,53.792322300000000,-2.266413115000000
Myna and Badger,BB9 8NQ,53.848649090000000,-2.217811328000000
Black jay and Badger,OL13 9QF,53.695833470948100,-2.197922855338910
Dorcopsis and Philippine hawk-owl,BB8 0SQ,53.855484260000000,-2.170764392000000
Peafowl and Chickadee,OL14 5QF,53.713468256626100,-2.095112946246700
Rat and Pheasant,BD20 8HN,53.907342000000000,-2.102008000000000
B and Buzzard,BL0 0QG,53.678472260000000,-2.317210904000000
Perching duck and Darwin's finches,OL14 8JT,53.732233788609800,-2.134232960011380
Nukupuʻu and Fox,BB12 0BU,53.798169570000000,-2.247275484000000
Vole and Mouse,BB12 0TP,53.794730530000000,-2.258458551000000
Pheasant and American sparrow,OL13 9EZ,53.707860093289100,-2.186405269282180
Eagle and Old World warbler,BB4 7QW,53.702451890000000,-2.285384818000000
Towhee and Gull,BB9 9DY,53.832746150000000,-2.209599722000000
Marmoset and Pheasant,BB12 7LG,53.782659000000000,-2.315688908000000
Snipe and Chicken,BB11 2NL,53.774825010000000,-2.252888852000000
River dolphin and B,BB9 5NB,53.824036420000000,-2.243128809000000
Kākāriki and Minke whale,BB11 4BA,53.785968250000000,-2.266205869000000
Songlark and Tahr,BB9 6QT,53.849971130000000,-2.227060174000000
Crow and Tit-tyrant,BB11 1AD,53.790271540000000,-2.241688639000000
Parrotlet and Partridge,BB10 2EW,53.810734340000000,-2.209793490000000
Stint and B,BB4 5DT,53.705655570000000,-2.329367717000000
Wallaby and Skunk,BB4 4FN,53.695749960000000,-2.335803000000000
Boto and Booted eagles,BB7 4BW,53.893248720000000,-2.327677136000000
Parrotbill and Coati,BB12 6AW,53.792644000000000,-2.283417000000000
Night heron and Dorcopsis,OL13 9PP,53.698154942037200,-2.190830353742990
Bunting and Kangaroo,OL14 5QR,53.714344430705000,-2.089508817468970
Wallaby and Vole,BB11 4LU,53.786076530000000,-2.253578855000000
Fish eagle and Magpie,BB10 3JY,53.788277150000000,-2.212762488000000
Polecat and Lemming,BB4 5PP,53.701771680000000,-2.319794631000000
Skunk and Hawaiian honeycreeper,BB9 5AX,53.823510350000000,-2.231929962000000
Towhee and Tit-tyrant,BB11 1BW,53.791051830000000,-2.246914813000000
Mouse and Mouse,BB10 3HR,53.804083540000000,-2.229256518000000
Lemming and Tit-tyrant,OL13 0RB,53.693380220618100,-2.223171769620550
Old World warbler and Prion,OL14 6DS,53.713276218808400,-2.099157900209420
Kangaroo and Fish eagle,BB11 1AT,53.788719410000000,-2.249101981000000
Myna and Wallaby,BB9 9SD,53.835728880000000,-2.215373711000000
Night heron and Peafowl,BB5 6JP,53.765016980000000,-2.343925362000000
Elephant and Old World quail,BB4 8DP,53.730202070000000,-2.279934335000000
Old World warbler and Recurvebill,BB10 2BJ,53.813422830000000,-2.224083075000000
Vulture and B,BB11 5PY,53.782251000000000,-2.295821000000000
Pratincole and Night heron,OL14 7PR,53.703866694915400,-2.108345636761550
Ibex and Kākāriki,BB4 9QB,53.724672300000000,-2.243918643000000
Moluccan boobook and Solitaire,BB10 3QU,53.810528600000000,-2.175668769000000
Towhee and Snipe,OL14 7AP,53.714074736940400,-2.100856757091010
Crow and Treepie,BD22 0DN,53.883954320000000,-2.044811146000000
Perching duck and Scimitar babbler,BB9 7FG,53.838622610000000,-2.220524995000000
Linsang and Parrotbill,HX7 6NF,53.740367754676500,-2.029845064391030
Cuscus and Cuscus,BB11 1QJ,53.789590330000000,-2.240758813000000
Thicketbird and Gull,BB9 0RN,53.829230190000000,-2.210554506000000
Kangaroo and Asiatic leopard,BB8 0AS,53.855440000000000,-2.161569000000000
Viscacha and Kākāriki,OL14 6DP,53.727740348130000,-2.053283088337640
Wallaby and Chickadee,BB4 4DG,53.695727500000000,-2.328351000000000
Herring gull and Civet,BB9 9HL,53.839325650000000,-2.204192180000000
Puffleg and Egret,OL12 8EJ,53.680063339835500,-2.165692814042040
Jay and Jay,BB11 1HQ,53.788704550000000,-2.243212647000000
Pitohui and Elephant,BB18 6LH,53.901494160000000,-2.142385631000000
White ibis and Elephant,BB4 6HD,53.695644000000000,-2.290942000000000
Guillemot and Rat,OL13 9SY,53.688271360983500,-2.170767473570000
Tree warbler and Treepie,BB11 4RD,53.777635090000000,-2.258581016000000
Booted eagles and Flameback,BB11 4EX,53.778759910000000,-2.262108510000000
Tattler and Boto,BB9 5BD,53.822793290000000,-2.230908216000000
Cuscus and Night heron,OL13 3SS,53.693466515700000,-2.207725430300000
Crow and Civet,BB5 5BJ,53.764073050000000,-2.365246140000000
Recurvebill and Stilt,BB4 4NT,53.691351490000000,-2.337236582000000
Linsang and Elephant,BB11 1EU,53.790297000000000,-2.245666000000000
Towhee and Meadowlark,BB11 1BB,53.790319960000000,-2.244405967000000
Vole and Quetzal,BB8 8HG,53.849378980000000,-2.165982000000000
Pheasant and Grouse,BB12 6PE,53.789857720000000,-2.290425676000000
Darwin's finches and Cloud rat,BB4 8PQ,53.724741220000000,-2.285884428000000
Towhee and Herring gull,BB12 6TQ,53.797046080000000,-2.287545353000000
Puffleg and Skunk,BB4 8AT,53.726738820000000,-2.284943153000000
Armadillo and Pheasant,BB8 8FE,53.852388000000000,-2.180846000000000
Petrel and Old World quail,BB11 3DR,53.789900200000000,-2.234066696000000
Ibex and Booted eagles,HX7 7JW,53.743945611171500,-2.053713069565150
Ibex and Myna,OL13 9PA,53.699385361986800,-2.191426632492360
Jay and Boto,HX7 7JB,53.744172093494400,-2.082173138825880
Bunting and Wallaby,BB4 4NF,53.686755000000000,-2.335746000000000
Myna and Dorcopsis,OL14 8DT,53.726168674299500,-2.105508320926390
Grosbeak and Bronzewing pigeon,BB10 4ST,53.756166480000000,-2.194870080000000
Lemming and Partridge,BB10 4PH,53.784862530000000,-2.222215685000000
Herring gull and Cuscus,BB5 6TY,53.770733730000000,-2.350010589000000
Greenbul and Parrotlet,BB12 6HU,53.789564730000000,-2.281377090000000
Peafowl and Francolin,HX7 7NE,53.749204981134900,-2.020479916027850
Mockingbird and Pitohui,BB9 0BL,53.831870390000000,-2.216858104000000
Cloud rat and Francolin,BB8 9HH,53.859474460000000,-2.171054336000000
Old World quail and Lemming,OL13 0RJ,53.691895778314800,-2.223921090784170
Wallaby and Marsh harrier,BB10 3JF,53.790836030000000,-2.219241803000000
Asiatic leopard and Shearwater,OL13 0QP,53.693361254753800,-2.223701714221190
Linsang and Mink,BB4 6DG,53.696150000000000,-2.290083000000000
Parrotbill and White ibis,BB8 7ED,53.866057170000000,-2.140653166000000
Kite and Tree warbler,BB8 0PN,53.858349390000000,-2.151878000000000
Buzzard and Prion,BB4 5QB,53.706416870000000,-2.327071039000000
Chipmunk and Grosbeak,BB8 9LQ,53.860840780000000,-2.164521965000000
Marmoset and Magpie,BB5 6SY,53.754810850000000,-2.354776815000000
Snipe and Diving bird,BB10 1AN,53.797128260000000,-2.242244273000000
Jay and Meadowlark,BB10 4RR,53.760765620000000,-2.173261301000000
Recurvebill and Philippine hawk-owl,BB5 1HL,53.752915280000000,-2.363465891000000
Peafowl and Grosbeak,BB9 7RW,53.842017440000000,-2.206864896000000
Parrotbill and Solitaire,OL13 9QX,53.697332000000000,-2.199959000000000
Eagle and Chipmunk,BB9 8BH,53.839598880000000,-2.185395006000000
Goose and Black cockatoo,OL13 0EL,53.692418613226400,-2.213247486685640
Parrotlet and Polecat,OL14 6ED,53.728378856454200,-2.052480594938990
Armadillo and Mink,BB9 8RH,53.843650320000000,-2.203316548000000
Duck and Tree warbler,BB10 4SU,53.754156900000000,-2.192555536000000
Solitaire and Tahr,BB12 6QZ,53.792060880000000,-2.270768027000000
Magpie and Dolphin,BB12 7LN,53.784985580000000,-2.321991000000000
Cuscus and Egret,BB12 6DA,53.794748050000000,-2.278709655000000
Treepie and Flameback,BB12 6DR,53.793679880000000,-2.274209206000000
Tit-tyrant and Booted eagles,BB4 6NW,53.702863830000000,-2.321438857000000
Logrunners and Marsh harrier,BB12 0XH,53.798425260000000,-2.266360740000000
Flameback and Black jay,OL13 9LL,53.703405026160000,-2.190187636294310
Mamo and Armadillo,BB12 9DZ,53.832551360000000,-2.262824424000000
Vole and Mink,BB4 9PQ,53.719271160000000,-2.247948484000000
Chickadee and Black cockatoo,BB9 5JA,53.821468700000000,-2.232647809000000
Linsang and Goose,BB4 8JL,53.705481580000000,-2.288844049000000
Cloud rat and Viscacha,BB8 0JH,53.856572890000000,-2.163532207000000
Logrunners and Badger,BB9 5GZ,53.824613770000000,-2.233014655000000
Asiatic leopard and Jerboa,OL14 7PY,53.701108445422200,-2.107126783588000
Booted eagles and Civet,BB8 8JQ,53.849614210000000,-2.189345844000000
Thrasher and Lemming,OL14 6JD,53.707905322823600,-2.067862000000000
Myna and Old World warbler,BB4 4AW,53.683704180000000,-2.339840204000000
Pheasant and Duck,BB8 9LE,53.860678010000000,-2.165235936000000
Parrotlet and Myna,OL13 9UT,53.715196070268200,-2.179422381836730
Goose and Partridge,OL14 6PY,53.695515122086400,-2.099888435092350
Snipe and Puffleg,BB11 5LZ,53.782055470000000,-2.275484014000000
Goose and Minke whale,BB8 8DS,53.851153520000000,-2.187832697000000
Ground sloth and Grouse,BB11 3RE,53.762468400000000,-2.215104392000000
Magpie and Mockingbird,BB9 7AG,53.833761010000000,-2.220058778000000
Old World vulture and Grackle,BB9 0AU,53.830744620000000,-2.218113355000000
Kestrel and Vulture,BB5 1EX,53.754428690000000,-2.365298904000000
Argus and Bronzewing pigeon,BB10 1XY,53.810936580000000,-2.231738978000000
Shearwater and Pheasant,OL14 6AA,53.713628032317300,-2.085901260881950
Treepie and Flameback,BB9 7EU,53.836872580000000,-2.219102574000000
Triller and Dolphin,BB10 1PL,53.803491580000000,-2.242326541000000
Thrasher and Myna,BB9 6JP,53.853560080000000,-2.220755624000000
Flameback and Cuscus,BB9 0JN,53.830060600000000,-2.203311423000000
Wallaby and Fulmarine petrel,BB11 9TH,53.787600699187000,-2.244648443995920
Tit-tyrant and Ice seal,OL13 9QN,53.697754727554800,-2.199249557126220
Kākāriki and Philippine hawk-owl,BB4 6HY,53.688942000000000,-2.290003000000000
Dolphin and Old World warbler,OL13 8JB,53.695737672405000,-2.206736789722640
Shearwater and Black jay,BB5 2LQ,53.744454960000000,-2.361330716000000
Darwin's finches and Treepie,OL14 8DQ,53.721206530652100,-2.106329346428150
Condor and Prion,BB12 7PB,53.806244570000000,-2.353358670000000
Dorcopsis and Mole,BB9 0TP,53.835959760000000,-2.201486176000000
Old World quail and Hawk,BB10 3QN,53.815386650000000,-2.190330430000000
Partridge and Solitaire,BB11 4AZ,53.786437000000000,-2.266148000000000
Tattler and Eagle,BB11 3BN,53.789176900000000,-2.236431000000000
Lemming and Wallaby,BB9 8TU,53.846497530000000,-2.214745076000000
Ice seal and Chipmunk,BB9 0SY,53.826566860000000,-2.207062135000000
Meadowlark and Masked owl,HX7 6PG,53.736887718669000,-2.035860998688430
Stint and Armadillo,BB9 0LE,53.831675210000000,-2.199885412000000
Grosbeak and Dolphin,BB9 8SG,53.845571210000000,-2.204800172000000
Dorcopsis and American sparrow,BB5 1EZ,53.753387000000000,-2.365228098000000
Philippine hawk-owl and Ice seal,OL13 8EE,53.708317592348300,-2.198148160354170
Rabbit and Shearwater,BB5 2LN,53.746183050000000,-2.360541904000000
Coati and Minke whale,BB7 9HT,53.832956920000000,-2.334529729000000
Dolphin and Kestrel,BB9 8BP,53.838289970000000,-2.183231332000000
Pitohui and Hawk,BB4 5ES,53.699084140000000,-2.333012053000000
Tattler and Songlark,BB10 2PE,53.812024050000000,-2.231563000000000
Boto and Fulmarine petrel,BB7 9EU,53.831402250000000,-2.334441362000000
River dolphin and Nukupuʻu,BB12 6TD,53.796177690000000,-2.278476244000000
Cloud rat and Night heron,OL14 7EF,53.732911458862400,-2.146513373376270
Egret and Capuchin,BB4 4DY,53.695516810000000,-2.332665831000000
Jerboa and Thicketbird,OL13 9QR,53.697385889322500,-2.199444705534060
Viscacha and Puffleg,BB4 5JT,53.708362000000000,-2.332494000000000
Civet and Kākāriki,BB10 2DR,53.809473200000000,-2.206248857000000
Parakeet and Francolin,BB4 7JB,53.692506000000000,-2.260209000000000
Buzzard and Mockingbird,BB8 7QL,53.871919280000000,-2.146984000000000
Dolphin and Armadillo,BB9 7TR,53.840366780000000,-2.220245425000000
River dolphin and Old World warbler,BB4 0GF,53.702009394652700,-2.284442967995350
Fulmarine petrel and Crow,BB4 6PX,53.696696550000000,-2.318605083000000
Grosbeak and Tree warbler,BB4 7BF,53.697897000000000,-2.269315000000000
Civet and Booted eagles,BB12 8AN,53.797010780000000,-2.275794646000000
Philippine hawk-owl and Cloud rat,BB9 8DQ,53.838334000000000,-2.190070000000000
Mouse and River dolphin,BB4 5EA,53.703373000000000,-2.326487000000000
Ice seal and Argus,BB4 7EL,53.690130780000000,-2.252668251000000
Darwin's finches and Lemming,BB9 6LZ,53.871529890000000,-2.218979000000000
Mink and Herring gull,BD22 0DX,53.885070540000000,-2.039928873000000
Mole and Viscacha,OL14 5LD,53.719129142094400,-2.097110844189390
Cloud rat and Old World quail,BB12 8NX,53.806844210000000,-2.315628855000000
Chicken and Shearwater,BB11 9FL,53.790933870641400,-2.240888219424130
Kite and Scimitar babbler,BB10 2DD,53.810850890000000,-2.219984185000000
Myna and Grosbeak,BB9 4TW,53.836973503019500,-2.215517134948150
Minke whale and Scimitar babbler,BB9 7XQ,53.839742230000000,-2.212719674000000
Fish eagle and Fulmarine petrel,BB9 6AT,53.861468170000000,-2.206322349000000
Black jay and Fulmarine petrel,BB4 5EE,53.705484170000000,-2.329593606000000
Diving bird and Mink,BB8 9DZ,53.862328290000000,-2.167751287000000
Kite and Rabbit,BB18 5SS,53.900652730000000,-2.173855633000000
Jay and Old World vulture,BB10 4JH,53.783654780000000,-2.203740000000000
Grosbeak and Parrotbill,BB10 4TL,53.766256550000000,-2.196995200000000
Mink and Wader,BB5 6EN,53.757069970000000,-2.356752424000000
Pheasant and Fox,OL13 9DS,53.706789593276500,-2.192657049852690
Fulmarine petrel and Egret,OL13 9AS,53.703577000000000,-2.200928758636680
Recurvebill and Solitaire,BB4 9HH,53.699069380000000,-2.259022658000000
Bunting and Tit-tyrant,BB11 5BT,53.778811630000000,-2.267177251000000
Perching duck and Jackal,BB8 0HH,53.855033000000000,-2.166049226000000
Magpie and Dolphin,BB10 4BZ,53.788470000000000,-2.230325000000000
Partridge and Old World warbler,BB5 6XB,53.768732820000000,-2.339449878000000
Pratincole and Jerboa,BB4 6PP,53.696561400000000,-2.322087487000000
Skunk and Argus,OL14 7TL,53.682000000000000,-2.097570000000000
Skunk and Marmoset,BB12 7DR,53.791082090000000,-2.307632339000000
Marmoset and Triller,BB4 6NH,53.691635600000000,-2.335285334000000
Flameback and Hawk,BB4 8SL,53.700885240000000,-2.290251501000000
Darwin's finches and Fox,BB11 5JU,53.783307400000000,-2.266386305000000
Hawk and Polecat,OL13 8GW,53.702224409535900,-2.203057525948170
Zebra and Thrasher,BB4 5RD,53.709412340000000,-2.322867454000000
Tit-tyrant and Bunting,HX7 7HR,53.753625407977800,-2.071454273601280
Flameback and Logrunners,OL14 7RS,53.688470321176600,-2.117573138872860
Wallaby and Logrunners,BB4 8BN,53.729033000000000,-2.287777878000000
Pheasant and Hawk,BB4 7NQ,53.700616750000000,-2.282252157000000
Condor and Logrunners,BB12 9ED,53.835258560000000,-2.257706000000000
Tree warbler and Prion,BB8 7NQ,53.874953380000000,-2.169779143000000
Jackal and Eagle,BB4 9SR,53.697099280000000,-2.247075900000000
Warbler and Chipmunk,BB9 6BD,53.863573480000000,-2.205070660000000
Snipe and Ice seal,BB11 5QQ,53.769312850000000,-2.289707217000000
Flameback and Scimitar babbler,BB10 4UD,53.767525230000000,-2.206847005000000
Wader and Kangaroo,BB7 9EN,53.839227520000000,-2.319139832000000
Shearwater and Partridge,BB12 6HD,53.789361950000000,-2.283515931000000
Chicken and Armadillo,BB5 6AN,53.759908500000000,-2.360325840000000
Towhee and Mole,BB5 5UX,53.758956420000000,-2.335336349000000
Vulture and Coati,BB5 6UH,53.756403030000000,-2.351286697000000
Jay and Shearwater,BB12 7AH,53.797563000000000,-2.314906000000000
Thicketbird and Peafowl,BB5 2NN,53.750017600000000,-2.364623698000000
Greenbul and Crow,BB12 9LW,53.848949090000000,-2.273202610000000
Pheasant and Maya,HX7 6BU,53.743846749079900,-2.027254805434540
Kākāriki and Chickadee,BB4 4DA,53.696498390000000,-2.328735795000000
Chicken and Grackle,BB8 8SS,53.839247990000000,-2.131262756000000
Kangaroo and Jerboa,BB9 9QZ,53.836770790000000,-2.205532164000000
Myna and Rat,BB10 2PH,53.810424000000000,-2.227879000000000
Fulmarine petrel and Mink,BB9 8BG,53.840004020000000,-2.190685353000000
Chicken and Logrunners,BB8 9QY,53.856802340000000,-2.184984645000000
Fulmarine petrel and Ice seal,BB12 6HA,53.789504000000000,-2.284610000000000
Chicken and Civet,BB12 8BS,53.800360230000000,-2.313591188000000
Old World warbler and Jackal,BB8 7BT,53.856493550000000,-2.141107530000000
Parakeet and Mockingbird,OL13 8DF,53.710683436154100,-2.202340789791980
Skunk and Chicken,BB4 8JG,53.705179780000000,-2.287266546000000
Siskin and Grouse,OL14 8JU,53.732027318850200,-2.134111000000000
Fox and Eagle,OL14 6BT,53.718077933881300,-2.070999812545050
B and Armadillo,BB5 6HG,53.762076230000000,-2.350516000000000
Old World warbler and Armadillo,OL14 5AA,53.713142372501900,-2.097975789528770
Marmoset and Lemming,BB5 2DY,53.727355130000000,-2.325263310000000
Old World vulture and Zebra,BB11 5TG,53.781076760000000,-2.297618988000000
Jerboa and Darwin's finches,BB9 7AT,53.834208360000000,-2.221170354000000
Mink and Dorcopsis,BB5 6TL,53.751845350000000,-2.351536783000000
Jackal and Linsang,BB4 8RA,53.737234790000000,-2.282042856000000
Recurvebill and Songlark,BB10 4QE,53.790554500000000,-2.225645925000000
Masked owl and Philippine hawk-owl,BB11 5DN,53.783776150000000,-2.281505269000000
Grackle and Kākāriki,BB9 8DH,53.837938260000000,-2.195356400000000
Egret and Chipmunk,BB10 2HN,53.811682830000000,-2.207064616000000
Greenbul and Bunting,BB8 7QB,53.877599000000000,-2.167508283000000
