name,postcode,lat,lon
Bronzewing pigeon and Solitaire,KT22 8NG,51.293426892554300,-0.323688357445858
Asiatic leopard and Warbler,RH1 6LG,51.224783217721800,-0.190086181825005
Ibex and Ibex,RH2 9NA,51.249875562871200,-0.205422354367187
Elephant and Old World vulture,RH5 4DZ,51.219952896715700,-0.302830931935288
Myna and Dolphin,RH6 0AJ,51.162541628591000,-0.192307000000000
Solitaire and Rabbit,KT22 9SH,51.298852337986600,-0.368460443763418
Grouse and Macaw,KT18 5QB,51.309859766498700,-0.241148524110113
Towhee and Armadillo,RH2 7RS,51.236379863572900,-0.203827400670232
Kangaroo and Grackle,RH4 2BL,51.232414197619900,-0.325748899756141
Black cockatoo and Masked owl,KT24 6RR,51.265355986758300,-0.434392960530892
Ice seal and Diving bird,GU6 8AF,51.140341754742100,-0.487814587711429
Thrasher and Quetzal,KT21 2FF,51.306207913228000,-0.307484412202334
Solitaire and Treepie,KT11 1PL,51.315245000000000,-0.438220000000000
Zebra and Fish eagle,KT21 2QD,51.304976403040400,-0.315750108826209
Black cockatoo and Old World quail,KT20 7JY,51.249148643619200,-0.298245747637525
Thicketbird and Fish eagle,RH2 9QS,51.241093497823400,-0.205090794786081
Recurvebill and Crow,KT22 8NJ,51.292585378386900,-0.322069617696483
Lemming and Vole,RH5 4EY,51.203575401168200,-0.331475656732867
Kite and Fulmarine petrel,RH2 7JQ,51.232314278961200,-0.200261495867005
Greenbul and Dolphin,KT23 3PE,51.288462469134600,-0.384947000000000
Stint and Capuchin,GU6 7FZ,51.150798000000000,-0.481573000000000
Mink and Polecat,GU6 8SY,51.143216818278600,-0.501587639352951
Parrotbill and Minke whale,GU6 8FY,51.132558000000000,-0.481399000000000
Flameback and B,KT22 8JJ,51.286496000000000,-0.324480816061109
Herring gull and Meadowlark,KT22 7EX,51.298215975725200,-0.322782364848457
Ice seal and Kangaroo,KT21 2NL,51.307931271727300,-0.311122536792099
Philippine hawk-owl and Vole,KT21 2HN,51.314634918703700,-0.320791810106987
Parrotbill and New World blackbird,GU23 6BA,51.302128296343000,-0.485129395017989
Fox and Chickadee,RH5 6DE,51.261103000000000,-0.325810000000000
Fox and Old World warbler,RH4 1HZ,51.239168715196600,-0.338439938202458
Masked owl and Marmoset,KT18 5LR,51.316471932819800,-0.255145263773517
Black cockatoo and Booted eagles,GU23 6AN,51.301192665539900,-0.490668643720984
Piping shrike and Asiatic leopard,RH5 6AH,51.254094248000800,-0.330063199576095
Crow and Greenbul,RH4 3NW,51.224584784077100,-0.367994378913183
Jay and Wallaby,GU6 8QH,51.148796512996200,-0.490726661201474
New World blackbird and Masked owl,KT20 5JS,51.301847285349600,-0.225057887194154
Grackle and Duck,KT20 5PA,51.309953885888500,-0.225333373952946
American sparrow and Black cockatoo,RH5 6AU,51.252401760575800,-0.334982369222387
Kangaroo and Kite,RH2 9NY,51.246714735443600,-0.202794339395956
Masked owl and Cloud rat,KT20 7QY,51.276250549901200,-0.250518718726529
Wader and Guillemot,RH2 7RU,51.235841715112100,-0.204050000000000
Stint and Hawaiian honeycreeper,KT18 5PR,51.306881777445800,-0.242252328638414
Goose and Goose,RH2 2FU,51.241098000000000,-0.203016000000000
Quetzal and Vulture,RH2 7PG,51.221655702557100,-0.194290233416974
Marsh harrier and Rabbit,RH5 5QU,51.134902442843600,-0.390868779849459
Rat and Black cockatoo,GU22 8XB,51.317515770838400,-0.496403982660050
Siskin and Masked owl,RH2 8HH,51.223212804490300,-0.210770166892824
Masked owl and Mamo,GU6 8BN,51.138147922961800,-0.482983308246273
Dorcopsis and Diving bird,GU6 7NB,51.136274123991900,-0.479957266696662
Coati and Fish eagle,GU6 8SB,51.143404524961400,-0.497993286904689
Songlark and Civet,KT23 4AL,51.283277809542600,-0.363993517019889
Mockingbird and Badger,KT23 4PT,51.272672237654400,-0.365689144379791
Herring gull and Piping shrike,KT22 7UX,51.295530000000000,-0.330516000000000
Chipmunk and New World blackbird,KT18 6AB,51.306427633763800,-0.260619390158477
Mockingbird and Jerboa,RH4 2NH,51.217332660064100,-0.326324675500271
Kangaroo and Tattler,KT18 5TS,51.306103501531300,-0.229986818966101
Vulture and Chickadee,KT20 6HS,51.294244512332600,-0.211208728275306
Civet and Scimitar babbler,KT23 4BH,51.282056171106000,-0.362803753598214
Parrotlet and Grackle,KT20 6AF,51.309231939442600,-0.217469911410931
Civet and Tattler,KT21 2DB,51.313450315756000,-0.310331585278782
Magpie and Kite,GU6 7HJ,51.141561383952700,-0.478539930690898
Flameback and Jay,RH4 2QF,51.219586336440700,-0.324195219398944
Philippine hawk-owl and Flameback,RH4 2LP,51.216765428935800,-0.328048000000000
White ibis and Myna,KT24 6NT,51.281485000000000,-0.438089000000000
Treepie and Mouse,RH4 2BY,51.230219736889900,-0.327618925278772
Thrasher and Tit-tyrant,KT18 6NQ,51.272204463011600,-0.277853888681424
Cloud rat and Darwin's finches,GU6 8RJ,51.141477241732600,-0.492294000000000
Tattler and Jerboa,GU5 9NL,51.219967791572700,-0.451770735373047
Old World vulture and Polecat,RH4 1EW,51.234013811153500,-0.335760783684849
Old World warbler and Bronzewing pigeon,KT18 5SD,51.310020202115400,-0.230309599258818
Booted eagles and Goose,KT22 8UJ,51.295778527705500,-0.324635438642017
Siskin and Badger,KT24 6DX,51.259271194752900,-0.460397127805083
Siskin and Jay,KT23 4PP,51.273772382786300,-0.360761343736784
White ibis and Stilt,KT22 9AB,51.282811000000000,-0.352410000000000
Vulture and B,GU6 7DG,51.147412053400900,-0.479648614500789
Lemming and Duck,GU6 8QS,51.159256084839100,-0.493603077522687
Ice seal and Treepie,RH2 7RW,51.237253107565000,-0.202131638086390
Coati and Jerboa,KT21 1EB,51.307706631420300,-0.297472218765275
Magpie and Bunting,RH11 7TG,51.126884408859700,-0.195201870793891
Macaw and American sparrow,KT22 7SG,51.310460335518100,-0.333756000000000
Logrunners and Songlark,KT22 9NU,51.286456047137800,-0.364913102223226
Chickadee and Solitaire,KT22 0AH,51.297172069717600,-0.332172636930033
Prion and Mockingbird,RH4 2ER,51.231022117732200,-0.332803524352202
Mamo and Grackle,SM7 3DT,51.317501474565300,-0.191419022489305
Pheasant and Old World quail,GU4 7UH,51.268729057375600,-0.500103000000000
Chipmunk and Marsh harrier,KT17 3AZ,51.317475000000000,-0.239150000000000
Thrasher and Songlark,KT22 8SR,51.297375000000000,-0.322434181323497
Egret and Coati,RH6 0AX,51.168272341960700,-0.190697271135666
Cuscus and B,KT21 2AW,51.307621382652000,-0.300890010437288
Fulmarine petrel and Recurvebill,RH4 9SQ,51.235645383147200,-0.325316470260331
Crow and Lemming,GU6 8SS,51.141941445957300,-0.490521349653486
Old World quail and Vulture,RH2 9PH,51.250410264000700,-0.201589878582267
B and Tattler,KT22 7XP,51.305732075068400,-0.330843746682506
Petrel and Chickadee,KT23 3JY,51.288571604282100,-0.384514029350487
Darwin's finches and Herring gull,RH2 7QH,51.219232187676500,-0.183544909666341
Hawk and Myna,RH2 8RL,51.233921837232700,-0.227816223991781
Jay and Cloud rat,RH5 5BU,51.142292000000000,-0.258132000000000
Chicken and Coati,KT18 5FG,51.306679134612800,-0.228099628369642
Egret and Petrel,KT21 1BT,51.306348000000000,-0.297307000000000
Stilt and Maya,RH2 0UE,51.246027991617000,-0.199654579541127
Vole and Buzzard,KT24 5SR,51.266832550117500,-0.415808530232448
Hawaiian honeycreeper and White ibis,RH2 0RY,51.236937660530100,-0.187304000000000
Stilt and Grosbeak,RH4 1EP,51.234534740965600,-0.335083066306433
Coati and Egret,RH4 9SF,51.235645383147200,-0.325316470260331
Greenbul and Prion,RH4 1EX,51.236316009094500,-0.335133368407265
Black cockatoo and Grackle,KT21 2HU,51.316165912345900,-0.312814793569561
Recurvebill and Minke whale,GU6 7LW,51.136361000000000,-0.471378000000000
Chickadee and Grosbeak,KT22 7LE,51.301942429782400,-0.331210743064915
Viscacha and Quetzal,KT20 5TJ,51.292964944133400,-0.227594876967624
Asiatic leopard and Chickadee,RH10 9SR,51.136538452221800,-0.186777790193105
Black cockatoo and Hawk,KT24 6TW,51.252317973687900,-0.431124383797050
Grosbeak and Towhee,GU6 7NN,51.168946340551800,-0.455382191651848
Pratincole and Jerboa,KT21 2TF,51.299235016592500,-0.304871886182984
Eagle and Ground sloth,RH2 0AU,51.242446556436100,-0.202430598944828
White ibis and Kākāriki,RH10 9UY,51.135227824492600,-0.186929188556322
Parrotlet and Bunting,KT24 5LS,51.271342959968800,-0.400314190549995
Stint and Parrotlet,KT20 5DT,51.290975141897800,-0.236965196092400
Skunk and Black cockatoo,RH11 7NX,51.131321675751000,-0.195443375818641
Black jay and Duck,RH1 6LF,51.224320164455600,-0.190963633424998
Dorcopsis and Kite,GU6 7LR,51.133222426992300,-0.472811011668043
Tahr and Stint,RH2 8ER,51.218976880018700,-0.206638467842575
Civet and Dolphin,KT24 6BU,51.263546894668300,-0.455939973687073
Grackle and Chicken,RH5 6SY,51.245351000000000,-0.388207000000000
Kestrel and Elephant,KT20 5DH,51.293482046640600,-0.243409534992619
White ibis and Armadillo,KT23 3WJ,51.296132308201400,-0.333673360570952
Polecat and Recurvebill,KT22 7ET,51.296937323074900,-0.334633938136320
Ground sloth and Mink,KT22 9HA,51.287833271678800,-0.350265103092041
Piping shrike and Rabbit,RH4 2JL,51.223159000000000,-0.332581837709086
Old World vulture and Zebra,KT23 3NW,51.286408542085100,-0.370536261432432
Kestrel and Grackle,RH4 3PG,51.227951372662600,-0.365655340590310
Peafowl and Old World quail,RH6 8GZ,51.187194000000000,-0.183261000000000
Piping shrike and Zebra,RH4 1PJ,51.240815518530700,-0.318997038210542
Ground sloth and Mole,RH5 6HJ,51.171039000000000,-0.356782000000000
Kite and White ibis,RH4 1HA,51.234888268523900,-0.336545730034359
Black jay and Puffleg,KT22 9AW,51.291925355370300,-0.338214386745054
Herring gull and Condor,KT20 7JF,51.252587873472400,-0.280062875570960
Fulmarine petrel and Armadillo,GU23 6BY,51.302127000000000,-0.485108000000000
American sparrow and Perching duck,RH3 7EQ,51.234560036604100,-0.288828525301393
Dorcopsis and Quetzal,RH4 1UX,51.233451162779900,-0.331612780491294
Logrunners and Jackal,RH4 2JQ,51.224201202571200,-0.332491454167365
Stint and Tit-tyrant,KT23 3JS,51.281881774657200,-0.377407133349073
Mouse and Triller,GU6 7HN,51.139769907815200,-0.474939342998739
Ice seal and Jay,RH1 6JP,51.229304771007900,-0.181844933165120
Old World vulture and Kite,GU23 6DE,51.298957721399900,-0.498688634236135
Capuchin and Guillemot,KT23 4AU,51.280388867266700,-0.370921331823459
Eagle and Ice seal,RH2 0RE,51.236720000000000,-0.188379901625593
Grackle and Treepie,RH2 9AQ,51.240913215600000,-0.206129396700000
Bunting and Parakeet,KT23 3PG,51.279723551483800,-0.375461462727963
Kākāriki and New World blackbird,KT11 3PT,51.315442000000000,-0.389023000000000
Herring gull and Kestrel,KT18 6LY,51.276417060522900,-0.275072607605741
Ice seal and Nukupuʻu,KT18 5QA,51.305663347221100,-0.242557121021679
Puffleg and Pheasant,KT22 7EF,51.300725581311900,-0.324713544711972
Quetzal and Jay,KT20 5DJ,51.292956204225200,-0.242526010965577
Old World vulture and Shearwater,RH5 4DN,51.217112771045600,-0.314762887980101
Parrotbill and Solitaire,GU6 8AS,51.141089864424400,-0.487947393233445
Fox and Shearwater,KT24 5QG,51.260919951761500,-0.408186252389438
Kangaroo and Magpie,KT21 2NF,51.310897685678300,-0.313538913230112
Peafowl and Magpie,KT22 9QP,51.290979294824700,-0.361052228717528
Hawaiian honeycreeper and Partridge,RH2 0HW,51.247587014375300,-0.193446693626420
Siskin and Armadillo,RH6 0BN,51.166368823661200,-0.201971387505242
Black cockatoo and Black cockatoo,RH6 0BB,51.167682562224800,-0.183396751518452
Black cockatoo and Parakeet,RH2 9PA,51.247390082788900,-0.202266511178321
Bronzewing pigeon and Marmoset,KT22 7HF,51.295865129949900,-0.330068473202880
Maya and Cuscus,KT20 5TA,51.295322778942500,-0.235450369569538
Badger and Ground sloth,KT21 1DT,51.309256028452500,-0.295678876299050
Chipmunk and Skunk,KT21 2NW,51.309626639378700,-0.309582469491091
Old World warbler and Argus,RH4 1DW,51.232728000019900,-0.333243205964702
Old World quail and Parrotbill,RH5 4NE,51.192152872040300,-0.324432083639150
Songlark and Mockingbird,KT23 3EU,51.286845162774600,-0.383871918080716
Asiatic leopard and Guillemot,KT24 6AU,51.260674455608200,-0.454287668198992
Tree warbler and Partridge,RH2 0DR,51.249363465724500,-0.200183464343166
Old World warbler and Thrasher,KT21 1AT,51.309499315924600,-0.298926739219898
Herring gull and Myna,RH4 1JZ,51.234685392405900,-0.329247577222986
Ice seal and Kangaroo,RH2 2TD,51.239537570948700,-0.205079724451592
Hawaiian honeycreeper and Jay,KT18 5NY,51.311818672155100,-0.241647564187511
Mouse and Duck,KT18 5UD,51.313618799858900,-0.238163640327234
Rabbit and Kite,KT23 4DL,51.278569522134400,-0.379789242370714
Civet and Guillemot,GU23 7LE,51.278674258431100,-0.499366000000000
Goose and Herring gull,GU23 6QT,51.310933261207300,-0.485929913144278
River dolphin and Dolphin,KT20 7PL,51.257357036260200,-0.274768525097001
Piping shrike and Puffleg,KT24 5AS,51.271565021087600,-0.424648664848995
Buzzard and Grouse,KT11 1NL,51.297957000000000,-0.424448000000000
Bunting and Crow,KT20 7QJ,51.276565526527100,-0.249744000000000
Badger and Tahr,KT18 5FB,51.310328331420100,-0.228088126046742
Mockingbird and Treepie,RH2 9PU,51.239111689602800,-0.207216553107686
Duck and Jerboa,KT11 3JT,51.301568758318200,-0.395189647696355
Cloud rat and Vulture,KT22 9PF,51.285344622295300,-0.362600784601158
Hawk and Maya,KT24 6AJ,51.262765406287700,-0.435011297983057
Mamo and Perching duck,RH2 2TW,51.239537570948700,-0.205079724451592
Nukupuʻu and Parrotlet,KT21 2AA,51.306148000000000,-0.317161000000000
Flameback and Chickadee,RH5 5LD,51.156513000000000,-0.319880483010948
Parakeet and Ice seal,KT23 3DB,51.280819000000000,-0.382391000000000
Night heron and Mink,GU6 8DP,51.140686000000000,-0.484458000000000
Parakeet and Meadowlark,RH2 9AU,51.237254000000000,-0.207962000000000
Petrel and Egret,KT24 5AG,51.268942914386800,-0.426931575363594
Ibex and Booted eagles,KT18 5UB,51.316037143641100,-0.236923001515166
Logrunners and Tit-tyrant,RH1 6LX,51.227193800565500,-0.184892855610958
White ibis and Viscacha,RH5 5NP,51.132826781492500,-0.342059407676983
Hawk and Mink,RH5 6RJ,51.202439142815000,-0.432032179512581
Tree warbler and Night heron,RH4 3LP,51.223033758172300,-0.387797562300885
Siskin and Goose,RH5 4RU,51.133500000000000,-0.299942000000000
Stilt and Hawaiian honeycreeper,RH2 2SB,51.239413000000000,-0.205079724451592
Piping shrike and Triller,KT22 9TH,51.292639339441200,-0.367877492815091
Rat and Triller,KT22 9FH,51.282773000000000,-0.353048000000000
Guillemot and Perching duck,KT24 5TD,51.242632106043500,-0.433746211863261
Perching duck and Moluccan boobook,RH6 8GQ,51.188098000000000,-0.183597000000000
Petrel and Cloud rat,RH5 6JS,51.191727395616900,-0.379130186474834
Macaw and Jerboa,KT22 0BQ,51.311020583963500,-0.353135493638722
Duck and Quetzal,RH6 0AZ,51.166527840899200,-0.184901083145726
Scimitar babbler and Elephant,RH6 0GS,51.165969000000000,-0.185857244100000
Hawaiian honeycreeper and Meadowlark,KT18 6LW,51.276800597678200,-0.273638816017507
Parrotbill and Grackle,KT22 9QY,51.292514257254800,-0.358286861945647
Capuchin and Myna,GU22 8XF,51.308900000000000,-0.500459000000000
Thrasher and Elephant,KT18 6BS,51.303677911807800,-0.283303989577440
Fulmarine petrel and Black cockatoo,RH2 0NB,51.242973587964700,-0.188784838692985
Flameback and Rat,KT21 2NX,51.308489045506400,-0.313010272671603
Snipe and Bronzewing pigeon,KT23 3ND,51.283655920107100,-0.372411786221192
Pheasant and Fox,GU5 9JQ,51.209276000000000,-0.467419000000000
Cloud rat and Treepie,RH11 7GJ,51.128625521007100,-0.209597305670018
Moluccan boobook and Maya,KT24 6BJ,51.263328627937200,-0.455072963821282
River dolphin and Shearwater,KT22 7DY,51.305436348813400,-0.325876245006719
Piping shrike and Perching duck,KT20 6AW,51.307775106575900,-0.217468971939734
Puffleg and Francolin,KT24 5QN,51.261190479938500,-0.416862444705692
Ibex and Herring gull,KT22 9QT,51.291575592409600,-0.362536919749640
Jerboa and Myna,KT21 2RN,51.315479614220800,-0.310744921663042
Vulture and Magpie,KT22 8QZ,51.290720000000000,-0.317322721671216
Siskin and Vole,RH4 9EU,51.233194400089100,-0.330003456352451
Prion and Black jay,KT18 5SH,51.309406747073200,-0.237334964335251
Armadillo and Hawaiian honeycreeper,RH5 4BH,51.232122422326600,-0.316692605493006
Tattler and Mockingbird,KT20 7LG,51.252023000000000,-0.287967812392972
Moluccan boobook and Tree warbler,RH2 9PW,51.241331356242300,-0.205941139601634
Parakeet and Fulmarine petrel,RH4 1NB,51.237758481932800,-0.337287410430661
Boto and Flameback,RH4 2EB,51.228362296377500,-0.330421851468548
Puffleg and Kangaroo,RH4 1NG,51.240723729110600,-0.330805286982162
Black cockatoo and Marmoset,GU6 7FY,51.150770000000000,-0.480802000000000
Chicken and Warbler,KT18 5RB,51.308376338633800,-0.234002771413136
Cloud rat and Bronzewing pigeon,KT22 9AD,51.293463000000000,-0.333698000000000
Gull and Capuchin,KT22 7UW,51.299182852369400,-0.335714584142374
Skunk and Macaw,RH2 0EE,51.244427374174900,-0.197324354003038
Old World quail and Pitohui,KT22 9SA,51.299425906881400,-0.372431000000000
Condor and Greenbul,RH4 9TD,51.235645383147200,-0.325316470260331
Lemming and Pratincole,KT21 2JE,51.311173199967800,-0.321449069586299
Fish eagle and Warbler,RH2 7LL,51.224584636876400,-0.197612779034911
Zebra and Fish eagle,KT20 5EQ,51.295999525055500,-0.239784904375360
Myna and Shearwater,KT24 5AP,51.289910000000000,-0.423878000000000
Rat and Jerboa,RH2 8AE,51.231064520353800,-0.203203610209984
Ice seal and Masked owl,GU5 9EN,51.177270167485200,-0.479839890187868
Kite and Goose,KT18 6JU,51.284184151618500,-0.279786282176205
Myna and Goose,KT22 8HP,51.292008644727900,-0.328272173226297
Viscacha and White ibis,KT22 7PJ,51.309204283008700,-0.332812522956402
B and Masked owl,RH3 7AZ,51.212666749021700,-0.276238856350583
White ibis and Condor,KT20 6WE,51.292208375602800,-0.237047043020716
Civet and Ground sloth,GU6 7BW,51.146055405974100,-0.480436618052104
Peafowl and Black jay,KT24 6EQ,51.256930463970500,-0.451332023782391
Siskin and Philippine hawk-owl,KT23 4LG,51.270650840293100,-0.376168486364259
Darwin's finches and Grosbeak,RH2 9PX,51.237791412138800,-0.208167000000000
Bronzewing pigeon and Pheasant,KT23 3AH,51.280382254855600,-0.386679682109000
Kākāriki and Siskin,KT24 9BX,51.265201310800000,-0.432764247500000
Minke whale and Kākāriki,KT11 1ND,51.310810328065900,-0.446333612419212
Maya and Macaw,GU6 8PX,51.147467000000000,-0.493544000000000
Shearwater and Rabbit,KT21 2RA,51.310370326107600,-0.306283783778324
Pratincole and Vulture,KT18 6AA,51.305969691219100,-0.260793000000000
Elephant and Vulture,RH2 8NU,51.205619000000000,-0.281799000000000
Tahr and Zebra,KT22 9AU,51.291963824662200,-0.340292626553591
Guillemot and Minke whale,RH2 0EX,51.246761131111200,-0.189467094384356
B and Greenbul,RH4 9TA,51.235645383147200,-0.325316470260331
Ibex and Darwin's finches,RH4 9TR,51.235645383147200,-0.325316470260331
Vulture and Old World vulture,SM7 2HG,51.315270375182000,-0.209014000000000
Grackle and Snipe,KT22 8RD,51.286228014600600,-0.309595622454066
Meadowlark and Prion,KT20 5EA,51.293362907356700,-0.241463452962203
Duck and Asiatic leopard,RH1 6LN,51.225050961039400,-0.192281218886846
Jerboa and Jerboa,KT24 6EA,51.255443741083200,-0.463391114185905
Polecat and Old World vulture,KT20 6HZ,51.293198128037000,-0.200434871501787
Parrotbill and Egret,KT23 3AG,51.284069697585300,-0.387367851526181
Moluccan boobook and Wader,KT11 1LH,51.311812097640400,-0.435122451201955
Argus and Black cockatoo,KT18 5RZ,51.307048188587100,-0.235976273012341
Piping shrike and Kite,KT20 6RL,51.281250893688000,-0.205977885925782
Bronzewing pigeon and Cloud rat,GU4 7UT,51.268040216370300,-0.502792556613281
Prion and Old World warbler,KT22 9BF,51.282892757352800,-0.351288140684411
Herring gull and Stilt,KT22 8XE,51.297434454543200,-0.303489460526508
Diving bird and Logrunners,GU6 7AZ,51.146475779126400,-0.483725395865914
Guillemot and Viscacha,RH4 1HT,51.237224997837800,-0.335816818551920
Mouse and Tahr,SM7 2HJ,51.314485147685100,-0.206963376686298
Petrel and Quetzal,SM7 1DF,51.317533171738200,-0.213402693883558
Old World quail and Triller,KT20 7AF,51.281723340953200,-0.249550889238611
Mamo and Ground sloth,KT23 4RW,51.278277602690100,-0.363970414796406
Pitohui and Songlark,KT22 9DJ,51.290964007467000,-0.338908821311606
Black jay and Old World warbler,KT21 2JS,51.313769039154900,-0.314351976882947
Dolphin and Prion,RH2 8NN,51.209185397737500,-0.252517320523039
Piping shrike and Condor,KT23 3JB,51.286182000000000,-0.380654000000000
Parakeet and Quetzal,RH5 5PH,51.162464241205800,-0.374535343873617
Perching duck and New World blackbird,KT23 3DY,51.280039936159900,-0.378174615359728
Partridge and Francolin,KT22 8RN,51.297347982374800,-0.319945203148792
Cloud rat and Masked owl,RH4 3QR,51.227818068823800,-0.362552130522131
Greenbul and Kākāriki,KT18 7ET,51.310871987541900,-0.278401032286283
Solitaire and Flameback,RH2 8EF,51.224908000000000,-0.199350000000000
Tit-tyrant and Shearwater,KT24 5BL,51.281186137354200,-0.429266437411722
Zebra and Vole,RH11 7UG,51.130498704338700,-0.187586049658991
Mockingbird and Boto,RH2 9RN,51.254676865558300,-0.198342264657508
Stilt and Old World quail,RH2 2ER,51.241099000000000,-0.202988844000000
Herring gull and Capuchin,GU23 6NX,51.297870548999100,-0.462032414769833
Stilt and Rat,KT20 6PT,51.291278245627400,-0.208943187944178
Cuscus and Condor,KT22 8TY,51.299082280639900,-0.307990277008046
Grouse and Marsh harrier,GU6 8BD,51.141965877309400,-0.491020894814911
Scimitar babbler and Scimitar babbler,GU6 7ER,51.143596022683100,-0.473884023676019
Prion and Viscacha,KT20 5EY,51.295170804531100,-0.236704074950045
Treepie and Capuchin,KT21 2NR,51.310223380414100,-0.311052733606753
Crow and Kite,RH2 0LR,51.243232300142200,-0.182270060652628
Polecat and Gull,RH2 0DY,51.248541655663900,-0.195401000000000
Magpie and Vulture,GU4 7RP,51.248110302078900,-0.476115581579819
Grouse and Solitaire,RH5 4LE,51.189599000000000,-0.337562000000000
Capuchin and Eagle,KT22 9BA,51.287450217315000,-0.354996964978940
Vole and Marmoset,GU23 6BH,51.302166014493100,-0.487351663356483
Kangaroo and Fox,RH5 6RB,51.204882469419200,-0.431161889490530
Piping shrike and Stilt,GU5 9RE,51.205348184084600,-0.443815004585710
Puffleg and Solitaire,KT22 9RJ,51.298618184038000,-0.356218708688371
Tahr and Songlark,KT20 5DP,51.296243000000000,-0.243899183978785
Philippine hawk-owl and Grosbeak,RH2 0EF,51.243633448957000,-0.197742234914511
Civet and Francolin,RH2 7LB,51.233145000000000,-0.198668000000000
Chicken and Songlark,KT18 6HX,51.304360743064300,-0.264958367598961
Thrasher and Cuscus,KT18 6AL,51.309206764826500,-0.268534710083629
Pheasant and Herring gull,RH5 5PL,51.136427171089600,-0.400406991707271
Grackle and Magpie,GU4 7UG,51.270906645610200,-0.497008223035737
Grackle and Stint,RH3 7AD,51.234549000000000,-0.252087000000000
Rabbit and Guillemot,KT24 6PE,51.286459376405200,-0.445033074087481
Recurvebill and Minke whale,GU6 8QF,51.148155198276300,-0.494693660111702
Tit-tyrant and Minke whale,RH5 5PR,51.150665351888700,-0.399285654661519
Zebra and Kangaroo,KT18 5QN,51.305738898268200,-0.240402226836486
Towhee and Mink,RH2 9ND,51.251076522525800,-0.203398094171875
Puffleg and River dolphin,RH2 2SS,51.239537570948700,-0.205079724451592
Old World vulture and Tahr,RH2 2GL,51.241098000000000,-0.203016000000000
Pheasant and Viscacha,KT20 5QX,51.288092439878000,-0.233648043503103
New World blackbird and Old World warbler,KT18 5US,51.315304820898000,-0.233679339971739
Elephant and Diving bird,RH5 6JP,51.203195000000000,-0.391539000000000
Thrasher and Snipe,KT24 5LH,51.269900109520600,-0.399360820955329
Linsang and Jerboa,GU6 7BX,51.148299719348600,-0.479447879389510
American sparrow and Flameback,KT22 7EU,51.298612516664400,-0.323353000000000
Badger and Gull,KT22 7PZ,51.309033311143300,-0.332173077059254
Grackle and Siskin,KT18 6HJ,51.304955278161000,-0.266241472778710
Herring gull and Vole,RH4 1TJ,51.235087656700000,-0.324192000000000
Towhee and Stint,KT24 6HX,51.269305157959500,-0.455488965403636
Diving bird and Chicken,KT20 6LQ,51.294727203587500,-0.208077463211065
Hawaiian honeycreeper and Stilt,GU6 7QP,51.152954977044500,-0.437599209580078
Logrunners and Siskin,GU5 9RR,51.191866299332300,-0.447732434655452
Grosbeak and Coati,KT18 5QP,51.307969526895700,-0.240431687102692
Scimitar babbler and Chipmunk,KT23 4FF,51.280154000000000,-0.360612000000000
Polecat and Argus,KT20 5DS,51.292806731847400,-0.237368349762324
Marmoset and Crow,KT23 3HP,51.286680627125000,-0.384981915871743
Goose and Hawk,GU6 8PZ,51.150657000000000,-0.495399000000000
Petrel and Hawk,RH2 9LA,51.244421394023700,-0.213944699645887
Ibex and Songlark,KT20 6QX,51.284898833504500,-0.218139696978614
Partridge and Meadowlark,RH3 7DR,51.239768816190400,-0.265140425883852
New World blackbird and Lemming,KT22 8JD,51.288609593141200,-0.332697975483448
Dorcopsis and Moluccan boobook,KT23 3HS,51.289412000000000,-0.389260000000000
Argus and Meadowlark,RH2 8NX,51.199391000000000,-0.275346000000000
Nukupuʻu and Parrotlet,KT22 7FY,51.309066000000000,-0.333119000000000
Chickadee and Macaw,KT20 5NP,51.305809409727800,-0.221260950821561
Pitohui and Triller,RH2 0SU,51.249893911528000,-0.182136357640005
Dolphin and Kestrel,GU6 8SA,51.141938126152600,-0.490264139343499
Parakeet and Polecat,KT23 3NP,51.285729431237400,-0.370847101044536
Solitaire and Marmoset,KT22 9AT,51.292776936675600,-0.333594035120547
Lemming and Ibex,RH5 4BS,51.235256349978100,-0.318254220872247
Cuscus and Kākāriki,KT24 6PB,51.284058004650000,-0.443651524666235
Maya and Marmoset,KT22 7DG,51.305325131685300,-0.328792621568503
Mouse and Capuchin,KT20 7QU,51.274991000000000,-0.249176000000000
Ibex and Tahr,KT21 2RE,51.313442284521200,-0.307906896923816
Cloud rat and Old World vulture,KT21 2HL,51.313581216843700,-0.320055430903415
Pheasant and Chipmunk,KT20 6LA,51.291312509102500,-0.197697502440708
Mouse and Jackal,KT22 8AQ,51.295573950468100,-0.326679650126502
American sparrow and Puffleg,KT20 7SF,51.280968810397300,-0.249120652100437
Jackal and Francolin,GU6 7DE,51.148080828584600,-0.479212016683287
Argus and Argus,KT24 5RD,51.251050214758600,-0.431138868831182
Snipe and Hawaiian honeycreeper,RH5 5BQ,51.165669717410900,-0.290907170608651
New World blackbird and Buzzard,RH2 0EG,51.244321113065300,-0.195680826835130
Flameback and Meadowlark,KT18 6LU,51.276518000000000,-0.269018000000000
Dorcopsis and Eagle,KT18 6JL,51.306231523802600,-0.266193377851560
Quetzal and Armadillo,KT18 6DL,51.292384126951300,-0.272365972456206
White ibis and Pitohui,RH5 6PS,51.198038393088600,-0.414433533468599
Perching duck and Elephant,KT23 4NH,51.274449348924700,-0.374486209023538
Egret and Perching duck,KT21 1DF,51.307077344911400,-0.295013467363801
Treepie and Viscacha,KT20 5AH,51.290293656490800,-0.235901311740650
Ibex and Kite,KT24 5AL,51.271533567724500,-0.430341039576044
Perching duck and Rat,KT20 6SB,51.279074436019900,-0.216558429185278
Partridge and Puffleg,RH2 0PY,51.239036459566600,-0.191804681370740
Logrunners and Gull,SM7 1AE,51.315413699154300,-0.212997137994143
Civet and Tahr,KT20 6JS,51.290329000000000,-0.187528000000000
Tit-tyrant and Pheasant,RH5 6BU,51.255426000000000,-0.333827000000000
Boto and Piping shrike,KT21 1BZ,51.304377892595100,-0.293664534955317
American sparrow and Rabbit,KT22 9BL,51.289899748983500,-0.334257511496005
Old World vulture and Bronzewing pigeon,KT20 6UT,51.266965503881700,-0.205659814030024
Recurvebill and Old World vulture,RH4 2JA,51.225889658271100,-0.334865126390161
Cuscus and Hawk,RH4 2HY,51.226931258003000,-0.334755925644868
Badger and Siskin,KT22 8AH,51.295758648483700,-0.327648290972865
Mink and Tit-tyrant,RH4 2FU,51.218526814800000,-0.325436600800000
Parrotlet and Goose,GU6 7QW,51.151988226669200,-0.437260092357502
Tattler and Rat,RH4 1GL,51.232543095600000,-0.338449496100000
Magpie and Wallaby,GU5 9DF,51.212187539510400,-0.477000983257421
Chipmunk and Armadillo,RH3 7LR,51.237718156163600,-0.281577271223583
Mink and Mamo,KT20 7LB,51.249255766190600,-0.313100988809170
Eagle and Greenbul,KT24 6QF,51.273345419429500,-0.435368695032182
Gull and Francolin,KT23 3EE,51.279127307524200,-0.375912641610235
Maya and Cuscus,RH10 9TA,51.131047423453600,-0.186435454175062
Triller and Parrotbill,KT22 9NH,51.289340293506600,-0.367965773153286
Stint and Marsh harrier,RH4 1DR,51.233419655276400,-0.333819824748110
Armadillo and Zebra,GU4 7FP,51.248890748466100,-0.479958607087210
Cuscus and Chickadee,RH4 3HN,51.229139000000000,-0.338114000000000
Lemming and Bunting,GU6 7JW,51.138427000000000,-0.472539000000000
Argus and Perching duck,KT21 2FN,51.306777469446600,-0.305827908045563
Petrel and Duck,KT18 5TU,51.306418937707400,-0.231222867707007
Mole and Maya,RH4 1ES,51.236263687796100,-0.339045963752786
Marmoset and Asiatic leopard,KT24 6HJ,51.276111696552200,-0.449984663046920
Badger and Booted eagles,KT20 6SA,51.275544000000000,-0.215548000000000
Jerboa and Minke whale,RH11 7TU,51.128315875237100,-0.191230139478717
Masked owl and Eagle,RH2 8LN,51.226444946454100,-0.212778816298073
Fox and Asiatic leopard,SM7 1DG,51.317326153726200,-0.215749848992910
Triller and Flameback,RH4 2WG,51.233194400089100,-0.330003456352451
Cuscus and Goose,KT23 4BQ,51.282852796177800,-0.360610181785009
Partridge and American sparrow,RH2 8DJ,51.218147091940700,-0.202961956587499
Kangaroo and Chickadee,KT20 7RT,51.283310489123300,-0.243955347888815
Ibex and Parakeet,KT24 6SS,51.265910760690600,-0.433514069902506
Piping shrike and Partridge,KT22 2JY,51.296060000000000,-0.333681000000000
Logrunners and Kangaroo,KT22 7HR,51.296870696605000,-0.327435756904546
Crow and Darwin's finches,KT22 7NS,51.303800072624400,-0.332836194040140
Elephant and Cuscus,RH4 1BL,51.231583213601900,-0.334315859121529
Chickadee and Duck,RH4 2PJ,51.219418351302400,-0.329428015916710
Ice seal and Chicken,RH5 4RL,51.176764708758600,-0.319310293698461
Asiatic leopard and Moluccan boobook,KT20 5EP,51.298332252346600,-0.240025601235061
Partridge and Black jay,KT22 7JZ,51.305304000000000,-0.336115000000000
Cuscus and Warbler,RH5 4NH,51.194619786384300,-0.327777487015321
Nukupuʻu and Fulmarine petrel,KT21 1PA,51.317667015569500,-0.303432005643544
Rabbit and Old World vulture,GU5 9LG,51.221087769763700,-0.451461082830464
Maya and Ground sloth,RH2 9TB,51.242572101015400,-0.231925179424032
Fulmarine petrel and Mamo,GU6 8FG,51.132732000000000,-0.480879000000000
Dolphin and Peafowl,KT23 3QG,51.279909923638300,-0.385032970240496
Nukupuʻu and Thicketbird,KT21 9BT,51.309369959802800,-0.300423764441834
Dorcopsis and Thicketbird,RH4 2HH,51.218873345418500,-0.329046796326121
Condor and Triller,KT20 5NJ,51.313516309894500,-0.217131680654495
Snipe and Philippine hawk-owl,KT22 7ES,51.300667623842000,-0.322549558962711
Vulture and Jackal,RH2 0LX,51.241537000000000,-0.196392000000000
Vulture and Bronzewing pigeon,GU6 7JD,51.140964551186400,-0.467952511509991
Grackle and Hawk,KT20 5LY,51.312530752562700,-0.217370767527925
Duck and Wallaby,RH4 9FW,51.233194400089100,-0.330003456352451
Mink and Vulture,RH4 2NP,51.218344784217600,-0.324784436987458
Fox and Logrunners,RH2 2BJ,51.241099000000000,-0.202988837703587
Jerboa and Peafowl,RH2 7AP,51.236302440636800,-0.187141585926599
Solitaire and Jay,KT24 5QL,51.262420532248300,-0.412735296547197
Bronzewing pigeon and Jerboa,KT24 5LA,51.271918240724700,-0.401613118578624
Solitaire and Fulmarine petrel,RH2 7DA,51.236357579264400,-0.184317352285169
Ground sloth and Pitohui,RH6 0DJ,51.147446008965600,-0.227784836578940
Magpie and Zebra,RH2 0SR,51.238081526244000,-0.199277176176070
Treepie and Elephant,RH5 4JP,51.211302523198000,-0.329750355976835
Siskin and Civet,RH5 4NB,51.186891878252300,-0.322533667327744
Jackal and Tree warbler,KT20 7NF,51.269969485137700,-0.258814000000000
Philippine hawk-owl and Guillemot,GU5 9BU,51.219047000000000,-0.461625000000000
Fish eagle and Night heron,KT22 7DS,51.306303871980500,-0.325543395850032
Siskin and Chipmunk,RH2 8AQ,51.226245837819500,-0.217412541048965
Thicketbird and Chipmunk,KT22 7PE,51.307892658569700,-0.332271818515208
Chicken and Philippine hawk-owl,KT21 2TS,51.304936973999500,-0.305536945642015
Darwin's finches and Black cockatoo,KT21 2UD,51.304631994983500,-0.296911718413666
Civet and Capuchin,KT20 6AQ,51.311383988494600,-0.215291629343690
Herring gull and Marsh harrier,KT20 5TP,51.296395805776300,-0.228495506118462
Vole and Solitaire,KT18 5SN,51.309629275303900,-0.234198585448894
Pitohui and Dorcopsis,RH4 2NQ,51.217008660362600,-0.325677751716753
Moluccan boobook and Zebra,RH5 6HG,51.178693071320200,-0.358856448717948
Argus and Boto,KT20 6NL,51.283451000000000,-0.211556000000000
Elephant and Chipmunk,KT20 6JW,51.294046456140500,-0.194205462255535
Tree warbler and Argus,RH5 6EA,51.268894904441400,-0.324939527275569
Rabbit and Badger,KT23 4EE,51.275918323883800,-0.389029636381704
Hawaiian honeycreeper and Tattler,GU23 6BW,51.300538000000000,-0.490676000000000
Duck and Magpie,KT24 5BZ,51.281287019981000,-0.430754231643751
Asiatic leopard and Grosbeak,KT22 7NZ,51.306026000000000,-0.334965000000000
Snipe and Grouse,RH5 5HE,51.142402160386800,-0.318614293147425
Viscacha and Petrel,KT22 7LQ,51.297091749719000,-0.328431795202467
Francolin and Old World quail,KT20 6ES,51.298067401957700,-0.213039657661970
Condor and Night heron,KT22 7BH,51.296861372956400,-0.331194173656927
Skunk and River dolphin,RH5 4PP,51.167751283542700,-0.315375442561084
Wallaby and Piping shrike,KT20 5HY,51.300078144142400,-0.237721013484507
Ibex and Meadowlark,RH5 4TQ,51.215135784957800,-0.320490837789991
Mink and Black jay,RH2 7EP,51.236493621933000,-0.186131303593262
Night heron and Pratincole,RH5 4JY,51.191446316874900,-0.325330683901909
Meadowlark and Prion,KT22 8PP,51.289487212860400,-0.322368984208108
Warbler and Guillemot,KT21 1ED,51.306884757584200,-0.297846961333266
Stint and Towhee,RH2 9DZ,51.243875482243700,-0.209409700266584
B and Kite,KT20 6EP,51.296716243747300,-0.212519000000000
Myna and Gull,RH2 8LX,51.226346325882400,-0.212209754393834
Badger and Parrotbill,RH5 6LW,51.191792000000000,-0.394155000000000
American sparrow and Rat,RH10 9UH,51.135433036824700,-0.183347666715604
Ibex and Partridge,RH5 5TS,51.146459135103900,-0.363073809969265
Old World quail and Scimitar babbler,RH2 2TE,51.239537570948700,-0.205079724451592
Mockingbird and American sparrow,RH5 5NA,51.128648783858500,-0.378712000000000
Perching duck and Nukupuʻu,KT20 5AF,51.290749942761800,-0.236342770975222
Meadowlark and Parrotbill,RH5 6RA,51.204997305520700,-0.434364566331329
Asiatic leopard and Minke whale,RH2 7JJ,51.232299988690900,-0.196996198106037
Pratincole and Siskin,KT23 4EW,51.272809569939300,-0.389224376273341
Marmoset and Thicketbird,RH5 4UA,51.214298233442800,-0.317901092529111
Stilt and Snipe,KT20 7PF,51.260471622521100,-0.267671963829725
Ice seal and Magpie,KT21 2LQ,51.309093245800000,-0.318755869519350
Herring gull and Snipe,RH5 5EU,51.150073126987100,-0.327400615290403
Mink and Duck,RH2 0PW,51.239020404101800,-0.194842428068354
Asiatic leopard and Polecat,RH2 2GH,51.241098000000000,-0.203016000000000
Kangaroo and Pratincole,GU6 7DY,51.145830154652800,-0.478328103719295
Mamo and Marmoset,GU6 8FL,51.131424000000000,-0.481279000000000
Old World quail and Warbler,KT23 3HX,51.293578000000000,-0.392612385132628
Black jay and Ice seal,KT22 8TB,51.297414659767200,-0.320832096796426
Maya and Marmoset,KT23 4BN,51.276032518934100,-0.362903182022765
Zebra and Siskin,GU23 6BX,51.300755590516500,-0.493622000000000
Zebra and Linsang,GU6 7PX,51.152615000000000,-0.441672000000000
Thrasher and Parrotbill,KT22 9EA,51.286776065625800,-0.346717826906650
Marmoset and Fulmarine petrel,RH5 5QR,51.138957660179200,-0.380407025678694
Bunting and Buzzard,RH4 2LS,51.216674822488700,-0.324446000000000
Grosbeak and Zebra,KT21 2PB,51.307224481285700,-0.303111000000000
Thicketbird and Rabbit,GU6 7SN,51.153740378931500,-0.424417411583896
Tahr and Badger,KT21 2QR,51.310049000000000,-0.301451000000000
Kite and Kestrel,KT23 3PN,51.279445353600600,-0.374854729001315
Wader and Marsh harrier,GU23 6ER,51.293795000000000,-0.502741546713298
Kestrel and Scimitar babbler,RH5 6ED,51.268931770311300,-0.323117627268161
Grosbeak and B,GU6 8GB,51.141375000000000,-0.485870000000000
Pheasant and Nukupuʻu,GU5 9LR,51.215800846454000,-0.450836621155490
Vulture and Wallaby,GU4 7SQ,51.261265361090500,-0.482961533463866
White ibis and Jay,RH5 5SF,51.160532000000000,-0.396055000000000
Piping shrike and Dorcopsis,KT23 3NN,51.287021898747200,-0.371962961831943
Thrasher and Wader,RH2 0TX,51.266658168385600,-0.190950135898938
Jay and Zebra,RH4 2JE,51.226595413182200,-0.335169060925371
Herring gull and Grosbeak,KT22 8BX,51.294900158081900,-0.331338000000000
Partridge and Black jay,RH2 7HX,51.230898733667400,-0.201777719265835
Hawk and Piping shrike,KT17 3PB,51.317815233714700,-0.234372196090933
Rabbit and Minke whale,RH6 0BZ,51.155427871633500,-0.221015415045071
Pratincole and Francolin,KT22 8TT,51.299186242471700,-0.308961885148707
Viscacha and Masked owl,KT22 2JA,51.296060000000000,-0.333681000000000
Songlark and Guillemot,RH5 5EP,51.150775291893900,-0.322427965923332
Lemming and Bronzewing pigeon,GU6 8QQ,51.150388071042800,-0.493505766887728
Magpie and Fulmarine petrel,GU5 9BH,51.221835757316900,-0.479704176310053
Shearwater and Argus,RH2 2FA,51.241099000000000,-0.202988844000000
Songlark and Maya,RH5 4TE,51.214703876245300,-0.322353608809168
Marmoset and White ibis,KT22 9EJ,51.292186137203300,-0.345835092333660
Egret and Ice seal,KT22 8RF,51.288861397877700,-0.316985108470208
Parakeet and Scimitar babbler,RH4 9ZZ,51.233196000000000,-0.330003000000000
Grosbeak and American sparrow,GU5 9EQ,51.191580019298600,-0.482116776104318
Towhee and Booted eagles,RH5 4NG,51.193582000000000,-0.325540000000000
Crow and Snipe,KT11 3QD,51.315125018811700,-0.370121783731975
Guillemot and Black cockatoo,KT22 7RP,51.307481445716900,-0.333707089631649
Maya and Duck,KT21 1HF,51.304874426113200,-0.284564866231537
Tree warbler and Masked owl,RH2 7BH,51.237545430063700,-0.205357816280511
Black cockatoo and Linsang,KT20 7TT,51.280541001487400,-0.240978107883207
Parakeet and Elephant,KT18 5PS,51.308272577576200,-0.243246555354924
Warbler and Tattler,RH5 4HN,51.214577851168800,-0.327999566761750
Flameback and Jerboa,KT24 6LY,51.282731612492500,-0.448055478980608
Old World vulture and Peafowl,KT24 5BD,51.277226000000000,-0.429580031998010
Peafowl and Bunting,RH2 9SS,51.240179442885000,-0.207060431715094
Condor and Jay,KT22 9EN,51.291935842605800,-0.347852001123670
Maya and Chipmunk,RH1 6NP,51.228966429721100,-0.190767119055520
Tattler and Dolphin,KT24 6TJ,51.258159518619800,-0.430853888251439
Darwin's finches and Cuscus,KT23 4NF,51.272463788134200,-0.373968494441163
Marmoset and Bronzewing pigeon,RH5 4TS,51.215740773858700,-0.315657778318220
Marsh harrier and Treepie,RH4 9TB,51.235645383147200,-0.325316470260331
Pratincole and Guillemot,KT23 4HS,51.266015631320700,-0.393475449164006
Mouse and Shearwater,KT22 8JQ,51.287408942982400,-0.325441958441463
Nukupuʻu and Quetzal,GU6 7HH,51.140563322138400,-0.481317391582161
Snipe and Jerboa,KT23 3DE,51.280372146824200,-0.383339146440564
Stint and Pratincole,KT22 7QG,51.312053669161200,-0.332092262923383
Chickadee and Diving bird,RH6 0AP,51.167164772638800,-0.188280370128860
Treepie and White ibis,RH2 0PR,51.241099000000000,-0.202988837703587
Magpie and Jerboa,RH4 2BJ,51.232827054845200,-0.326321194371718
Herring gull and Wader,RH4 3HQ,51.229139000000000,-0.338114000000000
Duck and Greenbul,KT20 7SH,51.280323742943900,-0.246277421715298
Fish eagle and Masked owl,KT20 6BN,51.300938333253900,-0.220272943253515
Tahr and B,KT22 8JB,51.289855657161800,-0.330530285783387
Pitohui and Thicketbird,RH2 0RX,51.237570428543200,-0.187722068988514
Solitaire and River dolphin,RH10 9BJ,51.136108000000000,-0.185637000000000
Macaw and Wader,RH10 9DF,51.135030147360700,-0.181877000000000
Herring gull and Scimitar babbler,KT20 9EZ,51.292210055905400,-0.237047050180602
Siskin and Darwin's finches,GU5 9QR,51.209086890596000,-0.449744802320481
Gull and Recurvebill,KT20 7QN,51.276433000000000,-0.246411000000000
Kestrel and Elephant,RH3 7LS,51.235458007678400,-0.281374982874499
Bronzewing pigeon and Pratincole,KT23 3LB,51.286929260816900,-0.378247438368679
Jackal and Skunk,KT24 6NX,51.281411914729000,-0.437403194095912
Marmoset and Argus,KT20 7TW,51.278981875901700,-0.243747616123752
Tattler and Cuscus,KT21 2TP,51.304311000000000,-0.305689000000000
Dorcopsis and Asiatic leopard,RH4 3BS,51.226148060455600,-0.338493536071531
Shearwater and Civet,KT23 4PW,51.273471383269900,-0.365603444871715
Stilt and Greenbul,KT22 8NH,51.290726448604900,-0.324130902191486
B and Vole,KT22 7BU,51.301440461633100,-0.327542221437353
Shearwater and Parakeet,RH5 4QZ,51.180756542934000,-0.317991893488045
Marsh harrier and Argus,KT24 6RL,51.263353924422100,-0.431279009103478
Duck and Stilt,KT11 3PU,51.317649084300000,-0.380938501554461
Herring gull and Meadowlark,SM7 2FF,51.307388264268900,-0.190944000000000
Meadowlark and White ibis,GU5 9RH,51.194362000000000,-0.441910000000000
Fox and Bunting,RH5 6RL,51.200624362195300,-0.430819870524118
Ibex and Viscacha,KT20 6NX,51.292371000000000,-0.215670000000000
Vulture and Moluccan boobook,KT24 5DL,51.277445512484000,-0.425938647286871
Prion and Tahr,KT18 6HN,51.305675487919800,-0.265080946095221
Goose and Herring gull,KT22 9RF,51.293742822724500,-0.356120309883860
Triller and Rabbit,RH5 4RE,51.178146301986800,-0.320333074788629
Grosbeak and Night heron,RH2 8PY,51.201498745343500,-0.225181613313821
Booted eagles and Goose,KT21 1BU,51.304226974832000,-0.294416132340257
Minke whale and Tree warbler,RH5 6DJ,51.264109985358900,-0.324253463756369
Masked owl and Booted eagles,KT20 5HW,51.301266296095600,-0.231794000000000
Macaw and Shearwater,GU5 9RB,51.197964351709300,-0.443748907153952
Quetzal and Stilt,RH4 2EW,51.229829087418500,-0.334909141662665
Flameback and Goose,KT20 7LT,51.252823000000000,-0.281936746430333
Grosbeak and White ibis,KT18 5RJ,51.305551000000000,-0.233781000000000
Snipe and Fish eagle,KT23 3AJ,51.279166601910400,-0.375221000000000
Hawk and Darwin's finches,KT18 5UH,51.315690958213300,-0.239016998649688
Treepie and Meadowlark,GU6 8DZ,51.133627082378300,-0.478329027095260
Chickadee and Piping shrike,KT20 5NT,51.306692901432100,-0.220222497821605
Gull and Vulture,KT21 2NU,51.312521257279700,-0.310136134190220
Grackle and Zebra,SM7 2FA,51.307793000000000,-0.189276000000000
Mole and Viscacha,KT22 0WS,51.296132308201400,-0.333673360570952
Mink and Diving bird,RH5 4AD,51.233248855911200,-0.321865444968555
Civet and Chickadee,GU6 7YH,51.141185479099200,-0.488387422273764
Kangaroo and Greenbul,RH6 8HF,51.178340664634200,-0.182334026067732
Warbler and B,KT23 4HA,51.269574000000000,-0.384664000000000
Black cockatoo and Triller,KT20 7NJ,51.269050813481600,-0.253157471670888
Shearwater and Parrotbill,RH4 1QT,51.233723041773800,-0.327978935688725
Wader and Towhee,GU5 9TB,51.201178131670200,-0.445186000000000
Warbler and Grouse,RH4 2PR,51.220041766772000,-0.326970000000000
Parrotbill and Hawaiian honeycreeper,RH4 1DE,51.231838996491600,-0.333332621062651
Towhee and Capuchin,RH4 9JF,51.233196000000000,-0.330003000000000
Fish eagle and Hawaiian honeycreeper,KT20 5RW,51.290917841857200,-0.227214752958212
Kangaroo and Macaw,RH2 7EU,51.233293895564400,-0.185082545539072
Linsang and Cloud rat,RH2 7JG,51.232338294502600,-0.202409148984345
Meadowlark and Solitaire,RH4 1RQ,51.234873685586400,-0.326690993163502
Rat and Darwin's finches,RH2 7DJ,51.234911620550900,-0.185018889241351
Jay and Marmoset,KT23 4PY,51.272526452584300,-0.367486337623236
Snipe and Elephant,RH4 9TY,51.235645383147200,-0.325316470260331
Warbler and Mockingbird,KT22 7HB,51.299734774539600,-0.320833507669916
Kākāriki and Gull,GU6 7QA,51.154706992404100,-0.442201673716283
Bronzewing pigeon and Old World warbler,KT11 3QE,51.308773661429300,-0.375110169854614
Hawaiian honeycreeper and Minke whale,RH5 5AA,51.166568312060900,-0.289629561050037
Night heron and Vole,KT21 1DJ,51.306842214606700,-0.292454072019804
Kangaroo and Night heron,KT20 6DR,51.306572103449100,-0.217601666586709
Bunting and Vole,RH5 5PT,51.126802919228200,-0.389778323014789
Solitaire and Mockingbird,KT18 5UA,51.313950397944600,-0.237490870680474
Stilt and Chicken,RH4 1BG,51.232257190268000,-0.330495743705831
Gull and Chicken,RH11 7GN,51.128321422451500,-0.210881026071671
Black cockatoo and Hawaiian honeycreeper,KT24 6JB,51.269635440979800,-0.456667708816852
Shearwater and White ibis,KT21 1JL,51.317997280993100,-0.293977223604772
Pheasant and Petrel,KT23 3LS,51.285008802374800,-0.375289333076725
Prion and Magpie,RH4 3PQ,51.227696510756500,-0.366079713086856
American sparrow and Viscacha,KT21 2GA,51.302348409512800,-0.306249130605620
Stint and Kestrel,RH5 5AD,51.167730057749600,-0.290358988660862
Darwin's finches and Marsh harrier,RH2 0EY,51.245210808587900,-0.193310554172501
Thicketbird and Vole,KT20 5AG,51.290770000000000,-0.235826000000000
Maya and Marmoset,RH2 0LQ,51.245098000000000,-0.183056000000000
Mink and Dolphin,RH4 3BD,51.224346761539900,-0.335135622759902
Pheasant and Greenbul,KT23 3NE,51.283340557737700,-0.371720296398186
Warbler and Duck,KT24 5NA,51.271363440408100,-0.399180954740786
Triller and American sparrow,RH5 6QW,51.215104999168400,-0.386041306419059
Fish eagle and River dolphin,RH5 6RS,51.201072548019300,-0.434068203837748
Chickadee and Nukupuʻu,KT22 8JY,51.275780243673200,-0.320961445377954
Mole and Linsang,KT11 3QH,51.305827104135100,-0.375974600265280
Pratincole and Masked owl,KT24 6LN,51.281257517408700,-0.445395130099597
Black jay and Rat,GU4 7UQ,51.270354147378100,-0.498101394977367
Stilt and Buzzard,KT20 6AG,51.310391096244800,-0.217410644201087
Black jay and Minke whale,KT23 3RP,51.284105079631000,-0.366430644241748
Mamo and Tattler,KT21 1RF,51.311150851202100,-0.296856900799914
Tattler and Elephant,RH5 4HL,51.213784454693800,-0.328486479731895
Jay and Coati,RH2 0DU,51.249000359154400,-0.196457740670070
Argus and Scimitar babbler,GU6 7ED,51.145003117407900,-0.476968543156336
Grouse and Quetzal,KT20 7EA,51.267170226379000,-0.212575526942817
Asiatic leopard and Hawaiian honeycreeper,KT22 8JF,51.289614121439000,-0.326838925096100
Old World vulture and Vole,RH3 7JS,51.232988105288600,-0.285048000000000
Vole and Dolphin,RH2 7PU,51.219676549516400,-0.191331832531983
Night heron and Moluccan boobook,KT22 8LX,51.281194993406900,-0.322298286760453
Songlark and Tahr,RH5 6HY,51.202231000000000,-0.401264000000000
Guillemot and Vole,RH2 7EA,51.232148657369500,-0.194180307912143
Solitaire and Darwin's finches,KT21 1RG,51.311193495790100,-0.296697490201940
Gull and Mink,KT21 1SF,51.314840220197400,-0.297021623998098
Meadowlark and Hawk,KT24 9AN,51.265198893883100,-0.432764000000000
Solitaire and Parrotlet,RH5 5JY,51.152686783995000,-0.320270990038950
Maya and Bronzewing pigeon,RH4 2HB,51.230283395600000,-0.335107667800000
Flameback and Polecat,RH2 8BE,51.227881508543700,-0.206750668647583
Bronzewing pigeon and Mole,KT23 3DD,51.281297696072900,-0.381987477314607
Tahr and Treepie,KT21 1SQ,51.315567243095800,-0.293837770092274
Logrunners and New World blackbird,KT20 6LF,51.291560093177000,-0.201517220870896
Duck and Meadowlark,KT22 9PE,51.287432438753900,-0.362067626201240
Guillemot and Eagle,KT20 6XG,51.268871575221900,-0.199192030424517
Pratincole and Kākāriki,KT24 6SH,51.271296135739500,-0.432083747685214
Black cockatoo and Mamo,KT24 5RX,51.261035399258100,-0.427373499405096
Marmoset and Kangaroo,RH3 7NL,51.222462525950300,-0.283147893855292
Triller and Partridge,RH2 8DH,51.218278190767300,-0.203300521339020
Coati and Zebra,KT22 8BL,51.294866648684100,-0.330047327486419
Linsang and Chipmunk,RH4 2PX,51.219423990386100,-0.325418290757795
Recurvebill and Parrotbill,KT24 5ED,51.281354000000000,-0.424271000000000
Kestrel and Old World quail,KT24 5JQ,51.278733000000000,-0.405391000000000
Petrel and Nukupuʻu,GU5 9ET,51.186568849590500,-0.479863119156339
Siskin and Pratincole,KT22 9NX,51.285523883352000,-0.365132628633056
Peafowl and Mouse,RH4 2JZ,51.230132872891100,-0.334139056525881
Chickadee and Old World quail,RH3 7JU,51.227770678739600,-0.281475166955392
Old World vulture and Wallaby,RH4 3QN,51.227632742677800,-0.363446684867428
Bronzewing pigeon and Hawk,RH11 7SD,51.131090075112600,-0.192093647504990
Fulmarine petrel and Chickadee,KT23 3JA,51.285532404935200,-0.381137000000000
Prion and Skunk,KT22 7LA,51.297048633811600,-0.327931325769744
Darwin's finches and Vulture,RH5 5RY,51.163844000000000,-0.394920394622994
American sparrow and Kākāriki,GU5 9EG,51.195766397579400,-0.483181439486681
Stilt and Marsh harrier,GU6 8RP,51.142575311532100,-0.495387000000000
Pheasant and Asiatic leopard,KT23 4PF,51.276123888259900,-0.365581007884077
Moluccan boobook and Peafowl,RH4 3BF,51.217880154889700,-0.331287916111189
Vole and White ibis,RH4 2DR,51.232579122808300,-0.329109007693024
Rabbit and Skunk,KT20 6SG,51.275513659580400,-0.216581618228692
Linsang and Rat,KT24 6AT,51.261412000000000,-0.453503000000000
Egret and Old World vulture,GU6 7HU,51.142350163284300,-0.476269588041707
Crow and Rat,KT20 7JQ,51.251920000000000,-0.281664000000000
Stilt and Mole,GU23 7LH,51.272649933353100,-0.491317291825442
Puffleg and Cloud rat,RH2 7PF,51.221414775064600,-0.196161332849422
Chickadee and Meadowlark,RH5 4DA,51.221543000000000,-0.318196000000000
Kite and Kangaroo,RH3 7AP,51.208987000000000,-0.285195000000000
Minke whale and Linsang,RH4 3AA,51.226433934515300,-0.337094019507504
Zebra and Herring gull,RH5 6JA,51.200157000000000,-0.402180000000000
Towhee and Night heron,RH5 4AA,51.234778460924600,-0.321924391882794
Tattler and Herring gull,RH3 7AS,51.210306097005400,-0.293722102525695
Kākāriki and Petrel,KT21 1PY,51.316449244889300,-0.303792628236684
Capuchin and Condor,SM7 1DS,51.317885020109600,-0.217608087873677
Cuscus and Darwin's finches,KT22 9HF,51.289397000000000,-0.354569000000000
Hawk and Tahr,GU4 7RL,51.253431219640700,-0.487002493747287
Chickadee and Egret,KT23 3JX,51.283734979716900,-0.376811263141188
Stint and Tattler,KT22 8PA,51.287887833280000,-0.318698599947590
Polecat and Mamo,KT22 9DY,51.284029389740900,-0.348350807204121
Polecat and Greenbul,KT22 8AN,51.295159135710200,-0.328645000000000
Black jay and Mouse,GU6 7NL,51.172389852666700,-0.460788852868382
Wader and Pheasant,KT22 2GA,51.296132308201400,-0.333673360570952
Recurvebill and Duck,KT20 5AS,51.289368000000000,-0.237615000000000
Solitaire and Magpie,KT21 2BA,51.308233461758200,-0.299690916977061
Mole and Black jay,RH2 9NS,51.246189118911400,-0.203703179265064
Thrasher and Perching duck,GU5 9QF,51.206814582584900,-0.450637083835139
Logrunners and Booted eagles,RH2 9PP,51.249219243920000,-0.204846078528817
Armadillo and Hawk,RH4 1EN,51.234033586707100,-0.336519255009728
Quetzal and Nukupuʻu,RH4 2HA,51.229961030088700,-0.335334068871598
Jackal and Solitaire,GU6 8FE,51.142966398939200,-0.489644555640951
Parakeet and Rat,KT18 6JW,51.286252189602900,-0.284670853679608
Fish eagle and Cloud rat,RH4 1PW,51.239535502337300,-0.315032420604631
