name,postcode,lat,lon
Polecat and Prion,PA34 4BH,56.410209000000000,-5.474291000000000
Myna and Pitohui,PA34 4PL,56.406548000000000,-5.475319000000000
Greenbul and Ground sloth,PA34 4RN,56.399214072599000,-5.476016000000000
Logrunners and Badger,PA34 4BF,56.398523981515100,-5.482531541266230
River dolphin and Thrasher,PA34 5BQ,56.423422643812000,-5.476308624917840
Booted eagles and Kite,PA34 5JX,56.418436300159400,-5.463022827205620
Marmoset and Grackle,PA34 5AW,56.423527750298800,-5.475766650511580
Lemming and Booted eagles,PA34 4NX,56.411865394600000,-5.470356612100000
Mole and Parrotlet,PA37 1PE,56.452120000000000,-5.380420000000000
Old World warbler and Hawk,PA34 5PA,56.419538333221800,-5.471833758760440
Bronzewing pigeon and Tree warbler,PA34 4NF,56.409727439349900,-5.477685494271950
Piping shrike and Black jay,PA34 5JP,56.420626591171900,-5.463575000000000
Black cockatoo and Parrotbill,PA37 1PB,56.453351542961200,-5.382055654007100
Masked owl and Grouse,PA34 4NW,56.402043218817900,-5.460251543805270
Capuchin and Minke whale,PA37 1QA,56.451314000000000,-5.440431000000000
Asiatic leopard and Chipmunk,PA33 1BL,56.342719000000000,-5.129073000000000
Marsh harrier and Solitaire,PA34 4LS,56.410836089191000,-5.480786955689820
Old World vulture and Petrel,PA34 5JY,56.420117455955600,-5.469453384980640
Mole and Diving bird,PA34 4LW,56.412211762273000,-5.475395000000000
Vulture and Eagle,PA34 5NT,56.416272382191400,-5.472882162235860
Kestrel and Coati,PA34 4QS,56.351523245791300,-5.482143999769400
Puffleg and Diving bird,PA34 5SG,56.414338857582500,-5.471619140986890
Songlark and Vole,PA34 4NG,56.410128245037600,-5.476538251420060
Thrasher and Old World quail,PA34 5RT,56.412916000000000,-5.472337521126140
Herring gull and Tree warbler,PA37 1PP,56.447108289357200,-5.442956324457770
Old World quail and Civet,PA34 4HQ,56.404304000000000,-5.470380000000000
Jackal and Tahr,PA35 1HF,56.350307775929300,-5.173147971783020
Cloud rat and Rat,PA34 4JX,56.398635000000000,-5.467043000000000
Old World vulture and Grackle,PA34 5AT,56.424324088041000,-5.473016554113590
Hawk and American sparrow,PA37 1SQ,56.528379000000000,-5.310598000000000
Coati and Viscacha,PA34 5SF,56.414299263383100,-5.472069657370290
Dolphin and Parrotbill,PA34 4EG,56.408266589785000,-5.461789931409210
Moluccan boobook and Fox,PA34 5EQ,56.417083000000000,-5.471237000000000
Scimitar babbler and Greenbul,PA34 4RU,56.400000000000000,-5.477689000000000
Parrotbill and Solitaire,PA37 1PA,56.453079110561500,-5.384640000000000
Mockingbird and Jackal,PA34 4EP,56.409479848178900,-5.465986825462960
Old World vulture and Kangaroo,PA35 1JE,56.429833000000000,-5.238236066166520
Warbler and Tattler,PA34 5AS,56.423987547905300,-5.473796992798730
Asiatic leopard and Chipmunk,PA34 5DD,56.413794197916300,-5.471164016551640
Darwin's finches and Night heron,PA37 1SA,56.508436807753100,-5.390183460494890
Greenbul and Armadillo,PA34 4HW,56.398091105340800,-5.479379277038580
Magpie and Parrotbill,PA34 5JR,56.420828542312000,-5.464603063941980
Jackal and Chipmunk,PA34 5JG,56.420291447322300,-5.470945385324220
