name,postcode,lat,lon
Condor and Kangaroo,N17 6TP,51.591490990285300,-0.079658743493746
Crow and Vole,N1 4BB,51.546631009673400,-0.077682933489559
Dolphin and Capuchin,E17 4PP,51.590582953281000,-0.018315000000000
Chickadee and Dorcopsis,E11 2RU,51.576542073425300,0.028501615984599
Moluccan boobook and Puffleg,E3 3UL,51.528283000000000,-0.011461000000000
Grosbeak and Badger,N6 6QB,51.562873226663300,-0.149382196323334
Solitaire and Rabbit,EC1M 3JY,51.521204257922700,-0.106689441400928
Vole and Diving bird,E14 7GN,51.512652168464000,-0.033370067595429
Grackle and Stint,W1J 5DA,51.508647880105900,-0.145916927403080
Tahr and Jackal,SW1Y 4BE,51.507926817803900,-0.132775131410391
Ground sloth and Boto,EN2 7DF,51.652093693718000,-0.095112000000000
Elephant and Gull,E14 1QW,51.513196557764000,-0.028302340631128
Mockingbird and Peafowl,N22 6DF,51.595308799412200,-0.108618000000000
River dolphin and Goose,N1 1GD,51.538645000000000,-0.103543000000000
Towhee and Stilt,EC2A 2FA,51.521736000000000,-0.079440000000000
Peafowl and Goose,N1P 1DE,51.538645000000000,-0.103543000000000
Ice seal and Zebra,IG10 3LX,51.640334258546600,0.072335259163390
Grouse and Thrasher,E15 1XE,51.541823568070500,-0.000428942240421
Nukupuʻu and Goose,SW1P 4ES,51.494358970403200,-0.130635677007122
Grackle and Grosbeak,W1D 4AE,51.514080242626200,-0.131240816471521
New World blackbird and Badger,W1T 4EY,51.521790080993000,-0.136532548186024
Vulture and Kākāriki,E18 2NT,51.597161000000000,0.015594507923062
Rabbit and Recurvebill,EC3M 1AE,51.510577080279500,-0.085210517562481
Kestrel and Magpie,NW1W 8QQ,51.530784525000000,-0.135430053900000
Crow and Flameback,N17 9XS,51.598251067999200,-0.059837508529309
Chicken and Parakeet,E6 2JT,51.533354705636000,0.055115667053435
Stint and Darwin's finches,N16 5DX,51.574460355598800,-0.084128834821400
Chicken and Solitaire,SE11 4TE,51.493419008165600,-0.104570783295912
Booted eagles and Kestrel,W1D 2JA,51.515709823876800,-0.136449215317817
Rat and Grackle,SW1P 3JQ,51.496814834232300,-0.126184323851416
Triller and Jay,NW1W 7FF,51.530784525000000,-0.135430053900000
Buzzard and Wallaby,W1U 2PA,51.517810210863300,-0.150978744756724
Tree warbler and Meadowlark,NW5 2JT,51.548234533688100,-0.141481073532048
Logrunners and Greenbul,W1C 1JU,51.514361000000000,-0.151147000000000
Jerboa and Perching duck,IG4 5PQ,51.582806469981800,0.045279119312453
Snipe and Solitaire,SW1E 6AB,51.498094983497600,-0.137110160657476
Tit-tyrant and Logrunners,N5 1SB,51.553709786877300,-0.099310395883496
Guillemot and Towhee,EC1R 4SX,51.523550080448500,-0.111075315689194
Songlark and Grosbeak,SW1P 4EX,51.493682938236700,-0.129971851026399
Piping shrike and Cloud rat,SE16 2BW,51.490878854268800,-0.050556201773615
Perching duck and Hawk,NW5 4NS,51.552484043549000,-0.150337571709181
Armadillo and Parakeet,E3 2QD,51.528617000000000,-0.020602000000000
Lemming and Magpie,E17 5LN,51.590229796065600,-0.030685355672850
Fulmarine petrel and Mockingbird,E15 1SN,51.550640199758300,0.010920000494209
Pratincole and Diving bird,N21 2HA,51.642064011485600,-0.094533890950208
Ground sloth and Maya,IG6 2DP,51.590300433269000,0.082429629289669
Vole and Skunk,E14 6EA,51.514314476550600,-0.018410202362710
Guillemot and Parakeet,E8 3XL,51.542760735463700,-0.071990921043204
Bunting and Solitaire,EN1 4JD,51.664173000000000,-0.062932141563067
Shearwater and Francolin,SW1H 0PX,51.498281374903500,-0.135258423642993
Scimitar babbler and Scimitar babbler,E9 5LS,51.545020492777800,-0.028859401668732
White ibis and Bronzewing pigeon,N11 2TA,51.611417492615700,-0.125223879026440
Jerboa and Chicken,SE1 6SL,51.492246467724600,-0.099908826926287
Capuchin and Quetzal,E12 5JG,51.553901534098700,0.057253424170808
Ibex and Condor,E7 8HS,51.541900904408500,0.031186141808330
Old World quail and Minke whale,EC1N 7AA,51.520690000000000,-0.111384000000000
Argus and Cuscus,N7 0QT,51.552666811455800,-0.132357232747173
Cuscus and Francolin,W1K 5DU,51.512917951640800,-0.148107110461973
Kite and Parakeet,WC1H 8ND,51.529431000742100,-0.124513823638083
Mouse and American sparrow,IG5 0XE,51.597815014152100,0.068377469013842
Marsh harrier and Marmoset,IG11 8UA,51.546762193812600,0.095311092377745
Ground sloth and Tree warbler,E5 8LN,51.551136334992500,-0.059116642173466
Night heron and Civet,N1 5QL,51.536630595742200,-0.079286726581675
Peafowl and Thicketbird,N1 0GJ,51.540270159646400,-0.120780334382715
B and Grouse,E15 1NN,51.542647151674300,0.002952973868335
Vulture and Elephant,N8 8SW,51.581453733085000,-0.125836000000000
Nukupuʻu and Kestrel,E17 4AQ,51.585199530729000,-0.020249886006323
Goose and Thicketbird,E6 5JG,51.514386000000000,0.055371000000000
Marsh harrier and Marmoset,SE1 4YL,51.493487507277600,-0.087741871513315
Shearwater and Pratincole,IG3 9LU,51.560569397519700,0.107675282020141
Mouse and Stilt,IG2 6NE,51.576763447893100,0.065299911341786
Duck and Armadillo,N16 5TL,51.569411284981500,-0.073432099092355
Prion and Hawaiian honeycreeper,IG10 3QE,51.643254477909400,0.074506387410308
Thicketbird and Lemming,SE11 4TA,51.495219066910400,-0.102997845836878
Bunting and Stilt,N22 5EY,51.600172604423100,-0.095349411816042
Nukupuʻu and Wader,SE17 3DJ,51.491175724705700,-0.102647109265112
American sparrow and Tattler,N16 8LR,51.549810708130500,-0.079106659388921
Kangaroo and Greenbul,EC1N 8BA,51.519125042487600,-0.107683750891801
Chicken and Solitaire,N16 9BH,51.556257778204100,-0.087879979785246
New World blackbird and Macaw,SE1 4GG,51.499242053703300,-0.093220871258241
Cuscus and Jay,E17 3QS,51.589917000000000,0.003256000000000
Meadowlark and Marmoset,W1T 4DZ,51.520436816061600,-0.136256259180757
Solitaire and Cloud rat,SE10 0DE,51.484090488205400,0.011145057277865
Old World quail and Cloud rat,SW1W 0LH,51.496347861868600,-0.147165237195137
Cloud rat and Songlark,EN1 3TZ,51.655195917356800,-0.078716393368311
Old World vulture and Shearwater,N1 0EG,51.535303946551600,-0.108324954429037
Marsh harrier and Ice seal,IG7 4BX,51.608730164588900,0.102395156171882
Moluccan boobook and Songlark,SE18 1NW,51.485026278559800,0.096339757651297
Rabbit and Skunk,EC2A 3QD,51.524567275827600,-0.081221561988766
Nukupuʻu and Meadowlark,E4 9LL,51.605244598962200,-0.002322641108738
Old World quail and Cuscus,SE16 2LJ,51.491907871489000,-0.043700000000000
Thrasher and Boto,IG11 7JR,51.530325197561600,0.079547216104145
Scimitar babbler and Mockingbird,W1A 4US,51.524565000000000,-0.112042000000000
Guillemot and Jay,SW1P 3JS,51.499110691922300,-0.129343000000000
Greenbul and Eagle,N19 5AZ,51.554140491149600,-0.133984593051260
Kestrel and Mamo,SE2 9JL,51.492432373642900,0.115090329764575
Grosbeak and Boto,E10 5BA,51.569619605208200,-0.014187924799480
Jay and Elephant,EN2 7DE,51.655959081955500,-0.101309931650218
Tit-tyrant and Peafowl,W1K 5RZ,51.513915025400800,-0.148037848627204
Perching duck and Moluccan boobook,WC1B 3LN,51.517273408636100,-0.128472481004573
Tit-tyrant and Thicketbird,E15 4QW,51.545825788723400,0.012105000000000
Night heron and Mole,EC1A 1XY,51.524501611318500,-0.112088280168721
Pitohui and Recurvebill,EN1 4JB,51.664936557812800,-0.062240000000000
Marsh harrier and Shearwater,N11 1PP,51.613917919024200,-0.140169000000000
Armadillo and Parakeet,N8 7JQ,51.586028177387600,-0.119369223606386
Rabbit and Capuchin,IG1 3HQ,51.567539681546900,0.063612041487181
Fulmarine petrel and Chicken,W1U 3AH,51.517138625491500,-0.155792000000000
Mink and Peafowl,W1F 8WH,51.514472813124300,-0.135000808472402
Rat and Meadowlark,N7 0PX,51.557011757408200,-0.134718204008182
Siskin and Mockingbird,N19 4QX,51.570291662327000,-0.119946587235461
Kestrel and Parrotbill,W1K 2LJ,51.510648796901600,-0.153617739871546
Grackle and Vulture,E6 6JH,51.525687963535800,0.059498976247320
Tattler and Recurvebill,N5 2RB,51.550075447390000,-0.091471113867592
Argus and Partridge,E18 2AZ,51.588937146982000,0.023625685022599
B and Peafowl,N11 1TE,51.622061047952500,-0.141976569141093
Viscacha and Condor,E16 2NZ,51.501017000000000,0.030994000000000
Mink and Francolin,EN3 4BJ,51.642730808691900,-0.051334192600867
Tattler and Songlark,NW1 8QT,51.544655146309400,-0.145434322145622
Grackle and Songlark,IG4 5PP,51.584897900947300,0.042919081845710
Minke whale and Dorcopsis,E9 5JQ,51.544765920615700,-0.029764580914275
Partridge and Old World quail,N1 7FA,51.530442000000000,-0.093979000000000
Perching duck and Goose,N18 1XE,51.612310009098100,-0.078650197623248
Rabbit and Francolin,SE2 0SU,51.486836959156600,0.112699536609327
Towhee and Stilt,E16 4PQ,51.523608724374500,0.005115842803701
Gull and Capuchin,W1G 6JP,51.521865861588700,-0.150410862711917
Petrel and Flameback,E12 6EP,51.547064875391900,0.056353648106757
Tattler and Dorcopsis,N22 5AA,51.606470622742600,-0.110018484158530
Maya and Old World vulture,E1 8LB,51.509882024779400,-0.069690092547200
Linsang and Ice seal,IG8 8AF,51.605978251942100,0.052616997780127
Siskin and Solitaire,E1 3ET,51.516190231350400,-0.054174327390598
Jerboa and Philippine hawk-owl,SE18 5ES,51.488367422466800,0.053522000000000
Parakeet and Macaw,W1U 7BR,51.518593190892400,-0.155588246138753
Triller and Elephant,WC1N 1LX,51.523483710354400,-0.122624729021260
Kite and Cloud rat,W1K 6ZG,51.512715528315200,-0.153519763432686
Philippine hawk-owl and Marsh harrier,N6 5XG,51.569577872397600,-0.141750714641669
Tattler and Cloud rat,NW5 2SR,51.547949530777900,-0.132593688471898
Lemming and Jay,N18 2ET,51.617875443018800,-0.059592000000000
White ibis and Night heron,IG11 7GH,51.529900126042900,0.077653539918043
Night heron and Civet,E6 5XS,51.516843675165600,0.057701852710037
Parrotlet and Parrotbill,EC4A 1DR,51.516883000000000,-0.109509000000000
Wallaby and Armadillo,SE16 2DX,51.490968779468600,-0.054888321779531
Kangaroo and Jerboa,IG3 9PJ,51.557602876105000,0.111115904782874
Bunting and Kangaroo,N13 6HL,51.611841959246500,-0.100724971442789
Tattler and Skunk,EN2 6SG,51.653469543962000,-0.089357000000000
Condor and Chicken,IG8 1DN,51.646481000000000,0.086868000000000
Gull and Crow,N19 4PF,51.564435298508400,-0.126551024828399
Puffleg and Civet,IG7 4QZ,51.616090447350700,0.117165977711023
Thrasher and Stilt,WC1X 9QW,51.528901377112800,-0.115034771983218
Buzzard and Jerboa,IG2 6EW,51.572974102921900,0.064983820157995
Shearwater and Grackle,E4 0GU,51.633323000000000,0.007636000000000
Treepie and Black jay,EN3 7FG,51.671412570523000,-0.022046325231177
Wallaby and Boto,E16 4DS,51.518891782829900,0.018501160894878
Ground sloth and Kite,NW1 4HZ,51.530783041088500,-0.135430048905449
Polecat and Ibex,E17 6BD,51.593228920858200,-0.036864849318399
Night heron and Rabbit,E10 6UL,51.570984000000000,-0.008645000000000
Cloud rat and Fox,WC1B 4BJ,51.520488174975900,-0.122560535112123
Hawk and Chicken,E2 9LU,51.531413056839800,-0.052991799475619
Maya and Ice seal,E10 6DP,51.578747449932800,-0.004668372079442
Tahr and Triller,N9 0NX,51.623912985579400,-0.058049510278793
Kestrel and Stint,SE17 2BW,51.483979013226300,-0.086987448674941
Jay and Pheasant,W1K 2DY,51.511038028888300,-0.154351391092238
Recurvebill and New World blackbird,EN2 7LS,51.646284192694800,-0.123178766174589
Rat and Kākāriki,E18 1LW,51.590575983174500,0.029227827903466
Booted eagles and Greenbul,SE8 5QT,51.483203853813900,-0.029855531422228
Badger and Viscacha,SE2 9LX,51.491367261300700,0.102810656990170
Mole and Diving bird,N15 3TB,51.582242838825400,-0.093760944099719
Booted eagles and Dorcopsis,N17 8NU,51.599084886820200,-0.075526423305568
Asiatic leopard and Kangaroo,N1 1BJ,51.541311557303500,-0.114507583268280
Kangaroo and Prion,NW5 4DS,51.550737670069900,-0.150220897074341
Lemming and American sparrow,NW5 3LJ,51.546358869050700,-0.145696763044635
B and Coati,EC3M 7HS,51.511843131906500,-0.083600000000000
Minke whale and Viscacha,IG10 3AR,51.636170291125600,0.053936662249913
Moluccan boobook and Francolin,IG11 0LY,51.527437485018900,0.107817070523854
Hawk and Mockingbird,N7 9BN,51.543838556848200,-0.122525000000000
Dorcopsis and Duck,E1 4AX,51.523207257892200,-0.051093047226380
Night heron and Parrotbill,EC2Y 8PQ,51.521374000000000,-0.093820022422567
Duck and Thrasher,N5 2XB,51.556205689853100,-0.095181574718202
Capuchin and Lemming,NW1 5NF,51.524024539463900,-0.159015888763976
Triller and Booted eagles,NW1W 8GU,51.530783041088500,-0.135430048905449
Chicken and Parrotbill,N1P 2GL,51.538645000000000,-0.103543000000000
Myna and Rat,N1 8JF,51.533963522543500,-0.098659000000000
Marmoset and Mouse,E5 0BF,51.555903000000000,-0.054055000000000
Peafowl and Marmoset,N1 0BA,51.538786184134000,-0.119644590998476
Towhee and Flameback,W1F 9AA,51.512246454869700,-0.136936438237737
Quetzal and Triller,W1C 2AQ,51.514024574724400,-0.147572212921938
Bunting and Darwin's finches,E17 3QY,51.590450956567800,0.003005069450706
Shearwater and Wallaby,N14 6RB,51.632098751808900,-0.123059000000000
Chipmunk and Myna,SE1 1ER,51.502852502788000,-0.095706982726721
Fox and Moluccan boobook,E1 3NL,51.517794488961500,-0.039807612610738
Towhee and Jackal,N1P 1YE,51.538645000000000,-0.103543000000000
Kestrel and Zebra,N1 5EG,51.532854177229500,-0.086467424934045
Solitaire and Night heron,E5 0BY,51.558485986858200,-0.042501786690669
Elephant and Polecat,N1 9DH,51.532778399960500,-0.116792247291768
Polecat and Ground sloth,WC1X 0HT,51.527288366274300,-0.112030672457479
Fish eagle and Mole,IG11 7AR,51.534479814563000,0.077011356283550
Scimitar babbler and Greenbul,N13 5NG,51.622408315786300,-0.085793729392351
Peafowl and Dorcopsis,SW1H 0DJ,51.499095019000100,-0.132703887247839
Herring gull and Civet,N21 9EX,51.632959000000000,-0.099528000000000
Condor and Prion,E14 7BB,51.516629525785300,-0.024507454990522
Stilt and Flameback,E6 6WE,51.512248697328100,0.068419156115925
Mamo and Cloud rat,E7 9NH,51.542940284597500,0.024641689726978
Masked owl and Macaw,N22 8PP,51.603045082403100,-0.118449587668975
Goose and Herring gull,W1F 7QR,51.513280633957900,-0.138638102129263
Fulmarine petrel and Grosbeak,E13 9BU,51.532637316741100,0.034883004431196
Herring gull and Stilt,E98 1SJ,51.508023187390400,-0.064393533930118
Old World quail and Rat,E1 3HB,51.515988892702800,-0.052338035603454
Siskin and Moluccan boobook,WC1N 2NB,51.521457075414400,-0.115688133538593
Quetzal and Civet,NW1W 9PY,51.530783041088500,-0.135430048905449
Diving bird and Jay,SE1 5UY,51.492399265711400,-0.082226865516022
Philippine hawk-owl and Mamo,E17 5LT,51.593643359711200,-0.028328740947622
Coati and Marmoset,SE18 9ZZ,51.489548000000000,0.067147000000000
Perching duck and Gull,W1D 4QH,51.513291171720800,-0.132512547175598
Snipe and Prion,N14 5AP,51.632556189544200,-0.134106046657087
Capuchin and Elephant,NW1 5TE,51.523084137803400,-0.157540229166498
Zebra and Mink,E14 6NQ,51.518686693905800,-0.015856530262759
Jerboa and Chipmunk,N5 1GE,51.556876246679400,-0.108281132085466
Chipmunk and Night heron,E3 2DA,51.527248000000000,-0.030233000000000
Magpie and Warbler,E10 7AF,51.573274399574200,-0.013350365819149
Philippine hawk-owl and Nukupuʻu,WC2B 5NT,51.515562817234400,-0.122157728803466
Kākāriki and Stilt,EN2 0LR,51.665250768389500,-0.084856038771698
Badger and Guillemot,N1 8LR,51.537761764315900,-0.099599973917899
Eagle and Capuchin,N13 6HU,51.610731260381100,-0.109350460624134
Kākāriki and Stilt,WC1E 6EQ,51.522465630769200,-0.132079577825635
Prion and Boto,E11 2NR,51.572458844050800,0.030094845055321
Kestrel and Herring gull,W1W 7LA,51.517196302633500,-0.141721458957758
Parrotlet and Cloud rat,N18 2JQ,51.613091000000000,-0.061103767695964
Polecat and Songlark,E11 4EF,51.559569523625300,-0.002218603042088
Condor and Marmoset,E14 0PF,51.514028649310000,-0.006849348356632
Mockingbird and Grackle,N19 5LF,51.561220000000000,-0.138620758209301
Linsang and American sparrow,SE17 2DP,51.485951729543900,-0.093818571721033
Viscacha and Philippine hawk-owl,SE1 7YD,51.492760984014900,-0.080151672390443
Hawk and Minke whale,N17 6SY,51.598249845631300,-0.068486577135758
Herring gull and Maya,W1F 8DD,51.514735541897100,-0.134557701864829
Siskin and Scimitar babbler,EC2R 8DD,51.513881649551500,-0.091198000000000
Tree warbler and Solitaire,E17 7PZ,51.581747413967300,-0.026794109358381
Partridge and Rat,E9 7JJ,51.537100402316000,-0.051609932013501
Marmoset and Grackle,EN1 1BS,51.645535619677800,-0.071435248030880
Asiatic leopard and Parrotlet,SE1 3GE,51.498965440874300,-0.082873333311445
Logrunners and Eagle,IG3 8EG,51.562840484474700,0.092832694985363
Stint and Old World warbler,N1P 1LB,51.538645000000000,-0.103543000000000
Solitaire and Petrel,N1 3EP,51.540679448216300,-0.088230207346767
Linsang and Parrotlet,EC2V 8HE,51.514130845041400,-0.091762000000000
Grosbeak and Kangaroo,WC2H 0JN,51.514375981754700,-0.129484811021151
Piping shrike and Buzzard,N1 3QE,51.545515416781600,-0.087003522109900
Parakeet and Cuscus,EC1V 9NX,51.526725216396700,-0.086709986796622
Black cockatoo and Towhee,N1P 2SQ,51.538645000000000,-0.103543000000000
Old World warbler and Polecat,IG11 9HZ,51.541768000000000,0.100591000000000
Nukupuʻu and Rat,EN2 7DQ,51.655504759892500,-0.102687898645728
Viscacha and Black cockatoo,N22 7BX,51.601027258201400,-0.118229759659277
Diving bird and Fulmarine petrel,W1J 7HN,51.506114191346400,-0.146624989636349
Mouse and Prion,E6 5UB,51.518699692801500,0.047738862261777
Mouse and Chicken,IG11 0LE,51.527146832804000,0.098951665028166
Jay and Treepie,W1G 9BL,51.516857769665100,-0.149316563843317
Jerboa and Crow,W1F 0LA,51.512011000000000,-0.134995420080604
Ice seal and Kākāriki,N5 1HL,51.548525303606600,-0.098459159461338
Linsang and Prion,NW1W 7ZJ,51.530786000000000,-0.135404000000000
Darwin's finches and Nukupuʻu,E15 2GN,51.533710000000000,-0.001808000000000
Darwin's finches and Egret,N17 9TT,51.596739000000000,-0.067872000000000
Tit-tyrant and Dolphin,E13 8PT,51.525986838536200,0.028935239928327
Skunk and Myna,W1J 5EN,51.508384532572900,-0.145754692449067
Hawk and Chipmunk,W1W 7EQ,51.519360592860600,-0.139269473727419
Diving bird and New World blackbird,SE8 3QJ,51.489582156474900,-0.034290931495182
Tit-tyrant and New World blackbird,WC2E 8JF,51.511333347272200,-0.124781604040971
Kākāriki and Petrel,N14 4LR,51.636723371886400,-0.125871248719848
Macaw and Warbler,W1J 0BB,51.509098000000000,-0.139601000000000
Night heron and Siskin,W1D 3BL,51.514765810734600,-0.133634063438732
Old World vulture and Songlark,SE1P 4QJ,51.492762382100000,-0.080151676700000
Asiatic leopard and Mole,W1G 9QN,51.517588780754100,-0.146634867759967
Black jay and Kangaroo,IG10 2RL,51.656627000000000,0.067837766318709
Kestrel and Moluccan boobook,E3 4GF,51.524455502407000,-0.033668815239286
Chicken and Philippine hawk-owl,EN2 6SH,51.656680280079000,-0.088672753025090
Pitohui and Tattler,N11 3DX,51.614225688338000,-0.151468510246745
Kangaroo and Guillemot,E1 7LG,51.517066913333100,-0.076794802838386
Black jay and Wader,SW1W 9AQ,51.496587089027600,-0.152068241751510
Black jay and Piping shrike,N17 6TB,51.595177271922800,-0.074017000000000
Mamo and Elephant,W1G 0EJ,51.515893588924600,-0.147481973399179
Flameback and Goose,W1W 7LU,51.518618851979700,-0.142398657529402
Moluccan boobook and Fox,E17 3LF,51.589585061810900,-0.003702668600053
Philippine hawk-owl and Dolphin,NW1W 7AL,51.530784525000000,-0.135430053900000
Lemming and Puffleg,SE1 5AY,51.483497000000000,-0.069040609586678
Crow and Egret,N17 6PN,51.588808414194700,-0.086643434673186
Chipmunk and Nukupuʻu,WC1N 1EA,51.523220014522800,-0.119075014268597
Tit-tyrant and Thrasher,E1W 3DH,51.509516981214900,-0.053046398113718
Ice seal and Darwin's finches,CM16 7HL,51.675886577987800,0.100919039516407
Old World quail and Thrasher,WC2H 8JB,51.514768496025100,-0.127033012184540
Darwin's finches and Dorcopsis,W1D 5LF,51.512823982669200,-0.130845459082449
Skunk and Nukupuʻu,WC2H 7BD,51.511593565137600,-0.129814957063315
Jackal and Snipe,E14 0DA,51.509307549728100,-0.019059801755290
Flameback and Moluccan boobook,E1 0RA,51.514149898931800,-0.043423082959697
Maya and Eagle,E3 5LR,51.532138815185900,-0.032890710692364
Cuscus and Mink,E2 6FF,51.523662730106700,-0.067319000000000
Logrunners and Shearwater,W1T 6HE,51.522129863830600,-0.139243083773136
Francolin and Francolin,EC2M 2PL,51.520001000000000,-0.083460000000000
Mamo and Mink,WC1E 7DQ,51.520307762728800,-0.130971487178816
Black jay and Wallaby,N19 3LX,51.571670374094700,-0.127436880927749
Grackle and Guillemot,IG11 0RT,51.528108891288500,0.116037014192633
Siskin and Civet,E12 6RW,51.547113211933600,0.049995232287015
Maya and Elephant,SE1 9NY,51.506995290087600,-0.104972896225904
Ice seal and Stilt,IG1 9SE,51.560361050366900,0.078017350678085
Grosbeak and Boto,W1W 5DB,51.522607661181100,-0.144427419082159
Songlark and Buzzard,SE17 2AY,51.484082253735000,-0.093002000000000
Grouse and Grosbeak,IG1 1LL,51.559126139252100,0.075004000000000
Old World quail and Warbler,N17 7PL,51.599091704015000,-0.087496336659751
Tree warbler and Dolphin,EC4Y 1BD,51.513507758037900,-0.111779013319119
Buzzard and Asiatic leopard,IG8 7RJ,51.614445914830700,0.040432351422086
Jackal and Greenbul,SE16 5FS,51.506684056192100,-0.035774119847912
Condor and Elephant,W1G 6LQ,51.520877570635500,-0.149326579026634
Lemming and Parrotbill,EC2Y 8DH,51.520931821721200,-0.096524077855720
Asiatic leopard and Perching duck,N1 9DE,51.532752000000000,-0.116188000000000
Tahr and Thicketbird,SE18 7JP,51.482948926322600,0.072566092711394
Badger and B,SW3 4TW,51.489772195972400,-0.157875178104218
Crow and Linsang,E4 8DA,51.619018579764200,-0.018084865051902
Dorcopsis and Meadowlark,E16 4QW,51.518204729620800,0.006132488347408
Chickadee and Zebra,EN1 4LH,51.659563554153000,-0.050727792882367
Eagle and Armadillo,E2 8LJ,51.532482760101500,-0.072569409386720
Recurvebill and Nukupuʻu,W1U 3BD,51.517065993682400,-0.151686305686973
Kite and Rat,N16 8UR,51.551077103166100,-0.077913808001361
Chickadee and Crow,E6 5XX,51.516706979486300,0.057292113146482
Bronzewing pigeon and Puffleg,IG1 4DW,51.558861103028800,0.070793238681425
Flameback and Asiatic leopard,IG10 1NZ,51.654373963613400,0.070676971107635
Old World quail and Mouse,N1 4BU,51.545404399059200,-0.076364512210088
Tattler and Cloud rat,E3 4GQ,51.519021783050600,-0.027113842383738
Siskin and Grosbeak,N18 2NF,51.619713072228400,-0.050428018889654
Crow and Eagle,E6 5AB,51.509644000000000,0.062710000000000
Hawk and Mink,EC1R 0AA,51.523376000000000,-0.106888000000000
Wallaby and Shearwater,N17 6EB,51.590558288565400,-0.080362162905153
Bronzewing pigeon and River dolphin,W1K 5JD,51.513046722225300,-0.148289243640212
Wader and Mamo,WC2B 5HZ,51.512306889024900,-0.121556624025538
B and Fish eagle,E10 5RX,51.563133164525300,-0.014023274814854
Peafowl and Siskin,E2 0DS,51.525043565192800,-0.058251432478788
Jackal and Old World quail,N2 9NL,51.591706568481600,-0.155443000000000
Peafowl and Crow,WC2H 7AD,51.511427516910300,-0.127861795567925
White ibis and Egret,EN2 8EA,51.657467605192500,-0.092297466747050
Magpie and Quetzal,N8 0BF,51.592462231191700,-0.106516000000000
Goose and Badger,N11 2PD,51.607415050822700,-0.126861841086449
Badger and Badger,NW1 7NU,51.534574653626400,-0.141460767321956
Petrel and Booted eagles,NW1W 8JG,51.530783041088500,-0.135430048905449
Ground sloth and Stint,E9 5JF,51.546764459766400,-0.029894585136404
Viscacha and Logrunners,N9 7ND,51.640663103452200,-0.056250007046872
Kākāriki and Kestrel,EC4Y 0AA,51.512595525896300,-0.104841379890670
Peafowl and Pheasant,W1K 4EF,51.512627530806500,-0.146230938756249
Ground sloth and Petrel,N4 4PB,51.574252856396600,-0.106246498775948
Marsh harrier and Eagle,EN3 6UG,51.677714654243400,-0.034269000068231
White ibis and Zebra,IG9 5JZ,51.625395848832600,0.026591296308851
Chickadee and Chipmunk,N9 0LQ,51.625355850325000,-0.051240813105186
Kestrel and Kestrel,SE1 1NH,51.504242466162600,-0.090490512276043
Greenbul and Snipe,N4 2DL,51.564354916366800,-0.104190544632979
Warbler and Flameback,N9 7DG,51.637864904181600,-0.049649618701570
Chickadee and Gull,N22 9HT,51.598606128900000,-0.119687183400000
Mole and Guillemot,N22 5SA,51.599677334866300,-0.103080816176295
Boto and Chipmunk,SE1P 5DQ,51.492762617800000,-0.080166072400000
Hawk and Linsang,EC3V 9AZ,51.512900000000000,-0.086860000000000
Treepie and Marsh harrier,N18 1SX,51.609520736818500,-0.075258410234995
Fish eagle and Masked owl,SE1 7RE,51.500681000000000,-0.109817000000000
Bronzewing pigeon and Bunting,E17 6LX,51.583533748275400,-0.038942728333160
Parakeet and Boto,E3 5LJ,51.534633521450600,-0.029899355517512
Myna and Old World quail,NW1W 7DH,51.530784525000000,-0.135430053900000
Old World warbler and Thrasher,N1P 2UW,51.538645000000000,-0.103543000000000
Cuscus and Vole,N17 7LU,51.606856932859100,-0.087752000000000
Grouse and Wader,N7 6AN,51.558623614600600,-0.118523526441179
Rat and Peafowl,EC3M 7AG,51.513270000000000,-0.081396000000000
Nukupuʻu and Rabbit,NW1 3JS,51.528353358093100,-0.141555544149654
Dorcopsis and Night heron,SE1 0RB,51.501329009953200,-0.101577057519908
Tattler and Thicketbird,E12 9EE,51.551885000000000,0.046226000000000
Ground sloth and Magpie,SE16 7LN,51.500196595573400,-0.052262186916911
Tattler and Parakeet,SW1W 9SP,51.491725013467700,-0.148260204459676
Chicken and Parrotbill,N16 0EH,51.560539416070300,-0.079145114349484
Jerboa and Polecat,NW5 4NU,51.550050693610800,-0.150566083183313
Logrunners and Cuscus,IG3 8HG,51.577581389402500,0.100278880324925
Argus and Argus,SE1 7PD,51.500961000000000,-0.117715000000000
Guillemot and Old World quail,E3 3UF,51.528074000000000,-0.010431000000000
Peafowl and Jerboa,E1 6SF,51.521880512827800,-0.073579356851174
Parakeet and Warbler,SE14 5RT,51.484844000000000,-0.048250000000000
Jay and Tahr,N4 3NX,51.562386268556400,-0.109249960445337
Moluccan boobook and Night heron,NW1 4UG,51.530783041088500,-0.135430048905449
Jackal and Warbler,SE1 7HY,51.498244952859100,-0.108836857772118
River dolphin and Ground sloth,E1W 3AB,51.510732000000000,-0.046553000000000
New World blackbird and Grackle,NW5 1UB,51.554117116013700,-0.142712652389341
Mamo and Triller,E16 3AE,51.510948826133900,0.020729712342090
Badger and Logrunners,N7 6RA,51.561060901725900,-0.116302131432351
Bunting and Quetzal,NW1W 9FL,51.530783041088500,-0.135430048905449
Dorcopsis and Marsh harrier,E17 7FZ,51.584453000000000,-0.020659000000000
Rabbit and Solitaire,E14 3PQ,51.498217030165900,-0.010939435436246
Diving bird and Cuscus,SE2 9XZ,51.496104305595000,0.113934867286387
Peafowl and Petrel,E1W 3SG,51.507480997404800,-0.051202202478497
Wallaby and Wader,E13 8AQ,51.523821000000000,0.023109897115009
Ground sloth and Herring gull,EC4Y 1DG,51.513998675196900,-0.105417285996821
Jay and Treepie,EC1Y 0SH,51.522152007115900,-0.096760000000000
Crow and Argus,SW1X 7AX,51.498372936397700,-0.148984880112693
Old World warbler and Recurvebill,N18 1EU,51.611139001942500,-0.069759325648053
Ibex and Macaw,W1U 5LH,51.521625494724900,-0.153418851483823
Parakeet and Crow,SE7 7PU,51.484970451057500,0.030527571990226
Peafowl and Pheasant,W1U 3AB,51.516690365650400,-0.151816816698980
Parakeet and Condor,E10 5QF,51.557134617782900,-0.007100371854532
Flameback and Solitaire,SW1Y 6DT,51.508433809725000,-0.136947866908012
Jerboa and Quetzal,N11 1RA,51.615564086405200,-0.134775000000000
Condor and Scimitar babbler,SE10 9LT,51.483024706502200,-0.000150405084218
Recurvebill and Ice seal,N1 7PL,51.531552678040200,-0.087718689906798
Civet and Old World warbler,E15 4HF,51.542679000000000,0.009603000000000
Eagle and Goose,IG2 6XX,51.582375024415600,0.068354621349517
Condor and Magpie,WC2A 3TS,51.517011052798100,-0.113219590953780
Zebra and Old World quail,SW1P 2PA,51.494413993358600,-0.136352649759676
Tattler and Night heron,NW1 4NY,51.528601985905600,-0.152170657657926
Old World vulture and Songlark,WC1H 0PW,51.525322079272800,-0.130751748765937
Eagle and Greenbul,N6 5JX,51.570888424101000,-0.148998984509734
Chickadee and Tahr,EC1P 1WH,51.524501611318500,-0.112088280168721
Viscacha and Kite,NW1 7BU,51.540144809348100,-0.143973747265217
Hawk and Mouse,IG5 0NN,51.595882751536400,0.058081586502060
Warbler and Kite,EN3 7AZ,51.647830619398500,-0.035749951394804
Old World warbler and B,NW1 2JA,51.534360728445300,-0.138744344831716
Vulture and Thicketbird,NW1W 9JQ,51.530783041088500,-0.135430048905449
Pheasant and Kestrel,N22 8AA,51.605008950300000,-0.112418713800000
Peafowl and Black jay,N7 8JX,51.547222958668300,-0.105782576305221
Herring gull and Francolin,N9 9PA,51.625472875801100,-0.063593000000000
Jerboa and Booted eagles,EN3 6FU,51.664514000000000,-0.012326000000000
Masked owl and White ibis,IG6 1BL,51.581518266896200,0.085766502461858
Mockingbird and Diving bird,E9 7BW,51.538222000000000,-0.041122000000000
Tattler and Viscacha,E4 7GA,51.635335567634700,0.008103517847016
Macaw and Logrunners,N4 4QJ,51.575607425580700,-0.107157127925107
Mouse and Coati,E1 0BG,51.512558777770300,-0.052642877244258
Prion and Tit-tyrant,N7 7PA,51.559718607832100,-0.112794182576601
Black jay and Thicketbird,E7 0JU,51.555035543573800,0.032954165227418
Parrotlet and Old World quail,SE17 1RT,51.490796123401400,-0.096425493039078
Stilt and Kestrel,SE11 5ES,51.488934964864800,-0.122099671955586
Kākāriki and Recurvebill,SW1P 4AA,51.492559629952400,-0.132841302578650
Ice seal and Quetzal,EN1 4LU,51.668776928414200,-0.056463989399640
Buzzard and Fish eagle,N9 9PG,51.628217874829800,-0.068254227174322
Maya and Chipmunk,N14 7BT,51.622884341070500,-0.114652943197000
Eagle and Thicketbird,SE1 8RT,51.503540556253700,-0.110447565969037
Asiatic leopard and Recurvebill,N6 4AE,51.575239012880200,-0.153107000000000
Skunk and Macaw,EC1Y 1BD,51.524831000000000,-0.087400169297433
Marsh harrier and Solitaire,W1S 4AN,51.510039139940400,-0.142344156452622
Black jay and Elephant,E4 9EF,51.608152596537500,-0.001920635460124
Viscacha and American sparrow,EN4 9JG,51.652684227944500,-0.152506358343313
Masked owl and Chickadee,N21 3AL,51.628371673153000,-0.099716794550765
Triller and River dolphin,E14 8NJ,51.495956910993100,-0.022995485699322
Jay and Quetzal,RM9 4XD,51.534593370920200,0.116438748638831
Zebra and Buzzard,N1 3LX,51.545764503874000,-0.086286376088647
Night heron and Argus,N14 5ED,51.633289638799600,-0.133727000000000
Triller and Kākāriki,N18 2RD,51.611659979714000,-0.064263196766178
Rat and Parrotbill,SE16 3LS,51.491936891557300,-0.061761736436209
Asiatic leopard and Parrotlet,EC2P 2DH,51.516282648973800,-0.079422198773403
Recurvebill and Mamo,W1J 9EE,51.507834539431500,-0.139984071719175
Darwin's finches and Mouse,SE11 4PT,51.485950975413300,-0.110440235344043
Logrunners and Myna,E1 4FF,51.521820406662400,-0.049350395000015
Civet and Ice seal,SE1P 4BS,51.492762382100000,-0.080151676700000
Kangaroo and Meadowlark,E11 3ER,51.561440844202400,0.014036708731578
Grouse and Puffleg,WC1H 9WS,51.524565000000000,-0.112042000000000
Lemming and Puffleg,SE11 6UL,51.491946460434600,-0.113073410235536
Treepie and Egret,NW1 0AS,51.539210324471700,-0.141747788642100
Cloud rat and Vole,EC2R 7WD,51.524501611318500,-0.112088280168721
Elephant and Parrotbill,W1D 2EQ,51.516125410372500,-0.132612819595426
Boto and Treepie,N19 3DF,51.565825172575400,-0.128557196768403
Jerboa and Puffleg,NW1W 7WA,51.530784000000000,-0.135430000000000
Fulmarine petrel and Skunk,E1W 1NU,51.504223916547900,-0.065217367237035
Asiatic leopard and Tattler,E11 3DY,51.566240677063500,0.012070030439183
Chicken and Cloud rat,E17 6AN,51.594237105711600,-0.038539484249749
Ice seal and Old World warbler,E11 2AX,51.583028949980600,0.026755260087066
Kestrel and Eagle,IG8 0TG,51.613862635468000,0.023217543637600
Flameback and Pratincole,EN3 4PH,51.642397779125700,-0.045364865685065
Recurvebill and Francolin,EC1A 9LA,51.517965450469800,-0.103174000000000
Cuscus and Tahr,W1U 4NG,51.518373292790400,-0.151330694646081
Diving bird and Scimitar babbler,N9 8JN,51.631229618347900,-0.050801228751631
Prion and Minke whale,W1D 2JU,51.515336000042200,-0.138957869966643
Treepie and Wader,N7 8LH,51.546651485467700,-0.107452000000000
Cuscus and Bronzewing pigeon,SE16 2JJ,51.493507925827000,-0.058338509300197
Skunk and Moluccan boobook,W1G 7ER,51.522540356079300,-0.148134800207233
Treepie and Moluccan boobook,N6 5FJ,51.578063408866000,-0.147798227355583
Stilt and Mamo,E6 6DR,51.527335853712000,0.058347908725250
Black jay and Zebra,N16 0RX,51.558664795703300,-0.079988708961159
Grosbeak and Hawaiian honeycreeper,E16 1HL,51.509360240464700,0.014275294084798
Masked owl and White ibis,W1G 8YR,51.518954302815600,-0.148827990524485
Logrunners and Polecat,E11 3PH,51.559759709640600,0.009288069133051
Fish eagle and Kangaroo,N1 1UY,51.538645000000000,-0.103543000000000
Capuchin and Dorcopsis,NW1 8QU,51.542070000000000,-0.145092000000000
Linsang and Quetzal,WC1N 3JL,51.521960528334800,-0.119602600673253
Diving bird and Skunk,SE1 2LB,51.502491219298600,-0.077970475199333
Black cockatoo and Duck,W1J 8AL,51.507587496116700,-0.143121156375219
Pratincole and Ibex,W1U 5NR,51.521896145695900,-0.152903387164140
Coati and Ice seal,E11 4LD,51.557444200916300,0.003761723496486
Fox and Cuscus,EC3A 7BX,51.515177000000000,-0.078258000000000
Jackal and Fox,E16 1PZ,51.516933000000000,0.018501000000000
Pitohui and Chipmunk,EC2V 6BJ,51.514581397223100,-0.095866423406972
Vulture and Asiatic leopard,N1 0HW,51.538425439541700,-0.107835023730070
Skunk and Ibex,SE18 6RN,51.488797793090900,0.071347656876705
Mouse and Lemming,W1K 7AN,51.509407184066900,-0.156537000000000
Parrotbill and Crow,E17 8NT,51.576401504800700,-0.024932989384800
Darwin's finches and Guillemot,EN3 4UD,51.646292000000000,-0.037262000000000
Fish eagle and Civet,EC3R 6YT,51.509046089428200,-0.084810000000000
Booted eagles and Duck,SE1 6AN,51.494551754838700,-0.095116539550746
Eagle and Fulmarine petrel,EN1 4UG,51.667734171746200,-0.067383439777280
Solitaire and Kangaroo,E6 2BA,51.542066936485100,0.060339400992628
Civet and Boto,E12 5AE,51.554566759094000,0.061942818870778
Moluccan boobook and Petrel,EC2Y 9HD,51.519425340485500,-0.089596064490631
Recurvebill and Skunk,SE11 6DU,51.495005145932000,-0.113148789633972
Black jay and Towhee,E1W 3AP,51.510553982685300,-0.049889395149990
Rabbit and Dorcopsis,EN2 0BH,51.667169172929500,-0.082837361658466
Ground sloth and Gull,SW1P 4NP,51.491514000000000,-0.133705000000000
Chipmunk and Goose,N10 2EY,51.607344262375000,-0.142779668117127
Mamo and B,W1K 3NE,51.510462523124100,-0.148076982690575
Masked owl and Ibex,E14 5DG,51.513195247177900,-0.028302336687097
Wader and Piping shrike,W1U 6BG,51.520083846436700,-0.157171237404501
Pitohui and Polecat,N14 9EQ,51.630588000000000,-0.128266000000000
Old World quail and Old World warbler,W1T 2LY,51.518676743176300,-0.134713770413989
Peafowl and Darwin's finches,IG10 4HY,51.642413599240600,0.052253150588969
Goose and Old World vulture,E1 8BT,51.511644615976600,-0.073521145445349
Herring gull and Tit-tyrant,N4 2RX,51.572751441178900,-0.087967172808545
Minke whale and New World blackbird,N15 6HD,51.575651532735700,-0.083833401880590
Hawaiian honeycreeper and Chipmunk,E14 6BE,51.517872402206100,-0.016627021176920
Triller and Siskin,SE11 9BW,51.489148836100000,-0.098453184100000
Black cockatoo and Pitohui,EC2A 3RY,51.525290122459100,-0.082531857407458
Moluccan boobook and Buzzard,N9 9TT,51.622394194759300,-0.075031510056558
Mockingbird and Viscacha,SE11 6TP,51.490450978689700,-0.112904680123080
Chickadee and Minke whale,W1K 4PX,51.512246096636900,-0.145224000000000
Chicken and Condor,NW1W 8QT,51.530784525000000,-0.135430053900000
Asiatic leopard and Viscacha,SW1V 2JA,51.489551376896100,-0.133108253497157
Old World warbler and American sparrow,NW5 4NE,51.549215939424300,-0.151234564992692
Wader and Black jay,EN1 4PF,51.675359946337500,-0.048906950497222
Guillemot and Mamo,N9 9PJ,51.628959015694200,-0.068482821275541
Nukupuʻu and Mink,EN3 4EB,51.644274230048900,-0.046267016797283
Flameback and Snipe,IG5 0EB,51.583128633110900,0.060276627365706
Tit-tyrant and Fox,N18 2UQ,51.617632187821500,-0.065973628172349
Herring gull and Boto,SW1P 3LN,51.496853044929300,-0.127450562823219
Bunting and Coati,WC1H 9DQ,51.528527034046600,-0.125343901548623
Cuscus and Pitohui,WC1N 1AL,51.525810077467200,-0.125830313618850
Meadowlark and Vulture,N22 5ER,51.600893325870300,-0.092662317667233
Eagle and Night heron,N13 4PY,51.621076273544900,-0.115175720365287
Linsang and Ibex,NW5 1XG,51.556677939953100,-0.142016877172428
Mamo and Parrotbill,W1U 3JY,51.517162805101100,-0.151552667232650
Night heron and Cuscus,N9 9RW,51.627056227624500,-0.070889806984445
Partridge and Booted eagles,IG5 0AY,51.583761064515100,0.064202619164480
Pheasant and Black cockatoo,NW1W 7TW,51.530784000000000,-0.135430000000000
Chicken and Maya,WC1X 8NL,51.520614318874000,-0.118086882921967
Grouse and Minke whale,EC2R 7HG,51.514761000000000,-0.088047000000000
Fulmarine petrel and Scimitar babbler,WC2A 3QB,51.515752796237800,-0.114381378860792
Wallaby and Chicken,EC1V 4RU,51.523342639380100,-0.102679786913548
Wallaby and Eagle,SE18 6SX,51.491877346807400,0.077220725261377
Minke whale and Viscacha,SW1V 3JU,51.487568318161600,-0.129991578600457
Darwin's finches and Towhee,N22 7BP,51.598173926152700,-0.123792000000000
Grackle and Tree warbler,E6 5XF,51.516701097961100,0.045600000000000
Masked owl and Thicketbird,IG7 4EB,51.609336248963000,0.102697576859014
Kestrel and Old World warbler,E15 1LH,51.549998226400200,0.004819210735475
River dolphin and Philippine hawk-owl,SE16 4XD,51.498752294435500,-0.067149196835520
Flameback and Hawk,N1 4FB,51.547810225800000,-0.087137000000000
Grackle and Parakeet,E14 6PW,51.516893617382700,-0.012460821948421
Hawaiian honeycreeper and Grouse,E14 8EL,51.510281486078900,-0.021885407506124
Minke whale and Cuscus,WC1X 9DS,51.530281027508300,-0.116390696909306
Chipmunk and Boto,W1T 4QJ,51.520641159851800,-0.136665933678905
Vole and Capuchin,N13 4TB,51.609676985848300,-0.110333035780937
Greenbul and Moluccan boobook,SE1 4BX,51.498917800538100,-0.086563682432407
Mamo and Thicketbird,N14 5NS,51.637326186245800,-0.144575376473532
Petrel and Fulmarine petrel,SE16 5HB,51.500570800952800,-0.033731671527480
Asiatic leopard and Parrotbill,N1 7EH,51.534527548948600,-0.090376852134318
B and Viscacha,N16 5PR,51.570759003163100,-0.077199162320403
Jay and Jay,E12 6ER,51.547470850527700,0.055766178566187
Vulture and Partridge,NW5 1QP,51.557489523773300,-0.149557461370053
Night heron and Booted eagles,W1W 8BA,51.517159382172000,-0.140526660139219
Greenbul and Petrel,E1W 2QL,51.506134772628000,-0.058954558422777
Nukupuʻu and Peafowl,E6 3JN,51.526740002050100,0.047176945165462
Bunting and Macaw,IG1 1BA,51.557884385638600,0.071614463344350
New World blackbird and Pratincole,N16 6UZ,51.567191634527400,-0.071881002228750
Stilt and Hawaiian honeycreeper,SE16 2PU,51.491711250486800,-0.048158204157746
Masked owl and New World blackbird,N1 4PB,51.547276700332300,-0.081420096589518
Guillemot and Greenbul,N1 8BP,51.533843908377800,-0.104780833211042
River dolphin and Argus,N1P 1DZ,51.538645000000000,-0.103543000000000
Diving bird and Prion,SE8 3HF,51.483641551861600,-0.023268939268191
Grackle and Magpie,N11 1JF,51.626867420064300,-0.147949513501348
Rabbit and Mouse,N22 8DF,51.603434416254900,-0.121422703719914
Parrotbill and Chipmunk,SE28 0HJ,51.499168821599300,0.084410482704620
Bunting and Cuscus,SW8 1SR,51.484991208122400,-0.122909842252515
Siskin and Kite,SE1P 5WG,51.492760984014900,-0.080151672390443
Chicken and Pitohui,SE1 4YJ,51.496935764692600,-0.090752681205590
Perching duck and Partridge,IG11 0AW,51.531346328294400,0.104479586117690
Cloud rat and Lemming,NW1W 8ER,51.530783041088500,-0.135430048905449
Old World quail and Minke whale,E6 3RU,51.521954807076400,0.056490741824969
Mamo and Stint,E2 2GA,51.532726000000000,-0.060392000000000
Hawaiian honeycreeper and Greenbul,E10 5TP,51.560406943829800,-0.016594675966953
Argus and Old World vulture,W1U 6BR,51.521478959718700,-0.158397819033582
Coati and Towhee,NW1W 7GB,51.530784525000000,-0.135430053900000
Herring gull and Logrunners,E14 8RL,51.507147556036400,-0.029096620178281
Siskin and Chicken,N6 4DA,51.577535834422200,-0.153693646430486
Scimitar babbler and Scimitar babbler,EN1 4TY,51.666356208475600,-0.067254094628022
Kākāriki and Masked owl,W1F 0HB,51.512467234617000,-0.134419777554625
Badger and Peafowl,SE28 8BJ,51.503926435613000,0.115521703462758
Fish eagle and Armadillo,N21 3DA,51.629929025039200,-0.112526000000000
Snipe and Tree warbler,E15 1DZ,51.551235806990100,-0.001833685087674
Mink and Marmoset,SW1W 8NF,51.490316657578200,-0.153042037919173
Chicken and Tit-tyrant,N14 7DH,51.623761508422800,-0.120005348129314
Thicketbird and Grackle,N17 7DA,51.600100228624300,-0.081519271576385
Tahr and Solitaire,EC1N 8HN,51.521413968667800,-0.108540236997572
Pitohui and Old World warbler,WC2A 3TH,51.517730535491400,-0.114342937455903
Recurvebill and Parrotlet,IG10 1BL,51.647079696395600,0.057450808542982
Warbler and Snipe,EC4N 4YE,51.513112000000000,-0.090096082626527
Petrel and Jerboa,EN2 0DN,51.664103511261400,-0.081781059655184
Petrel and Viscacha,E20 1FL,51.547605000000000,-0.012493000000000
Buzzard and Pheasant,N15 6RS,51.577131706657600,-0.086368969149216
Kestrel and B,IG10 3BF,51.638691184987100,0.060438440613343
Old World warbler and Parrotlet,W1W 6BF,51.520982528123700,-0.141178147641180
Snipe and Towhee,IG11 9RX,51.535092485594100,0.099173008260625
Piping shrike and Dolphin,E1 1HR,51.515509924937500,-0.063600534462823
Philippine hawk-owl and Bunting,NW1 2DT,51.527870150592700,-0.130387888421477
Treepie and Snipe,EN3 7HY,51.657331452658000,-0.041960877561924
Rat and Capuchin,E14 6HT,51.513530000000000,-0.023013000000000
Songlark and Philippine hawk-owl,E12 5QR,51.550881504811500,0.062800347975445
Parrotlet and B,E9 6DT,51.547757322478500,-0.048947928599626
Fulmarine petrel and Guillemot,SE1 7QU,51.500145852962100,-0.107936914296370
Greenbul and Duck,IG8 9AE,51.603914700809500,0.028551700281231
Zebra and Maya,N1 8BQ,51.531962019500000,-0.099538808400000
Kangaroo and Rat,N4 4JX,51.577598711351700,-0.108517639152414
Siskin and Triller,W1F 7RP,51.513681305310800,-0.138953249468641
Darwin's finches and Thrasher,EN2 0PG,51.665928995165900,-0.090611664115265
Pitohui and Viscacha,E2 0SE,51.529563657631900,-0.043987765130572
Myna and Jerboa,IG11 7AJ,51.533853173512800,0.079895462107758
New World blackbird and Tit-tyrant,EC2M 4TP,51.517234026344600,-0.079310110524293
Fish eagle and Stilt,E17 7ED,51.584708528669500,-0.033912120847879
Tahr and Jerboa,EN3 6GL,51.667412733972200,-0.015756413980299
Duck and Linsang,IG3 8JL,51.574948530158500,0.099161686749785
Thicketbird and Chickadee,W1W 7AS,51.518858842955000,-0.141653788497260
Dorcopsis and Marsh harrier,RM8 2HU,51.550073089256400,0.115267608163344
Ibex and Old World vulture,E1 5RB,51.523239396886700,-0.057910137987356
Vole and Marmoset,N16 8DL,51.553692605555500,-0.077284255163378
Viscacha and Wallaby,IG11 0NQ,51.529031690362000,0.102166958908932
Jay and Thrasher,W1G 8QY,51.519184098774400,-0.147434938508747
Shearwater and Treepie,WC1N 2PA,51.522356000802400,-0.116227625027800
Booted eagles and Asiatic leopard,E2 6HE,51.523709968128800,-0.066798888110452
Fox and Asiatic leopard,W1T 3JL,51.518447452456700,-0.138960762166976
Mink and Cuscus,IG3 9RE,51.565847050376500,0.118221794673232
Magpie and Darwin's finches,E6 3RW,51.525786222266800,0.056461553515773
Kākāriki and New World blackbird,N22 6QS,51.593874723849100,-0.096262575504900
Wallaby and Jackal,E8 1NZ,51.548582008779000,-0.064533151000364
Vulture and Night heron,E17 3HU,51.589528140503200,-0.004585787110013
Magpie and Goose,E7 8QT,51.540048659252900,0.042049088241683
Polecat and Jerboa,E5 8NW,51.553977016609100,-0.057971541864123
Cloud rat and Chicken,WC2E 9AB,51.512722793647900,-0.126194559518565
Boto and Philippine hawk-owl,E16 3LX,51.515816988028100,0.033556695719414
Parrotlet and Thrasher,NW5 3ND,51.546083666177200,-0.151621136448284
Bronzewing pigeon and New World blackbird,N6 4DX,51.580352782162800,-0.157274386340022
Petrel and Condor,E1 0NP,51.517370000000000,-0.040740995423337
Cloud rat and Chicken,IG3 9HT,51.554665971008100,0.095861860352192
B and Shearwater,W1F 9DZ,51.510893124653200,-0.137222231017786
Night heron and Perching duck,E1 3ER,51.515954103532200,-0.053492564177609
Flameback and Mamo,N16 7EH,51.562256891206300,-0.066001274782117
Pratincole and Dolphin,IG1 9ST,51.560361050366900,0.078017350678085
Prion and Herring gull,E2 8NR,51.531623051482500,-0.069505858494515
Civet and Rabbit,SW1P 4EZ,51.493682938236700,-0.129971851026399
Minke whale and Francolin,SE1P 4NS,51.492762382100000,-0.080151676700000
Kestrel and Kestrel,E7 0NB,51.549836242870800,0.040294929236869
Stilt and Badger,W1F 9RS,51.512213117418900,-0.138234852767784
Old World quail and Guillemot,EC4Y 7AH,51.512776774089400,-0.110856000000000
Masked owl and Viscacha,E1 8ZN,51.513648000000000,-0.068323000000000
Civet and Elephant,EC1A 4EE,51.515513934121300,-0.097009000000000
Parakeet and Gull,SW1X 7ET,51.501486563384000,-0.152547248037388
Darwin's finches and Philippine hawk-owl,IG8 7HE,51.604850388923700,0.038904555127798
Argus and Francolin,SE18 1ND,51.485420596752300,0.086575000000000
Magpie and Vulture,N21 1HJ,51.642093682550200,-0.100805232145404
Songlark and Zebra,WC1H 0XG,51.522348740379500,-0.129259034697599
Booted eagles and Vole,N16 7AT,51.558022468090300,-0.066065507442679
Elephant and Kestrel,W1U 4PW,51.520166650819900,-0.151575186391678
Hawaiian honeycreeper and Kestrel,E2 0BZ,51.526444751831800,-0.060786826012085
Viscacha and Old World warbler,EN3 7PH,51.655522229240200,-0.026106000000000
Pratincole and Night heron,SE18 6XD,51.494413603092400,0.073647964672413
Linsang and Wader,IG4 5HL,51.581573059291100,0.052570652870379
Chickadee and Jerboa,NW1W 9SF,51.530783041088500,-0.135430048905449
Wallaby and Polecat,SE28 0EE,51.494554342718100,0.080425434575216
Warbler and Viscacha,N15 4TD,51.584997980390300,-0.065396613132866
Meadowlark and Boto,E6 6LF,51.517741000000000,0.070643000000000
Tree warbler and Quetzal,N1 7LZ,51.529581000000000,-0.091327107189184
Boto and Diving bird,N16 8PL,51.553238476819400,-0.084472000000000
Mouse and Black cockatoo,N1P 2BW,51.538645000000000,-0.103543000000000
Shearwater and Polecat,IG11 7TF,51.532085082789300,0.083246448699638
American sparrow and Magpie,RM9 4DJ,51.535430211476700,0.117905106650037
Fish eagle and River dolphin,N4 2AG,51.565282180205900,-0.103141975260088
Bronzewing pigeon and Black jay,E2 8AT,51.536187974936000,-0.076421479530154
Fish eagle and Vole,SE11 6DP,51.493927000000000,-0.112574000000000
Old World quail and Towhee,IG3 9NA,51.559015874612900,0.100029277952508
Towhee and Skunk,W1S 1PY,51.512821966437400,-0.142605659750011
Marsh harrier and Diving bird,E2 9BT,51.533620664004400,-0.057598074320254
Pitohui and Black jay,SE28 0GW,51.493656000000000,0.101605000000000
Darwin's finches and Vulture,W1D 6DP,51.511434829725900,-0.132833457466537
Thrasher and Grosbeak,SE1 2HD,51.505891534936700,-0.083533679132691
Condor and Puffleg,N19 3AW,51.572982000000000,-0.121668000000000
Black cockatoo and Warbler,N18 2HF,51.616088863066800,-0.055292334887123
Siskin and Grouse,EC1P 1NW,51.524567000000000,-0.112017000000000
Maya and Parakeet,EC2Y 5AP,51.517724844150700,-0.094484000000000
Dorcopsis and Jackal,N1 1QF,51.538645000000000,-0.103543000000000
Duck and Peafowl,N1 1HZ,51.540431414508400,-0.110664798666584
Dorcopsis and Myna,N7 8JB,51.549452004453300,-0.114647007505336
Argus and Hawaiian honeycreeper,N18 1EZ,51.611169816334900,-0.071086791258897
Chicken and Mockingbird,IG8 0AP,51.605550844798500,0.031180794056912
Hawaiian honeycreeper and Parrotlet,N15 5QH,51.582079100327400,-0.083707357534495
Mamo and Grosbeak,EC1P 1AA,51.524567000000000,-0.112017000000000
Ice seal and Tit-tyrant,N11 2QE,51.604763796582900,-0.124140514254693
Chickadee and Flameback,E12 6AS,51.548796962798600,0.051931575345993
Parakeet and Kestrel,NW1 1EZ,51.529861076339700,-0.129484538518289
Boto and Thicketbird,SE8 3AQ,51.489818560792400,-0.030693956161705
Black cockatoo and Puffleg,E11 3QG,51.560446529240700,0.010140697504325
Parrotlet and Ground sloth,EC1N 8JH,51.521535973579800,-0.109414479263979
Goose and Badger,E4 9BJ,51.611265282828000,-0.013194124404251
Minke whale and Wallaby,EC3N 1AD,51.513450000000000,-0.076039000000000
Dorcopsis and Tree warbler,IG7 4JD,51.610968413954000,0.095406841642960
Fish eagle and Pitohui,N1P 2LL,51.538645000000000,-0.103543000000000
Egret and Parrotbill,E8 3EU,51.542318253312600,-0.061510870737753
Kangaroo and Grouse,E14 9YD,51.490742543962400,-0.022011048501199
Piping shrike and Quetzal,N1P 1UF,51.538645000000000,-0.103543000000000
Booted eagles and Wader,N16 6AQ,51.566662600300000,-0.072437322000000
Viscacha and Siskin,IG7 6HN,51.613953953238900,0.097422125104082
Guillemot and Thicketbird,SW1V 1AN,51.495929646333200,-0.142802667308322
Macaw and Chicken,E5 9JE,51.566858993778600,-0.056080739273326
Parrotlet and Skunk,IG2 7HZ,51.575240252994600,0.093907405770534
Moluccan boobook and Grosbeak,NW5 3LG,51.546797038224000,-0.144972239327294
Quetzal and Buzzard,E3 5PQ,51.534336830901800,-0.034728081093058
Egret and Rabbit,SE18 5RW,51.490426072998200,0.060084545848336
Chicken and Old World warbler,N22 9LG,51.598609000000000,-0.119662000000000
Elephant and Partridge,E17 5QF,51.597076936921400,-0.038864000000000
Triller and Black cockatoo,W1G 9HU,51.517879202440000,-0.147372579668293
Snipe and Dorcopsis,E13 9NL,51.524503725082900,0.034087873193664
Minke whale and Boto,WC2N 5AP,51.507270000000000,-0.124790000000000
Grouse and Pitohui,W1D 2HW,51.515664321433000,-0.135283634965277
Vulture and Kestrel,E14 9FQ,51.498267000000000,-0.018602000000000
Asiatic leopard and Civet,N1 1HJ,51.538645000000000,-0.103543000000000
Jay and Parrotlet,N8 7RD,51.587091959453100,-0.124031249657918
Magpie and Prion,NW1 0QS,51.540080616958500,-0.136520951084837
Dolphin and Marsh harrier,WC1H 0ND,51.523414103929100,-0.126144919772679
Siskin and Macaw,SE1 5QD,51.490557560289400,-0.070275982760058
Macaw and Meadowlark,SW1X 8BA,51.498057138128300,-0.149487520066376
Chickadee and Pheasant,N16 9HJ,51.561187000000000,-0.086245000000000
Marmoset and Tahr,EC2Y 5AD,51.517344920463800,-0.096039436944514
Siskin and Magpie,W1U 4PA,51.519417799280300,-0.151418124737752
Tattler and White ibis,SE16 4ST,51.501231844381400,-0.067548578291592
Marsh harrier and Mole,E6 6HF,51.524035860955000,0.063446444876744
Grosbeak and Badger,IG1 9GZ,51.558068828056100,0.072373029864801
Jackal and New World blackbird,SE1 5XQ,51.491920000000000,-0.081973000000000
Diving bird and Cuscus,SE1P 4GW,51.492762382100000,-0.080151676700000
Old World quail and Meadowlark,E8 3QN,51.543252408930600,-0.061860000000000
Black cockatoo and Perching duck,E15 2FZ,51.535296000000000,-0.006238000000000
Condor and Snipe,N19 5BJ,51.556464503567600,-0.137063132965700
Asiatic leopard and Ice seal,N17 7PU,51.599196667259300,-0.090076569674240
Peafowl and Ground sloth,WC1X 8PQ,51.521678136883800,-0.113776261779009
Myna and Civet,WC1X 0HR,51.526747374782900,-0.112499958264901
Mamo and Bronzewing pigeon,W1W 5BL,51.521860296551700,-0.144933485304919
Perching duck and Dorcopsis,W1B 1QB,51.519830561406500,-0.145664598642170
Skunk and Parrotbill,W1S 1PL,51.513361487582900,-0.142036055571408
Guillemot and Tit-tyrant,WC2B 4JN,51.513411972544500,-0.115328360347256
Piping shrike and Pratincole,E16 4SP,51.520536623131900,0.002285363445571
Chicken and Jay,SE1 2DA,51.505184475388800,-0.083188696942306
Old World warbler and Darwin's finches,EN3 4EA,51.645415934066100,-0.046246841891282
Mouse and Treepie,N16 8TW,51.553273793687200,-0.083014138827024
Partridge and Gull,SE1 3GN,51.499569000000000,-0.076811000000000
Warbler and Darwin's finches,E6 2NT,51.535257864174600,0.062987860295468
Viscacha and Eagle,E3 5AA,51.527183930772700,-0.034502699815312
Grackle and Petrel,SE11 6TX,51.491054748808900,-0.113542381976799
Macaw and Fulmarine petrel,N13 5JY,51.617714337250100,-0.104640024712081
Night heron and Kite,E17 7QA,51.580090622308300,-0.023459595468819
Crow and Old World quail,WC1H 8AA,51.529820878438300,-0.123027235847290
Badger and Hawaiian honeycreeper,E4 6QZ,51.629694184971600,-0.003314880319843
Mole and Civet,N11 3JH,51.613740854366300,-0.155320000000000
Tit-tyrant and Macaw,EC3V 9LJ,51.512795092371500,-0.087221661793401
Partridge and Elephant,EN2 8SD,51.667940356823500,-0.105568000000000
Triller and Warbler,N19 4TA,51.565413115023300,-0.119657262034408
Stint and Parrotbill,IG11 8DG,51.537894164392100,0.080932000000000
Parrotlet and Marsh harrier,SE7 7RL,51.485903766741400,0.020227161886635
Chicken and Armadillo,NW5 2PG,51.552616134625600,-0.139355187327675
Vole and American sparrow,RM9 4BS,51.540720000676700,0.113550000000000
Tit-tyrant and Black jay,N9 7JN,51.630767816068100,-0.059837476737058
Myna and Magpie,SE1 6NL,51.492760984014900,-0.080151672390443
Scimitar babbler and Warbler,W1U 2EH,51.517249300530600,-0.150194316913874
Puffleg and Polecat,E18 1PS,51.590361794473800,0.027572490214545
Hawk and Snipe,SW1P 3ER,51.495162402348000,-0.127447816882695
Egret and Black cockatoo,E3 2ZP,51.531802000000000,-0.023362000000000
Diving bird and Zebra,SW1Y 6HA,51.508633073301600,-0.135555000000000
Mockingbird and Tattler,N1 0GP,51.537081319479700,-0.105900860559973
Kestrel and Tahr,EC4M 8AP,51.513533781081100,-0.100493255564967
Francolin and Vole,E4 6RR,51.623790606707500,-0.010465448498941
Crow and Bunting,SW1P 4JA,51.493465022099900,-0.128713057396010
Meadowlark and Rabbit,W1T 6NQ,51.522535400097500,-0.140999594356844
Linsang and Siskin,IG8 7RQ,51.613860392422100,0.039972762797709
Stilt and Minke whale,IG6 3HD,51.596108437369800,0.090593283821151
Old World vulture and Old World quail,N7 8QF,51.549830328260400,-0.111890872400719
Kite and Stint,SE7 8EZ,51.485328363871300,0.049402000000000
Polecat and Marsh harrier,EC4P 4WB,51.524501611318500,-0.112088280168721
Fox and Duck,SW1V 4JF,51.491033496412100,-0.147179038624340
Parrotlet and Snipe,N21 3PY,51.630641344818200,-0.105502810538157
Peafowl and Duck,N21 1HZ,51.634689858942900,-0.105623122430217
Vole and Buzzard,IG1 3RN,51.575312990103700,0.060846805300256
Cuscus and Triller,E3 3XE,51.521004000000000,-0.017631000000000
Guillemot and Parrotbill,E17 9NL,51.582734282956800,-0.011739727330664
Cuscus and Chicken,N10 3BN,51.589770387681600,-0.150007239053077
Viscacha and Viscacha,N19 4PA,51.565068744325900,-0.125673708797810
Kestrel and Egret,E6 5JQ,51.515023800335800,0.055328166868254
Black cockatoo and Kestrel,E10 7SD,51.573072000000000,-0.017632000000000
Argus and Petrel,IG10 4QA,51.640028295240200,0.045685135265945
Gull and Parrotlet,SW1E 6SQ,51.497326000000000,-0.138476997198180
Egret and Tahr,N4 4SP,51.576028880180000,-0.114904009779817
Skunk and Flameback,W1B 1NN,51.520931703045500,-0.144783832072692
Grosbeak and Marmoset,EC1V 3SW,51.526975736551300,-0.093258977677155
Kestrel and Philippine hawk-owl,E1 1PW,51.513403306395700,-0.066183188405748
Songlark and Meadowlark,N17 8AL,51.601882390210700,-0.072837784706100
Tattler and Eagle,N6 5PG,51.571688219878600,-0.137032456404703
Pratincole and Bronzewing pigeon,E11 4RH,51.563042000000000,0.005667000000000
Black cockatoo and Parrotbill,SW1W 8TN,51.492958097255100,-0.152892062134417
Nukupuʻu and Asiatic leopard,SE7 8LX,51.492138000000000,0.038934825015701
Kite and Pitohui,N11 3AY,51.621025282964000,-0.154413688573739
Kangaroo and Bunting,IG10 1QB,51.654233438928500,0.069976621921025
Petrel and Dolphin,WC2E 8RD,51.512059656672000,-0.122964728536056
Egret and Crow,E17 6LY,51.583912368223300,-0.038998598945703
Bronzewing pigeon and Warbler,E4 6SY,51.619455769534700,-0.015219969666702
Kestrel and Petrel,E17 9NP,51.581249320451100,-0.013262362072621
Francolin and Shearwater,E13 9LW,51.527732849631400,0.034563389321438
Minke whale and Boto,E14 6LA,51.515725087223900,-0.019934414946347
Tit-tyrant and Linsang,SE16 5QJ,51.504084353509900,-0.048652583299514
Fox and Marsh harrier,E1W 1AW,51.508864175442400,-0.069359000000000
Stint and Herring gull,SE1 5QX,51.489978150237700,-0.069493778837202
Buzzard and Capuchin,E3 5PH,51.535854669189700,-0.033004471004271
Francolin and Linsang,E18 1QL,51.589201921920000,0.029123284295990
Jay and Bunting,SE16 3DE,51.485380495340500,-0.055198162999432
Peafowl and Jay,E17 7JB,51.579480549021700,-0.039088359369797
Booted eagles and Stilt,EN3 6XX,51.667452191771300,-0.012240617979171
Old World quail and Kite,W1D 4UA,51.513074615979200,-0.131901687752252
Crow and Dorcopsis,IG8 7LA,51.605463842311900,0.042412463231968
Gull and River dolphin,E12 5PY,51.551277000000000,0.055164096470510
Scimitar babbler and Francolin,WC2H 9PX,51.514559309006600,-0.125196795730281
Darwin's finches and Guillemot,IG11 9LG,51.539939853813800,0.100665120424949
White ibis and Stint,N13 4LA,51.615468040187700,-0.122659190316151
Gull and Rabbit,IG6 2XG,51.602177394238700,0.086106633100917
Buzzard and Bronzewing pigeon,E9 7JL,51.537480949962100,-0.047600000000000
Dorcopsis and Diving bird,IG8 7EH,51.602525055759800,0.035580117188129
Mink and Black jay,E13 8JZ,51.521572300697400,0.023509000000000
Mouse and Scimitar babbler,EC1A 9DT,51.524501611318500,-0.112088280168721
Wallaby and Fox,IG11 8QT,51.542086843678900,0.076550133135253
Herring gull and Old World vulture,IG11 8FN,51.540281640340900,0.076482316655992
Kangaroo and Marmoset,E14 7PT,51.512926000000000,-0.029786000000000
Eagle and Puffleg,N11 3NJ,51.608549124893300,-0.149604986328272
Rat and Tree warbler,E18 1PZ,51.587870998131700,0.027042940697656
Vole and Armadillo,SE1P 5XU,51.492762000000000,-0.080152000000000
Polecat and Booted eagles,E10 5NP,51.557665554807300,-0.009241111959390
Pheasant and Elephant,E4 9RJ,51.610804512665600,0.008594989343013
Jay and Triller,N19 5EZ,51.556086183794800,-0.134193472956866
Piping shrike and Grackle,N21 2PP,51.629371676990100,-0.085991873623511
Snipe and Fox,N18 2HH,51.615036532368900,-0.055279540322311
Mockingbird and Grosbeak,N1 5NN,51.536195469471800,-0.083472251292942
New World blackbird and Peafowl,N1C 4DS,51.534230000000000,-0.125762000000000
Booted eagles and Mole,EN1 3NL,51.662906992127100,-0.070769979907216
Kangaroo and Egret,W1U 7NH,51.519569954818400,-0.154799256224176
Prion and American sparrow,EN1 2LP,51.639446558695500,-0.068080562770433
Dolphin and Solitaire,EN2 7RE,51.651732000000000,-0.108454000000000
Towhee and Recurvebill,W1G 6EW,51.520331723408700,-0.151208146300614
Grosbeak and Duck,SE1 1DR,51.499300421480100,-0.099586645524747
Partridge and Guillemot,IG7 5LY,51.605846762857800,0.087603486126829
Parrotlet and Parakeet,IG1 4RU,51.564087000000000,0.070280000000000
Triller and Duck,SW1V 2QF,51.490394766546600,-0.135248931052254
Thicketbird and Fulmarine petrel,E3 4AW,51.519326680981400,-0.028210496358513
Ice seal and Masked owl,N10 3FA,51.588013000000000,-0.150053000000000
Chipmunk and Black jay,N1P 1QN,51.538645000000000,-0.103543000000000
Masked owl and Marsh harrier,E10 5HJ,51.563976004331500,-0.020262867211131
Duck and Towhee,SW1X 8DL,51.496835573329000,-0.155285322345388
Armadillo and Chicken,E17 3BN,51.586894000000000,-0.013536000000000
Black cockatoo and Diving bird,E1 8PN,51.510083451341000,-0.069278128047534
Kite and Guillemot,E7 0EQ,51.550399831669400,0.022809270913540
Prion and Jerboa,N1 8JS,51.533505433408400,-0.097758658351160
Masked owl and Cloud rat,WC1E 6DH,51.524048599024000,-0.135158000000000
Pitohui and Tree warbler,EN4 0QW,51.648426703745700,-0.146536134689433
Hawk and Zebra,EN1 4RB,51.678456505308600,-0.048556880026841
American sparrow and Jerboa,W1T 4TF,51.521570339957600,-0.135719881885443
Mamo and Puffleg,E6 1DS,51.534426888240900,0.037471737494886
Warbler and Bronzewing pigeon,E15 3FF,51.538468000000000,-0.000678000000000
Guillemot and Coati,EN3 4LB,51.644093502537900,-0.043514129436341
Eagle and Grackle,E14 8DB,51.509386893418000,-0.033928546507279
Partridge and Herring gull,E3 5GT,51.532373030321500,-0.029622141163285
Booted eagles and Marsh harrier,NW1W 8ZR,51.530786000000000,-0.135404000000000
Petrel and Magpie,IG8 0UJ,51.610149170816000,0.021102607727992
Skunk and Tit-tyrant,N1 4HA,51.543156137703900,-0.082949052082060
Maya and Rabbit,N11 1RX,51.613262022349100,-0.136819000000000
Tattler and Perching duck,W1F 9RA,51.511875280567600,-0.138479212035387
Myna and Fox,EN1 3RN,51.658513009337800,-0.058421301527056
Hawaiian honeycreeper and Booted eagles,SE10 0LP,51.486146834337700,0.016032000098846
New World blackbird and Hawaiian honeycreeper,E16 1LN,51.512463472291000,0.016847828458121
Buzzard and Coati,SE1 8BZ,51.499688000000000,-0.103911000000000
Civet and River dolphin,E1 5AB,51.520264202104600,-0.063975448517990
Cloud rat and Wallaby,W1S 4HZ,51.509569001857000,-0.142752373520025
Buzzard and Coati,SE1P 5ZT,51.492762382100000,-0.080151676700000
Darwin's finches and Booted eagles,N7 7LN,51.559048153640000,-0.113600972655037
Greenbul and Myna,IG2 6QT,51.577811364753800,0.079794738057205
Myna and Grosbeak,NW1W 8LP,51.530784525000000,-0.135430053900000
Triller and Viscacha,IG11 8FE,51.538598000000000,0.076074000000000
Moluccan boobook and Mamo,E13 8DR,51.522226006854200,0.020709973214147
Wader and Marsh harrier,N7 0PL,51.557646774147500,-0.123786093276113
Goose and Logrunners,N1 7BA,51.534507000000000,-0.093435000000000
Grosbeak and Condor,W1H 7QU,51.515507493163600,-0.158941343831101
Prion and Petrel,NW1 8XX,51.541706598615700,-0.155764276727497
Old World vulture and Linsang,N15 3HU,51.584620341612900,-0.098410456908777
Warbler and Old World vulture,EC1M 4BG,51.520989473624700,-0.102301912000255
Condor and Snipe,SW1V 1JF,51.492483301882200,-0.141055550515563
Perching duck and Coati,EN1 4AF,51.665553656541500,-0.070946754513571
Logrunners and Quetzal,SW8 1LT,51.483152078248400,-0.118131695185110
Condor and Quetzal,W1D 5AF,51.512807579017100,-0.131509078631010
New World blackbird and Night heron,N21 1TW,51.644549849115800,-0.111847000000000
Duck and Black jay,IG6 2FE,51.605471148481100,0.085463326747071
Tit-tyrant and Chickadee,E7 0HA,51.553033324919200,0.025493742641733
Dolphin and Parakeet,E17 4NZ,51.590077304592500,-0.018420860336162
Triller and Partridge,SE18 7TE,51.484881805314400,0.080215581115799
Pitohui and Bronzewing pigeon,W1F 7QE,51.513629822862800,-0.139675955708452
River dolphin and Siskin,SE1 3FZ,51.500676000000000,-0.085121000000000
Magpie and Bunting,E15 3PJ,51.536238466817200,0.013803523529838
Argus and Old World warbler,W1F 8BH,51.515154197209800,-0.134530000000000
Armadillo and Snipe,NW1W 7QP,51.530784525000000,-0.135430053900000
Old World vulture and Grackle,W1D 6BR,51.510225384551100,-0.131989418835242
Siskin and Treepie,SE1 6BX,51.496050000000000,-0.099242735518399
Black cockatoo and Badger,IG7 5NT,51.608080753364900,0.085871776854981
Parakeet and Coati,W1G 9DD,51.517064016522200,-0.145863441944929
Pratincole and Jackal,E16 4PS,51.518249332491600,0.009305506386364
Polecat and Parrotlet,IG7 6QX,51.618107708364900,0.077750807945396
Gull and Fox,N17 8BB,51.603534700607600,-0.073793116143038
Meadowlark and Philippine hawk-owl,E16 1HR,51.511415122042200,0.013486820459428
Duck and River dolphin,W1J 5PN,51.507232075274800,-0.147372184220804
Hawaiian honeycreeper and Francolin,N21 2RH,51.635757726970300,-0.083324159498461
Triller and Vole,N8 9ND,51.583272676373100,-0.112410219143601
Logrunners and Piping shrike,N10 3HN,51.590193059346800,-0.146020063923947
Triller and Pitohui,E17 6GS,51.592374694253800,-0.036845000000000
Rat and Greenbul,N1 4DW,51.545409577269000,-0.077777681419699
Philippine hawk-owl and Old World vulture,E14 6WG,51.513195247177900,-0.028302336687097
Triller and Philippine hawk-owl,IG11 9EY,51.546804043332100,0.102019763625888
Darwin's finches and White ibis,E10 9EB,51.570984000000000,-0.008645000000000
Pheasant and Parrotlet,N5 2TE,51.558698009435900,-0.096375822792620
American sparrow and Egret,IG10 2NN,51.656329000000000,0.076659890873942
Minke whale and Francolin,SE1 8QF,51.501630959718900,-0.106348110297083
Grouse and Guillemot,N16 6BJ,51.564758165827200,-0.069789000000000
Flameback and Rat,WC1X 8TX,51.523262408289700,-0.114993753299272
Greenbul and Kākāriki,EN1 4QU,51.676631587235800,-0.047507136405805
Marsh harrier and Pitohui,W1U 7LS,51.518281141375700,-0.154044183692891
Jay and Parrotlet,W1K 2JU,51.511149949394500,-0.154606272060438
Thicketbird and Fish eagle,EN2 8LD,51.667583000000000,-0.108835000000000
Herring gull and Dolphin,NW1 1RL,51.534099000000000,-0.131834000000000
Grouse and Stilt,NW1W 9GB,51.530783041088500,-0.135430048905449
Peafowl and Grackle,W1C 2BU,51.514443000000000,-0.147195000000000
Triller and Hawaiian honeycreeper,EN3 7SB,51.654962494875100,-0.032579076984338
Booted eagles and Fulmarine petrel,E17 9EW,51.585303073154500,-0.006257727808918
Francolin and Rabbit,E3 3PH,51.523419469332400,-0.016544562967876
Myna and Diving bird,IG11 9FD,51.538066000000000,0.111537000000000
B and Siskin,EN3 7NJ,51.659367887191300,-0.029843552686655
Pheasant and Goose,IG7 5BA,51.616459455041300,0.068733973052628
White ibis and Kite,E14 8HT,51.508993560822300,-0.021768264040561
Bunting and Vole,E16 1AH,51.505980546105300,0.015754569526007
Siskin and Chipmunk,E3 5DD,51.529479741154800,-0.036811519280229
Polecat and Recurvebill,E6 5YN,51.516609854531600,0.053597886042527
Francolin and Songlark,W1U 4RN,51.519248000000000,-0.151944000000000
Cloud rat and Jay,SE1P 5DZ,51.492760984014900,-0.080151672390443
Zebra and Vulture,SE17 2EY,51.484948937781300,-0.092981796424122
Skunk and Tit-tyrant,N11 1GN,51.625913000000000,-0.152380000000000
Perching duck and Cuscus,N8 0RX,51.582741000000000,-0.099470000000000
Stint and Black cockatoo,IG1 4BQ,51.560977849112400,0.074669422436542
Darwin's finches and Vole,EC3N 2PU,51.511869502767700,-0.075716651813499
Nukupuʻu and New World blackbird,W1G 6AB,51.520470356292900,-0.149069281752472
Treepie and Fish eagle,EC1V 4LW,51.524035165456100,-0.103242036806053
Chickadee and Puffleg,N19 3PG,51.561245543444700,-0.123897664308003
Mamo and Jerboa,E9 7JY,51.536180351609000,-0.047655034430984
Wader and Greenbul,E3 3DS,51.528598000000000,-0.014148525363727
Tit-tyrant and Eagle,N8 0EE,51.589392227216300,-0.107118335810574
Cloud rat and Old World quail,W1D 4EB,51.513306278088600,-0.130482000000000
Wallaby and Chipmunk,E14 1TH,51.510000000000000,-0.006148000000000
Puffleg and Tattler,SE1 8JU,51.499181038103800,-0.105988000000000
Old World warbler and Lemming,EC4A 1HP,51.515912616943400,-0.110710000000000
Thrasher and Hawk,EC2A 2DT,51.522443041072800,-0.086053406869689
Chicken and Kite,E13 8SL,51.522776000000000,0.034717000000000
Chipmunk and Bronzewing pigeon,E2 9HP,51.533782683692900,-0.052184169294344
Pheasant and Pitohui,E1 7NE,51.517769530653400,-0.074675235020810
Towhee and Petrel,WC1X 0LR,51.527031520571600,-0.115630991162373
Francolin and Polecat,NW1 0SR,51.541590000000000,-0.137498000000000
Masked owl and Black jay,N4 2EX,51.564171963686000,-0.092900856864228
American sparrow and Chickadee,WC1B 5AN,51.521436382427600,-0.123372002779867
Fish eagle and Eagle,WC1N 1LT,51.523373339785900,-0.123032895952701
Lemming and Greenbul,SE16 5XR,51.507231859890800,-0.041644384505880
Black cockatoo and Goose,E4 7EA,51.631945235729000,-0.001901081531029
Nukupuʻu and Jay,E16 2JW,51.501749000000000,0.030277000000000
Asiatic leopard and Booted eagles,W1D 7HS,51.510641052758800,-0.134941128784380
Parakeet and Mink,N16 8UF,51.552857454760600,-0.081199709473603
Marsh harrier and Moluccan boobook,W1T 2PN,51.519550282440300,-0.134793391727849
Thrasher and Songlark,SE17 1BE,51.491723205713800,-0.092050870726298
Herring gull and Cuscus,E14 1TA,51.513162000000000,-0.028291000000000
Parakeet and Vole,IG1 2PF,51.545472896527800,0.077295634294776
B and Argus,EN3 5RT,51.668984804065700,-0.046230730136113
Francolin and Mouse,N9 8NW,51.632227616622000,-0.048215000000000
Old World vulture and Grouse,E17 4DE,51.596653514392500,0.002613785750785
Buzzard and Cloud rat,W1J 7SD,51.505406000000000,-0.150083000000000
Bunting and Mockingbird,IG1 8HG,51.558069968291000,0.072373025646433
Hawk and Pheasant,NW5 9RN,51.550839000000000,-0.146700000000000
Triller and Minke whale,E6 1NH,51.533971928559000,0.051192673503274
Tahr and Herring gull,W1K 2XE,51.508674668405000,-0.151031595213408
Solitaire and Black cockatoo,N22 6RR,51.593680031056500,-0.099230419571494
Moluccan boobook and Kite,N17 0PL,51.604468828336200,-0.061709737476896
Jackal and Ice seal,W1D 4SA,51.513283413101200,-0.131460783814498
Fish eagle and Logrunners,W1U 6AE,51.519941958659800,-0.156153562252476
Petrel and Magpie,IG1 3PA,51.570139454775500,0.062026989328541
Ice seal and Triller,E4 6PU,51.627651452487800,-0.007464619001797
White ibis and Lemming,W1T 3HF,51.518093000000000,-0.137927000000000
Songlark and Fish eagle,SE1P 5JR,51.492760984014900,-0.080151672390443
Boto and Thrasher,EC1R 4PL,51.521983346814600,-0.112624877370132
Vole and Viscacha,N14 9DJ,51.630603898100000,-0.128305383300000
Fulmarine petrel and Asiatic leopard,N15 5RG,51.580499000000000,-0.083759000000000
Treepie and American sparrow,EN3 6AP,51.669229000000000,-0.035941998061150
Fish eagle and Prion,N1 1HW,51.539602894900100,-0.109473376247740
Asiatic leopard and Scimitar babbler,IG6 2JB,51.591907637552500,0.076988063827689
Night heron and Kestrel,E9 7DU,51.540345904202000,-0.044534919605354
Buzzard and Meadowlark,IG8 9QZ,51.609940068565800,0.016529341466534
Black jay and Vulture,N6 4EG,51.580674642443400,-0.156582999270203
Fulmarine petrel and Macaw,N9 7BN,51.636119714420000,-0.051776556358643
Jerboa and Fish eagle,W1D 1BH,51.516343567420400,-0.133324548525093
Skunk and Gull,SE16 4HL,51.499989427764100,-0.054950910384180
Ice seal and Pheasant,E9 5JP,51.546676081281900,-0.029451295683053
Marmoset and Meadowlark,E1 3BH,51.518167684119700,-0.054118873455116
Mamo and Pheasant,E17 9ND,51.582032159202100,-0.009576400793940
Old World quail and Badger,EC1Y 2BG,51.523567280021000,-0.088269483989406
Vulture and Minke whale,E14 0AY,51.509231616547400,-0.011915236640960
Pheasant and Prion,EC1R 5AB,51.522228301054900,-0.110524584923847
Diving bird and Snipe,IG2 7AX,51.569533848671200,0.091668215084732
Mink and Linsang,SE18 5TL,51.492578000000000,0.044076000000000
Eagle and Stint,N22 6BQ,51.591657490432200,-0.104281153475169
Jay and Thrasher,IG11 7QD,51.536009556172600,0.086583559547370
Perching duck and Macaw,EN2 0RH,51.664235812436000,-0.093025000000000
Kestrel and Magpie,EC1P 1RS,51.524501611318500,-0.112088280168721
Flameback and Quetzal,EC1V 3QY,51.526521795144300,-0.099087716480208
Zebra and Zebra,SW1W 9HH,51.496022718781300,-0.149353816507828
Meadowlark and B,EN1 2ZL,51.651932047314100,-0.077090766898905
Magpie and Pratincole,N1 1DU,51.541241218399300,-0.116846681410258
Maya and Marmoset,W1U 1NS,51.515554438897200,-0.150493585561609
Triller and Kite,NW1 4DP,51.530783041088500,-0.135430048905449
Lemming and Perching duck,WC1H 0AR,51.523932328143000,-0.131572679443662
Nukupuʻu and Armadillo,SE7 8TY,51.483151233313700,0.038973258280073
Dorcopsis and Badger,E14 6HJ,51.512158847822800,-0.022827326678344
Peafowl and Warbler,N1 0JL,51.536423531585100,-0.114190495046581
Parakeet and Civet,EN1 4QS,51.676752532551400,-0.048832631160298
B and Philippine hawk-owl,N13 6DP,51.611358331091900,-0.100846260874918
Fox and Mole,E16 2GU,51.506201000000000,0.075450000000000
Petrel and Solitaire,SW1A 1BS,51.504507469581600,-0.137727614626396
Triller and Grouse,E8 4PG,51.537459546839500,-0.061890364281467
Lemming and Wallaby,EC4R 3TN,51.509593000000000,-0.088177000000000
Peafowl and New World blackbird,SW1W 8BX,51.489914051982600,-0.156601851714505
Stint and Gull,E6 5RL,51.512821510436700,0.049622656349287
Siskin and Jay,E17 3AD,51.585321058516800,-0.018469028559228
Rat and Lemming,E5 9EE,51.568217430637900,-0.056657695086463
Ice seal and Elephant,N19 5QN,51.559830800162500,-0.138959744788530
B and Mamo,N15 6QR,51.578187710562100,-0.081099976187693
Crow and Tree warbler,W1K 2AA,51.509880213819800,-0.152207718518162
Wader and Kite,E14 3PP,51.497913000000000,-0.007166000000000
Meadowlark and Jerboa,E16 2TQ,51.501290000000000,0.029738000000000
Black cockatoo and Capuchin,E17 7HG,51.579127210804500,-0.043779884447693
Wader and Parrotbill,EC1M 5PY,51.522627849978500,-0.098905000000000
American sparrow and Dolphin,N19 3SL,51.572785350299500,-0.129122767270641
Buzzard and Petrel,SE1 3GU,51.496337000000000,-0.076475000000000
Kākāriki and Parrotbill,E13 0LE,51.532735737519200,0.019300976196085
Kestrel and Jay,SE16 5EP,51.505702695656800,-0.035167881105506
Perching duck and Old World warbler,EN1 4DY,51.664083496875600,-0.058674799910949
Jerboa and Stilt,N7 6EY,51.561333440005300,-0.119453000000000
Mole and Stilt,EC1P 1TB,51.524501611318500,-0.112088280168721
Black jay and Old World vulture,E1W 9EN,51.519025959342700,-0.058075035903984
Night heron and Logrunners,IG1 9SQ,51.560361050366900,0.078017350678085
Fox and Guillemot,E14 8SJ,51.497917554755100,-0.024610717553967
Meadowlark and Pheasant,IG10 1HG,51.649598184860200,0.052794484534615
Cuscus and Towhee,W1J 7RF,51.506012834087100,-0.147608964797092
Crow and Pratincole,SE11 6UE,51.490648170952500,-0.112305934207429
Wallaby and Tree warbler,E17 3QG,51.587843831652500,0.001778000000000
Mockingbird and Philippine hawk-owl,N1P 2BF,51.538645000000000,-0.103543000000000
Skunk and Kangaroo,N11 3AT,51.620510485624400,-0.152355000000000
Greenbul and Grackle,NW1W 7GJ,51.530784525000000,-0.135430053900000
Maya and Hawk,SE8 5BH,51.485103753805600,-0.039121417394380
Quetzal and Polecat,E2 9EH,51.531596673050500,-0.059731585758673
Cloud rat and Grosbeak,IG11 9QE,51.536158459040000,0.103922896800907
Darwin's finches and Buzzard,SW1Y 6PF,51.507436689346900,-0.139279763979009
Jay and Marmoset,W1T 6BB,51.522082113214300,-0.139634230612256
Kākāriki and Philippine hawk-owl,N11 2BH,51.609052180917700,-0.123516027286470
Marsh harrier and Diving bird,N19 5RN,51.563936491471800,-0.131361653033186
Bronzewing pigeon and Meadowlark,EN3 5EW,51.657149517202600,-0.031616882863296
Warbler and Kangaroo,IG8 0BQ,51.608419634305300,0.024405331003045
American sparrow and New World blackbird,E8 2JN,51.550803494963300,-0.067280400711545
Bunting and Tattler,EN3 5HN,51.662022669609300,-0.033719196814596
Mockingbird and Prion,SE11 6AH,51.492075363106700,-0.118297247949656
Rat and Lemming,N1 2FW,51.539647000000000,-0.101447163541815
Kite and Viscacha,N19 3QJ,51.569744713640000,-0.122292373468754
Night heron and Flameback,E4 6LE,51.619917000000000,0.007442286021661
Moluccan boobook and Grackle,NW5 4QF,51.553223000000000,-0.154938000000000
Peafowl and Diving bird,N1 3GY,51.539316000000000,-0.086100444586122
Wader and Grackle,E3 5JP,51.535001472145200,-0.033070092506861
Grouse and Kangaroo,IG11 8QF,51.543129832394300,0.078083075416860
Egret and Perching duck,N11 1QG,51.615043157568400,-0.142869846014129
Stint and Old World quail,IG8 0SB,51.623227000000000,0.023187770461963
Flameback and Mouse,W1J 0AH,51.509567000000000,-0.137429767390511
Old World quail and Pitohui,E14 4HB,51.506575502717300,-0.026095176308477
Guillemot and Civet,IG8 9RB,51.610433779393000,0.014485856013117
Capuchin and Parakeet,NW1 8BN,51.545464520935700,-0.150564562470752
Ice seal and Dorcopsis,EC4N 7AR,51.512152401685500,-0.088617703039603
Warbler and Recurvebill,E10 7FB,51.572291623122300,-0.041547964147146
Pitohui and Darwin's finches,E14 9BA,51.506671541940100,-0.006709371810352
Grouse and Old World warbler,N17 0PT,51.604233613179300,-0.060535593040869
Recurvebill and Tahr,E1 3EB,51.516950521884300,-0.052844720717393
Vole and Boto,E1 6DX,51.520663809383200,-0.077335166570419
Old World vulture and Ground sloth,EC1R 0BE,51.523988654537800,-0.104815258824387
Towhee and Argus,N21 1QT,51.635976345280900,-0.116277698279334
Thrasher and Parrotlet,SW1P 4EB,51.490841998130600,-0.130016079343145
Kestrel and Ibex,N14 6NH,51.627564550392300,-0.124457136736388
Cuscus and Flameback,EC1M 6HW,51.520276298365600,-0.101019854764463
Mink and Solitaire,EN3 7HH,51.658063256266700,-0.045299000000000
Wallaby and Mink,E5 9RR,51.564177000000000,-0.047192000000000
Elephant and Old World quail,SE18 5AN,51.491847922492000,0.058491996512545
Lemming and Gull,E18 2EN,51.586053941864200,0.022905713334907
Pheasant and Polecat,E7 9HF,51.545691317724900,0.017898656394868
Pratincole and Hawaiian honeycreeper,EC1M 6HL,51.520020353938200,-0.101318786433332
Mouse and Logrunners,N4 2HR,51.563470914115600,-0.095137674776802
Puffleg and Ibex,E15 2AY,51.552303999923300,-0.002248462721201
Chipmunk and Gull,N7 7DL,51.564327052530600,-0.112347000000000
Grosbeak and Old World vulture,N10 1AJ,51.602518540523300,-0.149243664878257
Logrunners and Capuchin,E20 1BX,51.546973000000000,-0.005999790101032
Macaw and Wader,NW1W 9NS,51.530784525000000,-0.135430053900000
Snipe and Armadillo,W1K 2DW,51.510907680947200,-0.154068433661923
Capuchin and Tree warbler,E11 2LB,51.576577615099200,0.037512000000000
Thicketbird and Stint,W1B 4JA,51.511169142422900,-0.139315034199127
Night heron and Marmoset,SE18 7TH,51.483842981651900,0.081997506393171
Kākāriki and Piping shrike,N5 1PL,51.551082020551900,-0.105304947724863
American sparrow and Vole,E2 6DA,51.526470550069600,-0.068974158340341
Coati and Warbler,NW5 4PJ,51.551429166931900,-0.151303501758880
Masked owl and Kākāriki,NW1 5SY,51.523084137803400,-0.157540229166498
Philippine hawk-owl and Jerboa,E14 6AN,51.512552878257100,-0.016339256072010
Guillemot and Parrotlet,W1D 3AN,51.514251907026900,-0.131291440340040
Scimitar babbler and Night heron,SE1 0LA,51.503788163693300,-0.096287568269616
Parrotlet and Black jay,N5 1RE,51.546481495805800,-0.103303837296687
Chicken and Wallaby,N15 3EA,51.589838422229800,-0.102451285060319
Darwin's finches and Tree warbler,EC1V 9EZ,51.526996000000000,-0.090548000000000
Wallaby and Pratincole,E17 4HA,51.594547089628600,-0.005708555294677
Mamo and Stilt,N21 1RF,51.643993000000000,-0.097574472810421
Goose and Egret,E15 3QS,51.535089222216800,0.018929303828205
Ibex and Linsang,SE1 7JU,51.495434000000000,-0.120152272191407
Fish eagle and B,EC4N 7AE,51.511526420884800,-0.086626281782983
Logrunners and Stint,N16 0EG,51.561325000000000,-0.078772236379815
Skunk and Old World vulture,N1P 2AN,51.538647000000000,-0.103517000000000
Treepie and Maya,E9 6NP,51.544811800454400,-0.054064007930771
Tree warbler and Songlark,E1 6AH,51.518630056683400,-0.077247852483332
Polecat and New World blackbird,SE10 9XD,51.483517463920100,0.003644720394061
Duck and Myna,N1 1JD,51.541016698120800,-0.110712662214418
Shearwater and Armadillo,E16 2PE,51.501854000000000,0.053107000000000
Lemming and Old World quail,E16 3HP,51.512160857728500,0.039028968298079
Viscacha and Mamo,EC4V 6DY,51.513393000000000,-0.102920000000000
Duck and Dolphin,N4 2LA,51.564738000000000,-0.102761000000000
Solitaire and Mink,NW1W 9XX,51.530783041088500,-0.135430048905449
Pitohui and Towhee,IG2 6AY,51.572937000000000,0.082863427387919
Meadowlark and Snipe,E15 3DP,51.532186943678400,0.009571000000000
Kangaroo and Duck,E14 7NR,51.514424000000000,-0.039823000000000
Diving bird and Goose,IG8 0NS,51.615530000000000,0.032984000000000
Recurvebill and Booted eagles,W1F 8RQ,51.514207334897000,-0.135271073990991
Kite and Prion,EC4N 4YA,51.513112000000000,-0.090096082626527
Rabbit and Partridge,N13 4JJ,51.617560665689200,-0.112403467393931
Solitaire and Shearwater,SE11 4AU,51.484623192126100,-0.106174205132687
New World blackbird and Maya,E1 2QL,51.511232146600800,-0.055610587279636
Triller and Mouse,IG7 5AX,51.618235926243500,0.069984868425887
Mockingbird and Armadillo,N22 7BT,51.598769882500000,-0.113081724100000
Rabbit and Pratincole,WC1X 9ET,51.529166712615300,-0.113639769562836
Old World vulture and Armadillo,WC1X 8AJ,51.521195311728100,-0.112830433948582
Argus and Greenbul,E5 0TE,51.554507632175400,-0.040667484647991
Parrotbill and Dorcopsis,W1D 2JE,51.515654925656900,-0.136955904105339
Grackle and Cuscus,E1 3JD,51.520037179310300,-0.049729295449936
Quetzal and Pitohui,SE17 2EP,51.485671388780300,-0.083791071757536
Old World vulture and Nukupuʻu,SE1 8DR,51.505450940048900,-0.107904488707710
Magpie and Mink,RM9 4JU,51.538762303068300,0.114151825167379
Duck and Flameback,SE1P 5QX,51.492760984014900,-0.080151672390443
Parrotlet and Tattler,EC2A 1ZH,51.524501611318500,-0.112088280168721
Duck and Piping shrike,N10 2DF,51.598997162202600,-0.139236090309743
Cuscus and Ice seal,SE1 4GT,51.499343000000000,-0.085440000000000
Skunk and Parrotlet,E1 4PL,51.526370740656000,-0.040722346626079
Capuchin and Darwin's finches,SE16 5EG,51.506678654631300,-0.038137618066648
Civet and Parrotbill,SE1 4TE,51.496091704765400,-0.085313398671867
New World blackbird and Eagle,E14 5GL,51.505395000000000,-0.016276000000000
Civet and Magpie,SE18 6EJ,51.487980849890800,0.069740541558767
American sparrow and Rat,EC2A 3HX,51.525691605531100,-0.083437619411966
Stilt and New World blackbird,EC3A 6AT,51.514725294098700,-0.081519885419903
Booted eagles and Myna,SE11 5TS,51.483194056130200,-0.111792822612271
Ground sloth and Zebra,IG9 5TQ,51.628672638610100,0.030551858249111
Pheasant and Mockingbird,N17 7NT,51.608104034478800,-0.089269483661180
Armadillo and Black jay,E16 3RF,51.510817523027900,0.044906570898062
Parrotlet and Recurvebill,N9 0AT,51.626097528706300,-0.032628925899480
Thrasher and Old World vulture,N16 7JB,51.562347114316300,-0.073124729891871
Maya and Meadowlark,EC2A 2HB,51.520270967492500,-0.083002144329820
Mole and Tree warbler,EC4M 9DD,51.512994000000000,-0.093218746166370
Hawaiian honeycreeper and Mockingbird,E17 8AN,51.576807230169200,-0.035710802709104
Herring gull and Stint,E17 4RU,51.588642522057000,-0.019724804096070
Triller and Hawaiian honeycreeper,W1G 8AW,51.518328988652500,-0.148521831804387
Rat and Prion,N1 7PE,51.532107016346200,-0.087522441987918
Lemming and Night heron,EC4Y 7DN,51.512790770939100,-0.108580385023280
Jay and Jackal,SW1E 5HL,51.498488660566900,-0.140065000000000
Gull and Stint,SW1V 2RD,51.490815015319500,-0.133402352164245
Piping shrike and Meadowlark,RM9 4BY,51.534034000000000,0.116139000000000
Vole and Kangaroo,W1T 4PH,51.519883761877900,-0.136538292147736
Darwin's finches and Dorcopsis,N19 5SS,51.564248464044500,-0.131338000000000
Black cockatoo and Zebra,W1U 1BU,51.514701928938500,-0.151176678303996
Old World vulture and Stilt,SE11 4DW,51.487464245848000,-0.108922873762063
Minke whale and Old World warbler,E11 3HP,51.558369805760300,0.007481188276134
Rat and Jerboa,N9 8UH,51.630170000000000,-0.042177000000000
White ibis and Mink,SE1 6FG,51.493624000000000,-0.101595000000000
Recurvebill and Petrel,E6 5NA,51.509494617969200,0.062933420531364
Chipmunk and Darwin's finches,IG3 9NN,51.560021448290800,0.106640032469804
Bronzewing pigeon and Black jay,RM8 2NH,51.548809352597700,0.117026382315768
Bunting and Bronzewing pigeon,E6 2LP,51.535102261593300,0.067739207633052
Duck and B,EC3N 2AB,51.511084000000000,-0.078733000000000
Vulture and Fulmarine petrel,E11 3PU,51.558837519280900,0.012724266561554
Fulmarine petrel and Zebra,W1W 8ER,51.515691124599000,-0.140370263529602
Treepie and Old World warbler,N9 7ES,51.633735000000000,-0.053757000000000
Black jay and Partridge,N1 8DP,51.532076676099400,-0.102821287030857
Philippine hawk-owl and Scimitar babbler,E1W 9QA,51.519019000000000,-0.058106000000000
Ibex and Old World quail,SE1P 4BN,51.492762382100000,-0.080151676700000
Viscacha and Grackle,N7 0ED,51.558156000000000,-0.133085000000000
Polecat and Siskin,SE16 4NZ,51.499178141913500,-0.060806182714090
Boto and Thicketbird,E1W 3AH,51.511242520651100,-0.045954392042276
Darwin's finches and Fulmarine petrel,SE16 4DU,51.494195000000000,-0.062847000000000
Boto and Armadillo,IG4 5JR,51.579498509665800,0.045202751053808
Cloud rat and Skunk,E14 3RF,51.489055327626100,-0.023279658714648
Fish eagle and Goose,WC1B 4AD,51.519204467888600,-0.122137666461805
Francolin and Cuscus,EC4Y 1DH,51.513998675196900,-0.105417285996821
Maya and Viscacha,E7 9HD,51.546151689623200,0.024941000000000
Lemming and Kite,W1S 1FH,51.512892760019600,-0.143669262277661
Rabbit and Hawk,E9 7DJ,51.541253574998000,-0.046659169415994
Goose and Jerboa,E17 8AH,51.579343764635700,-0.035211730761977
Asiatic leopard and Bunting,NW5 1TY,51.554312362572500,-0.143685600377384
Philippine hawk-owl and Dolphin,N19 3FA,51.568616000000000,-0.124749000000000
Condor and Solitaire,W1S 3AJ,51.511059920549300,-0.141136000000000
Egret and Grouse,WC1R 4QH,51.519041436119200,-0.118137306989231
Fish eagle and Moluccan boobook,NW1 8AE,51.543372305733500,-0.153939000000000
Badger and Jackal,EN4 8UE,51.641788559272200,-0.157848745632427
Towhee and River dolphin,W1U 2PW,51.516650368380600,-0.150420365801641
Grouse and Chickadee,E1 4LL,51.521012127401500,-0.048332664190723
Cuscus and Crow,N4 2QX,51.561710621904200,-0.101934424693247
Dolphin and Coati,N8 7NN,51.587790431020000,-0.113190160576517
Ice seal and Mole,N4 3AW,51.570894200551400,-0.109315441899664
Puffleg and Buzzard,N10 3BU,51.589670279033200,-0.150502137034719
Fox and Wallaby,IG10 1RN,51.653405712855500,0.062334582001813
Towhee and Duck,SE18 1JR,51.483951272099800,0.098119664868673
Tit-tyrant and Bunting,E10 5HP,51.564460410661300,-0.017529274062195
Chickadee and Tit-tyrant,N17 8JW,51.605717915452200,-0.076964479437381
Jackal and Tit-tyrant,W1U 6TR,51.521221000000000,-0.156668000000000
Argus and Treepie,N7 8GF,51.551339450657900,-0.115145936571646
Jackal and White ibis,E1 6TB,51.517136930113800,-0.072842585069628
Solitaire and Zebra,E1 6NN,51.520732899476600,-0.074420523146128
Marsh harrier and Viscacha,SW1A 2AB,51.503397381082200,-0.127873928951468
Polecat and River dolphin,N22 9HW,51.598606128900000,-0.119687183400000
Rabbit and Magpie,EC2V 6JP,51.513583000000000,-0.092962037639036
Grosbeak and Bronzewing pigeon,E3 2GB,51.531553216196400,-0.023731667866833
Hawaiian honeycreeper and Elephant,E5 0SE,51.555366516138600,-0.053368318741290
Black jay and Skunk,W1J 7BT,51.506049101736400,-0.149336663874455
Skunk and Marsh harrier,SE18 5NN,51.492185869556500,0.048437592708849
Marsh harrier and Tahr,N7 6GR,51.560106738441200,-0.121289984951374
Rat and Songlark,WC1E 7JN,51.522405286860600,-0.131678428627104
Rat and Elephant,N1 3PB,51.543518412900500,-0.090274474335747
Old World vulture and Treepie,EC2A 1ZT,51.524501611318500,-0.112088280168721
Vole and Elephant,N1 3BU,51.539732095349600,-0.091903875358625
Argus and Perching duck,N13 4LH,51.625875698689700,-0.107752927903828
Flameback and Chickadee,N1P 2GP,51.538645000000000,-0.103543000000000
Viscacha and Jay,N1 2XF,51.540017923414500,-0.102317998374166
Treepie and Vole,NW1W 8DL,51.530783041088500,-0.135430048905449
Scimitar babbler and Skunk,N1 6FU,51.531351000000000,-0.080665000000000
Mockingbird and Guillemot,IG6 1JF,51.586135220215000,0.077446555740910
Goose and Parrotlet,E5 8BE,51.557508000000000,-0.064775000000000
Quetzal and Wallaby,SW1X 8DF,51.496444082745600,-0.154407912472464
Logrunners and Dolphin,E6 3LW,51.527050863862000,0.053203000000000
Piping shrike and Buzzard,N17 0QX,51.604342479521700,-0.055158887269819
Zebra and Coati,N1 6AL,51.527998085883900,-0.082434000000000
Kite and Crow,NW1 7PU,51.536953883762900,-0.145199442547285
Rat and Tahr,E4 8PP,51.611643030423700,-0.024920141199882
Fish eagle and Scimitar babbler,E2 7LJ,51.526378653286500,-0.071587399870819
Kangaroo and Viscacha,EC2R 7HD,51.514862178805400,-0.089354615227782
Old World warbler and Duck,E11 4JP,51.553682934321500,0.003899345596654
Linsang and Perching duck,E17 9PA,51.580721000000000,-0.013753291388760
White ibis and Ibex,SE8 5DG,51.488648008318700,-0.040265752069771
Chickadee and Kestrel,N19 4EE,51.566528199892100,-0.121231000000000
Tree warbler and Mamo,E11 1ET,51.573681272267400,0.005024139148189
Recurvebill and Mink,EN1 1XG,51.639482834452700,-0.066460375787496
Jerboa and Flameback,N4 1DX,51.577438116739900,-0.098580372342270
Mole and Quetzal,EC1M 7AH,51.521704680102700,-0.097601789650768
Stilt and Ice seal,N1 2HF,51.541602240640600,-0.098531452324317
Fulmarine petrel and Condor,W1F 9SE,51.512607229013300,-0.137570251790840
Fulmarine petrel and Peafowl,E14 3QE,51.488169357322400,-0.021935162254354
Egret and Ground sloth,SE17 2FN,51.483295812800000,-0.092947000000000
River dolphin and Mamo,N9 9ED,51.627067000000000,-0.063800208214932
Dorcopsis and Grackle,N8 9QT,51.575806969087400,-0.125188681410402
Parrotlet and Night heron,EN3 6DG,51.674069699689000,-0.031404008049465
Cuscus and Kākāriki,W1B 4JR,51.512504954464900,-0.140570000000000
Grackle and Perching duck,WC2N 6AY,51.508447000000000,-0.124025000000000
Dolphin and Condor,EN2 6PN,51.649617989477400,-0.091788632060569
Old World warbler and Fulmarine petrel,N10 2BX,51.594553772152100,-0.140298397615883
Tattler and Siskin,N15 4PH,51.582630185943800,-0.066319930382269
Crow and Coati,SE18 5AS,51.494937000000000,0.043459000000000
Triller and Parrotlet,E8 4RE,51.536926087841400,-0.058452305294987
Grouse and Polecat,N16 7EB,51.564792817940800,-0.064912531476066
Moluccan boobook and Quetzal,SE16 7AD,51.492597021026500,-0.041954730321675
Darwin's finches and Civet,SE10 0SB,51.487436195519700,0.015311050102750
Diving bird and Viscacha,E12 5RS,51.554646197440800,0.062985105747124
Gull and Jerboa,NW3 2HR,51.554580348201300,-0.157263122346976
Argus and Eagle,SE1 4PX,51.498343258837700,-0.082769774913596
Towhee and Siskin,SE1 3RS,51.502074215467900,-0.086013621407643
Booted eagles and Fox,SE2 9PW,51.493364270311600,0.105783811503579
Egret and Maya,IG7 6QF,51.625287726721600,0.081084024998518
Masked owl and Bronzewing pigeon,E10 5EB,51.564961218576500,-0.011519606573153
White ibis and Minke whale,WC2A 3ED,51.517215483658000,-0.116583000000000
Goose and Vulture,IG7 6AG,51.621454191800800,0.071576010970002
Guillemot and Black jay,W1S 2QU,51.512940152662100,-0.142024440978581
Mouse and Chipmunk,EN4 9EB,51.650562386401600,-0.149672609964779
Macaw and Piping shrike,SW1V 4LP,51.489923004949700,-0.146330970990535
Civet and Piping shrike,IG10 1HH,51.651150470446300,0.056073885142253
Buzzard and Fulmarine petrel,W1F 8WJ,51.514518204542500,-0.135027779380606
Ice seal and Rabbit,SE16 6AY,51.501505633595600,-0.042307729400693
Tree warbler and Black cockatoo,IG5 0RA,51.595999229734400,0.071904628248902
Duck and Vole,W1W 8RH,51.517165783495900,-0.139229204623559
Herring gull and White ibis,N6 5NR,51.574291412209500,-0.128830024865104
Mink and Tattler,W1A 5NL,51.517133000000000,-0.134244000000000
Guillemot and Herring gull,SE1 5ZF,51.492760984014900,-0.080151672390443
Parrotbill and Capuchin,W1J 8BG,51.507275500010300,-0.144430753958434
Siskin and Tit-tyrant,E3 3LY,51.522348375777700,-0.012237730159077
Old World warbler and Zebra,E17 5PP,51.601070106168700,-0.036310079356710
Ibex and Hawk,E14 3JF,51.496235117164700,-0.007553653325686
Siskin and Crow,E15 4AE,51.542232273432700,0.014053719892720
River dolphin and Pratincole,N14 4AG,51.643944430376500,-0.136052273471958
Rat and Coati,EC1Y 8NL,51.523092675190400,-0.091705773476824
Mink and Ground sloth,N9 0XE,51.624999425709000,-0.044407913606058
Kākāriki and Diving bird,N1P 1ZZ,51.538645000000000,-0.103543000000000
B and Boto,SE17 3AN,51.491601750845700,-0.101188893287102
Piping shrike and Kākāriki,N1 0NA,51.538528020915600,-0.111969333049528
Quetzal and Argus,NW5 1SR,51.557847173464000,-0.143166595772803
Mouse and Darwin's finches,IG7 4HN,51.611552797198100,0.100445700657562
Mockingbird and Grouse,N10 2NZ,51.605639294977400,-0.144712170384718
Condor and Chipmunk,WC1H 8DB,51.527688292848600,-0.123504191772330
Linsang and Ibex,EC1N 2HR,51.517711000000000,-0.109140000000000
White ibis and Marsh harrier,N16 5PY,51.569766028188300,-0.075870208013367
Tree warbler and Cuscus,SE16 2TA,51.487896000000000,-0.047935940017413
Scimitar babbler and Warbler,N9 9AJ,51.628380000000000,-0.073112020448991
Parrotlet and Parrotlet,E1 2HP,51.514994302086100,-0.056891653081218
Snipe and American sparrow,NW1 7QP,51.533439372040200,-0.139618195702833
Vulture and Herring gull,E9 7DG,51.540804099098300,-0.045222000000000
Stint and Flameback,IG4 5PE,51.585864340005300,0.045257660881753
New World blackbird and Crow,E7 8AJ,51.546884135938000,0.040956117611516
Fulmarine petrel and Shearwater,E14 6PF,51.518076889091400,-0.016488413103505
Songlark and Vole,SW1P 3PD,51.498656000000000,-0.128267327027621
Crow and Towhee,NW1W 7WF,51.530786000000000,-0.135404000000000
Goose and Tattler,E8 1BY,51.545760178019700,-0.066084000000000
Stint and Black cockatoo,E17 4NT,51.595684501231200,-0.017642586677200
Chicken and Grosbeak,N7 7PU,51.561648957683600,-0.111487935858131
Skunk and Wallaby,N16 7PP,51.559277967193900,-0.070224849980085
Scimitar babbler and Vole,SE1 7JG,51.497381566242600,-0.111062472619568
Coati and Fox,W1T 5BR,51.523738176767000,-0.139725305037439
Rabbit and Tree warbler,N16 9LT,51.553568954303200,-0.085670334257954
Kestrel and Fox,N22 9EN,51.598604679062000,-0.119687178683901
Ground sloth and Vulture,EN3 6LP,51.675042000000000,-0.028744000000000
Jay and Towhee,N9 7NN,51.640302632126200,-0.054574482815776
Civet and River dolphin,IG3 9PR,51.553774368894000,0.107981424510776
Ice seal and Logrunners,N4 3RT,51.570471775878300,-0.112680773710180
Quetzal and Civet,N6 5RR,51.578204644280500,-0.137115000000000
Bunting and Crow,N15 5QD,51.581920915350900,-0.083382033359972
Darwin's finches and Songlark,IG11 8JY,51.542463000000000,0.069572832386702
Lemming and Mamo,E1 8ZB,51.513581000000000,-0.068052000000000
Wader and Pheasant,EN2 8BJ,51.659441317279500,-0.093674881970627
Goose and Hawk,IG1 3DQ,51.562670581237300,0.061285079696824
Maya and Wader,RM8 2DB,51.552199328032400,0.112553404277844
Civet and Vole,SE1 0QN,51.500603094914300,-0.101174980510750
Boto and Towhee,N5 2UE,51.556514000000000,-0.091389000000000
Rabbit and Condor,W1F 7TS,51.514843240777700,-0.141341610838725
Maya and Tit-tyrant,E3 4YN,51.517189000000000,-0.029256000000000
Treepie and Quetzal,SE1 1GJ,51.504026547612800,-0.092142189363901
Viscacha and Thrasher,E18 1QH,51.588415412590000,0.028323120536597
Towhee and Vulture,E2 8AL,51.532350000000000,-0.077550886922151
Partridge and Kākāriki,SE11 6DY,51.493591602215100,-0.114719776416064
Minke whale and Flameback,E15 1SQ,51.549178411917500,0.005432233424046
Black cockatoo and Francolin,N4 2LU,51.568239996909700,-0.098098402491710
Buzzard and Goose,IG8 9LL,51.604429567472400,0.002233878755079
Old World quail and Fish eagle,E2 2FQ,51.532726000000000,-0.060392000000000
Vole and Petrel,E9 6QF,51.543342698844700,-0.051155811199525
Philippine hawk-owl and Moluccan boobook,IG1 2QJ,51.548422277390800,0.078324249585255
Booted eagles and Piping shrike,E17 6LB,51.586533325814600,-0.034944870004155
Bunting and Chicken,N13 6LH,51.610718258839900,-0.097969936170890
Towhee and Piping shrike,W1F 0DU,51.513211471500000,-0.135888289000000
Jay and Cuscus,IG8 0UH,51.609308697709700,0.020299808779743
Philippine hawk-owl and Diving bird,E6 2BY,51.534866300291900,0.058658795924663
Argus and Grosbeak,E17 5BP,51.599285627416900,-0.022683985890799
White ibis and Asiatic leopard,N21 3LG,51.627723280339900,-0.102994775769009
Capuchin and Logrunners,W1U 1NP,51.515626560042700,-0.150505076957056
Snipe and Hawk,IG3 9LN,51.562431241754700,0.107155400788031
Tahr and Kākāriki,NW1W 8YP,51.530784525000000,-0.135430053900000
Boto and Old World quail,IG9 5HX,51.624510776386300,0.032013055387316
Peafowl and Viscacha,E11 1DX,51.569968265840800,-0.002412090364182
Night heron and Myna,W1F 7DJ,51.513649243328600,-0.139199563034631
Coati and Pheasant,IG5 0PP,51.591316311309100,0.049241766239991
Minke whale and New World blackbird,E1 1JH,51.517743521004400,-0.063808484708025
Flameback and Herring gull,N1 6SH,51.531747206785600,-0.080023000000000
Black cockatoo and Shearwater,W1K 5EZ,51.513360572917400,-0.145956174800959
Eagle and Macaw,E14 9NB,51.497791730223100,-0.018219279912336
Civet and Chicken,N7 1DR,51.565921128000000,-0.122089252600000
Booted eagles and American sparrow,N9 9PX,51.628904623354800,-0.065725406097592
Kangaroo and Songlark,EC3N 3ED,51.512120000000000,-0.078286000000000
Parakeet and Meadowlark,IG10 1TR,51.650087066021500,0.071551322392470
Chickadee and Thicketbird,SE8 3PY,51.491944907928700,-0.033080069663277
Buzzard and Flameback,WC2H 7RR,51.509779209156700,-0.129384874362750
Old World vulture and Fulmarine petrel,E3 4EN,51.521687492845800,-0.022616434200451
Viscacha and Mockingbird,SE16 5HA,51.500568438991800,-0.033054586096111
Perching duck and Old World warbler,SW1P 4LG,51.492900541354400,-0.127151553062618
Lemming and Old World warbler,E7 9JR,51.544568511970500,0.022002585533110
Dorcopsis and Parrotbill,EN1 2HA,51.637857992350700,-0.080879987639268
Badger and Diving bird,N1 5SB,51.537094000000000,-0.079498000000000
Philippine hawk-owl and Guillemot,E14 3UZ,51.494421622830100,-0.005615846063570
Civet and Kākāriki,E18 2DD,51.590914818410000,0.021057182495134
Buzzard and Greenbul,E2 8JP,51.531235307701700,-0.072175146885003
Perching duck and Badger,WC1B 3AX,51.518304000000000,-0.129324000000000
Perching duck and Wader,EN3 6PL,51.671308641249800,-0.042139117587938
Grosbeak and Mouse,N6 4RJ,51.579895788457000,-0.153944393696126
Piping shrike and Peafowl,N17 0TA,51.606392202601900,-0.067101214823044
Rat and Badger,N22 5RF,51.599392702625000,-0.106615885210417
Civet and Black jay,N9 7QP,51.632514499741600,-0.057248643587776
Old World warbler and Duck,N18 1XB,51.614063881181100,-0.081970490991799
Pheasant and Condor,N1 3JF,51.540118338109100,-0.085254231505964
Masked owl and Flameback,IG4 5AG,51.575828515166300,0.047837834260938
Flameback and Eagle,E1 7TS,51.516422046163900,-0.075422000000000
Wallaby and River dolphin,SW1V 2LX,51.491243989902900,-0.138325780230179
Stilt and Badger,IG3 8TG,51.566796372575400,0.109954542095192
Nukupuʻu and Duck,E3 2NW,51.537102451769100,-0.020578491585577
Thicketbird and Songlark,E14 3QZ,51.489831296794800,-0.020235476253207
Petrel and Fish eagle,NW5 2NF,51.547001000000000,-0.141923103721402
Linsang and Stint,E14 6JP,51.513855005986700,-0.024757210430739
Pratincole and New World blackbird,EN1 3TT,51.653473412941300,-0.078413365198308
Ice seal and Darwin's finches,EN2 0TJ,51.667040582044100,-0.091504884639423
Coati and Vole,SE1 2BH,51.501101463764000,-0.072193577382726
Wallaby and Tahr,N7 9PX,51.546973492709200,-0.126085738226694
Buzzard and Coati,E4 6QA,51.625275966663800,-0.004202365431721
Buzzard and Siskin,IG2 6AN,51.571748881021400,0.077843998817950
Siskin and Kākāriki,N6 5DP,51.575413624596400,-0.132666069956591
Mole and Piping shrike,W1T 6EP,51.522813530975800,-0.140959437344710
Condor and Macaw,W1G 6AP,51.521429185178200,-0.148495000000000
Kestrel and American sparrow,SE1P 4NJ,51.492762382100000,-0.080151676700000
Chickadee and Solitaire,N1C 4AG,51.532939309600000,-0.125061773100000
Pheasant and Kestrel,E2 9JF,51.531270535014000,-0.047663256905765
Hawk and Nukupuʻu,IG8 0EX,51.610376144118600,0.029836334847011
Bronzewing pigeon and Thrasher,N15 5BS,51.584876825400000,-0.079709000000000
White ibis and Old World quail,E14 7GT,51.512192000000000,-0.035984000000000
Petrel and Pheasant,EC1R 3AX,51.523189894428400,-0.107140446234341
Rabbit and Mole,EN3 6XZ,51.667683684812700,-0.012635399934604
Goose and Diving bird,N11 1XZ,51.609244000000000,-0.110712000000000
Chickadee and Thrasher,SE1 9GD,51.507728000000000,-0.105047000000000
Songlark and Marsh harrier,EC1R 0AF,51.524756929646300,-0.105057258165951
Buzzard and Bronzewing pigeon,W1S 4AA,51.508586000000000,-0.140775000000000
Kite and Triller,EC1A 7BR,51.518326000000000,-0.099763000000000
Herring gull and Magpie,WC1A 2SL,51.518220328873000,-0.123576269351568
Old World vulture and Dorcopsis,W1B 5AB,51.510272650011300,-0.136399000000000
Parakeet and Darwin's finches,E15 1BE,51.544508694959200,0.002129000000000
Warbler and Buzzard,N8 9TN,51.579837982930700,-0.123088744772123
Kangaroo and Lemming,N19 5NQ,51.568500850142000,-0.140178525691807
Armadillo and Skunk,E4 6NA,51.616932953811700,0.008331105128890
Black cockatoo and Grosbeak,N9 0NW,51.622295399289800,-0.062467044167644
Maya and Parakeet,W1W 7PE,51.517707114119800,-0.140475525290443
Asiatic leopard and Logrunners,E8 2BG,51.553420555769300,-0.066203003538189
Minke whale and Pratincole,SE16 3QT,51.495704905725000,-0.072784000000000
Treepie and Black jay,WC1X 0JN,51.528016000000000,-0.110199000000000
Stint and Kangaroo,SW1V 3DJ,51.487202834148900,-0.140939036919865
Armadillo and Solitaire,N4 3QN,51.567324585600000,-0.114369461619700
Goose and Mole,N8 0DW,51.587855700751700,-0.111455000000000
Night heron and Mockingbird,N8 9TD,51.579986046602700,-0.119979508407960
Capuchin and Viscacha,IG1 8NY,51.558071000000000,0.072400000000000
Grosbeak and Badger,N14 4TD,51.643493318716500,-0.118481047187370
