name,postcode,lat,lon
Parrotbill and Petrel,TS25 5QY,54.676392245263300,-1.224158236359150
Diving bird and Marmoset,TS25 1XN,54.669697000000000,-1.190952913108190
Crow and Old World vulture,TS27 4PZ,54.735727986746100,-1.298691030810670
B and Dolphin,TS25 2FE,54.648973214100000,-1.233607205100000
Viscacha and Snipe,TS26 8NG,54.689468301536900,-1.234069998573050
Ground sloth and Badger,SR8 5PE,54.761261287931000,-1.329237505256900
Perching duck and Crow,SR8 5LE,54.758523936074300,-1.323408855272890
Civet and Badger,TS22 5HB,54.612118174964600,-1.302582268605680
Stilt and River dolphin,TS24 4SS,54.696390374482200,-1.183451321651800
Ground sloth and Snipe,TS26 8HE,54.687850807336600,-1.221395712393990
Jackal and Chipmunk,TS27 4LG,54.746796532648800,-1.290421688196020
Old World quail and Grackle,TS23 2RY,54.607009729085900,-1.297250985261770
Mink and Egret,TS25 2BS,54.650980000000000,-1.200930000000000
Puffleg and B,TS27 3BQ,54.704607754602800,-1.298870899274890
Marmoset and Towhee,SR8 2HR,54.769201000000000,-1.358315494226840
Old World vulture and Guillemot,TS24 0LG,54.697927972861500,-1.183575616770760
Stilt and Night heron,SR8 2RD,54.767721539785700,-1.364071141627610
Hawaiian honeycreeper and Cuscus,TS25 2JF,54.652237000000000,-1.235519280785190
Eagle and Tattler,TS24 9DP,54.703114157988800,-1.231687000000000
Peafowl and Linsang,TS27 4LE,54.747730000000000,-1.291555000000000
Polecat and Capuchin,TS22 5AR,54.610455000000000,-1.305367000000000
Snipe and Tahr,TS25 5AJ,54.673034124612300,-1.217631820664980
Logrunners and Towhee,TS25 4HS,54.669276745202000,-1.238341000000000
River dolphin and Wader,DH6 2ND,54.763686334529000,-1.382909000000000
Ice seal and Songlark,TS27 3RB,54.712187276619000,-1.251367867775950
Pheasant and Jackal,TS24 9PQ,54.712046573811900,-1.240303479905850
Songlark and Elephant,TS25 4NG,54.668858329340100,-1.237868892940520
Old World quail and Argus,TS25 1NA,54.662453137358300,-1.218501717955400
Ibex and Chipmunk,TS24 4EH,54.681569603579600,-1.210379621591060
Duck and Cloud rat,TS22 5TZ,54.636574576057900,-1.347744114881890
Triller and Partridge,TS25 3AN,54.657444310434800,-1.230657527143880
Elephant and Civet,TS23 3NS,54.617124887147300,-1.276697825801170
Gull and Pheasant,TS23 3PN,54.622370496335100,-1.274730819994770
Buzzard and Perching duck,SR8 3UD,54.778700000000000,-1.343112000000000
Tit-tyrant and Towhee,TS24 8EH,54.692663605177800,-1.219348795497650
Prion and Parrotbill,TS25 1LS,54.661716382096000,-1.216576000000000
Solitaire and Vulture,SR8 4QH,54.762673000000000,-1.318068262108100
Grouse and Eagle,TS26 8SA,54.689890093999800,-1.219882924916300
Philippine hawk-owl and Dolphin,TS26 9QN,54.683864400828700,-1.221983848137320
Asiatic leopard and Black jay,TS26 9PY,54.684117439905800,-1.229238193460670
Ground sloth and Fulmarine petrel,TS23 3PD,54.617311269326900,-1.273303175853610
Perching duck and Gull,TS24 7DG,54.685921106324000,-1.207906367640650
Diving bird and Mamo,TS24 0HY,54.696122261501600,-1.182339573056380
Greenbul and Old World quail,TS25 5DE,54.666547180337500,-1.219275889694570
Kākāriki and Gull,SR8 4AR,54.765533344108000,-1.320152473481200
White ibis and Mamo,TS26 0DW,54.682168000000000,-1.234859000000000
Old World warbler and Bunting,TS25 2PJ,54.655606683355800,-1.222942126041530
Polecat and Elephant,SR8 1BA,54.748710000000000,-1.344389000000000
Goose and Crow,TS24 0JE,54.695371019264700,-1.182882198646560
Bunting and Recurvebill,TS23 3JN,54.613553351074400,-1.277581800695310
Old World warbler and Myna,TS23 4HS,54.615926506948400,-1.256882684918270
Solitaire and Condor,SR8 2JD,54.760359115020200,-1.360208258540910
Chickadee and Grackle,TS24 8HP,54.695356585654700,-1.225875629431580
Ice seal and Flameback,TS24 0NJ,54.699861773186700,-1.182481631858160
Treepie and Wader,TS25 3AR,54.658123906202800,-1.228707045803080
Cloud rat and Ibex,TS27 4SR,54.736886257695500,-1.353511398269070
Pheasant and Darwin's finches,TS22 5LW,54.625426448674000,-1.303903582809650
Philippine hawk-owl and Warbler,TS25 1BW,54.660447655148500,-1.190899986974180
Mockingbird and Cuscus,TS25 4EF,54.662408544082500,-1.236888894541480
Siskin and Vulture,TS25 2FA,54.653180000000000,-1.196375000000000
Ground sloth and Bronzewing pigeon,TS26 0XA,54.695276000000000,-1.241366505163880
Guillemot and Bunting,TS27 3JE,54.708781577888000,-1.248512732340280
Tattler and Hawaiian honeycreeper,SR8 5JP,54.768113224893500,-1.341465416126080
Shearwater and Puffleg,SR8 5HL,54.763314289858500,-1.338155314264940
Tit-tyrant and Towhee,SR8 2DZ,54.770428066926500,-1.352464034927990
Songlark and Maya,TS25 2QE,54.654255450233800,-1.228067300410010
Petrel and Quetzal,TS23 2BG,54.614049025431900,-1.289837000000000
Shearwater and Myna,TS23 3AU,54.611559369969600,-1.280791201125120
Fish eagle and Parrotlet,TS25 3NN,54.658333405408900,-1.247738596561480
Jerboa and Meadowlark,TS22 5ES,54.609480172699100,-1.301544000000000
Triller and Zebra,TS25 3JW,54.660467988146000,-1.236987260864960
Piping shrike and Chicken,TS24 0NY,54.696639674807400,-1.183104966998810
Songlark and Night heron,TS26 9NN,54.682403054822800,-1.232403766431220
Thrasher and Linsang,SR8 4TW,54.776913443988200,-1.330377843431000
Pheasant and American sparrow,TS25 5PN,54.674422265057400,-1.232337153608260
Cloud rat and B,TS25 1FA,54.663311000000000,-1.194082000000000
Gull and Vole,TS27 3AZ,54.707228028854400,-1.275127000000000
Tit-tyrant and Meadowlark,TS24 4SE,54.696390374482200,-1.183451321651800
Treepie and Mamo,TS25 3LF,54.660895293340600,-1.244947390845390
Egret and Herring gull,TS22 5HS,54.614991022564400,-1.306760481468110
Eagle and Prion,TS27 4PB,54.743368633665100,-1.302441000000000
Boto and Grosbeak,SR8 5LQ,54.758366090631200,-1.325726848192840
Mockingbird and Myna,TS25 1PY,54.673823455522900,-1.210467848111100
Kangaroo and Piping shrike,TS28 5AJ,54.724791783226500,-1.379648520004200
Black jay and Meadowlark,TS26 8NP,54.690228668178900,-1.226438604760300
Chipmunk and Goose,TS25 1EX,54.664273946245400,-1.193273529060790
Scimitar babbler and Marsh harrier,TS24 8JF,54.697926936689300,-1.227300762057190
Buzzard and Goose,TS25 3PL,54.658896234489400,-1.241434616498750
Crow and Mole,SR8 1FB,54.754813061909000,-1.341494757298340
New World blackbird and Scimitar babbler,SR8 2AZ,54.764393899764100,-1.346670059214570
Viscacha and Songlark,TS10 5NE,54.605976117201200,-1.093038282983290
Booted eagles and Piping shrike,SR8 1NT,54.760145000000000,-1.336933000000000
River dolphin and Dolphin,TS27 3EX,54.683790921118800,-1.326823385092500
Meadowlark and American sparrow,TS26 0DS,54.686029000000000,-1.237128000000000
Shearwater and Ibex,TS22 5UF,54.643193000000000,-1.370662000000000
Buzzard and Condor,TS23 3AY,54.612113560765500,-1.280285957441320
Meadowlark and Flameback,TS28 5DH,54.723039595128600,-1.374443082905860
Boto and Condor,TS26 0TT,54.696419076349200,-1.244722567773280
Parrotlet and Night heron,TS24 0TX,54.703044701908200,-1.207076277590270
Boto and Chicken,TS24 8NA,54.698400017240400,-1.218556000000000
Gull and Hawk,TS27 4AW,54.742439013982700,-1.278412937478390
Treepie and Eagle,TS25 4AA,54.664802002723600,-1.237355666981040
Recurvebill and Linsang,TS26 9LZ,54.683190807977800,-1.233335061570170
Pitohui and Condor,TS25 5PT,54.672804000000000,-1.233605338801900
Darwin's finches and Grackle,TS24 7LA,54.681734284637700,-1.203955208243200
Thrasher and River dolphin,SR8 1DU,54.754404175070200,-1.342324894166870
Grosbeak and Triller,SR8 5RE,54.757347920943300,-1.325246517090200
Rat and Perching duck,TS25 4HP,54.669222653142700,-1.237210847534850
Myna and Bunting,TS25 5PY,54.673314551919000,-1.231970367612490
Grouse and Moluccan boobook,TS23 2LP,54.607048520561900,-1.291568541330360
Mockingbird and Badger,TS25 1QB,54.673618769188700,-1.213542221559930
Shearwater and Scimitar babbler,SR8 1JR,54.750174313444600,-1.346184247015340
Crow and Tit-tyrant,TS26 9PD,54.680931713381900,-1.229965449750470
Stint and Mink,TS25 2HW,54.639694095939500,-1.237608587204200
Kite and Jerboa,TS27 4BY,54.738024015050900,-1.277994368907400
Jay and Thrasher,TS27 4HX,54.744583530201600,-1.282398161957770
Perching duck and Wader,TS25 3AG,54.657450759136900,-1.227433215905270
Kite and Pitohui,TS24 7EN,54.686298230643600,-1.209233052215240
American sparrow and Petrel,TS27 3JR,54.708280545493200,-1.245976668714720
Armadillo and Songlark,TS27 4RR,54.717845179940200,-1.345477996588780
Boto and Ground sloth,TS26 8RP,54.689650755715600,-1.217607074585070
Vulture and Grackle,TS26 8PE,54.686723003674900,-1.219307650767830
Hawaiian honeycreeper and Partridge,TS28 5PH,54.738361240624200,-1.374300318648740
Pratincole and Egret,TS22 5PR,54.659032699369400,-1.260607414582680
Tit-tyrant and Macaw,TS24 7RG,54.684811000000000,-1.212568845198170
Zebra and Mink,TS24 9SF,54.714414757284900,-1.243922559082570
Parrotlet and Coati,TS24 0RE,54.701571023740500,-1.215391490451180
Grackle and Pratincole,TS23 3HD,54.617862122424100,-1.285836861439230
Parrotbill and Mole,TS26 9PF,54.679233604422400,-1.228617256950720
Linsang and Solitaire,TS25 2HB,54.634209335502100,-1.230073567280010
Wader and Snipe,SR8 1LQ,54.749808257578200,-1.343300438654950
Grouse and Thrasher,SR8 2NH,54.752417891673700,-1.353994314593900
Jackal and Rat,TS22 5SF,54.642705000000000,-1.351363000000000
B and Parrotbill,TS27 3EU,54.689290080686600,-1.321658000000000
Grouse and Diving bird,TS26 9QW,54.683871746303800,-1.225939008428470
Black jay and Fish eagle,TS25 4RD,54.662614630075000,-1.235365751965120
Guillemot and Peafowl,TS25 3RJ,54.658416439561000,-1.249535208706400
Grosbeak and Pitohui,TS25 2NT,54.653876262104100,-1.234878786440890
Partridge and Old World warbler,TS23 3LW,54.621404378816200,-1.270984619946280
Old World warbler and American sparrow,TS25 3LB,54.660681208545800,-1.236905000000000
Linsang and Hawk,TS23 3EA,54.615525747402100,-1.273784041782360
Herring gull and Stint,TS27 3QT,54.713865994967900,-1.251073071179570
Maya and Grosbeak,TS25 1HJ,54.658808853410500,-1.213626678927600
Chickadee and Perching duck,SR8 2HY,54.763318000000000,-1.370838000000000
Solitaire and Cloud rat,TS27 3PA,54.710103878045400,-1.242931784415870
Jerboa and Mockingbird,SR8 4JH,54.761524905951700,-1.315293273319150
Tahr and B,TS26 0HA,54.686497130612500,-1.234622309411950
Maya and Cuscus,TS26 8JY,54.686667931372300,-1.227545606044980
Vulture and Dorcopsis,TS26 0GB,54.685271175987900,-1.248388553482400
Puffleg and Black jay,TS26 8JF,54.685935667633100,-1.224053847194460
Crow and Treepie,TS23 2HX,54.611033319270100,-1.284531924904000
Marsh harrier and Condor,TS24 4FZ,54.681581000000000,-1.210394000000000
Parakeet and Egret,TS24 0QJ,54.694648240383500,-1.179654051988280
Meadowlark and Wallaby,TS26 9LP,54.682115650470000,-1.225367507481250
Asiatic leopard and Warbler,TS24 0SZ,54.699828042300000,-1.188161575313160
Warbler and Chicken,TS27 4PT,54.736907162455900,-1.313161228348000
Thrasher and Eagle,TS25 3BS,54.660372655212600,-1.223393773596330
Treepie and Zebra,TS22 5SX,54.626061000000000,-1.333604816979160
Thicketbird and American sparrow,TS23 2EW,54.612164672527100,-1.296635765873820
Jerboa and Eagle,TS24 8QZ,54.698177248371400,-1.229918284179940
Pheasant and Old World vulture,TS23 3UR,54.621358507369300,-1.285915032211160
Kite and Siskin,TS23 3DY,54.614965237441100,-1.271734552445230
Fox and Chickadee,TS23 3BG,54.613093405303700,-1.280330610292260
Guillemot and Dolphin,TS27 4JD,54.743657989570900,-1.282414518539270
Armadillo and Tit-tyrant,TS24 9DA,54.702268301717100,-1.224595733515270
Meadowlark and Nukupuʻu,TS23 3AG,54.611307591168300,-1.282282036453640
Vole and Mink,TS26 0WH,54.705095993651800,-1.244018244261910
Prion and Macaw,TS25 1RS,54.659105713802600,-1.220627650698650
Herring gull and Crow,SR8 3UL,54.775975318224700,-1.378726021625100
Booted eagles and Stilt,TS25 3RD,54.657724936139000,-1.251067045483630
Civet and Cloud rat,TS27 3JP,54.708388765163700,-1.244593353855910
Thrasher and Shearwater,TS22 5ER,54.609178482081800,-1.302415752881330
Jackal and Francolin,TS26 9BL,54.678297336632500,-1.224137432674780
Ibex and Egret,SR8 4SQ,54.759589721879900,-1.309995765516830
Pheasant and Puffleg,TS25 4NU,54.671384411443700,-1.243729470920940
Kangaroo and Puffleg,TS24 9LE,54.706302195934400,-1.214632857092980
Dolphin and Capuchin,TS22 5RX,54.637990336073000,-1.359325838930720
Badger and Grouse,TS28 5BF,54.732793250909400,-1.378532454898480
Jerboa and Grouse,TS27 4SJ,54.736012366200800,-1.341411315643340
Coati and Stint,SR8 2EU,54.769577090146000,-1.354669266013290
Grouse and Fulmarine petrel,SR8 2JH,54.764726365349400,-1.373940457098320
Diving bird and Grackle,TS26 8LH,54.688123236281600,-1.227455927401160
Civet and Vole,TS24 7NB,54.682309900820900,-1.201291668150670
Buzzard and New World blackbird,TS25 2QB,54.653853058491700,-1.226974457277500
Old World vulture and Stilt,TS26 9AU,54.679260699929300,-1.220210743639510
Gull and Francolin,TS23 2JB,54.610655598475100,-1.286009437973320
Old World quail and Shearwater,TS25 1RL,54.677549000000000,-1.216648674136840
Tit-tyrant and Tahr,TS24 7EQ,54.685740416457800,-1.209352000000000
Old World vulture and Cuscus,TS26 0XW,54.696430117408100,-1.240734814711410
Jay and Ibex,TS23 3SQ,54.622705983171600,-1.284296215976290
Greenbul and Ice seal,TS22 5PD,54.646502000000000,-1.288450000000000
Thrasher and Mouse,TS25 2LB,54.652717156978100,-1.246385383783080
American sparrow and Snipe,TS26 0HF,54.689581615984200,-1.234936601694370
Parakeet and Stint,TS23 3TR,54.625934809045300,-1.281683892946880
Kestrel and Linsang,TS24 9JA,54.705129600576000,-1.223734178791220
American sparrow and Prion,TS27 4NE,54.751043000000000,-1.294154000000000
Hawk and Myna,TS26 8EN,54.687914925209200,-1.224388403050470
Marsh harrier and Thrasher,TS22 5HE,54.612187490634000,-1.303695904502690
Polecat and Boto,SR8 1JS,54.750536763397400,-1.346737717238780
Eagle and Old World warbler,TS23 3UT,54.621795856954800,-1.286929536733490
Fulmarine petrel and Skunk,TS23 3GR,54.621084085824200,-1.291216394863520
Pratincole and Hawk,TS24 0PR,54.695989055988200,-1.178587461121050
Duck and Coati,DH6 2QT,54.761210325389000,-1.380506117063000
Argus and Diving bird,TS25 1SL,54.676389567253400,-1.215365174295650
Puffleg and Goose,TS26 9HA,54.684321600221400,-1.219012475722270
Wader and Condor,TS24 9EU,54.707601347241900,-1.219697000000000
Jay and Mink,TS25 3RF,54.658194000000000,-1.249713316672910
Eagle and Marsh harrier,TS28 5LZ,54.715307000000000,-1.385863000000000
Badger and Old World vulture,TS28 5AR,54.728308226103000,-1.381924000340470
Booted eagles and Civet,TS28 5LW,54.727679519901000,-1.381995673908550
Elephant and Gull,TS26 0DF,54.706454381631500,-1.247127942934130
Darwin's finches and Greenbul,TS27 4PA,54.745637560758600,-1.301316089785290
Bunting and Condor,TS23 3XE,54.621676706232800,-1.285011201701840
Condor and Darwin's finches,TS26 0HZ,54.692268005066000,-1.231984932173200
Polecat and Minke whale,TS24 0WG,54.688820559241000,-1.199193726091290
Chipmunk and Herring gull,TS26 9LF,54.680912867505300,-1.217201195188260
Old World warbler and Jerboa,SR8 4QY,54.763189910109100,-1.322134385472100
White ibis and Meadowlark,TS24 9PN,54.712765582997700,-1.237449518439460
Marsh harrier and Kite,TS22 5TD,54.627794947684900,-1.330288297710190
Eagle and Gull,TS26 9HB,54.684744431926000,-1.219081917330820
Mouse and Thicketbird,TS25 5HH,54.663854183189900,-1.225358323218960
New World blackbird and Grackle,TS25 5HZ,54.668919848154900,-1.229122767420760
Stint and Vulture,SR8 1PF,54.749039487861400,-1.337440359900710
Mink and Coati,SR8 2DP,54.768658000000000,-1.347266591389300
Shearwater and Grackle,SR8 4DL,54.764956308915500,-1.313432511410830
Fish eagle and Piping shrike,TS23 2JP,54.609092575205300,-1.286129679354350
Siskin and B,TS25 2ES,54.641842769997800,-1.238745000000000
Maya and Bronzewing pigeon,TS26 0QJ,54.687849719257700,-1.252637877211710
B and Herring gull,TS22 5NE,54.620775000000000,-1.329892000000000
Ice seal and Tattler,TS24 0PW,54.695884525698100,-1.180404899703260
Kākāriki and Booted eagles,TS26 0TJ,54.697064546983100,-1.238721408540710
Coati and Towhee,TS23 3RP,54.623160005351700,-1.279022393964440
Buzzard and Stint,TS24 7SE,54.685117678182300,-1.215833000000000
Black jay and Francolin,SR8 4EX,54.761941579169400,-1.307951021690430
Hawaiian honeycreeper and Songlark,TS24 8LG,54.698148713226200,-1.226846572456700
Grosbeak and Marsh harrier,TS26 0PY,54.692717946541100,-1.252207131423060
Egret and Chipmunk,TS25 5AG,54.673848028191500,-1.217026906461690
Pheasant and Petrel,SR8 2LZ,54.750777788877200,-1.359924244750030
Darwin's finches and Chicken,TS26 8JE,54.685526872678700,-1.221967574305130
Bronzewing pigeon and Jerboa,SR8 4ES,54.762040731765300,-1.309581110869930
Thrasher and Stilt,TS27 4LY,54.749310701324400,-1.294681191330650
Old World vulture and Skunk,DH6 2NA,54.763163413806900,-1.384284000000000
Maya and Old World quail,TS24 0SR,54.695409028487200,-1.186265000000000
Recurvebill and Darwin's finches,SR8 5PG,54.759651572824900,-1.327180000000000
Petrel and Snipe,TS23 3PU,54.621154315416400,-1.277245859895690
Asiatic leopard and Gull,TS22 5AT,54.610765309264100,-1.308008984006870
Asiatic leopard and Greenbul,TS25 5EZ,54.662716268851200,-1.223085534722190
Philippine hawk-owl and Tattler,TS27 4PH,54.736522106408500,-1.318184248280100
Argus and Mole,TS26 9ND,54.684315898972200,-1.233608577067360
Tit-tyrant and Triller,TS26 9HP,54.682311670442400,-1.218368000000000
Mink and Vulture,TS23 4HU,54.614876606973600,-1.260076169160310
Black jay and Linsang,TS21 3JG,54.613386000000000,-1.378432000000000
Argus and Tattler,TS28 5BB,54.732721511672600,-1.380319441091350
Piping shrike and Fish eagle,TS26 9HY,54.682545080681600,-1.222257238088310
Wallaby and Capuchin,TS26 0US,54.702800436773100,-1.236800000000000
Pitohui and Guillemot,TS25 3JP,54.660101888533600,-1.238574000000000
Zebra and B,TS24 0BN,54.703707718114500,-1.206768496439220
Egret and Night heron,SR8 2DQ,54.770043495929100,-1.347775949783120
Grouse and Fish eagle,TS24 9QR,54.711422426836800,-1.241091217337060
Towhee and American sparrow,TS26 9EL,54.682977000000000,-1.219457000000000
Grosbeak and Rabbit,TS26 0RH,54.689900998906500,-1.238560700512420
Civet and Dolphin,TS25 5AD,54.674174890834700,-1.216152211242000
Shearwater and Grouse,SR8 4TN,54.774444016709700,-1.329097244992790
Mockingbird and Lemming,TS26 9JN,54.681614480368400,-1.220088094290630
Night heron and Bunting,TS28 5DN,54.722154552086000,-1.371863958363550
Jerboa and Puffleg,TS25 5RL,54.674834463298700,-1.222280498430970
Snipe and Bunting,TS24 7RF,54.684661000000000,-1.212988000000000
Elephant and Shearwater,TS25 5NX,54.674117605657000,-1.226822314664830
Magpie and Old World vulture,TS26 0BE,54.682401000000000,-1.239027000000000
Tit-tyrant and Lemming,TS24 7QN,54.680276000000000,-1.214515000000000
Piping shrike and Mouse,SR8 4SE,54.762845157908800,-1.313561478488910
Mink and Parrotbill,TS23 4DA,54.607366970624900,-1.269532391377630
Macaw and Thrasher,SR8 5NA,54.764309482104000,-1.329544573580050
Tit-tyrant and Badger,TS25 1HE,54.658001054583500,-1.217951589730880
Ibex and Black cockatoo,SR8 1QW,54.747496209357000,-1.361358605674800
Badger and Pheasant,TS27 3AU,54.715843214487600,-1.289937608333200
Quetzal and Scimitar babbler,TS25 2PU,54.656073930813400,-1.225738784257240
Zebra and Jay,TS26 0UE,54.699515414018900,-1.234035970483560
Vulture and Myna,TS27 4DE,54.740627016422300,-1.278973242739470
Civet and Wader,SR8 5SD,54.757740950703400,-1.323204360797960
Wader and Songlark,TS26 0TB,54.696216664994700,-1.238225259896990
Skunk and Parrotbill,TS23 3ET,54.617769089043300,-1.283778884135210
Parrotbill and Herring gull,TS23 3JY,54.611008091216600,-1.277255265033870
Darwin's finches and Flameback,TS24 7AQ,54.685391257039400,-1.202053445411860
Magpie and Masked owl,TS27 4NN,54.753145730236700,-1.297380207993020
Francolin and Night heron,TS24 9AF,54.700963180808000,-1.224279232469300
Minke whale and Jay,TS24 8LB,54.695946309655700,-1.219735748037030
Partridge and Chickadee,TS22 5BW,54.615306657150700,-1.310099834902280
Triller and Civet,TS26 0QW,54.688495071812000,-1.253820502242000
Hawaiian honeycreeper and Capuchin,TS24 9HR,54.707450577343200,-1.221299789862490
Mockingbird and Peafowl,SR8 1PH,54.749060083593300,-1.331365539793150
Dorcopsis and Gull,TS27 4SW,54.736967499902000,-1.351894868909020
Piping shrike and Nukupuʻu,TS26 9ET,54.683623095665100,-1.217893000000000
Buzzard and Stint,TS23 2TQ,54.619086718395200,-1.297245000000000
Boto and Treepie,SR8 1EZ,54.752344890381000,-1.345403511713850
Old World quail and Triller,TS25 1DL,54.665680761663700,-1.189958791827200
Herring gull and Recurvebill,SR8 5DR,54.768959892855600,-1.336866374955480
Goose and Black cockatoo,SR8 1PZ,54.745992857324600,-1.357467540706900
Vulture and Scimitar babbler,TS25 5RZ,54.675310543133400,-1.219448997267900
Pratincole and Solitaire,TS25 3EB,54.657115425954500,-1.232647838446300
Linsang and Masked owl,TS24 7JZ,54.685961321927000,-1.205811491663550
Chicken and Booted eagles,TS23 3DR,54.615153344949100,-1.274626848355730
Capuchin and Tree warbler,TS24 8AH,54.686752131275900,-1.214079517417600
Scimitar babbler and Quetzal,TS23 3DP,54.614545716894300,-1.276712580106850
Tree warbler and Puffleg,TS22 5AU,54.609227402788100,-1.306239092815380
Coati and Warbler,TS27 3HH,54.655376000000000,-1.303035000000000
B and Buzzard,TS26 9PN,54.685112397628700,-1.223200904143790
Jay and Egret,TS28 5PR,54.736708855764000,-1.374527675367620
Mamo and Logrunners,TS23 3SU,54.624763977814600,-1.287342297265690
Chicken and Buzzard,TS23 3UD,54.617108270209400,-1.290604107597100
Gull and Chicken,TS22 5SR,54.626321826998400,-1.330420910408090
Old World vulture and Thicketbird,TS24 8HF,54.694204067321000,-1.219924315712020
Treepie and Old World vulture,TS25 4FB,54.661548000000000,-1.239694000000000
Scimitar babbler and Crow,TS25 2AQ,54.655833709167500,-1.199826823303940
Myna and Grouse,TS25 1DB,54.657168877484100,-1.187089901192210
Old World warbler and Siskin,TS25 3EA,54.657398107740800,-1.233293550586140
American sparrow and Fish eagle,TS28 5AW,54.725206855790200,-1.381738273643200
Nukupuʻu and White ibis,TS25 3BT,54.660163099700300,-1.222948212625660
Myna and Tattler,TS25 4EY,54.662934793077700,-1.243421293945360
Pheasant and Duck,TS25 2AT,54.656892876867200,-1.198271444939360
Dolphin and Mink,TS24 9LP,54.708934291418100,-1.231297644137740
Minke whale and Gull,TS23 3UY,54.622938357780300,-1.287126391511810
Magpie and Perching duck,TS22 5LT,54.621938566966200,-1.300617843827110
Diving bird and Pitohui,TS26 9PL,54.685197044887600,-1.223788724864820
Vole and Tattler,TS25 3JG,54.659037475341300,-1.235308892191980
Stint and Rabbit,TS24 9AL,54.701691227218500,-1.224296380903540
Chickadee and Parrotlet,SR8 5UD,54.753535403377700,-1.332985410085900
Black cockatoo and Old World vulture,TS25 3DR,54.656871414378800,-1.226777673689260
Diving bird and Perching duck,TS25 4QA,54.667994713815600,-1.244908782015950
Darwin's finches and American sparrow,TS25 5PH,54.674959193018900,-1.230559164698500
Ice seal and Grosbeak,TS23 2AF,54.614033502152800,-1.296557097563030
Lemming and Philippine hawk-owl,TS24 0PB,54.698720677712800,-1.181185649243450
Armadillo and Marmoset,SR8 1EB,54.758861291951500,-1.334032265543570
Badger and Ground sloth,TS28 5DU,54.728943888818100,-1.377939156987720
Pratincole and Marmoset,TS27 4DD,54.739890941222000,-1.277603935083140
Philippine hawk-owl and Night heron,TS23 2NF,54.607223468208000,-1.293825839557100
Moluccan boobook and Buzzard,TS25 3PJ,54.659454619838800,-1.241625739095770
Viscacha and Meadowlark,TS26 9QH,54.684700611209900,-1.230499073812890
Polecat and Condor,TS24 9HU,54.708524663982500,-1.222024197176480
Meadowlark and Viscacha,TS26 0JG,54.693942255346000,-1.233830615777020
Jay and Tree warbler,TS23 3BY,54.612778983534300,-1.277332284974770
Shearwater and Viscacha,SR8 4HF,54.761307884358100,-1.305568594059000
Old World vulture and Mink,TS24 9DJ,54.703099213616100,-1.223835010624360
Warbler and Partridge,TS25 2PF,54.654966646315500,-1.193752352440980
Argus and Grosbeak,TS27 4EU,54.749799000000000,-1.291954000000000
Prion and Thrasher,TS22 5EE,54.616140720096500,-1.314545443119020
Coati and Moluccan boobook,SR8 4BN,54.769734178942800,-1.325708894308810
Goose and Vole,TS24 0HF,54.699738021528500,-1.186952000000000
Towhee and White ibis,TS24 0HN,54.703631872742700,-1.197970958577550
Booted eagles and Myna,SR8 4QZ,54.763089363922700,-1.323441521748090
Stilt and Elephant,SR8 5PU,54.761221508317600,-1.330170588407110
Maya and Piping shrike,TS23 3TH,54.625626960777800,-1.279784198968730
Asiatic leopard and Meadowlark,TS22 5RH,54.614468906147900,-1.317685907973380
Peafowl and Kangaroo,DH6 2PF,54.758707000000000,-1.384693000000000
Viscacha and Black cockatoo,TS26 8JP,54.686948442541600,-1.230673735231240
Tree warbler and Mockingbird,TS25 2HL,54.642083766049600,-1.236045373143170
Chicken and Songlark,TS22 5SZ,54.626240689065500,-1.335270276063370
Vulture and Duck,TS27 4EP,54.748380662095500,-1.289306512770390
Masked owl and Chickadee,SR8 5AN,54.771910000000000,-1.333834000000000
Kangaroo and Polecat,TS27 3HX,54.673430457779100,-1.278628642045380
Logrunners and Parrotlet,TS23 3GX,54.620341415024700,-1.291771334606860
Jay and Badger,DH6 2XT,54.760635852416500,-1.383560918231740
Tahr and Triller,TS25 2AB,54.658330089798900,-1.198165650526300
Wader and Marmoset,TS23 3EZ,54.618986228611000,-1.284438908837630
Cuscus and Triller,TS26 0XS,54.693293814717600,-1.242189661719190
Perching duck and Kestrel,TS25 4DB,54.661213359777400,-1.242631647912480
Bunting and Fox,TS26 8AL,54.687755656706400,-1.217783127723360
Thicketbird and Macaw,TS24 0BP,54.705543301684300,-1.209867580829900
Guillemot and Philippine hawk-owl,TS26 0SN,54.699421371765500,-1.247723642922900
Snipe and Recurvebill,TS24 0UX,54.692962000000000,-1.204325000000000
Snipe and Ground sloth,TS22 5TF,54.628921025846300,-1.329154528822470
Cloud rat and Crow,SR8 4NT,54.766407932966900,-1.320666261107960
Old World quail and Flameback,TS25 1XF,54.666994461332300,-1.191545135836650
Kite and Asiatic leopard,SR8 4BY,54.766082280110900,-1.312309954221790
Piping shrike and Vole,TS24 0LY,54.700202512824000,-1.190404102334970
Songlark and Kākāriki,SR8 4RB,54.762091926750400,-1.320241212475160
Triller and Piping shrike,SR8 2BL,54.761821092296600,-1.339547244906560
Night heron and Coati,TS23 2HW,54.611693252902200,-1.283668763970860
Macaw and Maya,TS28 5LA,54.737715048789100,-1.374465586883610
Quetzal and Eagle,TS25 1JX,54.664845364425100,-1.218765885469080
Dorcopsis and Mouse,TS23 2TA,54.616411117215800,-1.296037000000000
Chipmunk and Argus,TS24 0TD,54.700904737262700,-1.209662871639150
Thrasher and Cloud rat,TS24 8HZ,54.696822304872500,-1.221798078250040
Diving bird and B,SR8 4RP,54.761875402826200,-1.323306354700940
Linsang and Siskin,SR8 1NP,54.748819316093700,-1.339914124184770
Moluccan boobook and Coati,TS22 5QD,54.624990155182400,-1.299930489043500
Gull and Jay,TS25 3NR,54.658426975249600,-1.245442681816390
Argus and Egret,TS25 4EH,54.663242627149400,-1.239477787547750
Parrotlet and Magpie,TS23 3QN,54.619459681168500,-1.274890977591170
Mole and Petrel,TS25 5LH,54.673827279244900,-1.220780038378320
Dolphin and Polecat,TS22 5LF,54.623215747955100,-1.300797286175190
Ground sloth and Maya,TS26 0QB,54.707242000000000,-1.247951000000000
Perching duck and Kestrel,TS24 8PQ,54.696020280114500,-1.214490047639540
Boto and Viscacha,TS24 9NG,54.709551467316400,-1.226598700355070
Kangaroo and Tattler,TS25 1DQ,54.659649518803300,-1.188343000000000
Treepie and Argus,TS25 5DU,54.663561031832900,-1.232960485515530
Marmoset and Mole,TS23 2TW,54.618301065202800,-1.297892734723760
Fish eagle and American sparrow,TS25 2NW,54.653909864434400,-1.237358084094680
Jerboa and Pheasant,TS24 7QF,54.680957058917100,-1.215695886748410
Mouse and Hawaiian honeycreeper,TS23 3JB,54.611148271457400,-1.275147059568580
Grouse and Polecat,TS24 0PP,54.695762255742100,-1.179600553550880
Bronzewing pigeon and Fox,SR8 1QP,54.748296778450000,-1.361501367527710
Duck and Logrunners,TS23 2TP,54.617790565223200,-1.298195749760020
Gull and White ibis,TS22 5TG,54.629017000000000,-1.326955454060200
Civet and Parakeet,TS25 3DG,54.660209809242500,-1.227442891599790
Marsh harrier and Duck,TS25 2RQ,54.649239476370100,-1.240669036349270
Quetzal and Myna,TS22 5FZ,54.646361000000000,-1.349461000000000
Thicketbird and Mamo,TS24 8JN,54.698878518403200,-1.225731013248990
Wader and Condor,SR8 5PL,54.758729150810700,-1.326373474285630
Bronzewing pigeon and Triller,TS25 2LL,54.654489305327500,-1.246662597605000
Mamo and Marsh harrier,TS25 4EB,54.664217043922000,-1.237227090157290
River dolphin and Herring gull,SR8 5PF,54.760311330618400,-1.328087700791140
Civet and Ibex,TS25 3PU,54.656951000000000,-1.243448112019820
Thrasher and Boto,TS23 3LH,54.620113097496000,-1.271456810452930
Armadillo and Goose,SR8 4PA,54.766592893715400,-1.319994836873540
Ibex and Peafowl,TS26 0HT,54.691457906578000,-1.231783031037230
Wader and Moluccan boobook,TS26 0UP,54.696771646268000,-1.236446054968890
Minke whale and Warbler,SR8 1QN,54.748027035790300,-1.361352000000000
Mamo and Capuchin,TS23 3TX,54.617671715448200,-1.293211395720400
Kite and Skunk,SR8 4BD,54.771379729441600,-1.321049332227910
White ibis and Masked owl,TS27 4NQ,54.751875729389400,-1.295335784449860
Badger and Argus,TS25 3ND,54.659172880587500,-1.246886009535410
Quetzal and Cuscus,TS27 3LA,54.711901453022600,-1.254570590307040
Warbler and Thrasher,TS25 4AL,54.668995602556300,-1.246890403131860
Petrel and Masked owl,TS23 2AR,54.615561425309900,-1.285830679178070
Dorcopsis and Herring gull,TS27 4NH,54.752020765848200,-1.295550783930220
Triller and Diving bird,TS24 0PE,54.698058355606500,-1.181586894392600
Booted eagles and Elephant,TS25 2DT,54.638104328493700,-1.173339966513800
Pratincole and Eagle,TS25 3EN,54.659446526178300,-1.237471445427120
Nukupuʻu and Piping shrike,TS27 4NS,54.754427193469200,-1.299859621037290
Thicketbird and Shearwater,TS24 0WB,54.688266823257000,-1.199716543468270
Old World quail and Bunting,TS26 0UQ,54.697419000000000,-1.249361501054880
Minke whale and Jerboa,TS23 2BL,54.613083847865900,-1.295520559687250
Thrasher and Chicken,TS23 2EX,54.609538000000000,-1.292881903049610
Jay and B,TS25 3HG,54.657843903069300,-1.234153218840090
Cloud rat and Moluccan boobook,TS24 8QR,54.693704784783300,-1.226155298701820
Mouse and Cuscus,SR8 5AG,54.758505000000000,-1.319819000000000
Viscacha and Ice seal,TS28 5FD,54.725941280229900,-1.377736692783210
Philippine hawk-owl and Darwin's finches,TS26 8RD,54.690054033505700,-1.220221075074710
Fish eagle and Badger,TS22 5AW,54.611676224430400,-1.307002597793200
Argus and Old World vulture,TS26 0TG,54.698707989661200,-1.237107952279890
Old World vulture and Thrasher,TS24 7JW,54.680846274648000,-1.208330845610020
Magpie and Buzzard,SR8 1HZ,54.753585004116700,-1.347061562208360
Kangaroo and Pratincole,TS26 8GE,54.688885986545700,-1.224462969338210
Piping shrike and Eagle,TS25 5LY,54.673263295531500,-1.223923235498760
White ibis and Parakeet,TS22 5DX,54.610430259123100,-1.313882701365920
Egret and Ice seal,TS23 3JP,54.612517708426300,-1.278529000000000
Siskin and Kestrel,TS25 5NP,54.676299451756300,-1.224888000000000
Old World warbler and Mamo,TS22 5SW,54.641034000000000,-1.363647000000000
Masked owl and Diving bird,TS24 0HR,54.698700000000000,-1.183312000000000
Perching duck and Parrotlet,TS24 8RA,54.698810728863000,-1.213799971192640
Herring gull and Dorcopsis,TS25 1DX,54.659570841966400,-1.195536929749900
Ice seal and Lemming,TS24 0QZ,54.694326914331300,-1.178652055390940
Ground sloth and Condor,TS22 5GF,54.641894711630800,-1.358396761766010
Viscacha and Moluccan boobook,TS26 0NY,54.703047000000000,-1.233785459567150
Old World vulture and Petrel,TS25 5RN,54.675490725971400,-1.222314483837670
Armadillo and Hawaiian honeycreeper,TS26 0DT,54.686948000000000,-1.237608000000000
Fish eagle and Wader,TS27 3ET,54.690741000000000,-1.333674000000000
Jackal and Dorcopsis,SR8 5QB,54.763770000131200,-1.332755016346320
Lemming and Parrotbill,TS27 4HH,54.747035352566500,-1.286704639979810
Egret and Tahr,SR8 1JH,54.744399355701200,-1.353547129730550
Grackle and Old World warbler,SR8 2BY,54.769258155939700,-1.345457052256370
River dolphin and Mole,TS25 2NL,54.654623917887100,-1.243746143079290
Minke whale and Petrel,TS25 2HG,54.641292122727500,-1.237346275582610
American sparrow and Elephant,TS25 1LY,54.664490518937300,-1.218090534159770
Buzzard and Condor,TS25 5SS,54.675165000000000,-1.216304000000000
Grackle and Wader,TS23 2LR,54.606896300879800,-1.291664073318820
Fulmarine petrel and Jackal,TS23 3TZ,54.616552474325800,-1.292255000000000
Rabbit and Quetzal,TS22 5HW,54.612967738254800,-1.306547113922390
Gull and Linsang,TS25 5AW,54.672896952626800,-1.218657906039370
Pitohui and Ice seal,TS23 3AD,54.612369776977100,-1.282573027689160
Hawaiian honeycreeper and Piping shrike,TS23 2QX,54.606109610431700,-1.284726609898340
Gull and Egret,TS25 2PT,54.655365434928100,-1.225969251671960
Perching duck and Old World warbler,TS26 0FE,54.706089654245400,-1.238630191108300
B and Night heron,TS24 8FG,54.693620948185500,-1.221969000000000
Dorcopsis and Mockingbird,TS26 0XP,54.693990762698500,-1.242983449236810
New World blackbird and Hawk,TS25 4HF,54.672669509563800,-1.236557013161600
Petrel and Tattler,TS24 9PU,54.713561803323300,-1.236875779571720
Black jay and Rabbit,TS27 4LZ,54.749020082724500,-1.294158023363230
Shearwater and Prion,TS27 4QQ,54.737105957089800,-1.293013869700060
Chickadee and Kestrel,TS23 3HW,54.609060577659000,-1.279209581705080
Condor and Cloud rat,TS28 5EF,54.719301352918700,-1.369284438356430
Masked owl and Ice seal,TS25 5AT,54.673235853598400,-1.215472479491030
Kangaroo and Cuscus,TS23 3JG,54.613593671570700,-1.275304911952440
Argus and Dolphin,TS25 4AY,54.665324557780200,-1.244741238554290
Parakeet and Wader,SR8 1HU,54.752982779000000,-1.347040174372370
B and Tree warbler,TS26 9NY,54.685046766729900,-1.232198931024060
Logrunners and Ibex,TS24 8QU,54.698031807891400,-1.228245268947720
Kākāriki and Vulture,TS25 5RQ,54.674847327588200,-1.222885046908890
Wader and Hawk,TS24 0XY,54.687994921870700,-1.202095316823480
Quetzal and Guillemot,TS24 0NA,54.703009291903200,-1.197595279714900
River dolphin and Piping shrike,TS27 4FB,54.748421000000000,-1.289958000000000
Solitaire and Tahr,TS23 2LY,54.607402072969300,-1.290556086175110
Jay and Chipmunk,TS25 4PW,54.668844892949800,-1.244334827645820
Rabbit and Parrotlet,SR8 4HY,54.758004373376700,-1.303061148618590
Old World warbler and Tit-tyrant,TS26 9BJ,54.678623355868200,-1.223123134311660
Kite and Hawk,TS27 4LA,54.748050377032200,-1.291223151817610
Argus and Viscacha,TS25 5AY,54.672326923048000,-1.216668495910270
Masked owl and Black cockatoo,TS28 5NN,54.697254695250300,-1.372341604158020
Triller and Scimitar babbler,TS25 2NH,54.653557154376800,-1.238434146475290
Piping shrike and Tattler,TS26 9NB,54.683978126113500,-1.232777343572390
Pitohui and Capuchin,TS24 9QD,54.713222207661000,-1.241476716038280
Moluccan boobook and Wader,TS23 2PA,54.607331690949400,-1.295434072684200
Stilt and Linsang,DH6 2QZ,54.759038032792200,-1.379080000000000
Maya and Jackal,TS28 5JD,54.736356658509000,-1.384736872068480
Piping shrike and Lemming,TS26 9NQ,54.682404008065900,-1.229720446651910
Black cockatoo and Rat,TS23 2EF,54.612485542414500,-1.294632832346640
Kite and Old World quail,TS28 5BD,54.733207788161000,-1.380513909006810
Pheasant and Dolphin,TS25 5NG,54.672828279392200,-1.226164503425050
Armadillo and Meadowlark,TS23 3AP,54.609494421644000,-1.281137246646770
Marmoset and Bronzewing pigeon,TS24 8JG,54.696816144945000,-1.226452972344460
Badger and Scimitar babbler,TS23 2TJ,54.617814650399000,-1.296151214785610
Prion and Argus,TS25 4AN,54.669222945861800,-1.247320348614910
Treepie and Dorcopsis,TS24 9AA,54.700098000000000,-1.222387000000000
Jackal and Capuchin,TS27 3JG,54.715362776977700,-1.256261210514460
Bronzewing pigeon and Goose,TS25 5SD,54.674715982044000,-1.219227785073990
Puffleg and Vulture,TS25 5ND,54.672039805404600,-1.229172000000000
Warbler and Minke whale,TS25 1HQ,54.658714783640500,-1.215752188113710
Nukupuʻu and Ice seal,TS26 9PU,54.685408240157500,-1.228717374397340
Parrotbill and Darwin's finches,TS27 4DW,54.727387505189600,-1.260994000000000
Rabbit and Pheasant,TS27 3BY,54.708740000000000,-1.267992000000000
Maya and Capuchin,TS26 8PT,54.688206071600200,-1.226352957697880
Herring gull and Chipmunk,TS24 4DZ,54.681572432543900,-1.210379710955300
Wallaby and Egret,SR8 2BD,54.765954065914600,-1.347686266330130
Piping shrike and Dorcopsis,TS24 8LQ,54.698413040649600,-1.226019171878120
Kākāriki and Tattler,SR8 2HW,54.763964325311300,-1.353717255684750
Cloud rat and Linsang,SR8 4EY,54.761454836025200,-1.307695133475790
Old World warbler and Ice seal,TS25 3NE,54.658828591334800,-1.247884465587840
Scimitar babbler and Booted eagles,TS24 7RL,54.685246000000000,-1.213186439287890
Greenbul and Minke whale,TS22 5NT,54.616578792939500,-1.315730449218160
Coati and Fox,TS25 5DH,54.668813696035300,-1.218162569236580
Pheasant and Marmoset,TS24 8RH,54.695185431419300,-1.222558758262100
Songlark and Mockingbird,TS25 1SW,54.674191107960100,-1.214492617502630
Darwin's finches and Old World quail,TS25 4BX,54.666170480937500,-1.243485212453780
Triller and Booted eagles,TS25 2QA,54.653569749487800,-1.226235859949110
Rat and Minke whale,TS25 5DY,54.661838030759500,-1.234775731582100
Quetzal and Ice seal,TS23 2HF,54.607936112194600,-1.286614369185820
Vole and B,TS25 5AR,54.672592134766500,-1.218772302990390
Nukupuʻu and Old World quail,SR8 2PW,54.768406944893500,-1.369702558975870
Marsh harrier and Tree warbler,TS23 3QZ,54.622420018099000,-1.278508897821630
