name,postcode,lat,lon
Booted eagles and Polecat,CF48 4NA,51.710770126232800,-3.341846094257630
Pratincole and B,CF40 1SQ,51.600004000000000,-3.437310000000000
Black cockatoo and Thicketbird,CF41 7EP,51.648915474010300,-3.489519463578990
Piping shrike and Ground sloth,CF40 2BY,51.625847102807900,-3.469866883239440
Condor and Eagle,CF44 9TU,51.742310655747800,-3.512590000000000
Night heron and Magpie,CF44 0LG,51.712634966070500,-3.418081004284850
Capuchin and Pitohui,CF44 0LZ,51.713500819864800,-3.417862019304470
Songlark and Parrotbill,CF45 4RG,51.645342438250800,-3.330316246252780
Dolphin and Thrasher,CF45 3YN,51.673512280116400,-3.371085854266370
Cuscus and Solitaire,CF44 7DG,51.711924459388500,-3.442462655054760
Argus and Pratincole,CF44 8DB,51.714715552205200,-3.463365000000000
Rabbit and Argus,CF45 3EY,51.682434376362700,-3.379340060100850
Wallaby and Towhee,CF32 7NS,51.624595294221800,-3.533276375190800
Bronzewing pigeon and Boto,CF32 8SA,51.575343558498000,-3.588202628481680
Mamo and River dolphin,CF37 1QP,51.597407703476200,-3.343670289103540
Old World vulture and Marsh harrier,CF40 2DH,51.627177429668800,-3.476353469380130
Magpie and Recurvebill,CF37 2AH,51.611561886245900,-3.337285947883670
Jerboa and Gull,CF44 7BD,51.714364464585800,-3.447317129671870
Badger and Crow,CF37 2SJ,51.608425089353100,-3.361411908695050
Herring gull and Tree warbler,CF32 8NQ,51.618167758403600,-3.588585341994170
Elephant and Skunk,CF44 8BN,51.716864273587000,-3.455315348079370
Darwin's finches and Fox,CF44 7HE,51.709378535880900,-3.441831647597230
Peafowl and B,CF44 0UN,51.732168132354000,-3.462569585426070
Boto and Pheasant,CF41 7TP,51.643377180497200,-3.482357282152110
Solitaire and Black jay,CF45 3RA,51.684760539527000,-3.384155517460100
Ibex and Armadillo,CF42 5LT,51.677414285801100,-3.542190680355010
Black cockatoo and Stint,CF39 8NH,51.585543035855700,-3.417410617717470
Boto and Masked owl,CF40 2UX,51.619954821015300,-3.435932536703530
Stint and Guillemot,CF47 8RT,51.750497170820900,-3.380500368321490
Black jay and American sparrow,CF32 8AR,51.627185229172000,-3.591356492514400
Shearwater and Capuchin,CF47 0RU,51.743033052374700,-3.373682433994810
Jay and Mockingbird,CF40 2PW,51.618506005081200,-3.438226833681930
Lemming and Siskin,CF43 3ER,51.643243040792200,-3.430106857787570
Goose and Thicketbird,CF44 9NY,51.737180005868200,-3.505962000000000
Darwin's finches and Grouse,CF46 6RE,51.700069845857600,-3.312414826314980
Wallaby and Boto,CF45 4RS,51.642506836375800,-3.324235590234430
Fox and Puffleg,CF37 3HY,51.639383008963000,-3.361500881622880
Guillemot and Capuchin,CF48 4PX,51.684808543547300,-3.344419765748770
Puffleg and Treepie,CF48 4TP,51.714658073407600,-3.353295257312500
Black cockatoo and Chickadee,CF48 1PX,51.722721637048400,-3.364350963501780
Jackal and Partridge,CF40 1TF,51.614978109855000,-3.438476376008860
Diving bird and Treepie,CF44 6HH,51.688182085205200,-3.442054857854400
Old World warbler and B,CF43 3DF,51.651897149056600,-3.431998273288530
Cloud rat and Booted eagles,CF37 4UE,51.601475062402000,-3.341046934220770
New World blackbird and Parrotbill,CF47 0TF,51.741996436407000,-3.368509183783640
Pitohui and Diving bird,CF40 1DA,51.620047552468500,-3.457588797214130
Peafowl and Grosbeak,CF39 9LA,51.607414973713500,-3.405903548726170
Tit-tyrant and Parrotlet,CF43 4NY,51.669482208103000,-3.452740305823590
Dorcopsis and Armadillo,CF47 8LT,51.749205893775800,-3.380200237128570
Tit-tyrant and Treepie,CF32 7LU,51.581715848780800,-3.543826749663690
Old World quail and Jay,CF39 9EP,51.603998797579700,-3.416310352340180
Jackal and Kite,CF43 4TG,51.669871479622900,-3.478464531628950
Petrel and Perching duck,CF45 4DW,51.691555717752800,-3.386663236642020
Old World warbler and Hawk,CF47 0AF,51.747744733329500,-3.385167778825100
Tattler and Grouse,CF44 8PD,51.723406084443000,-3.455655755282400
Logrunners and Viscacha,CF47 0TP,51.741261326866800,-3.376786137304270
Crow and River dolphin,CF43 3EQ,51.644795522945700,-3.428146747708400
Marmoset and Peafowl,CF37 3HS,51.639638600093100,-3.360395789045440
Mink and Mink,CF48 4QW,51.692514127863200,-3.346803877156010
Fulmarine petrel and Armadillo,CF32 7RN,51.627229467545700,-3.544287594674600
Kangaroo and Marmoset,CF45 4YS,51.661491688300700,-3.347662004393670
Tahr and Nukupuʻu,CF32 7DH,51.598245437358400,-3.543809323833110
Ibex and Jerboa,CF32 8BJ,51.596219287927700,-3.582374000000000
Boto and Gull,CF43 3DW,51.653329779547800,-3.435440536321260
Vole and Perching duck,CF42 6AP,51.660276145467900,-3.508933314451090
Myna and Fulmarine petrel,CF40 2XY,51.623136980715600,-3.471585057667890
Kestrel and Booted eagles,CF44 8BP,51.714985251102400,-3.461088617293770
Siskin and Wallaby,CF39 9HN,51.606007004773500,-3.408589333012320
Hawk and Old World quail,CF45 4RD,51.645785691526700,-3.328493666784740
Stilt and Condor,CF48 1YH,51.734609142093200,-3.374339272246420
Old World vulture and Badger,CF41 7LF,51.656027807459100,-3.494494489516470
Boto and Gull,CF45 4AN,51.686686000000000,-3.378775000000000
Piping shrike and Black cockatoo,CF40 2PU,51.619317567767400,-3.441704838804360
Parrotlet and Wallaby,CF43 4PA,51.669526869952900,-3.451310102655030
Minke whale and Kangaroo,CF47 8RS,51.750843519857200,-3.379337500693770
Fulmarine petrel and Argus,CF37 3NY,51.644019184501100,-3.367998969009700
Capuchin and Thrasher,CF32 8NT,51.570155992001000,-3.572784168709930
Ground sloth and Philippine hawk-owl,CF38 1TA,51.573389491045200,-3.314375498369620
Pratincole and Old World vulture,CF44 7PT,51.710632653926600,-3.465464230263470
Ice seal and Goose,CF47 0HN,51.751390364568500,-3.370256352472220
Jay and Hawaiian honeycreeper,CF38 1UF,51.568767798299000,-3.326347892370190
River dolphin and Thicketbird,CF40 1AT,51.620933026672100,-3.452893505183950
Flameback and Old World vulture,CF44 6LS,51.694403763716600,-3.431082707824080
Black cockatoo and Songlark,CF37 1TD,51.592854445662100,-3.324191122757200
Rabbit and Chickadee,CF37 4RR,51.608775240371400,-3.333261526237720
Pitohui and Eagle,CF40 2TJ,51.636863101652100,-3.453185901376180
Chickadee and Masked owl,CF44 6YE,51.702170050991800,-3.431298852038410
Meadowlark and Parrotbill,CF45 4UR,51.651069169472100,-3.319252495489990
Masked owl and Buzzard,CF42 6UW,51.656391872279200,-3.509613850418650
Towhee and Booted eagles,CF32 8ND,51.618795730575200,-3.587365006070540
River dolphin and Logrunners,CF37 4AR,51.597638916035300,-3.322525571050650
Skunk and Triller,CF39 9NF,51.609637756152800,-3.398982394851670
Minke whale and Warbler,CF44 0RP,51.719065288711600,-3.437217735782190
Mouse and Condor,CF45 4YR,51.661470605248700,-3.349497572698160
Petrel and Vulture,CF41 7LD,51.656259967211400,-3.496034546322930
Greenbul and Eagle,CF40 1DZ,51.612354529748400,-3.450727515332740
Vole and Bunting,CF47 0RY,51.743292195293600,-3.373820655246380
Hawk and Jay,CF44 6JA,51.703086763763600,-3.435653000000000
Grouse and Fish eagle,CF39 9AF,51.608542597931000,-3.410282000000000
Triller and Philippine hawk-owl,CF37 5EP,51.589475287561700,-3.312024927562130
Herring gull and Old World warbler,CF44 9LA,51.734719641293700,-3.499826716351640
Marsh harrier and Piping shrike,CF42 6SD,51.661912113104900,-3.504071754488120
Nukupuʻu and Pitohui,CF37 2EQ,51.610243439739100,-3.353465481354670
Ground sloth and Buzzard,CF41 7AJ,51.645888471562400,-3.491385901284860
Eagle and Tahr,CF48 1RP,51.745480252288500,-3.401727387972940
White ibis and Mole,CF48 4DJ,51.721765082490900,-3.352986307584620
Pheasant and Darwin's finches,CF44 8AP,51.714234474310100,-3.451293655942140
Recurvebill and Argus,CF39 9TF,51.611683976197000,-3.397803265975250
Masked owl and Cloud rat,CF32 7SN,51.616770672833000,-3.536147000434300
Herring gull and Badger,CF44 9DE,51.730141000000000,-3.482997879628420
Maya and Polecat,CF39 8DQ,51.574743382239900,-3.436657136726800
Macaw and Night heron,CF44 8DY,51.717798201375600,-3.452507976696300
Chickadee and Peafowl,CF32 8SS,51.574797833480500,-3.590651310468940
Ibex and Myna,CF39 0ER,51.627196627125200,-3.410444817149290
Grackle and Fulmarine petrel,CF40 2HX,51.630172545533500,-3.456858657064450
Mamo and Mink,CF41 7RD,51.643026553843100,-3.468760464406660
Tattler and Chickadee,CF41 7AL,51.646181539096500,-3.486712568732670
Ground sloth and Zebra,CF48 4LD,51.711912514076700,-3.344166849271800
Old World warbler and Marsh harrier,CF39 9EW,51.603666775330200,-3.419231327119050
Macaw and American sparrow,CF44 8HD,51.716889000000000,-3.442505000000000
Pheasant and Asiatic leopard,CF39 8NA,51.587001548943100,-3.418004535754610
Goose and Zebra,CF47 0UR,51.735988855222900,-3.370919933569590
Songlark and Logrunners,CF44 0YL,51.738064795562800,-3.459110343375170
Mouse and Kākāriki,CF40 2DP,51.626963330502600,-3.484061446087580
Crow and Kite,CF44 9NN,51.738204229936800,-3.511383638290520
Condor and Condor,CF44 9AA,51.723715115552000,-3.466234795234180
Old World quail and Gull,CF47 0HS,51.751486573186000,-3.368173139135470
Cloud rat and Guillemot,CF43 4HF,51.661980838523900,-3.449276065942840
Diving bird and Linsang,CF38 1ES,51.570225845395200,-3.312005000000000
Snipe and Parrotbill,CF45 3BD,51.675108843312000,-3.375388000000000
Dolphin and Capuchin,CF44 8TF,51.722957630345200,-3.475027390383770
Buzzard and Herring gull,CF40 1TH,51.614583374554500,-3.440601522379140
Diving bird and Jerboa,CF32 7AD,51.601184888459700,-3.541829770689210
Scimitar babbler and Diving bird,CF40 1AW,51.619044933616300,-3.450519000000000
Herring gull and Goose,CF48 4HS,51.716853117033100,-3.348511377725370
Ground sloth and Armadillo,CF45 4BJ,51.656589239550500,-3.343240000000000
Tree warbler and Mouse,CF43 3EL,51.637756394353200,-3.430237680728890
Asiatic leopard and Guillemot,CF40 1PW,51.611975993953300,-3.444967279971170
Minke whale and Petrel,CF37 2HD,51.606121000000000,-3.348447000000000
Capuchin and Egret,CF41 7UF,51.644747674522000,-3.474207093121150
River dolphin and Chicken,CF44 0LW,51.707779449816200,-3.413601672731980
Lemming and Vole,CF46 5NQ,51.663535000000000,-3.317140000000000
Skunk and Kite,CF44 6RY,51.698957943965400,-3.426292048055120
Boto and Wader,CF32 8RW,51.573396120339200,-3.588582081502790
Stilt and Peafowl,CF32 8RU,51.572397459503500,-3.586628029644160
Tattler and Parakeet,CF42 5PL,51.676058643295300,-3.537227147307270
Fish eagle and Warbler,CF44 8TZ,51.719068127160200,-3.474712590881520
Tahr and Fulmarine petrel,CF47 0YN,51.738905785301300,-3.372919985557460
Tree warbler and Partridge,CF45 3UH,51.674523942034400,-3.371463510175290
Egret and Parrotlet,CF43 3LT,51.637183792526700,-3.432950827644070
Goose and American sparrow,CF43 3NB,51.641481138049100,-3.433751117430960
Crow and Solitaire,CF42 5DN,51.680658471208500,-3.553930488144760
Peafowl and Ice seal,CF40 2PA,51.618840487076800,-3.438815202279470
Maya and Fish eagle,CF41 7AR,51.645981291734100,-3.490449470784060
Thicketbird and Quetzal,CF43 4UD,51.655971620147000,-3.442188516096140
Siskin and Argus,CF44 6PP,51.683084317489000,-3.443469557775100
Dorcopsis and Puffleg,CF42 6RL,51.660469509192900,-3.501434000000000
Vole and Piping shrike,CF43 3BU,51.651144409457800,-3.431049422303720
Black cockatoo and Macaw,CF37 4PR,51.605104825863800,-3.336576330285890
Vulture and White ibis,CF47 0LU,51.745215836253900,-3.371561427148470
Herring gull and Wader,CF37 2PS,51.605048522970500,-3.357152079862100
Grosbeak and Gull,CF44 9LE,51.732076888948200,-3.496234815775710
Triller and Puffleg,CF40 2HU,51.628453641492500,-3.457699345679260
B and Mamo,CF48 1EX,51.724014900835500,-3.363709429937900
Vulture and Kestrel,CF39 9LY,51.608998360030800,-3.399063825762220
Peafowl and Black cockatoo,CF42 6EH,51.665826642158900,-3.515377000000000
Meadowlark and Old World quail,CF45 3TG,51.665927728430000,-3.360648291561510
Pratincole and Partridge,CF42 5HY,51.672256000000000,-3.535204000000000
Buzzard and Capuchin,CF44 6BN,51.689540193393500,-3.410935518352670
Argus and Ice seal,CF37 4AE,51.604845385427200,-3.330243000000000
Prion and Scimitar babbler,CF46 6TE,51.698307720638800,-3.309976298006290
Goose and Tahr,CF44 8HU,51.723226000000000,-3.463034000000000
Jerboa and Badger,CF44 8NA,51.721858725907300,-3.458617395342980
Peafowl and Magpie,CF37 1EW,51.600124208714400,-3.351674000000000
Ice seal and Rat,CF32 8PB,51.578900817646900,-3.565725644461200
Petrel and Marsh harrier,CF48 4NR,51.690939375947500,-3.345339299049730
Night heron and Hawaiian honeycreeper,CF40 1NN,51.604300053937200,-3.436651468437210
Vulture and Macaw,CF37 5PY,51.591864355545000,-3.321087442145320
Linsang and Parrotbill,CF47 8UY,51.749523592411500,-3.378413613551820
Snipe and Scimitar babbler,CF32 7AG,51.598636642562200,-3.541411358494140
Rabbit and Lemming,CF37 2LA,51.604618612801900,-3.346857868910860
Greenbul and Thicketbird,CF39 8AN,51.572269203756500,-3.425713317536270
Solitaire and Snipe,CF44 0DJ,51.750278000000000,-3.464835000000000
Pheasant and Parrotbill,CF44 8LY,51.721992465715900,-3.457984682434070
Viscacha and Zebra,CF45 4UB,51.650763609773300,-3.323233140304730
River dolphin and Rat,CF44 6RT,51.699379410777700,-3.424163682520550
Cloud rat and Peafowl,CF45 4NN,51.644703722424900,-3.331135812845760
Grackle and Macaw,CF44 7ET,51.710621891685100,-3.444030000000000
Gull and Solitaire,CF44 0PG,51.707934565489200,-3.417890555324240
Lemming and American sparrow,CF46 5NJ,51.660778430479500,-3.322614072090420
Cloud rat and Herring gull,CF48 1RL,51.739644000000000,-3.410135000000000
Old World warbler and Prion,CF48 1SQ,51.743966230352800,-3.402766862420600
Parrotbill and Thicketbird,CF44 7NG,51.710525478153400,-3.448005102437270
Triller and Logrunners,CF47 8BT,51.745727906622200,-3.378515326421370
Hawk and Thrasher,CF47 0PT,51.743363047683600,-3.372374365988140
Masked owl and Old World quail,CF37 5BS,51.580916000000000,-3.310606000000000
Thrasher and Herring gull,CF44 0DZ,51.705394000000000,-3.424338000000000
Petrel and Mole,CF37 4BE,51.594179749257900,-3.319309000000000
Minke whale and Tree warbler,CF44 9NX,51.742359306395800,-3.562188456230410
American sparrow and Pratincole,CF46 5AJ,51.660569966731000,-3.309695000000000
Wallaby and Partridge,CF40 1BP,51.623165976673900,-3.457732088187250
Quetzal and Mockingbird,CF39 8NB,51.587059739104800,-3.416909312618200
Maya and Jackal,CF48 4LJ,51.707003309542200,-3.341113000000000
Tahr and Treepie,CF40 2QH,51.625235192861600,-3.450387192101920
Dolphin and Mole,CF32 7AH,51.597067630820600,-3.540376437318460
Myna and Buzzard,CF47 0BN,51.747439000000000,-3.376061000000000
Marmoset and Peafowl,CF44 0SG,51.720571100127800,-3.431720728918860
Pratincole and New World blackbird,CF41 7LA,51.655353784891200,-3.496582958897780
Ibex and Hawaiian honeycreeper,CF44 9SY,51.740203794094400,-3.508321922160580
Peafowl and Guillemot,CF47 0UL,51.736641516228000,-3.368926658747700
Pheasant and Shearwater,CF41 7NG,51.645197309951300,-3.481347121370120
Kite and Scimitar babbler,CF38 1HT,51.570301754529700,-3.319495372227490
Gull and Piping shrike,CF39 8DR,51.574683657776600,-3.435659529411500
Guillemot and Macaw,CF39 8JT,51.580623000000000,-3.446397000000000
Prion and Wader,CF40 2UD,51.619158000000000,-3.440891000000000
Cloud rat and Bronzewing pigeon,CF38 1RG,51.564536265587400,-3.322040781207090
Perching duck and Ibex,CF47 8HF,51.742823227026800,-3.380078094841680
Hawaiian honeycreeper and Cloud rat,CF42 5LU,51.678996850352900,-3.543560690640140
Goose and Polecat,CF48 4JT,51.713034815452900,-3.345097558433040
Ice seal and Armadillo,CF32 8PX,51.591977357288000,-3.578994926397780
Rabbit and Argus,CF44 7PP,51.711107948122600,-3.453263366014230
Polecat and Partridge,CF43 3AD,51.650265133447700,-3.431628825394800
Mink and Philippine hawk-owl,CF39 8TH,51.586035012694900,-3.475250103360680
Fulmarine petrel and Minke whale,CF37 1BX,51.596236611141100,-3.325675505913550
Quetzal and Ibex,CF45 3LJ,51.669812174188900,-3.370699347526100
White ibis and Maya,CF39 0PP,51.636769030580600,-3.420466995743400
Pheasant and Jay,CF43 4DH,51.675622036144400,-3.486635371975480
Mockingbird and Pheasant,CF44 9DX,51.737463000000000,-3.561310000000000
Wallaby and Old World quail,CF37 1JD,51.601561096811900,-3.352355344313060
Jerboa and Diving bird,CF37 5ET,51.588904962984700,-3.308341974315670
Ice seal and Hawk,CF39 8BF,51.596472642600800,-3.469683329413670
Mamo and Bunting,CF42 6LW,51.650997743851600,-3.522762222983120
Mink and Greenbul,SA13 3UN,51.657053000000000,-3.602942000000000
Thrasher and Perching duck,CF48 1XB,51.742315864533700,-3.375804316916200
Crow and Old World warbler,CF43 4RF,51.666785298059400,-3.454866402132700
Snipe and Recurvebill,CF38 1UP,51.568186158923400,-3.327687247191750
Triller and Linsang,CF37 1NX,51.595735035309700,-3.331854501970750
Goose and Grouse,CF40 2SW,51.639820049401800,-3.450508000000000
Kite and Polecat,CF37 2DU,51.606836262971700,-3.338504497850570
Fish eagle and Gull,CF45 3PY,51.685205826332100,-3.385282970344400
Gull and Cuscus,CF45 4LX,51.660144135796100,-3.345988285122020
Grouse and Old World vulture,CF37 1XG,51.588839490197600,-3.348282061027730
Cuscus and Kestrel,CF40 1DU,51.619796000000000,-3.459035070356400
Prion and Piping shrike,CF41 7PT,51.646558463854600,-3.478226146640450
Badger and Bunting,CF38 1UQ,51.566874262837200,-3.327605738023170
B and Buzzard,CF45 4HP,51.679036645907500,-3.370023317241850
Mouse and Songlark,CF45 4YW,51.662273591119100,-3.349261182509450
Treepie and Black jay,CF37 3AA,51.622395970581600,-3.333429682385840
Black cockatoo and Marsh harrier,CF37 2BT,51.603916968906300,-3.342290000000000
Songlark and Wallaby,CF40 1BN,51.622035749493600,-3.456785771316100
Songlark and Prion,CF43 3DU,51.650148989020800,-3.432304537880090
Thrasher and Vulture,CF37 3DH,51.625715000000000,-3.335058000000000
Dorcopsis and Tit-tyrant,CF46 6UB,51.705334628750700,-3.319224405040310
Thicketbird and Ice seal,CF39 9TH,51.611443529221500,-3.401493000000000
Scimitar babbler and Parrotbill,CF44 0BB,51.702058298302000,-3.411556524728340
Ice seal and Grackle,CF44 0YT,51.721919308730700,-3.427333176295960
Chicken and Magpie,CF44 7BS,51.715767902228700,-3.445798572619760
Old World quail and Bunting,CF45 4PH,51.640618120159700,-3.333805293809530
Old World vulture and Pratincole,CF40 1DJ,51.618983505945700,-3.451300072603220
Francolin and Ground sloth,CF45 3RF,51.683654000000000,-3.384281000000000
Zebra and Gull,CF40 1DN,51.619598169183600,-3.451767483257240
Petrel and Solitaire,CF37 3HE,51.623735000000000,-3.350949000000000
Dorcopsis and Masked owl,CF45 3NY,51.683533155884200,-3.380718732533860
Zebra and Triller,CF45 4DN,51.691479710641300,-3.387008141331410
Vulture and Triller,CF40 1NG,51.604439036297900,-3.438518644146300
Mouse and Wader,CF48 4NJ,51.710500963044800,-3.344153942276260
Jerboa and Black jay,CF48 4BE,51.726636000000000,-3.360273140438320
Diving bird and Chicken,CF44 8TP,51.720428970130500,-3.474467332646930
Buzzard and Thicketbird,CF40 1HZ,51.616653000000000,-3.446430000000000
Fulmarine petrel and Meadowlark,CF32 7NB,51.620196077695800,-3.537562781750100
Francolin and Armadillo,CF37 3BY,51.622550943781300,-3.332451910555350
Asiatic leopard and Meadowlark,CF44 6HJ,51.708148038937500,-3.436582150146060
Bunting and Fox,CF40 2JG,51.634095806002600,-3.453733218005780
River dolphin and Mouse,CF37 4EX,51.620302788295900,-3.317334253463810
Hawk and Quetzal,CF44 6LB,51.686194445633300,-3.455937139071010
Puffleg and Kite,CF48 4HH,51.713061773762500,-3.352147523164600
Boto and Vulture,CF43 4PH,51.665018314300100,-3.444312193204810
Ibex and Moluccan boobook,CF47 0YW,51.740539004264900,-3.373968862253920
Scimitar babbler and Scimitar babbler,CF37 1QL,51.595847280382600,-3.343306605700510
Crow and Boto,CF48 4PH,51.686632536678300,-3.343750500928290
Petrel and Grosbeak,CF48 4JD,51.714948639693700,-3.346790058882660
Songlark and Pitohui,CF38 1DS,51.567949467758900,-3.319975535973950
Goose and Warbler,CF39 9RX,51.599665000000000,-3.417016573415920
Herring gull and Dolphin,CF45 4HB,51.682034278399500,-3.374352003831120
Civet and Grackle,CF37 4LL,51.608846906846600,-3.330115386235950
Boto and Towhee,CF42 5EN,51.673847846181900,-3.529559497385600
Linsang and Prion,CF44 9HD,51.732983000000000,-3.487191502116770
Recurvebill and Civet,CF37 3EU,51.631926267767700,-3.357058488667880
Philippine hawk-owl and Linsang,CF44 7EG,51.711958000000000,-3.443539799094880
Pratincole and Duck,CF32 8LD,51.609081360009800,-3.580252792957670
Badger and Ibex,CF44 7HA,51.709930584329000,-3.443007110071560
Crow and Grouse,CF37 5LQ,51.583155404853000,-3.307065425864910
Linsang and B,CF44 6UD,51.706207044917500,-3.432063086119210
Snipe and Hawk,CF39 0HB,51.626704918541300,-3.408710341958400
Thrasher and Eagle,CF44 9LX,51.739898000000000,-3.562103000000000
New World blackbird and Prion,CF44 6UW,51.704799582533400,-3.430976637396800
Magpie and American sparrow,CF47 0DQ,51.745452000000000,-3.374490449157010
Recurvebill and Ground sloth,CF39 8PR,51.583661210535600,-3.419849057924130
Fulmarine petrel and Philippine hawk-owl,CF40 2DQ,51.627089441115600,-3.474053465535910
Herring gull and Black cockatoo,CF40 1PN,51.613149744762400,-3.445307865340710
Jerboa and Quetzal,CF42 5SL,51.682968930669600,-3.552606469279280
Snipe and Mole,CF37 4DG,51.607794554392900,-3.330142387112040
Tahr and Warbler,CF48 4SW,51.691185854413800,-3.338720411092440
Mole and Fox,CF42 6DH,51.661204083742200,-3.515196000000000
Eagle and River dolphin,CF42 5DU,51.677327326043400,-3.563723984253210
Badger and Civet,CF39 8LL,51.585426307194400,-3.423339424500840
Condor and Night heron,CF44 6LH,51.685832083056300,-3.446696121400360
Pratincole and Puffleg,CF47 0RS,51.742635847242500,-3.373047564936460
Magpie and Puffleg,CF37 1RA,51.598034560153200,-3.341537524478700
Guillemot and Masked owl,CF44 9LR,51.731730000000000,-3.489692000000000
Wader and Myna,CF40 9BL,51.623138000000000,-3.471614000000000
Marmoset and Thrasher,CF39 9PP,51.609916395873800,-3.405013236774550
Stint and Armadillo,CF37 1QB,51.591882327934100,-3.364309649430680
Chicken and New World blackbird,CF43 4NW,51.667597968938000,-3.447315237374010
Piping shrike and Grosbeak,CF45 4DG,51.688273000000000,-3.389832000000000
Black jay and Philippine hawk-owl,CF42 6TT,51.665020750874100,-3.511274380731440
Jerboa and Triller,CF44 7PU,51.709987729859100,-3.451505067344390
Jerboa and Prion,CF37 3DA,51.622997219524800,-3.336567000000000
Darwin's finches and Grackle,CF44 9BL,51.732751032512400,-3.479212754278820
Egret and Old World warbler,CF48 4NT,51.688867072196500,-3.341776845800470
Marmoset and Puffleg,CF39 0NE,51.619330782447000,-3.413263191010090
Petrel and Towhee,CF45 4RX,51.649040172112700,-3.342768443706000
Buzzard and Lemming,CF41 7NH,51.643662590860800,-3.485387216756590
Mamo and Maya,CF37 1RR,51.590725964283200,-3.327940243037740
Greenbul and Partridge,CF40 2NB,51.633836783807300,-3.447771710306030
Flameback and Coati,CF44 9EB,51.733453650128300,-3.483391856032540
Herring gull and Rat,CF47 0LF,51.745152843645900,-3.360739258972020
Bunting and Jay,CF37 2EN,51.609717331466700,-3.348395210830380
Hawaiian honeycreeper and New World blackbird,CF42 5AU,51.668708834547200,-3.524382920141940
Badger and Perching duck,CF37 3EE,51.637661250561100,-3.360322153990920
Viscacha and Lemming,CF40 9ZX,51.623972574084200,-3.473071192183290
Diving bird and Ice seal,CF41 7TQ,51.641757608166100,-3.479587450243610
Stint and Cuscus,CF43 4ES,51.657893144527400,-3.446066236118320
Towhee and B,CF46 5PA,51.662151306561200,-3.323666144932980
Guillemot and Grouse,CF32 8RP,51.573299395072800,-3.587756166041740
Francolin and Thrasher,CF45 4FF,51.678756000000000,-3.372283000000000
White ibis and Old World quail,CF44 6AY,51.688348283565100,-3.409104558157180
Moluccan boobook and Tattler,CF43 4PY,51.664377000000000,-3.449025966638090
Kestrel and Thicketbird,CF32 7AE,51.600686487405000,-3.541437466838110
Chickadee and Old World vulture,CF44 8LD,51.724170469765500,-3.461442706753970
Fulmarine petrel and Crow,CF39 9PN,51.610337473870200,-3.404390790738720
Fulmarine petrel and Chickadee,CF45 4PR,51.647890855996900,-3.329986153194350
Partridge and Flameback,CF42 5LN,51.676264568120100,-3.540039984740820
Fulmarine petrel and Cuscus,CF37 1RZ,51.595341833514400,-3.330846831987440
White ibis and Fulmarine petrel,CF41 7UJ,51.643015457969200,-3.478240962325870
Tahr and Nukupuʻu,CF47 0PS,51.743354876892400,-3.371534023950330
Fulmarine petrel and Diving bird,CF39 9TG,51.611563340944400,-3.398117292711100
Cloud rat and Herring gull,CF44 7PW,51.711509652238200,-3.452045926882890
Meadowlark and Lemming,CF41 7PN,51.647357445971700,-3.484741950884740
Wallaby and Greenbul,CF38 2TE,51.567799934129200,-3.332408525882260
Scimitar babbler and Petrel,CF44 8NG,51.720826466148200,-3.455572888451240
New World blackbird and Tattler,CF32 8HJ,51.595848179743900,-3.576674789858940
Kestrel and Parrotlet,CF32 8AE,51.626160436455700,-3.585353872458790
Nukupuʻu and Chipmunk,CF32 8LL,51.611433052403700,-3.584062000000000
Egret and Black cockatoo,CF37 3DR,51.635240489724300,-3.355828042045050
Mink and Marmoset,CF44 9EL,51.732480000000000,-3.486434974797710
Black jay and Thrasher,CF32 7BW,51.604620236399800,-3.543852305795720
Mockingbird and Viscacha,CF38 1HN,51.571080874303100,-3.319777667025020
Dorcopsis and Greenbul,CF46 6TY,51.704427947363100,-3.317490344282210
Jay and Wallaby,CF47 0LL,51.744591714684700,-3.364155284949540
Crow and Argus,CF37 1SJ,51.591673056262300,-3.330855071213680
Scimitar babbler and Partridge,CF40 1PJ,51.612846702533500,-3.444359449158220
Fish eagle and Kite,CF48 1AH,51.744406710747400,-3.386108557022440
Moluccan boobook and Diving bird,CF43 4TW,51.669697311117600,-3.479442209379790
Marmoset and Wallaby,CF39 8QB,51.584602396902500,-3.423804424803860
B and Triller,CF39 9BY,51.612766281952900,-3.411802721092190
Scimitar babbler and Crow,CF41 7SU,51.642613643556500,-3.456433689744530
Solitaire and Myna,CF42 6SF,51.663228635466900,-3.503782804265100
Vulture and Bronzewing pigeon,CF47 0PB,51.744183233236700,-3.366808151964560
Mouse and Flameback,CF39 9UL,51.614871272291700,-3.409484876034690
Macaw and Francolin,CF37 1HP,51.603153179995200,-3.348402862467790
Lemming and B,CF39 8BU,51.569246663626200,-3.419140099371960
Buzzard and Snipe,CF44 9AN,51.728965092177600,-3.477814895311770
Pitohui and White ibis,CF39 9RA,51.610918619572300,-3.406170681844750
Parrotlet and Kākāriki,SA13 3TN,51.656024289238400,-3.599840912334140
Nukupuʻu and Stilt,CF37 4HG,51.617271658740500,-3.315007625276590
White ibis and Snipe,CF39 8TJ,51.591194000000000,-3.474865147423830
Fox and Petrel,CF44 0NF,51.714836569034100,-3.439631306501390
Black jay and Eagle,CF37 1EB,51.598807962550900,-3.349371440909780
Gull and Duck,CF38 1NN,51.567515956175500,-3.308102881201840
Ibex and Argus,CF45 3LH,51.680883995295900,-3.382721010502230
Maya and Rabbit,CF41 7DT,51.654434957007800,-3.490350980511000
Bunting and Scimitar babbler,CF40 2EZ,51.627768212389200,-3.458587572527260
Chicken and Recurvebill,CF37 1LX,51.595235274550400,-3.346493596630040
Goose and Condor,CF48 1SE,51.745692321424400,-3.405051059614200
Mouse and River dolphin,CF41 7PL,51.650141289568800,-3.486451869131490
B and Stilt,CF45 4HD,51.679846720298200,-3.371494182436100
Dolphin and Myna,CF32 8HD,51.611977398013300,-3.580208962869830
Ibex and Parrotbill,CF47 8DG,51.745507000000000,-3.379044000000000
Goose and Scimitar babbler,CF38 1LB,51.569976873506900,-3.317999763523820
Flameback and Eagle,CF37 2BL,51.602869236701000,-3.341795557077860
Old World warbler and Grosbeak,CF45 3BW,51.672566550073000,-3.373530254881370
Kākāriki and Old World quail,CF37 1PW,51.581232506193800,-3.357625757042670
Maya and Booted eagles,CF48 4QN,51.692299027642600,-3.345638000000000
Black jay and Mamo,CF41 7PX,51.645851325136000,-3.476540996095520
Boto and Warbler,CF44 8DF,51.713561000000000,-3.455716000000000
Pheasant and Warbler,CF39 8TG,51.584298379095900,-3.472480272994330
Myna and Parrotbill,CF47 0EE,51.747048044045400,-3.374818244960530
Myna and Parrotbill,CF45 3AS,51.677093132368800,-3.376285082349080
Cuscus and Lemming,CF44 0YZ,51.723325632373200,-3.426118359727050
Linsang and Jackal,CF47 8AY,51.746560586875600,-3.379407000000000
Viscacha and Parrotlet,CF41 7TD,51.642604970170600,-3.482982450481190
Stilt and Badger,CF44 0ET,51.705375776107500,-3.407101028058540
Crow and Ice seal,CF42 6LY,51.654294990651700,-3.517422775770170
Fish eagle and Masked owl,CF41 7SH,51.644237372595500,-3.460359107534980
Crow and Elephant,CF45 4AP,51.687301594438800,-3.379878623112540
Vole and Philippine hawk-owl,CF32 8BP,51.623128626774000,-3.586129400146490
Mouse and Chicken,CF47 0NJ,51.744095196127300,-3.368963702305150
Ice seal and Dorcopsis,CF35 6EL,51.574913484457600,-3.506491000000000
Eagle and Buzzard,CF44 6YL,51.702273645749300,-3.434006000000000
Parrotbill and Rabbit,CF40 1TE,51.614580130721000,-3.441598017048500
Bunting and Old World warbler,CF32 7SH,51.616819687232000,-3.536524207457240
Siskin and Old World vulture,CF48 4HR,51.708182611853200,-3.351075718419360
Thicketbird and Fulmarine petrel,CF44 6DN,51.694118560282500,-3.427919524394190
Jerboa and Badger,CF47 0YL,51.738491975377700,-3.372936406042950
Piping shrike and Old World quail,CF43 4TP,51.668815238849000,-3.478083076442800
Coati and Fish eagle,CF43 3NW,51.644928497341800,-3.443008691374310
Old World warbler and Parrotlet,CF39 0HF,51.626970241256100,-3.409079745441650
Puffleg and Puffleg,CF40 2DS,51.627693642680600,-3.478205083998530
Mamo and Mamo,CF45 3UJ,51.668626985773000,-3.362825960962570
Rabbit and Coati,CF44 8RU,51.717118495801100,-3.468844216430810
Fulmarine petrel and Prion,CF47 0HY,51.749107989295000,-3.367811525798860
Tree warbler and Eagle,CF38 1DZ,51.566427058770500,-3.322413507821030
Thrasher and Jerboa,CF32 7HA,51.613131767513700,-3.544834424953060
Elephant and Cuscus,CF45 3HN,51.681100349756900,-3.378084492535060
Black cockatoo and Egret,CF47 0GB,51.750455686696600,-3.363259980207920
Greenbul and Mink,CF44 9LQ,51.739133753987900,-3.493949000000000
Parakeet and Cuscus,CF32 7NH,51.623243673091200,-3.539673866423570
Wallaby and Chipmunk,CF44 0TR,51.733173063553100,-3.459850595247260
Wallaby and Parakeet,CF39 8TU,51.582604104223500,-3.472064657386780
Old World warbler and Tahr,CF40 1RB,51.609557750525800,-3.444919359591680
Ground sloth and Towhee,CF37 1HS,51.603359166448100,-3.350820404248070
Petrel and Thrasher,CF37 3NT,51.643368081807000,-3.372936571880590
Perching duck and River dolphin,CF38 1PF,51.569402709007200,-3.306627581559850
Jerboa and Logrunners,CF37 2PP,51.609692000000000,-3.368526000000000
Thicketbird and Maya,CF44 7LP,51.711265135291200,-3.445626005956510
Grouse and Kestrel,CF45 4BG,51.685839867446300,-3.375711351221710
Guillemot and Eagle,CF44 0AU,51.702425203447500,-3.412450699347920
Pratincole and Grouse,CF43 4AR,51.669127000000000,-3.472670000000000
Parrotlet and Night heron,CF44 6UN,51.705043492371500,-3.432359197003540
Myna and Eagle,CF44 7NY,51.712288098816700,-3.446527103758020
B and Tahr,CF44 8HE,51.715284637512100,-3.464485545946680
Grackle and Badger,CF44 0HB,51.703719514451500,-3.410247891720010
Snipe and Darwin's finches,CF45 4HH,51.678338000000000,-3.368368000000000
Goose and Thicketbird,CF42 6SY,51.663925159661900,-3.507666485426020
Marsh harrier and Kestrel,CF40 1BG,51.621022327750500,-3.455120965937930
Puffleg and Grouse,CF41 7SF,51.643681354822300,-3.460240069388520
Duck and Eagle,CF46 5NW,51.661941924794600,-3.319900875017190
Perching duck and Grosbeak,CF42 6AH,51.660892273363600,-3.507869416645390
Recurvebill and Partridge,CF41 7NX,51.640848109672100,-3.483965652757870
Moluccan boobook and Ice seal,CF39 9UY,51.616411437368600,-3.409272609519530
Old World vulture and Wader,CF39 8YY,51.590387014288400,-3.410170326480470
Cloud rat and Flameback,CF37 4NL,51.623079093951200,-3.319928274701130
Badger and Flameback,CF48 4LG,51.708778893999800,-3.342988439962620
Parrotbill and Asiatic leopard,CF37 4HB,51.618192159389300,-3.318717564353680
Pitohui and Magpie,CF39 8UH,51.582647000000000,-3.468703000000000
Recurvebill and Grackle,CF42 6AN,51.660552128563700,-3.507048465795970
Hawk and Shearwater,CF48 4RA,51.693415406437400,-3.345051024194370
Kestrel and Fox,CF48 4RS,51.686741851176800,-3.336535074387880
Meadowlark and Zebra,CF37 4EH,51.623190308823900,-3.318833606233220
Chicken and White ibis,CF40 1QN,51.611869215591700,-3.446335934140810
Chicken and Fulmarine petrel,CF42 6SB,51.662094000000000,-3.505408000000000
Piping shrike and Fish eagle,CF39 8YP,51.579393587192800,-3.445333289049550
Grouse and Mockingbird,CF40 2HR,51.629735388207700,-3.458029407448320
Kākāriki and Kākāriki,CF44 9RD,51.736330661392900,-3.511480910708500
Macaw and Magpie,CF32 8HN,51.609706545787400,-3.582570803130960
Dolphin and Perching duck,CF45 4AG,51.686146668145100,-3.378686208621700
Magpie and Chipmunk,CF37 1DJ,51.579572140845700,-3.321914312451340
Marsh harrier and Badger,CF42 5AW,51.669767615851600,-3.527325157347690
Egret and Mouse,CF40 2HJ,51.627838164600100,-3.460049000000000
Chicken and Francolin,CF44 9YN,51.749892000000000,-3.535786844833280
Stilt and Cuscus,CF32 7EA,51.600810257401500,-3.543650859796070
Quetzal and Old World quail,CF37 3AY,51.619797211543100,-3.333440158929630
Magpie and Dolphin,CF45 4DS,51.691329000831300,-3.391387274167100
Black jay and Petrel,CF41 7NJ,51.643435622875100,-3.484136867460800
Linsang and River dolphin,CF37 4DL,51.608628383734200,-3.326383118237330
Booted eagles and Egret,CF38 1DX,51.565649000000000,-3.323933488238380
Stilt and Gull,CF44 9BF,51.731928000000000,-3.477212000000000
Pitohui and Marsh harrier,CF44 0LS,51.706500026581700,-3.413069710866810
Stint and Civet,CF42 5RD,51.674074448806000,-3.531228000000000
Hawk and Marmoset,CF40 1EQ,51.612637988076500,-3.450346598161040
Philippine hawk-owl and Skunk,CF45 3PG,51.683092070809700,-3.379229865783920
Nukupuʻu and Francolin,CF44 0TS,51.732150740959000,-3.457457255410050
Shearwater and Old World vulture,CF40 2RN,51.625809000000000,-3.468067755503400
Logrunners and Chickadee,CF48 4EN,51.709468790170200,-3.348696970773580
Parrotlet and River dolphin,CF39 9HY,51.607152568109100,-3.403787050343150
Civet and Fish eagle,CF44 7EB,51.713049061002500,-3.442627000000000
Fox and Solitaire,CF43 3PY,51.642878000000000,-3.446094000000000
Treepie and Partridge,CF47 0AQ,51.737905000000000,-3.367125000000000
Thicketbird and Booted eagles,CF37 4ET,51.622248441793200,-3.317029470062660
Goose and Darwin's finches,CF42 5RG,51.672356028135400,-3.529494767189050
Philippine hawk-owl and Tahr,CF45 4BS,51.683711449905100,-3.377021028639380
Bunting and Recurvebill,CF37 4EW,51.624401471493900,-3.318276430488970
Magpie and American sparrow,CF39 9DU,51.598650000000000,-3.422170025838720
Capuchin and Viscacha,CF37 3DS,51.634869000000000,-3.356149000000000
Kite and Vulture,CF44 6PF,51.684064400354200,-3.443471804837920
Civet and Partridge,CF40 2PQ,51.617380640976200,-3.433193513424000
Pheasant and Guillemot,CF38 1RE,51.564354752030000,-3.320592780450310
Parrotlet and Hawk,CF48 1BG,51.745215832306800,-3.411047561129900
Kangaroo and Piping shrike,CF46 5NP,51.661016775915400,-3.320611346152230
Elephant and Polecat,CF37 1NU,51.590965061063600,-3.330646709983200
Capuchin and Fish eagle,CF39 9LN,51.607808896491100,-3.403041914039210
Darwin's finches and Meadowlark,CF37 2DB,51.605688000000000,-3.342283000000000
American sparrow and Vole,CF45 3PB,51.684156683024800,-3.382748409326830
Thrasher and River dolphin,CF37 5LX,51.583561000000000,-3.306410000000000
Meadowlark and Parakeet,CF46 6TT,51.701945656336300,-3.311919214200450
Tree warbler and Warbler,CF45 4FJ,51.683345000000000,-3.376602000000000
B and Pheasant,CF37 2AL,51.610526632969400,-3.335811317146100
Black jay and Argus,CF47 0TE,51.741268760151700,-3.366908467307360
Scimitar babbler and Mink,CF37 1SP,51.589881718478400,-3.323873694984880
Parakeet and Coati,CF45 4PP,51.637590291600800,-3.331216484745260
Vole and Moluccan boobook,CF48 1AX,51.725185679904000,-3.368189588573100
Old World warbler and Treepie,CF48 1RA,51.725691303919800,-3.372635350442050
Chickadee and White ibis,CF37 3PB,51.644472670859200,-3.369978207465560
Stilt and Linsang,CF44 0RE,51.716263000000000,-3.440038000000000
Fox and Meadowlark,CF37 4BP,51.600001201132300,-3.328326358434380
Prion and Boto,CF38 1BZ,51.562084533336600,-3.319372867146200
Recurvebill and Moluccan boobook,CF42 5RY,51.689041861690300,-3.553711273757370
Grosbeak and Maya,CF40 1HS,51.614343414636500,-3.431552380821010
Perching duck and Tattler,CF44 9DA,51.729038452263000,-3.482697036991110
Songlark and Mouse,CF45 4YY,51.658411035328700,-3.344216510893790
Hawaiian honeycreeper and Chipmunk,CF41 7JT,51.654393000000000,-3.494470000000000
Bunting and Bronzewing pigeon,CF32 8SF,51.573865980274700,-3.585755609348840
Boto and Zebra,CF44 9TQ,51.739601000000000,-3.505662230279040
Cloud rat and Solitaire,CF37 1TQ,51.591962150590800,-3.325969681922740
Ground sloth and Jackal,CF43 3HP,51.651022445967700,-3.430727570139310
Lemming and American sparrow,CF39 9UE,51.615748000000000,-3.398708000000000
Petrel and Parrotlet,CF37 5DB,51.586803771412200,-3.308887847224140
Rabbit and Puffleg,CF32 8HW,51.609847359646400,-3.581463655729770
Snipe and Petrel,CF42 5SN,51.683840372347200,-3.552665219061470
Maya and Wader,CF40 2RZ,51.625674158354200,-3.467159702767380
Thicketbird and Quetzal,CF39 8PG,51.583668796224400,-3.429591981252880
Peafowl and Puffleg,CF48 4AH,51.743535321089000,-3.352086901004950
Capuchin and Black cockatoo,CF45 4YG,51.661789733705000,-3.351458929925520
Crow and Skunk,CF32 8BL,51.623086242065000,-3.587269184509300
Parrotbill and Thrasher,CF39 8DB,51.580736268497900,-3.436312160545570
Elephant and Rat,CF37 2EW,51.609135345185600,-3.347395935325370
Old World quail and Thicketbird,CF39 8RU,51.596637257637200,-3.477340674863320
Perching duck and Old World warbler,CF42 6RA,51.659334602386800,-3.501716521079800
Cuscus and Mink,CF44 9PJ,51.738622075462000,-3.562609890233720
Jerboa and Goose,CF39 8EL,51.585085819628500,-3.429896280144220
Petrel and Chipmunk,CF47 7BY,51.742313000000000,-3.375830000000000
Shearwater and Crow,CF39 9TL,51.611684021091900,-3.398426000000000
B and Bunting,CF44 8PE,51.723493294223800,-3.456599637229360
Meadowlark and Stilt,CF46 6TL,51.700841221840800,-3.310975607634730
Ground sloth and Coati,CF39 8HW,51.582643651359300,-3.444281769028350
Ibex and Mole,CF48 4DD,51.722464656353400,-3.354701084622190
Vole and Pheasant,CF37 4LQ,51.610095000000000,-3.327448000000000
Flameback and Eagle,CF45 3NL,51.682416000000000,-3.380340792128190
Guillemot and Minke whale,CF39 8HT,51.583191301088700,-3.441426873982580
Polecat and Eagle,CF40 2QA,51.619975552052100,-3.443040205937270
Linsang and Eagle,CF41 7TR,51.643482321363700,-3.480569000000000
Hawaiian honeycreeper and B,CF47 0YH,51.737920586237000,-3.368733599040490
Linsang and Mouse,CF44 8YE,51.717780828290700,-3.464768876435120
Darwin's finches and Asiatic leopard,CF46 5NA,51.664288006306900,-3.315963904582090
Marmoset and Eagle,CF40 2PZ,51.620139181412100,-3.442164240094100
Scimitar babbler and Tahr,CF37 2NW,51.609878518912200,-3.383984687556010
Hawaiian honeycreeper and Old World quail,CF39 9UP,51.613736881348300,-3.406604431681130
Hawk and Old World warbler,CF42 6SW,51.663064051418400,-3.508201794036860
Jay and Herring gull,CF37 1SR,51.588466473866500,-3.322591136228330
White ibis and Siskin,CF47 0RF,51.742277298411200,-3.372182134093520
Solitaire and Gull,CF39 8LB,51.588127919808400,-3.419295460316130
Stilt and Moluccan boobook,CF41 7SR,51.642674809782900,-3.453894000000000
Linsang and Capuchin,CF41 7HG,51.647198351811000,-3.492325038076710
Tattler and Warbler,CF48 4LR,51.708429930731300,-3.342051818826020
Fox and Civet,CF40 2LU,51.635939786969500,-3.448590105730660
Dorcopsis and Prion,CF37 3HB,51.627493390847000,-3.353155402098750
Kestrel and Polecat,CF37 3DX,51.627045367352600,-3.335747561918440
Tahr and Buzzard,CF47 0RL,51.741434263471200,-3.372764905799780
Tree warbler and Kestrel,CF48 1DF,51.749850749674700,-3.388622525353190
Darwin's finches and Vole,CF39 9EG,51.604494505769900,-3.418448490855340
Dolphin and Mole,CF42 5ST,51.684271296307600,-3.547949654416930
Darwin's finches and Tahr,CF44 7HL,51.708981452606400,-3.441949280076760
Tit-tyrant and Pitohui,CF39 8GA,51.570105000000000,-3.415485000000000
Petrel and Myna,CF44 8ET,51.720863509079300,-3.447481261892760
Hawk and Bronzewing pigeon,CF47 8DF,51.745479592862100,-3.377839000000000
Fulmarine petrel and Philippine hawk-owl,CF37 4AH,51.603179498696400,-3.327162876375710
Mole and Ground sloth,CF32 8YF,51.565403600248000,-3.583816303175930
Moluccan boobook and Mouse,CF37 2SE,51.609471246151900,-3.361642000000000
Mamo and Viscacha,CF37 5LY,51.583978706434500,-3.306612748851010
Cuscus and Cuscus,CF39 0NH,51.621813755787500,-3.412415826991480
Dorcopsis and Prion,CF43 3LE,51.639285326730400,-3.432424584052860
Meadowlark and Meadowlark,CF40 2JW,51.634044162030600,-3.450639343229340
New World blackbird and Fulmarine petrel,CF44 0HY,51.710621613578900,-3.420247015927440
Badger and Fulmarine petrel,CF44 8DT,51.717333093940100,-3.451581070610790
Dolphin and Snipe,CF37 3EX,51.627106201517700,-3.335142563628420
