name,postcode,lat,lon
Minke whale and Chipmunk,AL7 4HB,51.783793190000000,-0.193751691000000
Badger and Duck,AL9 5AR,51.760973240000000,-0.212703500000000
Gull and Crow,AL4 8TQ,51.805978710000000,-0.293211132000000
Marsh harrier and Egret,WD5 0JY,51.697080080768000,-0.423446448624190
Old World warbler and Egret,AL2 2JU,51.716405720000000,-0.332399871000000
Duck and Grosbeak,AL10 8SH,51.747814950000000,-0.228549608000000
Ibex and Partridge,WD7 9AZ,51.683068722773800,-0.282850602933468
Rat and Cuscus,WD25 8DL,51.665172784803000,-0.349854918371174
Goose and Wallaby,HP3 9WY,51.732969638778800,-0.458908179344204
Petrel and Chickadee,AL5 2EZ,51.821940100000000,-0.365419434000000
Hawk and Siskin,WD6 1UN,51.659450000000000,-0.278683000000000
Skunk and Hawk,WD7 7LA,51.683769895790600,-0.317006920633334
Kākāriki and Dolphin,WD17 4BS,51.663204911418500,-0.403960381989574
Rabbit and Fox,HP2 5BA,51.764506659485500,-0.466674308787045
Parrotbill and Coati,WD25 0BJ,51.702723000000000,-0.399363000000000
Chickadee and Thrasher,AL4 0BS,51.760892930000000,-0.301896270000000
Herring gull and Fish eagle,AL3 5SB,51.766276010000000,-0.337533506000000
Songlark and Coati,AL5 4JE,51.819717030000000,-0.356881372000000
Bunting and Cuscus,WD6 4LY,51.660024007697100,-0.285456862813280
Thrasher and Badger,AL4 9NP,51.770598690000000,-0.315257479000000
Logrunners and Scimitar babbler,EN5 4BF,51.682826000000000,-0.190511000000000
Argus and Solitaire,WD7 8DX,51.680749283367900,-0.331554849657845
B and Minke whale,AL3 7BD,51.800333760000000,-0.396845827000000
Tree warbler and White ibis,WD4 8AB,51.713283024166000,-0.449763310795625
Stint and Tree warbler,AL1 2ZY,51.747650000000000,-0.301973000000000
Gull and Parakeet,AL3 8DL,51.815867000000000,-0.437187611000000
Bronzewing pigeon and Armadillo,AL1 5QD,51.740393090000000,-0.310138634000000
Marsh harrier and Parakeet,AL2 2JL,51.717727140000000,-0.345090705000000
Ice seal and Rat,AL2 2JY,51.713463000000000,-0.332754000000000
Grouse and Mockingbird,HP2 4NL,51.749677817692100,-0.423079018103938
Bronzewing pigeon and Solitaire,AL7 3AB,51.795952070000000,-0.205012442000000
Kangaroo and Bunting,WD24 6DH,51.675826484315200,-0.398440159255378
Parrotlet and Vole,WD7 8HL,51.682030708867300,-0.317375178289436
Skunk and Siskin,AL3 4LY,51.742122260000000,-0.361769105000000
Wader and Parakeet,HP3 8BQ,51.737258516573800,-0.445916134132815
Diving bird and Cloud rat,AL2 3FP,51.702641000000000,-0.346039000000000
Piping shrike and Magpie,AL3 5JF,51.755586000000000,-0.343861627000000
Thrasher and Stint,WD25 9ET,51.678167135958300,-0.380478000000000
Mockingbird and Marmoset,AL3 8RR,51.834584700000000,-0.462945487000000
Treepie and B,AL2 1NU,51.720687270000000,-0.294282012000000
Booted eagles and Philippine hawk-owl,AL10 9NH,51.758645650000000,-0.247426324000000
Scimitar babbler and Asiatic leopard,AL3 7DJ,51.797598080000000,-0.414591915000000
Egret and Night heron,AL4 9QH,51.766375170000000,-0.309183056000000
Elephant and Mink,AL4 8LH,51.837927530000000,-0.303194528000000
Boto and Viscacha,WD25 9PL,51.693934564528200,-0.384518558614631
Eagle and Hawaiian honeycreeper,AL9 5AF,51.762833640000000,-0.215006601000000
Peafowl and Old World vulture,AL10 9HH,51.754933190000000,-0.234892427000000
Recurvebill and Towhee,HP2 5FZ,51.760911441956400,-0.466100567178078
Viscacha and Hawk,AL2 3XL,51.703574250000000,-0.371512193000000
Grackle and Lemming,WD6 1FX,51.659272000000000,-0.252029000000000
Fulmarine petrel and Shearwater,HP2 7NL,51.779867562252700,-0.440915532558197
Jay and Warbler,AL4 9BT,51.770481610000000,-0.297768091000000
Mamo and Meadowlark,WD7 8JA,51.678409293020200,-0.322571853757990
Chipmunk and Quetzal,AL3 7HY,51.798507380000000,-0.405365506000000
Darwin's finches and Petrel,HP2 6DS,51.769612420518300,-0.459675083140062
Macaw and B,HP3 9SZ,51.730273917788600,-0.458362719594195
Quetzal and Dolphin,AL2 1GB,51.721965340000000,-0.310981000000000
Tree warbler and Partridge,AL1 2AL,51.740179780000000,-0.349542621000000
Boto and Logrunners,HP2 7LL,51.777581852934400,-0.436718099247832
Dorcopsis and Puffleg,WD4 9HS,51.713921376222800,-0.453852453168027
Civet and Boto,HP2 6LB,51.776373415177300,-0.456183469457232
Siskin and Quetzal,AL3 6NR,51.770263940000000,-0.326444419000000
Mockingbird and Parrotbill,AL1 5AA,51.738265240000000,-0.312868450000000
Minke whale and Marmoset,AL7 4JS,51.785558610000000,-0.195116535000000
Viscacha and Crow,AL5 1DF,51.801568680000000,-0.343864467000000
Old World quail and Partridge,AL5 5RH,51.817750510000000,-0.339350000000000
Partridge and Mockingbird,WD25 7JH,51.699984643583100,-0.400177668627426
Old World quail and Hawaiian honeycreeper,HP2 6LW,51.773432166094500,-0.460226274533778
Guillemot and Vulture,AL1 1UQ,51.736410590000000,-0.314588545000000
River dolphin and Jerboa,WD4 8AR,51.724924707876000,-0.455011862193657
Linsang and Argus,AL9 5LR,51.773175490000000,-0.218033799000000
River dolphin and Mink,AL4 8EW,51.807189830000000,-0.253826703000000
Tahr and Elephant,AL8 6DB,51.792878670000000,-0.208672706000000
Francolin and Tit-tyrant,AL8 7PX,51.810037670000000,-0.199984883000000
Triller and Marsh harrier,WD24 6PB,51.677092667437600,-0.406249210105944
Cuscus and Mole,WD6 4AJ,51.669936321518400,-0.285661085160419
Ibex and Pitohui,EN6 2DZ,51.694542233290900,-0.194659397982052
Warbler and Macaw,AL4 8RG,51.819792000000000,-0.291350296000000
New World blackbird and Jackal,HP2 6EW,51.777368809666700,-0.450510734877982
Ground sloth and Masked owl,HP3 9QX,51.740677473203800,-0.467987994411169
Thicketbird and Petrel,HP2 6LE,51.779784985222500,-0.450311998724992
Parrotlet and Boto,AL1 3QD,51.758019940000000,-0.329186481000000
Old World quail and Shearwater,AL3 5UA,51.760945180000000,-0.349756394000000
Magpie and Old World vulture,HP2 7JP,51.777994200758500,-0.442719590650183
Tit-tyrant and Vole,WD25 8NN,51.672063069180000,-0.355794286587587
Tattler and White ibis,AL8 7PS,51.809923060000000,-0.201309534000000
Booted eagles and Fish eagle,HP3 0FQ,51.734230000000000,-0.468721000000000
Ice seal and Stint,WD17 3EG,51.668054000000000,-0.416689000000000
Grosbeak and Shearwater,WD17 4JX,51.678716302354600,-0.425964584363163
Old World warbler and Moluccan boobook,WD5 0JF,51.695478598858700,-0.429420079560963
Mouse and Meadowlark,WD6 5JP,51.667072597016600,-0.268821384546639
Old World vulture and Duck,AL1 9DY,51.747828000000000,-0.301865000000000
Fish eagle and Wallaby,AL10 9EA,51.744946520000000,-0.236324661000000
Songlark and Stilt,AL5 1JE,51.810128980000000,-0.323561094000000
Mamo and Piping shrike,AL8 6LP,51.796846480000000,-0.222452077000000
Masked owl and Solitaire,AL6 9EL,51.829208010000000,-0.214691124000000
Jerboa and Vole,WD25 7JF,51.700519381900700,-0.401808508278683
Shearwater and Jackal,AL2 1TL,51.718012840000000,-0.282294503000000
Black cockatoo and Coati,WD25 9RP,51.678964862925700,-0.378788326660998
Old World warbler and Gull,AL4 0SR,51.750600870000000,-0.285433639000000
Tattler and Rabbit,AL4 8PZ,51.807687250000000,-0.295075832000000
Old World vulture and Dolphin,WD6 4ST,51.658995281763300,-0.283977599874478
Parrotbill and Thrasher,AL7 4JP,51.786550960000000,-0.196497821000000
Fox and Tree warbler,AL1 3HG,51.754943960000000,-0.335472132000000
Scimitar babbler and Meadowlark,WD25 7DS,51.692916578481900,-0.407429697257208
Civet and Asiatic leopard,WD7 8ET,51.694366250587200,-0.326076745394110
Shearwater and Crow,HP2 4QP,51.755881748656900,-0.440568110474330
Boto and Piping shrike,AL10 0ET,51.766569820000000,-0.218264957000000
Viscacha and Linsang,AL9 7PF,51.730797430000000,-0.210871000000000
Asiatic leopard and Lemming,AL2 3AX,51.730737120000000,-0.361673937000000
Snipe and Kākāriki,WD17 3AS,51.660539736172000,-0.410993999053633
Jerboa and Peafowl,AL2 3EH,51.721149910000000,-0.363482730000000
Booted eagles and Dorcopsis,AL5 3PS,51.829978000000000,-0.402571000000000
Thrasher and Condor,AL4 0EY,51.745640830000000,-0.298050123000000
Egret and Skunk,HP2 5RZ,51.765255882271000,-0.465518577445705
Triller and Black jay,WD25 7AZ,51.691379208803200,-0.411433448597756
Darwin's finches and Jay,HP3 8BS,51.733885000000000,-0.446394000000000
Condor and Skunk,AL4 9RG,51.769780620000000,-0.297794463000000
Pheasant and B,AL1 2BL,51.743011400000000,-0.334187027000000
Shearwater and Old World quail,AL5 1BT,51.797525040000000,-0.344056130000000
Pratincole and Old World quail,HP3 9RL,51.733445424381000,-0.462280659458638
Stilt and Kākāriki,AL4 0WA,51.747650000000000,-0.301973000000000
Hawk and Mouse,AL6 9NW,51.835788690000000,-0.223502546000000
Badger and Parrotlet,AL6 9FS,51.834043000000000,-0.209130000000000
Civet and Kākāriki,WD25 9BF,51.682274112057100,-0.387812252364595
American sparrow and Solitaire,AL3 4GB,51.743023166643600,-0.356505000000000
Tree warbler and Peafowl,WD25 7HS,51.697369209494200,-0.393020409340550
Meadowlark and Rabbit,AL2 1AU,51.718518820000000,-0.286155163000000
Grackle and Prion,WD17 3AY,51.663006902489000,-0.418570995250703
Minke whale and Tree warbler,AL1 3BW,51.748906530000000,-0.330131211000000
Ground sloth and Kangaroo,WD25 9TR,51.696337436428900,-0.378789800095544
Chickadee and Thicketbird,AL5 5RA,51.819120500000000,-0.336198560000000
B and Stint,EN6 2ND,51.689988189974000,-0.186810830977822
Rabbit and Duck,AL1 3AA,51.752843890000000,-0.337664571000000
Greenbul and Herring gull,AL7 3ST,51.795359130000000,-0.203281277000000
Tit-tyrant and Chipmunk,AL5 2LZ,51.800515040000000,-0.365599755000000
Thicketbird and Magpie,AL4 8LR,51.833637610000000,-0.304386264000000
Bunting and Fox,AL10 8TF,51.746662350000000,-0.226653562000000
Jackal and Herring gull,AL7 3AE,51.799504360000000,-0.196227531000000
Puffleg and Ground sloth,HP2 7XX,51.764361147789300,-0.439073256830287
Civet and Shearwater,AL4 8RW,51.827794140000000,-0.302471000000000
Flameback and Logrunners,WD17 2QQ,51.659444000000000,-0.393267951862722
Chicken and Eagle,WD25 7SU,51.700088526060700,-0.393951513379686
Eagle and Jay,AL10 9FD,51.777033950000000,-0.235378255000000
Mink and Hawk,AL1 2PG,51.738778790000000,-0.344553459000000
Herring gull and Hawaiian honeycreeper,WD25 9NE,51.698662173557900,-0.381094350965859
Stilt and Nukupuʻu,WD6 5DU,51.664847034192400,-0.277076051751694
Gull and Wader,AL1 4RJ,51.763824140000000,-0.320031007000000
Solitaire and Kākāriki,AL5 9FZ,51.747650000000000,-0.301973000000000
Darwin's finches and Parakeet,WD5 0PA,51.704898983034300,-0.408589000000000
Duck and Mouse,WD4 8BB,51.724149399130800,-0.461712877680620
Asiatic leopard and Gull,AL5 4JR,51.827619920000000,-0.351674293000000
White ibis and Recurvebill,AL3 4SH,51.753714720000000,-0.354178051000000
Greenbul and Badger,AL5 1QY,51.806642910000000,-0.347899490000000
Darwin's finches and White ibis,AL1 4SF,51.762828590000000,-0.318952147000000
Mole and Grouse,WD6 5AJ,51.663436616583300,-0.272271185074265
Capuchin and Duck,WD4 8SS,51.712473866644000,-0.442293035946145
Greenbul and Black cockatoo,AL8 6BW,51.801134930000000,-0.206416498000000
Elephant and B,WD23 2BJ,51.665145292091700,-0.366384000000000
Skunk and American sparrow,AL9 7JE,51.736109190000000,-0.213775000000000
Recurvebill and Duck,AL5 1QE,51.805863130000000,-0.341052693000000
Masked owl and Grackle,WD5 0GP,51.704004595400000,-0.406172070879544
Hawaiian honeycreeper and Wader,AL7 3RN,51.793597910000000,-0.198072847000000
Treepie and Booted eagles,AL1 3RB,51.752123340000000,-0.328071226000000
Mink and Mink,AL8 6DX,51.798468910000000,-0.209669388000000
Marmoset and Condor,AL3 7HX,51.796759470000000,-0.405108125000000
Pratincole and Shearwater,AL6 9NE,51.835503000000000,-0.218288529000000
Goose and Wallaby,WD6 4JE,51.669719166227700,-0.278192729208063
Viscacha and Parakeet,AL1 9JH,51.747655000000000,-0.301949000000000
Goose and American sparrow,AL1 1RG,51.747585920000000,-0.337828622000000
Eagle and Tattler,AL3 6AL,51.757889350000000,-0.394002607000000
Bunting and Scimitar babbler,WD6 5HE,51.663244936584500,-0.275748725457249
Mouse and Gull,AL10 0QR,51.772701750000000,-0.226546200000000
Chipmunk and Tahr,WD6 4DY,51.667947988046200,-0.283740548710507
Dolphin and Crow,AL8 6YU,51.790104010000000,-0.218396167000000
Myna and Fox,HP2 4PT,51.750849189324200,-0.432790000000000
Dorcopsis and Parrotlet,HP3 8HH,51.746602462844500,-0.439236284796351
River dolphin and Chickadee,AL7 3RT,51.795501230000000,-0.190267513000000
Pheasant and Hawaiian honeycreeper,AL3 6BL,51.767149000000000,-0.337588389000000
Flameback and Diving bird,AL1 3AX,51.750188240000000,-0.332372895000000
Grackle and Francolin,AL7 3UU,51.796118340000000,-0.197073251000000
Vole and Fox,WD25 9RW,51.686791414210400,-0.384776000000000
Philippine hawk-owl and Peafowl,HP3 9RE,51.736510107440600,-0.463537989569480
Marsh harrier and Vole,HP2 5GH,51.764175000000000,-0.439340000000000
Bunting and Jackal,AL1 9FP,51.747650000000000,-0.301973000000000
Grouse and Egret,AL2 2LU,51.720583920000000,-0.338529421000000
Polecat and Piping shrike,AL2 2DP,51.724152640000000,-0.354426497000000
Parrotlet and Crow,WD25 0RH,51.686679467103000,-0.403699183805212
Parakeet and Duck,AL2 2TU,51.721581770000000,-0.353202350000000
Kākāriki and Grackle,WD24 6DL,51.675385968346000,-0.399106534578700
Tit-tyrant and Solitaire,AL5 3BQ,51.823799760000000,-0.369835895000000
Black jay and Chickadee,AL1 9YL,51.753408337354000,-0.336122676535098
Chipmunk and Logrunners,AL8 7RU,51.808868260000000,-0.206428655000000
Chickadee and Wader,WD17 1TB,51.658943498074800,-0.397416142490097
Herring gull and Guillemot,AL5 4HB,51.823601410000000,-0.354302274000000
Ice seal and Mamo,AL3 7EB,51.803523380000000,-0.401286947000000
Prion and Parrotbill,AL5 4LU,51.829606620000000,-0.349715142000000
Hawk and Crow,AL2 1RL,51.722376090000000,-0.295405668000000
Rabbit and Diving bird,WD7 7BZ,51.689032513939000,-0.316536867364122
Thrasher and Peafowl,WD7 0AQ,51.682945964015500,-0.317239989778771
Thrasher and Macaw,AL4 0AS,51.745053630000000,-0.301592153000000
Logrunners and Diving bird,WD25 9RG,51.687882889833000,-0.385168002078915
Chickadee and Piping shrike,HP2 5BZ,51.757884657932500,-0.468303000000000
Magpie and New World blackbird,AL4 0TE,51.749884590000000,-0.288111886000000
Pheasant and B,WD17 4LF,51.667030056433700,-0.410188517006321
Chicken and Condor,HP3 9TW,51.736525062534300,-0.455760405903117
Partridge and Viscacha,HP2 7UP,51.761958000000000,-0.436409000000000
Masked owl and Egret,AL10 8LQ,51.744623100000000,-0.231557066000000
Parrotlet and Dorcopsis,AL5 4AT,51.823292190000000,-0.357912133000000
Boto and Condor,AL3 5BP,51.756053030000000,-0.339285000000000
Hawaiian honeycreeper and Zebra,WD25 9BG,51.681266354996400,-0.377968496801103
Pheasant and Parrotbill,AL2 1NE,51.726555750000000,-0.305861950000000
Eagle and Dolphin,HP3 9QN,51.734600794974500,-0.462617974448609
Badger and Old World vulture,AL1 4HH,51.757995650000000,-0.316769834000000
Black cockatoo and Marmoset,HP1 9ST,51.764182000000000,-0.439318000000000
Thrasher and Fulmarine petrel,AL7 1LA,51.799755740000000,-0.191518471000000
Lemming and Eagle,WD25 0BH,51.684570437696000,-0.405986649754536
Marmoset and Vulture,AL4 8QF,51.808823400000000,-0.298398329000000
Partridge and Parrotlet,AL3 7EA,51.796579000000000,-0.405608000000000
Viscacha and Triller,WD24 7PQ,51.673079780407100,-0.384349519167910
Viscacha and New World blackbird,AL5 1JP,51.805317630000000,-0.329831574000000
Scimitar babbler and Grosbeak,AL5 3LR,51.829311060000000,-0.377589687000000
Jackal and Mockingbird,AL3 5BU,51.755585630000000,-0.337607363000000
Cuscus and Parrotlet,AL7 4JB,51.781173280000000,-0.191203337000000
Maya and Coati,AL1 2PH,51.742121860000000,-0.345054104000000
River dolphin and Civet,WD5 0AL,51.704880585887300,-0.418603000000000
Zebra and Rat,HP2 7TR,51.765364271235100,-0.441632593187412
Flameback and Grosbeak,AL7 4EL,51.783426000000000,-0.185187000000000
Chicken and Peafowl,AL3 7BB,51.796467090000000,-0.404103318000000
Towhee and Darwin's finches,HP3 9PN,51.739248662815500,-0.463923055486611
American sparrow and Guillemot,HP3 8QY,51.745480115924000,-0.436653115109601
Black jay and Dorcopsis,WD7 9LE,51.693800263055700,-0.285584267085631
Wader and Herring gull,AL1 5WD,51.748645780000000,-0.317523038000000
Old World warbler and Maya,WD5 0EA,51.708162386298200,-0.412408747081678
Masked owl and Kite,HP1 9RF,51.764175868000000,-0.439340491000000
White ibis and Mouse,AL8 7DU,51.816476000000000,-0.215983000000000
Eagle and Linsang,AL10 0LZ,51.763702390000000,-0.229043636000000
Grouse and Flameback,WD6 4LA,51.669253024196100,-0.290603709704660
Diving bird and Vulture,AL7 1SY,51.804480900000000,-0.195898347000000
Tit-tyrant and Badger,AL5 4PW,51.825663600000000,-0.346187907000000
Old World quail and Kestrel,AL4 8JF,51.820882140000000,-0.324743539000000
Armadillo and Siskin,EN5 4RJ,51.677934695280200,-0.188304818439503
Duck and Parakeet,HP3 9FJ,51.735248088472400,-0.461234698180763
Elephant and Zebra,HP2 5EQ,51.757059276658100,-0.456204690511550
Chickadee and Philippine hawk-owl,AL5 5PA,51.816669000000000,-0.350376000000000
Chicken and Mouse,WD17 4RA,51.663744073823300,-0.402611180161635
Guillemot and Peafowl,WD17 3JN,51.658962657749100,-0.403444367020938
Booted eagles and Magpie,AL5 2AG,51.794501730000000,-0.354158207000000
Argus and Jay,AL9 5FB,51.766704000000000,-0.215352000000000
Cuscus and Songlark,AL1 1LE,51.750470400000000,-0.337056329000000
Moluccan boobook and Maya,AL3 4PH,51.752152970000000,-0.342862029000000
Booted eagles and White ibis,AL3 7BE,51.801633990000000,-0.397901968000000
Parrotbill and Eagle,AL2 1UW,51.723959000000000,-0.314709515000000
Boto and Fish eagle,AL1 3PD,51.755046380000000,-0.327485153000000
Scimitar babbler and Recurvebill,AL10 0FE,51.763529980000000,-0.233122490000000
Towhee and Chipmunk,AL10 9JZ,51.766614920000000,-0.249393003000000
Marmoset and Songlark,WD6 1PS,51.659266590249200,-0.272429789769933
Cloud rat and Polecat,HP2 5QN,51.764135287344100,-0.456847307387267
Chickadee and Flameback,AL3 6DF,51.771359392336300,-0.343347240264817
Zebra and Dolphin,AL10 9UW,51.752589000000000,-0.237360000000000
Prion and Mamo,AL3 4SF,51.754602030000000,-0.353971933000000
Piping shrike and Kangaroo,AL10 0PB,51.768444110000000,-0.223872440000000
Grosbeak and Marmoset,WD24 7NA,51.676658017140400,-0.380389367586283
Hawk and Puffleg,AL1 5LD,51.748583380000000,-0.308789966000000
River dolphin and Marsh harrier,WD25 7GP,51.691741655961200,-0.412968859656354
Rat and Partridge,AL1 1RB,51.748064560000000,-0.340519999000000
Buzzard and Puffleg,AL1 4LB,51.752592410000000,-0.315579891000000
Pheasant and Mole,WD17 4BX,51.670536936689100,-0.408055682877198
Tattler and Fulmarine petrel,AL8 6WX,51.804194410000000,-0.205381279000000
Flameback and Buzzard,AL5 4LF,51.830542250000000,-0.353599394000000
Towhee and Pratincole,AL1 9UT,51.747650000000000,-0.301973000000000
Francolin and Flameback,AL3 8RU,51.835282670000000,-0.461310655000000
Tit-tyrant and Black cockatoo,AL4 9NU,51.770048350000000,-0.310118311000000
Parrotlet and Lemming,AL5 9FW,51.747650000000000,-0.301973000000000
Diving bird and Tahr,WD4 8JE,51.723228546266400,-0.449281000000000
Thrasher and Ibex,EN6 3NY,51.690363879421500,-0.236291283358191
Cloud rat and Tit-tyrant,WD6 4BD,51.670875922127700,-0.283384108195868
Maya and Cloud rat,AL10 9RR,51.757967120000000,-0.248959521000000
Masked owl and Rabbit,AL5 5HT,51.829534230000000,-0.341373118000000
Songlark and Vole,AL5 3PB,51.830861060000000,-0.384369534000000
Crow and Puffleg,AL4 9TU,51.763238340000000,-0.305986000000000
Maya and Duck,AL1 5JF,51.750595240000000,-0.312380083000000
Booted eagles and Snipe,HP3 9FB,51.737652725877000,-0.456040589014868
Fox and Wallaby,AL1 2PB,51.738284000000000,-0.343805277000000
Linsang and Armadillo,AL10 0PQ,51.769286040000000,-0.231404911000000
B and Black cockatoo,AL8 7AX,51.813692740000000,-0.223921886000000
Marmoset and Thrasher,EN6 2NE,51.689300233721600,-0.187098742377640
Cloud rat and Duck,AL3 6DA,51.771172450000000,-0.334063519000000
Bunting and Prion,HP3 9NQ,51.742621457921000,-0.461925704214261
Coati and Capuchin,AL10 8HZ,51.748465660000000,-0.234144975000000
Petrel and Treepie,AL3 7QG,51.793862080000000,-0.397684366000000
Chicken and Stint,EN6 3DD,51.700049007594300,-0.210170460796470
Dorcopsis and Kite,AL10 0AW,51.766694150000000,-0.231259843000000
Fox and Diving bird,WD6 5QU,51.663136283869100,-0.259240274665433
Diving bird and Greenbul,EN6 3DG,51.700703850544000,-0.211837777757312
Buzzard and Dorcopsis,AL3 8EW,51.820041070000000,-0.430113000000000
Polecat and Elephant,WD4 8AN,51.723668263565400,-0.455879956596418
Grackle and Old World warbler,AL4 8DL,51.811678090000000,-0.297276000000000
Armadillo and Myna,WD24 7GL,51.678972000000000,-0.387115542674616
Duck and Capuchin,WD17 3HJ,51.675535359204200,-0.420101629216557
New World blackbird and Kite,AL3 6DS,51.772763090000000,-0.342904421000000
Quetzal and Polecat,WD6 4HY,51.668908618785900,-0.285482965396274
White ibis and Old World quail,AL10 9LX,51.763677580000000,-0.248390784000000
Tahr and B,AL4 8RY,51.832479090000000,-0.302615592000000
Perching duck and Moluccan boobook,EN6 2JY,51.697318585066900,-0.199787182829919
Shearwater and Cuscus,AL6 9BY,51.836501740000000,-0.272578331000000
Eagle and Francolin,WD17 2RE,51.658427682394700,-0.389945283099400
Polecat and Mockingbird,AL5 3EZ,51.827262780000000,-0.379680407000000
Macaw and Parrotbill,AL5 1EF,51.805648040000000,-0.340465893000000
Rabbit and Marmoset,AL4 9LF,51.770044040000000,-0.314828836000000
Fish eagle and Stilt,EN6 1PP,51.694000371537500,-0.185753385530075
Bunting and Vole,WD24 4HB,51.671291353870300,-0.385729170726085
Wallaby and Argus,EN6 3LY,51.693843524048700,-0.259784176107270
Kestrel and Chipmunk,WD25 9JZ,51.685553693710700,-0.391702840467602
Boto and Solitaire,WD24 5EL,51.673298455450200,-0.402969273719548
Vulture and Triller,AL10 8HG,51.757804810000000,-0.232708431000000
Asiatic leopard and Meadowlark,WD25 7GD,51.690062101569600,-0.415110945394652
Boto and Kangaroo,WD25 0AZ,51.686504286785400,-0.408681842640894
Wallaby and Polecat,AL4 8PU,51.806484880000000,-0.295251745000000
Songlark and Stint,WD4 8NX,51.719388049016100,-0.424711995855239
Warbler and Fox,AL5 4PA,51.827690640000000,-0.350946118000000
Kite and Solitaire,WD17 4BN,51.674370907240300,-0.413764107263015
Grosbeak and Linsang,HP3 9TB,51.728908128698600,-0.456381980456068
Kite and Philippine hawk-owl,WD6 5JG,51.666810613263100,-0.272403118029422
Towhee and Masked owl,HP3 9FU,51.737024118985200,-0.463650900422474
Siskin and Treepie,WD6 1NS,51.660875589733800,-0.275448282265975
Towhee and Argus,AL2 1JH,51.724803500000000,-0.295994881000000
Greenbul and Gull,WD7 7EN,51.683360044583600,-0.307257759670012
River dolphin and White ibis,WD7 7LB,51.682835916544200,-0.316462930495819
Piping shrike and Minke whale,AL2 1GE,51.720874520000000,-0.311457000000000
Kākāriki and Mole,WD17 4UU,51.674856440827700,-0.413761607531514
Greenbul and Triller,AL2 3LW,51.706256550000000,-0.360200000000000
Shearwater and Pitohui,AL1 5NG,51.747739450000000,-0.308256520000000
Coati and Jackal,AL1 5LB,51.749492520000000,-0.309480353000000
Masked owl and Philippine hawk-owl,AL2 1SA,51.722033220000000,-0.297184890000000
Argus and Night heron,AL1 5FJ,51.751527600000000,-0.309056669000000
Wader and Treepie,EN6 2AX,51.698150360350500,-0.199493701970161
Solitaire and Ground sloth,WD6 1TH,51.661026232602800,-0.268574695662237
Capuchin and Condor,WD17 4FS,51.681460000000000,-0.425927000000000
Boto and American sparrow,AL3 8RP,51.834290510000000,-0.465205143000000
Vole and Kestrel,AL4 8FJ,51.813840880000000,-0.295064000000000
Gull and Tit-tyrant,WD25 0JN,51.702703041766200,-0.394452281551924
Pitohui and Kākāriki,AL1 3AF,51.748047870000000,-0.328554891000000
Polecat and Night heron,WD23 2AR,51.667168043121100,-0.371690039375504
Jerboa and Petrel,AL1 1EX,51.750127740000000,-0.339531704000000
Stilt and Recurvebill,AL3 7RG,51.817211100000000,-0.409406042000000
Nukupuʻu and Goose,AL6 0DR,51.823653320000000,-0.194232805000000
Jackal and Jackal,AL2 2NA,51.722607740000000,-0.340482182000000
Lemming and Dolphin,AL5 1HG,51.804907830000000,-0.333269800000000
Parrotlet and Ibex,WD6 1PW,51.661248027429300,-0.274479865892936
American sparrow and Argus,HP3 9HP,51.737418010827300,-0.470256232572260
Logrunners and Chicken,WD6 4QT,51.664719924197300,-0.281288684791910
Night heron and Fox,WD25 7DP,51.695017775219900,-0.404563373327343
Armadillo and B,WD25 8BL,51.677160437850100,-0.346107049517625
Snipe and Bunting,WD5 0GE,51.705203840047600,-0.405753641929510
Badger and Parakeet,AL5 3NP,51.828376930000000,-0.367914691000000
White ibis and Piping shrike,WD17 4YA,51.663607148982500,-0.403122069930525
Wallaby and Magpie,AL5 5LA,51.815783060000000,-0.349494799000000
Civet and Solitaire,WD4 8QN,51.702487576662300,-0.459625649518241
Diving bird and Wallaby,AL3 5LE,51.760141000000000,-0.341729000000000
Crow and Marmoset,AL2 2RB,51.720796440000000,-0.350422228000000
New World blackbird and Minke whale,AL10 0DL,51.764457000000000,-0.233699559000000
Vole and Guillemot,AL2 2NY,51.728372710000000,-0.340560668000000
Greenbul and Philippine hawk-owl,HP2 4LJ,51.750276380322600,-0.463520021788102
Tattler and New World blackbird,HP3 9LX,51.742157984170000,-0.450600267756475
Triller and Viscacha,AL3 7PW,51.804616820000000,-0.400363500000000
Viscacha and Marsh harrier,AL5 5TF,51.810281170000000,-0.345735579000000
Egret and White ibis,WD6 9SE,51.659524107048700,-0.268545200814426
Scimitar babbler and Parrotbill,WD7 7JP,51.678260147912100,-0.314665513615288
Solitaire and Buzzard,WD25 0RJ,51.683543746416000,-0.403881794080851
Parrotlet and Greenbul,AL10 8QL,51.752571540000000,-0.229131363000000
Dorcopsis and Hawaiian honeycreeper,AL2 3QA,51.708680180000000,-0.368810417000000
Nukupuʻu and Old World warbler,AL2 3LP,51.705416350000000,-0.361720421000000
Black jay and Dorcopsis,AL3 8PN,51.836749610000000,-0.462784686000000
Bronzewing pigeon and American sparrow,WD24 4LL,51.668033261769500,-0.385512386625738
Elephant and Francolin,WD4 9HT,51.711934465819000,-0.449780466878348
Night heron and Songlark,AL4 9PW,51.769766570000000,-0.304288016000000
Cuscus and Quetzal,AL5 4GA,51.825623880000000,-0.354896083000000
Peafowl and Argus,AL3 7BN,51.801386080000000,-0.399506122000000
Jerboa and Linsang,AL3 4LU,51.741849960000000,-0.364168865000000
Hawaiian honeycreeper and Capuchin,AL6 0AQ,51.825439810000000,-0.188197164000000
Argus and Myna,AL2 3NH,51.710343790000000,-0.374656058000000
Thicketbird and Gull,WD25 8BN,51.677790103985100,-0.341021749832849
Jay and Mouse,AL10 9FX,51.774187830000000,-0.239866733000000
Shearwater and Black cockatoo,AL4 0DG,51.747836310000000,-0.296287191000000
Maya and Myna,AL10 0LY,51.763493470000000,-0.229501047000000
Fox and Moluccan boobook,AL10 8LW,51.744798010000000,-0.228841450000000
Pitohui and Songlark,AL1 2AW,51.745468660000000,-0.341353884000000
White ibis and Eagle,HP2 6NT,51.772801866817900,-0.463595853328239
Scimitar babbler and River dolphin,AL5 5RT,51.816383170000000,-0.337837260000000
Tahr and Jerboa,WD7 8AW,51.677515318006300,-0.321679200431016
Peafowl and River dolphin,HP2 5PE,51.766709917533100,-0.450355000000000
Stint and Songlark,AL10 8RS,51.765435680000000,-0.216411145000000
Vulture and Songlark,AL9 5DN,51.772273000000000,-0.215292561000000
Hawk and Marmoset,HP2 6LR,51.774359924352900,-0.461035384314582
Fulmarine petrel and Badger,AL4 8NJ,51.811239840000000,-0.282770661000000
Night heron and Cuscus,EN6 2BU,51.690742834595100,-0.200800438845618
Elephant and Asiatic leopard,AL10 9RF,51.755022840000000,-0.256449000000000
Myna and Partridge,AL2 1UQ,51.724864920000000,-0.315220655000000
Stilt and Fulmarine petrel,AL7 3RD,51.794505230000000,-0.200951477000000
Vulture and Chipmunk,WD24 7AB,51.672224000000000,-0.378957000000000
Stint and Fox,AL10 0EQ,51.765639260000000,-0.230475022000000
Puffleg and Greenbul,WD24 6HL,51.677089241410000,-0.402025969860573
Thicketbird and Rat,AL3 4JP,51.743480230000000,-0.363718893000000
Maya and Perching duck,WD25 0BF,51.702318000000000,-0.399971000000000
Badger and Tahr,AL2 1DP,51.718464590000000,-0.288603820000000
Prion and Polecat,AL2 3HU,51.726069890000000,-0.357136903000000
Recurvebill and Marmoset,AL8 7TN,51.797232220000000,-0.229543036000000
Tree warbler and Booted eagles,WD24 5FQ,51.683142000000000,-0.406231000000000
Moluccan boobook and Wader,AL8 6DF,51.785226754067700,-0.221024141099373
Darwin's finches and Chipmunk,AL7 1DL,51.813495970000000,-0.193884469000000
Old World vulture and Mouse,AL1 1UE,51.735788270000000,-0.315712364000000
Egret and Thicketbird,AL5 4ZJ,51.747650000000000,-0.301973000000000
Stilt and Chickadee,WD5 0BL,51.706168761658900,-0.425967199764405
Viscacha and Francolin,AL10 8SF,51.752827210000000,-0.227600116000000
Minke whale and Towhee,WD24 5HS,51.673953564565000,-0.405520568159374
Petrel and Logrunners,AL10 9LW,51.772125790000000,-0.234279714000000
Shearwater and Bronzewing pigeon,AL10 0LT,51.762301220000000,-0.227359534000000
Skunk and Ice seal,AL1 3NS,51.753448710000000,-0.331484933000000
Dolphin and Magpie,AL1 5RE,51.746299830000000,-0.314452290000000
Herring gull and Grackle,AL10 9UD,51.763641419221900,-0.245856243174416
Mink and Condor,AL10 8QZ,51.750655950000000,-0.232697740000000
Old World vulture and Guillemot,WD25 8EE,51.667730064756800,-0.336718465878452
Tahr and Tattler,AL2 1HP,51.726231500000000,-0.297736636000000
Puffleg and American sparrow,HP2 6LX,51.775229809744800,-0.464296122208651
Kestrel and Jackal,AL1 5NJ,51.747442900000000,-0.307644692000000
Duck and Elephant,AL1 5RF,51.746637190000000,-0.314150015000000
Mamo and Tit-tyrant,AL5 3PN,51.830862590000000,-0.399607937000000
Piping shrike and Ground sloth,HP3 9UA,51.737051911287500,-0.452063859619280
Night heron and Herring gull,HP2 7DP,51.772064000000000,-0.438923000000000
Coati and Francolin,AL10 9RE,51.763597700000000,-0.241235084000000
Argus and Meadowlark,WD7 7NG,51.689199445453500,-0.320031825941667
Black jay and Parrotlet,HP2 7RF,51.781197858001900,-0.437491926326248
Thicketbird and Snipe,AL2 2TX,51.721408900000000,-0.351775329000000
Diving bird and Triller,AL10 8ET,51.759812780000000,-0.230499956000000
Kangaroo and Piping shrike,WD17 4NX,51.662649363765600,-0.406090910514583
Thrasher and Stilt,HP2 5LP,51.759250260357400,-0.450507952970019
Wader and Condor,EN6 3LS,51.694307203891500,-0.247424069231040
Ground sloth and Moluccan boobook,WD24 5LT,51.683949839831300,-0.415946407656040
Piping shrike and Chicken,WD6 5HP,51.665846596439900,-0.276560945701520
Linsang and Peafowl,AL2 3UL,51.706235300000000,-0.375367747000000
Herring gull and Jay,AL5 2RW,51.816498190000000,-0.371767853000000
Kangaroo and Asiatic leopard,AL1 4SE,51.761128680000000,-0.319551434000000
Ice seal and Mockingbird,AL9 7QJ,51.722000050000000,-0.197604000000000
Greenbul and Bronzewing pigeon,AL1 3BJ,51.752484000000000,-0.331825000000000
Vole and Buzzard,EN6 1HD,51.702688895828400,-0.185304544124010
Peafowl and Black jay,WD6 1PA,51.660667245311700,-0.276569500230497
Piping shrike and Grackle,AL4 9XJ,51.769265150000000,-0.301944416000000
Petrel and White ibis,AL8 7AB,51.812916020000000,-0.201219382000000
Herring gull and Wallaby,WD17 4EP,51.661778000000000,-0.402782000000000
Mamo and Kākāriki,AL3 6RS,51.784478370000000,-0.378096000000000
Grackle and Parrotbill,EN6 1PW,51.694672919774000,-0.186682000000000
Perching duck and Recurvebill,HP2 4BS,51.751907361403700,-0.456235478366118
Petrel and Grosbeak,EN6 9FZ,51.698662000000000,-0.190290000000000
Cuscus and Rabbit,WD25 9UW,51.683645589505600,-0.379141909969071
Linsang and Marmoset,WD24 6RW,51.679917803093200,-0.399756732598221
Kākāriki and Condor,WD7 0FY,51.683007000000000,-0.317272000000000
Parrotbill and Macaw,HP2 5PT,51.760288208119500,-0.458326038188162
Recurvebill and Gull,AL2 3TT,51.701919000000000,-0.350125000000000
Elephant and Dorcopsis,WD7 7ED,51.690464490401900,-0.311680372925802
Kite and Hawaiian honeycreeper,WD7 7PL,51.688573531535500,-0.323425892930055
Cuscus and Piping shrike,WD6 5PA,51.665997296130200,-0.256310861138036
Jay and Bunting,AL2 2NW,51.730559080000000,-0.343202977000000
Dorcopsis and Kākāriki,AL6 0BY,51.818977200000000,-0.190705378000000
Diving bird and Fox,HP3 9UJ,51.739310803051400,-0.448119615356916
Coati and Duck,EN6 1BW,51.698468014324100,-0.190321112289666
Wader and Peafowl,WD5 0HT,51.703328000000000,-0.402636000000000
Guillemot and Puffleg,WD24 7XG,51.673428965670300,-0.392103415319224
Solitaire and Guillemot,AL1 3JJ,51.752066480000000,-0.337374386000000
Mockingbird and Armadillo,WD25 9AX,51.682290715190200,-0.386538641380064
Triller and Lemming,AL4 0GP,51.739860950000000,-0.301917220000000
Tahr and Vulture,WD24 7RN,51.674327954012200,-0.393402148421849
Cuscus and Linsang,AL10 0QN,51.771279290000000,-0.224645272000000
Old World quail and Jerboa,AL1 3RR,51.754359500000000,-0.333800000000000
Parrotlet and Triller,AL6 9EG,51.831001190000000,-0.214793000000000
Tree warbler and Black jay,AL5 3BZ,51.825633890000000,-0.371291000000000
Stilt and Guillemot,AL7 4HA,51.784353270000000,-0.198020794000000
Darwin's finches and White ibis,HP2 4ES,51.756089193463900,-0.452180929011394
Greenbul and Bronzewing pigeon,HP3 9HB,51.745979256500300,-0.468417044261034
Boto and Goose,WD24 7EA,51.673966672749800,-0.388034848436050
Warbler and Warbler,AL8 7EB,51.817737250000000,-0.210748362000000
Hawk and Armadillo,AL4 0BL,51.747808890000000,-0.299982237000000
Elephant and Myna,AL1 9WS,51.747650000000000,-0.301973000000000
Old World vulture and Stilt,AL4 0DB,51.745906530000000,-0.299633566000000
Towhee and New World blackbird,AL1 3YS,51.751522170000000,-0.338087000000000
Fulmarine petrel and Capuchin,AL3 6NH,51.770802990000000,-0.334642374000000
Jerboa and Egret,AL1 2JZ,51.738279710000000,-0.336591450000000
Skunk and Moluccan boobook,WD7 7HJ,51.700245956965600,-0.319072839739464
Siskin and Ice seal,AL7 3ER,51.796237150000000,-0.186090462000000
Civet and Jackal,AL8 6PB,51.801180000000000,-0.206328000000000
Coati and Gull,WD4 8EW,51.709760207956500,-0.447191594989209
Quetzal and Myna,AL2 1UJ,51.722145800000000,-0.316856408000000
Kite and Solitaire,WD4 8DS,51.708821258217200,-0.445544806121419
Badger and Tree warbler,WD25 7FB,51.690576000000000,-0.407373000000000
Partridge and Coati,WD4 8FH,51.707950000000000,-0.445641786205709
Tahr and Parrotbill,AL8 6JS,51.795260490000000,-0.208012754000000
Vulture and Jackal,HP1 9SZ,51.764182000000000,-0.439318000000000
New World blackbird and Mamo,AL2 2TB,51.718925960000000,-0.344019072000000
Petrel and Ice seal,HP3 8NR,51.748813409684100,-0.436451122635372
Fish eagle and Vulture,AL3 7AS,51.790678870000000,-0.408933090000000
Marsh harrier and Dolphin,AL1 3RU,51.754237850000000,-0.332600428000000
Dolphin and Dorcopsis,WD5 0RX,51.706188001798500,-0.410697703514961
Chipmunk and Kite,AL5 3HF,51.829077820000000,-0.382198456000000
Vole and Wader,AL7 3BE,51.799994530000000,-0.196527039000000
Stint and White ibis,WD6 4ET,51.668821555711500,-0.280757462354263
Buzzard and Quetzal,WD6 4UB,51.665763442295000,-0.285008835633568
Francolin and Maya,WD4 8HX,51.715533145903900,-0.441768131465800
Minke whale and Duck,EN6 1LL,51.705297203734400,-0.185923820147701
Snipe and Quetzal,AL10 8DE,51.760918100000000,-0.233441816000000
Diving bird and Tit-tyrant,AL3 4SZ,51.754838470000000,-0.350312238000000
Dolphin and Civet,AL2 1JF,51.727263770000000,-0.297610982000000
B and Dolphin,AL10 8DH,51.759668870000000,-0.234084673000000
Capuchin and Chipmunk,AL1 3SJ,51.757080290000000,-0.332669603000000
Chickadee and Parrotbill,AL1 3NG,51.754008601309300,-0.330261848864170
Towhee and Cuscus,EN6 3JB,51.705372871883000,-0.200784514621992
Triller and Parrotbill,AL3 8DS,51.814073930000000,-0.440359158000000
Civet and Marsh harrier,AL4 9DS,51.781399740000000,-0.299140341000000
Mole and Parakeet,HP3 9WZ,51.732649748500000,-0.458513585432394
Diving bird and Tahr,HP1 9RJ,51.764175000000000,-0.439340000000000
Hawk and Chickadee,AL1 3DA,51.753973000000000,-0.331625000000000
Wallaby and Guillemot,AL6 9AJ,51.812654620000000,-0.226037237000000
Thrasher and Old World warbler,AL4 0AN,51.733411980000000,-0.289400536000000
Fish eagle and Viscacha,WD25 9TF,51.682270419422000,-0.381794761567598
Partridge and Grackle,AL10 8JZ,51.747161770000000,-0.233543942000000
Vole and Pheasant,WD25 0GL,51.707173836334800,-0.397217588950008
Mink and Kestrel,AL4 9SZ,51.770541330000000,-0.305635872000000
White ibis and Kangaroo,HP2 7LX,51.777066165227200,-0.433778843693365
Stint and Fulmarine petrel,AL8 7LU,51.822705120000000,-0.202400000000000
Jay and Black jay,AL8 7BJ,51.803341620000000,-0.219672862000000
Moluccan boobook and Rat,AL5 2AZ,51.800820160000000,-0.366850501000000
Treepie and Maya,AL3 4DL,51.754647530000000,-0.345045406000000
Maya and American sparrow,AL1 4PL,51.755283330000000,-0.323289171000000
Nukupuʻu and Flameback,AL5 1EN,51.806432940000000,-0.338739976000000
Shearwater and Mouse,AL8 6NE,51.800146000000000,-0.205731000000000
B and Pheasant,HP2 5AL,51.762087440638300,-0.463887120515157
Pratincole and Boto,WD24 5AT,51.670982593156000,-0.399305161608107
Skunk and Warbler,AL1 3PE,51.755801720000000,-0.327600000000000
Jackal and Kestrel,AL8 7JU,51.808296880000000,-0.208467655000000
Goose and Badger,AL10 9HT,51.756089320000000,-0.238831847000000
Treepie and Tit-tyrant,WD4 8DE,51.718695697020000,-0.455875614789335
Tree warbler and Jackal,AL2 3RW,51.711142570000000,-0.371949647000000
Flameback and Moluccan boobook,WD6 5LR,51.674303067249100,-0.274374249094420
Goose and Bronzewing pigeon,AL9 5SD,51.741591490000000,-0.212454540000000
Minke whale and Mamo,AL7 3PJ,51.797106050000000,-0.193466283000000
Civet and Viscacha,AL10 0PR,51.769676250000000,-0.227461931000000
Mink and Wallaby,AL5 1QJ,51.806950350000000,-0.346742338000000
Argus and Francolin,AL3 8PR,51.836897050000000,-0.465813225000000
Crow and Tattler,WD25 8DS,51.667480064034000,-0.347674298877720
Minke whale and Egret,AL10 8SX,51.747105130000000,-0.229779734000000
New World blackbird and Bronzewing pigeon,WD7 7NF,51.687892368736400,-0.321063979470827
Greenbul and Jerboa,HP2 6AD,51.772148000000000,-0.457487000000000
Dolphin and Wader,AL1 3PQ,51.755560550000000,-0.326176000000000
Philippine hawk-owl and Shearwater,AL7 1PP,51.813026590000000,-0.185590471000000
Viscacha and Argus,AL1 1HU,51.737310470000000,-0.313381947000000
Solitaire and Pratincole,AL10 9GG,51.767667580000000,-0.247018941000000
Chicken and Snipe,WD4 8JA,51.718538435591200,-0.445196000000000
Pratincole and Tit-tyrant,AL2 3SE,51.710080840000000,-0.371900922000000
Masked owl and Maya,AL10 0NB,51.764138630000000,-0.228157064000000
Elephant and Lemming,AL10 1DT,51.764308456139500,-0.226194099248123
Capuchin and Mole,AL2 3EN,51.722070820000000,-0.365042059000000
Capuchin and Pitohui,AL3 6PZ,51.771843420000000,-0.326226562000000
Linsang and Parrotlet,WD25 0LN,51.694413556598900,-0.386657402488358
Black jay and White ibis,AL4 0QF,51.738265930000000,-0.249590858000000
Chickadee and Gull,WD5 0HP,51.703681293189900,-0.418846459981575
Flameback and Duck,AL3 7DW,51.794206140000000,-0.406459792000000
Partridge and Viscacha,HP2 5FU,51.756223000000000,-0.461717000000000
Badger and Hawk,WD17 3HG,51.670547755087300,-0.415647492800639
Mamo and White ibis,AL4 8QD,51.809467310000000,-0.295052182000000
Old World quail and Magpie,HP2 7NH,51.777558229096200,-0.437646635741443
Minke whale and Duck,WD24 6QE,51.676235144697000,-0.399394784660143
Capuchin and Thrasher,AL5 2JP,51.804109500000000,-0.356404593000000
Cloud rat and Old World warbler,WD23 2BY,51.666230423047000,-0.369569091813560
Partridge and Eagle,AL9 7LG,51.739143580000000,-0.216461748000000
Stint and Grackle,HP3 8HN,51.746301444469800,-0.438913489799596
Logrunners and Tree warbler,AL10 0FH,51.762400740979800,-0.235659118996207
Tahr and Wallaby,AL6 9RB,51.835259590000000,-0.210547370000000
Buzzard and Hawk,AL1 4BS,51.758952100000000,-0.311358526000000
Jay and Tahr,AL3 7DY,51.793571010000000,-0.404713080000000
Tattler and Chipmunk,AL10 8XF,51.741738190000000,-0.220342821000000
Jay and Badger,AL6 9FT,51.833815000000000,-0.209502000000000
Rabbit and Cloud rat,HP2 5WT,51.764587626891400,-0.451585981984739
Dorcopsis and Cloud rat,EN6 3QQ,51.687464522107900,-0.221891000000000
Moluccan boobook and Jay,AL9 5EG,51.768320850000000,-0.216326404000000
Linsang and Treepie,AL2 3HB,51.732009860000000,-0.354300443000000
Quetzal and New World blackbird,WD6 5DD,51.664814949874600,-0.262082374233391
Coati and Darwin's finches,HP2 5QZ,51.765441886147500,-0.457744717192476
Guillemot and Condor,AL1 1AU,51.741438000000000,-0.319187000000000
Tattler and Ibex,WD7 9BH,51.690984465547700,-0.279961252302295
Bunting and Fulmarine petrel,WD7 9HX,51.696842368619500,-0.291329678382220
Booted eagles and Hawaiian honeycreeper,HP2 7AT,51.771691061907400,-0.448168777094531
Kite and Skunk,WD24 5BQ,51.671042000000000,-0.396989000000000
Treepie and Civet,WD7 9BW,51.692440716955200,-0.281772505569853
Condor and Argus,WD17 4QR,51.665545296140900,-0.402157414872947
Prion and Chicken,WD4 9PS,51.712933663519500,-0.454103000000000
Chickadee and Stilt,AL4 9UW,51.763386570000000,-0.297122012000000
Francolin and Masked owl,AL1 1XT,51.747840080000000,-0.341180107000000
Snipe and Recurvebill,AL5 2NF,51.800971110000000,-0.359607919000000
Mink and River dolphin,WD24 5JN,51.679986491952100,-0.412106980615084
Old World warbler and Masked owl,EN6 2EL,51.690468464353100,-0.194242000000000
Chipmunk and Chickadee,AL1 2JA,51.740884940000000,-0.335148761000000
River dolphin and Rabbit,AL10 8LZ,51.754352090000000,-0.230930735000000
Crow and Marmoset,WD25 9AL,51.688874171555100,-0.377493963108523
Lemming and New World blackbird,AL3 5TZ,51.758963050000000,-0.350118454000000
Old World vulture and Hawk,WD25 9NT,51.694721611570000,-0.381596690935000
Treepie and Pheasant,WD24 5DY,51.668206518604600,-0.400805701528913
Eagle and Wallaby,AL2 3UF,51.706430460000000,-0.378429025000000
Wallaby and Recurvebill,WD17 1DE,51.662052563611100,-0.396597976324357
Mouse and Capuchin,WD25 9DB,51.676526432821100,-0.378672914223818
Perching duck and Asiatic leopard,AL2 3SR,51.707995980000000,-0.369399494000000
Old World quail and Triller,WD17 4XA,51.667253544054500,-0.408763572549543
Minke whale and Stilt,AL5 5RL,51.817424150000000,-0.340236397000000
Masked owl and Moluccan boobook,EN6 3HW,51.692879285163200,-0.207617403444451
Tahr and Masked owl,WD17 4PD,51.666359426550000,-0.407811609272060
Magpie and Meadowlark,AL10 8HN,51.758412540000000,-0.231264699000000
Darwin's finches and Polecat,WD7 8NU,51.677372859119000,-0.322407656506040
Crow and Crow,AL3 6PY,51.761558000000000,-0.363920000000000
Elephant and Francolin,WD5 0TG,51.696883842032500,-0.406899749824033
Black cockatoo and Stilt,AL9 7UL,51.717664750000000,-0.201932557000000
Logrunners and Greenbul,WD17 1DA,51.662818095742500,-0.396686626112433
Black jay and Night heron,AL5 2AU,51.800297650000000,-0.364838955000000
Chicken and Asiatic leopard,AL8 6BA,51.801809290000000,-0.205824086000000
Capuchin and Siskin,AL9 7QA,51.733353820000000,-0.214169845000000
Ice seal and Wallaby,AL5 1AU,51.812306740000000,-0.335709651000000
Asiatic leopard and White ibis,AL10 0QX,51.772589700000000,-0.227463740000000
Nukupuʻu and New World blackbird,HP3 9SH,51.736685789621800,-0.468731246294102
Chicken and Pitohui,WD4 8BS,51.718713549594000,-0.451083196624787
Partridge and Mamo,AL1 4XZ,51.757414900000000,-0.306388053000000
Moluccan boobook and Francolin,AL5 1RW,51.805025220000000,-0.339023800000000
Tattler and Meadowlark,AL6 0AD,51.819952420000000,-0.190971012000000
Vole and Black cockatoo,WD25 7NW,51.696804659240100,-0.401071180237964
Condor and Parakeet,HP2 5JU,51.757220931747900,-0.450722303889659
Stint and Grosbeak,AL1 9YQ,51.753408337354000,-0.336122676535098
Dolphin and Francolin,AL3 4SY,51.755351960000000,-0.350380458000000
Crow and Nukupuʻu,AL2 2JX,51.714560120000000,-0.333510002000000
Coati and Coati,AL7 4JJ,51.790013350000000,-0.197113711000000
Warbler and Wader,AL1 2NY,51.734638300000000,-0.343618604000000
Wallaby and Pratincole,AL5 3AT,51.822184530000000,-0.366832574000000
Old World quail and Wallaby,AL4 8TT,51.807198260000000,-0.286797202000000
Rat and Petrel,AL7 3PN,51.792888620000000,-0.192286232000000
Mink and Gull,AL9 7SN,51.726920640000000,-0.208602502000000
Booted eagles and Old World quail,AL4 9TZ,51.763235860000000,-0.303489349000000
Black cockatoo and Black cockatoo,AL7 4DG,51.784591670000000,-0.202433274000000
Coati and Fulmarine petrel,WD25 7AT,51.693115708167200,-0.408189547480791
Mole and Parrotbill,AL5 2EJ,51.814128150000000,-0.357171702000000
Nukupuʻu and Egret,AL1 3DU,51.753435030000000,-0.337958000000000
Duck and Mouse,AL3 5JG,51.756926220000000,-0.349786993000000
Rat and Masked owl,AL5 3AL,51.823391330000000,-0.372157800000000
Badger and Magpie,WD4 8AP,51.725197909805100,-0.455958152323172
B and Scimitar babbler,AL5 2NS,51.796707290000000,-0.363359122000000
Masked owl and Polecat,AL2 1FH,51.725832308516300,-0.296752632872153
Old World vulture and Linsang,AL5 3AY,51.821312960000000,-0.374017413000000
Ground sloth and Minke whale,WD6 3AA,51.660831629764300,-0.303297168442389
River dolphin and Black jay,AL7 4LZ,51.789337380000000,-0.188237770000000
Black jay and Siskin,AL1 4TS,51.758029000000000,-0.310320733000000
Treepie and Tattler,AL3 4HW,51.738480910000000,-0.352790836000000
Rat and Ground sloth,HP3 9DE,51.738018000000000,-0.464798000000000
Marmoset and Treepie,EN6 3DX,51.697249337099900,-0.208197197672480
Scimitar babbler and Jackal,AL3 4TZ,51.754933580000000,-0.348121005000000
Moluccan boobook and Songlark,AL9 5BX,51.773772710000000,-0.209994650000000
Viscacha and Jerboa,HP2 5PB,51.767038381312200,-0.452647014988125
Diving bird and Fulmarine petrel,AL6 9AS,51.827647000000000,-0.215917842000000
Vulture and Capuchin,AL7 4SZ,51.789984660000000,-0.204640367000000
Grouse and Chickadee,EN6 3LW,51.688369908799500,-0.246655131583497
Civet and Wader,AL10 8SE,51.753767140000000,-0.226722992000000
Peafowl and Vole,AL3 5ND,51.757437530000000,-0.335670229000000
Parrotlet and Tit-tyrant,AL3 4ST,51.755107630000000,-0.350910950000000
Capuchin and Mamo,WD6 1AL,51.660914000000000,-0.265475000000000
Fish eagle and Kākāriki,WD6 4PP,51.661606632017500,-0.284225960378176
Grouse and Parrotlet,AL1 5QN,51.744163360000000,-0.309070908000000
Bunting and Hawk,WD25 9UE,51.681694040830000,-0.381077590725785
Petrel and Magpie,EN6 3PQ,51.695142760077900,-0.234166577183602
Argus and Rat,WD24 4AE,51.668110549870000,-0.397063756817167
Meadowlark and Skunk,AL3 5PL,51.758714710000000,-0.344606916000000
Treepie and Thrasher,HP2 4AF,51.755083018534500,-0.468036649496626
Gull and Scimitar babbler,AL2 2RE,51.720138680000000,-0.350967350000000
Grouse and Crow,AL4 9AJ,51.768364400000000,-0.294383932000000
Hawk and Wader,AL1 1DU,51.731177210000000,-0.315840331000000
Darwin's finches and Tit-tyrant,AL7 3UQ,51.800166510000000,-0.197187328000000
Grackle and Bunting,AL8 6YL,51.791780620000000,-0.221636225000000
Grosbeak and Parakeet,AL1 5RT,51.744520460000000,-0.310766836000000
Francolin and Snipe,AL9 7PT,51.733936570000000,-0.212872454000000
Kite and Thicketbird,AL7 1GZ,51.798897110000000,-0.191233763000000
Shearwater and Skunk,AL5 3HS,51.827732900000000,-0.382478831000000
Treepie and B,WD6 4EW,51.669845227889500,-0.279431635331707
Herring gull and Chipmunk,AL10 8RQ,51.750775970000000,-0.228723508000000
Capuchin and Grackle,WD25 9LB,51.689682273396100,-0.389169368735998
Siskin and Ice seal,WD4 8LD,51.710213832948100,-0.440706153334843
Stilt and Gull,HP2 6BB,51.773446569346700,-0.454471556635211
Marmoset and Macaw,AL6 0BU,51.817667000000000,-0.189597000000000
Masked owl and Marsh harrier,WD4 8FG,51.712754856164500,-0.449260273207064
Meadowlark and Minke whale,EN5 4LQ,51.658661766510500,-0.206885886143845
Thicketbird and Bunting,WD6 4QZ,51.662728684844900,-0.281017012497466
Snipe and Pratincole,AL1 4ED,51.759202620000000,-0.329519564000000
Grouse and White ibis,AL2 3BD,51.731596480000000,-0.361396687000000
Tit-tyrant and Kangaroo,AL2 2LB,51.712155790000000,-0.333265451000000
Quetzal and Egret,AL1 1QN,51.749055410000000,-0.341280452000000
Tahr and Crow,WD25 8DP,51.665969658630100,-0.353455452456966
Ice seal and Civet,WD25 7HB,51.694886479461300,-0.402180565591759
Tit-tyrant and Tree warbler,AL2 1QN,51.722069080000000,-0.292840112000000
Chicken and Parakeet,AL10 9SG,51.758947000000000,-0.250689000000000
Jerboa and Kākāriki,HP3 8TU,51.742961358334000,-0.437927787144149
Linsang and Stilt,AL1 3RG,51.752373410000000,-0.328583550000000
Wader and Zebra,AL7 4BN,51.785516870000000,-0.187143967000000
Asiatic leopard and Stilt,AL3 4EZ,51.751266090000000,-0.343097312000000
Asiatic leopard and Pratincole,AL7 9JE,51.804482452477700,-0.195898353551867
Hawk and Zebra,WD17 4RU,51.671213676697800,-0.412355920364474
Stilt and Rat,AL8 7SU,51.813748480000000,-0.216317702000000
Linsang and Cuscus,AL1 9JU,51.747655000000000,-0.301949000000000
Logrunners and Condor,WD25 7NA,51.694622000000000,-0.415733000000000
Parakeet and Capuchin,AL10 8RF,51.750183190000000,-0.230443000000000
Asiatic leopard and Moluccan boobook,WD5 0DN,51.701101059498300,-0.427590173126315
Fish eagle and Philippine hawk-owl,WD6 4JZ,51.667807440268900,-0.287664738306130
Songlark and Siskin,HP2 7QR,51.778801000000000,-0.435023000000000
Macaw and Coati,EN5 5QD,51.661043676884900,-0.193752000000000
Pheasant and River dolphin,AL3 5QL,51.757538560000000,-0.338361540000000
Grouse and Fish eagle,AL10 8TE,51.746405410000000,-0.227503812000000
Pratincole and Kite,AL5 3LE,51.827236430000000,-0.373862170000000
Argus and Chickadee,AL2 2BE,51.714027300000000,-0.350552720000000
Black cockatoo and Badger,AL9 7EF,51.729619090000000,-0.225843644000000
Solitaire and Rat,WD24 7TF,51.672630357402900,-0.385016308188539
Bronzewing pigeon and Old World warbler,AL7 1UQ,51.813542130000000,-0.196305393000000
Dorcopsis and Kākāriki,WD24 6BP,51.672333267906500,-0.397464253647964
Fish eagle and River dolphin,WD24 7EL,51.673202043379100,-0.386702532620892
Recurvebill and Buzzard,HP2 5BB,51.763783286624900,-0.466365518723377
Ground sloth and Mole,WD5 0TF,51.696810237367400,-0.408103331795296
Meadowlark and Eagle,AL9 5LD,51.764306850000000,-0.226194092000000
Towhee and Songlark,AL4 8JN,51.809940290000000,-0.292945432000000
Wallaby and Grosbeak,AL4 0XG,51.752361260000000,-0.297044140000000
Bronzewing pigeon and Black cockatoo,AL10 8LY,51.753934380000000,-0.230063265000000
Flameback and Snipe,HP3 9TZ,51.737317640440800,-0.453807188608583
Quetzal and Pratincole,AL3 5AP,51.766898320000000,-0.324366049000000
Minke whale and Tahr,AL1 2LH,51.736863200000000,-0.336889670000000
Flameback and Elephant,AL1 4DG,51.758495990000000,-0.328516873000000
Buzzard and Marmoset,AL3 4RF,51.750991660000000,-0.347236225000000
Vulture and Wader,HP2 7QG,51.781428622305400,-0.442006975907947
New World blackbird and Kestrel,AL2 2SF,51.717251000000000,-0.354619000000000
Coati and Ice seal,AL3 5UD,51.758025830000000,-0.351253816000000
Thrasher and Parrotbill,AL1 2QL,51.734016830000000,-0.347233000000000
Duck and Herring gull,AL4 9UF,51.762294410000000,-0.298699148000000
Fox and Siskin,HP3 8QS,51.744925000000000,-0.432008000000000
Booted eagles and Old World vulture,HP3 8JR,51.735686381284300,-0.450792635856716
Vulture and Songlark,AL3 8RD,51.835106600000000,-0.465728932000000
Hawk and Rabbit,WD25 8DN,51.664064245782400,-0.352237631551969
Marsh harrier and Night heron,WD7 8NN,51.679348485274700,-0.331693121393787
Tattler and Petrel,AL9 7PR,51.734618590000000,-0.215148228000000
Viscacha and B,HP2 4DB,51.752279219564400,-0.448283647628121
Grackle and Civet,AL2 3XD,51.705851860000000,-0.371054119000000
Songlark and Mole,WD24 6DJ,51.676458993184700,-0.400645206064707
Solitaire and Francolin,AL5 2QA,51.819401580000000,-0.363276889000000
White ibis and Diving bird,HP2 7QL,51.781693557397700,-0.440287210352673
New World blackbird and Cloud rat,WD24 7RG,51.680215925914800,-0.389331728820545
Piping shrike and Black cockatoo,AL5 5RS,51.816015310000000,-0.337894321000000
Chipmunk and Pitohui,AL10 9NJ,51.758619200000000,-0.248064902000000
Chipmunk and Parakeet,WD24 7JG,51.676273000000000,-0.390860000000000
Moluccan boobook and Tree warbler,WD6 4NT,51.661870621203100,-0.289377819910310
Tahr and Towhee,WD5 0BR,51.703377495267700,-0.435109007587084
Capuchin and Hawk,AL2 1TA,51.719463760000000,-0.284975730000000
Condor and New World blackbird,AL3 5QS,51.761277500000000,-0.345252204000000
Grouse and Shearwater,AL5 4TU,51.818691760000000,-0.346602790000000
Marsh harrier and Petrel,HP3 8HS,51.741038755196200,-0.447553478708243
Thicketbird and Viscacha,AL3 4QU,51.753472160000000,-0.347145675000000
Jackal and Logrunners,AL1 9NB,51.747650000000000,-0.301973000000000
Darwin's finches and Hawk,AL5 9AY,51.747650000000000,-0.301973000000000
Grosbeak and Diving bird,AL1 3EH,51.758072000000000,-0.328319556000000
Perching duck and Thrasher,WD17 4UD,51.669902611449800,-0.409827652113032
Diving bird and Francolin,EN6 1PR,51.695491565626900,-0.189152035112732
Skunk and Bunting,HP2 5BY,51.757464115773800,-0.468593595554045
Grackle and Dorcopsis,AL4 9QX,51.769896880000000,-0.298993042000000
Solitaire and Dorcopsis,AL6 0DL,51.826083160000000,-0.193192376000000
Condor and Kangaroo,WD25 9SP,51.686147898876000,-0.380629392524618
Civet and Jerboa,WD5 0QE,51.715625000000000,-0.412920059942912
Thrasher and Jerboa,WD5 0DY,51.708749513045800,-0.411939509492790
Piping shrike and Cuscus,WD5 0DJ,51.702583107315400,-0.425454878183214
Jackal and Quetzal,HP2 4UN,51.751996391198800,-0.434517000000000
Kākāriki and Night heron,HP3 9UH,51.738247350855500,-0.449980906697729
Vole and Greenbul,WD4 8ES,51.714462354794400,-0.449187397805720
Piping shrike and Cloud rat,AL7 4HR,51.783869000000000,-0.198692504000000
New World blackbird and Partridge,WD6 5EB,51.667001827613100,-0.276849698669527
Ibex and Vole,AL3 5SE,51.765588640000000,-0.336616780000000
Logrunners and Scimitar babbler,WD23 2BP,51.665198215286600,-0.369056672292956
Kangaroo and Parrotlet,AL10 8QJ,51.753589480000000,-0.228656895000000
Chickadee and Nukupuʻu,WD5 0FQ,51.700733000000000,-0.432472000000000
Cuscus and Quetzal,WD17 4QL,51.666610000000000,-0.406299000000000
Grosbeak and Grosbeak,WD24 5LQ,51.681409641239400,-0.415615569727959
Petrel and Francolin,AL5 3NJ,51.835052480000000,-0.395627665000000
Hawaiian honeycreeper and Mamo,HP2 4LL,51.750881495281200,-0.463035903714489
Quetzal and Bronzewing pigeon,HP2 4JT,51.747777147101900,-0.460809011201265
Stilt and Tree warbler,WD7 7NJ,51.687674799928900,-0.319683189235275
Petrel and Bronzewing pigeon,AL5 2AE,51.795357370000000,-0.351690808000000
Bunting and Old World quail,HP2 6NX,51.770537336530400,-0.460266811618102
Boto and Moluccan boobook,EN6 1QA,51.697917599440300,-0.190198365004949
Thrasher and Bunting,AL4 0DP,51.750656080000000,-0.298513537000000
Armadillo and Minke whale,AL5 5JF,51.827333610000000,-0.343456578000000
Piping shrike and Tahr,AL3 4NB,51.742574770000000,-0.360043561000000
Cloud rat and Macaw,HP3 8NX,51.749997411880000,-0.437583670815968
Armadillo and B,HP2 7AG,51.759697954091300,-0.448319145548428
American sparrow and Ice seal,AL1 4RT,51.760743300000000,-0.317754438000000
Snipe and Cloud rat,WD7 8LR,51.682920066829400,-0.330549261038890
Old World vulture and Dolphin,WD17 1SJ,51.663443757049400,-0.400366103222008
Songlark and Chipmunk,WD17 4NQ,51.664777102046000,-0.405842728466077
Guillemot and Old World vulture,AL3 4HN,51.748164000000000,-0.346238000000000
Buzzard and Darwin's finches,AL10 1HL,51.764270000000000,-0.226230000000000
Mink and Thrasher,AL10 9DU,51.747013540000000,-0.237446509000000
Capuchin and Grackle,AL9 7PN,51.733390550000000,-0.217180625000000
Masked owl and Civet,HP2 7QX,51.779267180232000,-0.433630154095387
Partridge and Jerboa,AL1 9JB,51.747655000000000,-0.301949000000000
Cuscus and Cloud rat,HP2 5EH,51.758041884585200,-0.457765008761584
Argus and Francolin,AL10 8RG,51.750502830000000,-0.229096376000000
Rabbit and Parrotlet,AL4 9JJ,51.763072490000000,-0.294684813000000
Booted eagles and Solitaire,WD7 8DZ,51.682945964015500,-0.317239989778771
Condor and Pheasant,WD7 7BX,51.686115939218200,-0.315690262238354
Quetzal and Pheasant,AL7 4SX,51.784952620000000,-0.208406765000000
Diving bird and Moluccan boobook,AL10 9SF,51.758742850000000,-0.253957512000000
Treepie and Buzzard,WD25 9DT,51.679516471158300,-0.380316315574833
Macaw and Crow,AL3 4FD,51.740420156030600,-0.354371553562266
B and Linsang,AL2 3LU,51.703721760000000,-0.362071074000000
Kestrel and Philippine hawk-owl,AL6 0AR,51.828251000000000,-0.189042000000000
Chicken and Dolphin,WD6 5QQ,51.671329258017900,-0.278840311260882
Mockingbird and Jerboa,AL10 8TQ,51.748793020000000,-0.227815979000000
River dolphin and Civet,AL9 7LD,51.737682650000000,-0.215592344000000
Peafowl and Viscacha,WD17 1QE,51.660779512701300,-0.398855042737949
Stilt and Mamo,AL3 8AS,51.819247000000000,-0.462336000000000
Chickadee and Tahr,EN6 2NJ,51.688932732240500,-0.186450000000000
Boto and Darwin's finches,AL9 7DW,51.733423000000000,-0.219236000000000
Recurvebill and Wader,AL7 1BJ,51.804309740000000,-0.190610989000000
Prion and Moluccan boobook,AL2 2AR,51.715777850000000,-0.352269578000000
Thicketbird and Fish eagle,HP3 9FR,51.733085845957500,-0.457485054178270
Goose and Marmoset,AL9 7PU,51.733014200000000,-0.212532313000000
Old World vulture and Greenbul,EN6 3DL,51.700565224094800,-0.213956064482120
Pitohui and Rat,WD25 7SX,51.700292000000000,-0.394943000000000
Kākāriki and Old World warbler,HP2 4TF,51.749400000000000,-0.468635000000000
Dolphin and Zebra,WD24 4WW,51.666384146340500,-0.394435097275138
Mouse and Ibex,WD17 1NB,51.659645953990200,-0.401454063969398
Guillemot and Booted eagles,AL5 2UD,51.820176500000000,-0.360811223000000
Gull and Badger,EN5 4QL,51.664006739951500,-0.200066770156693
Warbler and Mamo,WD25 7JD,51.701058039598800,-0.399763559988736
Marsh harrier and Marsh harrier,HP2 5TU,51.765672320235200,-0.461606170125121
Macaw and Philippine hawk-owl,AL3 6LY,51.769190560000000,-0.324947848000000
Night heron and Grouse,AL7 9LY,51.804482452500000,-0.195898353600000
Rat and Condor,AL2 1QF,51.723568020000000,-0.295129182000000
Maya and Chicken,AL2 1BG,51.718902140000000,-0.287776583000000
Old World quail and Condor,AL2 2QS,51.721910870000000,-0.347182040000000
Viscacha and Greenbul,AL1 4HW,51.758535780000000,-0.323733798000000
Mamo and Stilt,AL5 5SA,51.815278870000000,-0.336049898000000
Partridge and Diving bird,AL5 5FA,51.822145165481200,-0.335042479691949
Fox and Kestrel,AL1 3BX,51.747440640000000,-0.330750228000000
Prion and Stint,AL7 1DE,51.812282100000000,-0.190378737000000
Ice seal and Rabbit,WD6 5LP,51.671015306806100,-0.272156377624501
Guillemot and Parrotbill,WD7 9EN,51.687836518994100,-0.276751000000000
River dolphin and Fulmarine petrel,WD25 8EX,51.664566000000000,-0.353541000000000
Mamo and Kite,AL5 2LN,51.803851440000000,-0.355311659000000
Marsh harrier and Ground sloth,AL4 0LT,51.760034000000000,-0.298572000000000
Cloud rat and Night heron,EN6 1PQ,51.697861000000000,-0.189940000000000
Old World vulture and Nukupuʻu,AL2 1FN,51.722249432481400,-0.294614206434727
Black jay and Thrasher,AL8 6HW,51.796452090000000,-0.213635828000000
Darwin's finches and Gull,AL10 9BL,51.761958720000000,-0.248661000000000
Petrel and Zebra,AL10 0LD,51.764134600000000,-0.225505243000000
Pitohui and Mouse,HP3 9JS,51.744333140997900,-0.463547830642446
Jerboa and Grouse,EN5 4SG,51.681036853082300,-0.186546432781430
Masked owl and Hawaiian honeycreeper,HP2 4BA,51.747140578525200,-0.468522627634432
Bunting and Peafowl,AL1 9JX,51.747650000000000,-0.301973000000000
Dolphin and Quetzal,AL1 3RY,51.754561190000000,-0.332574031000000
Pratincole and Kangaroo,AL1 5SR,51.744035830000000,-0.317100413000000
Night heron and Tree warbler,AL3 4TL,51.756443600000000,-0.351919981000000
Crow and Booted eagles,AL1 5AJ,51.741732540000000,-0.306366177000000
Minke whale and Vole,AL9 5NZ,51.773864100000000,-0.203019015000000
Greenbul and Philippine hawk-owl,AL6 9LS,51.833276360000000,-0.210219598000000
Triller and Mamo,AL10 8JB,51.748531390000000,-0.234330739000000
Tahr and Prion,HP3 9EP,51.744663294140800,-0.466795765957298
B and Old World vulture,AL3 8HY,51.836581000000000,-0.462195000000000
New World blackbird and Boto,AL9 5JJ,51.776079000000000,-0.223254000000000
Hawk and Armadillo,AL10 8SD,51.752493860000000,-0.226961208000000
Grackle and Shearwater,AL10 9UX,51.753014000000000,-0.235779000000000
Viscacha and Minke whale,WD5 0TT,51.699014630724900,-0.405551513525458
Prion and Philippine hawk-owl,AL1 4SY,51.752071310000000,-0.311224002000000
Linsang and Triller,AL9 5BA,51.763730220000000,-0.213058349000000
Rat and Condor,AL1 3ED,51.754276120000000,-0.337206309000000
Goose and Egret,EN6 2ED,51.692248081734300,-0.195170278754645
Boto and Civet,AL1 2LU,51.735108590000000,-0.336058000000000
Wallaby and Pitohui,AL2 1NL,51.719585900000000,-0.300809289000000
Parrotbill and Masked owl,AL3 5QW,51.756672930000000,-0.338827986000000
Mockingbird and Booted eagles,AL4 0BE,51.748490230000000,-0.299840765000000
Solitaire and Bronzewing pigeon,AL8 7EJ,51.816450930000000,-0.214266849000000
Triller and Parakeet,AL6 9GG,51.820143000000000,-0.223543000000000
Goose and New World blackbird,HP2 7AJ,51.760251554804500,-0.446662791052861
Francolin and Old World vulture,WD7 8JU,51.682321885111900,-0.321385757839014
Dolphin and Diving bird,AL2 2PJ,51.721511620000000,-0.337366143000000
Solitaire and Cuscus,AL3 4HX,51.745215400000000,-0.357253657000000
Maya and Tattler,WD5 0FE,51.697880376190700,-0.425314310218396
Elephant and Tahr,AL4 9YE,51.773569390000000,-0.297391009000000
Magpie and Mamo,WD5 0NG,51.701080644784500,-0.415362727141274
Skunk and Recurvebill,AL10 8NW,51.756331530000000,-0.223855102000000
Kangaroo and Shearwater,AL5 3PP,51.831462670000000,-0.400094621000000
Partridge and Solitaire,AL8 6HF,51.795388730000000,-0.215853110000000
Buzzard and Towhee,AL3 8LG,51.836199000000000,-0.458435000000000
Lemming and River dolphin,WD25 7SL,51.699940189554800,-0.396257632961003
Towhee and Black cockatoo,AL2 3UJ,51.703685370000000,-0.363331463000000
Partridge and Grackle,WD4 8HA,51.715413346772800,-0.449024587616116
Lemming and Piping shrike,AL5 5TY,51.810972780000000,-0.341213239000000
Black jay and Cuscus,AL2 2JQ,51.718110490000000,-0.346133513000000
Boto and Mouse,AL1 4BH,51.760165540000000,-0.311950827000000
Linsang and Parrotbill,AL8 7SJ,51.812507680000000,-0.206864454000000
Songlark and Nukupuʻu,HP2 4LZ,51.748370473397200,-0.423486701394436
Parrotbill and Macaw,HP3 9JW,51.747371604782500,-0.452522358946121
Ice seal and Francolin,AL10 8PW,51.752357380000000,-0.225068635000000
Crow and Kangaroo,AL2 2PL,51.721663360000000,-0.336651160000000
Black cockatoo and Snipe,AL7 4LT,51.790283530000000,-0.189533868000000
Mole and Egret,AL10 9LB,51.774608460000000,-0.234936553000000
Treepie and Old World warbler,AL9 7TF,51.714431340000000,-0.212787385000000
Hawaiian honeycreeper and Jay,AL5 4RG,51.820822380000000,-0.343376194000000
Old World vulture and Egret,HP3 8LN,51.744167440424100,-0.428572374961452
Shearwater and Kākāriki,AL1 9PD,51.747655000000000,-0.301949000000000
Pheasant and Tit-tyrant,WD24 6NW,51.676384283581100,-0.404408306613050
Parrotbill and Badger,WD25 7EJ,51.699760863184500,-0.399592257863948
New World blackbird and Darwin's finches,AL7 9JJ,51.804482452477700,-0.195898353551867
B and Old World quail,WD7 7HP,51.694279817641700,-0.335181040723708
Gull and River dolphin,WD17 1RT,51.665807000000000,-0.399103000000000
Old World quail and Stilt,WD4 8QG,51.685586207118800,-0.432019154887985
Diving bird and Puffleg,WD25 9NX,51.694872841942000,-0.380173307718705
Myna and Logrunners,WD25 9SH,51.681075000000000,-0.380064000000000
Bunting and Towhee,WD17 4YN,51.664193095847400,-0.405877684960407
Ground sloth and Peafowl,AL4 9EL,51.779456060000000,-0.300286170000000
Vulture and Ibex,AL10 9AG,51.745605600000000,-0.239500340000000
Tattler and Vulture,AL1 3FW,51.754633658241700,-0.328688530024227
Snipe and Jay,AL1 4TN,51.756627750000000,-0.307924373000000
Cloud rat and Grouse,HP2 5QR,51.764809328024300,-0.459563219759432
Treepie and Parrotlet,EN6 3LL,51.689762811327400,-0.241783507177206
Thrasher and Flameback,WD25 0NL,51.691111679155700,-0.387179906794258
Booted eagles and Bronzewing pigeon,HP2 4PZ,51.748250000000000,-0.432559000000000
Vulture and Boto,AL3 6AD,51.750237180000000,-0.360780147000000
Night heron and Chipmunk,AL2 3RY,51.707905800000000,-0.375872367000000
Partridge and Black cockatoo,AL5 3BY,51.825526720000000,-0.375723118000000
Piping shrike and Black cockatoo,WD4 8NZ,51.719624141243300,-0.421533305061940
Stilt and Fox,AL5 1RJ,51.802043740000000,-0.339931076000000
Fox and Magpie,HP3 9PR,51.736449916819100,-0.461686280765756
Songlark and Francolin,AL9 5JP,51.776051060000000,-0.222066240000000
Francolin and Snipe,WD24 7NS,51.674998791603900,-0.383312216657045
Snipe and Parakeet,AL2 2HS,51.719000720000000,-0.348561000000000
Civet and Old World vulture,AL10 8BZ,51.761065110000000,-0.217568755000000
Cuscus and Linsang,AL6 9PA,51.829856750000000,-0.217742185000000
Fox and Vulture,AL3 7HR,51.797024780000000,-0.402792959000000
Siskin and Lemming,HP2 7UE,51.763982596352700,-0.445259510409040
Rat and Guillemot,AL8 7BG,51.804550350000000,-0.216956383000000
Mink and Tit-tyrant,WD5 0HU,51.700293534323700,-0.429065257124307
Fox and Bunting,HP2 7DB,51.773068000000000,-0.436098000000000
Black jay and Darwin's finches,AL4 0TL,51.748775210000000,-0.286647215000000
Flameback and Coati,AL2 3XG,51.707267750000000,-0.372001915000000
Asiatic leopard and Ice seal,AL7 1EN,51.809132980000000,-0.188503017000000
Mockingbird and Darwin's finches,AL10 9BA,51.784738500000000,-0.261826899000000
American sparrow and Stilt,AL4 0JY,51.750426000000000,-0.278284000000000
Marsh harrier and Francolin,AL5 1HA,51.807792660000000,-0.332525149000000
Greenbul and Kestrel,WD6 4DZ,51.667723612710700,-0.284385302696783
Kākāriki and Viscacha,AL5 2UJ,51.820807120000000,-0.360251480000000
Quetzal and Tree warbler,AL5 2JH,51.809174790000000,-0.358541290000000
Crow and Grouse,HP2 4JX,51.747312244454100,-0.461013128967184
Mole and Goose,AL10 8UU,51.747384860000000,-0.225075230000000
Old World vulture and Siskin,AL10 8EF,51.759673080000000,-0.235562513000000
Elephant and Skunk,HP2 7AH,51.769221000000000,-0.436050000000000
Herring gull and Argus,WD25 7QF,51.691899344182600,-0.403370875210842
Minke whale and Crow,HP3 9DA,51.737496000000000,-0.464605000000000
Polecat and Jerboa,AL5 2AN,51.797380160000000,-0.353589338000000
Parrotlet and Black jay,AL10 9SA,51.757582360000000,-0.252712707000000
Buzzard and Triller,AL1 2AN,51.738610750000000,-0.351149502000000
Civet and Pitohui,AL5 2JY,51.803166700000000,-0.357787751000000
New World blackbird and Flameback,AL6 9QB,51.837074750000000,-0.214017099000000
Badger and Rabbit,AL8 6EQ,51.797453580000000,-0.209129508000000
Nukupuʻu and Cuscus,AL3 6AY,51.768379990000000,-0.333079365000000
Tahr and Hawk,HP2 7DG,51.772976000000000,-0.437124000000000
Greenbul and Zebra,AL8 6JD,51.796739000000000,-0.211116000000000
Herring gull and Kestrel,WD4 8RE,51.693199127745300,-0.435821784227304
New World blackbird and Booted eagles,AL2 1QA,51.719833580000000,-0.290607924000000
Old World quail and Darwin's finches,AL10 0HX,51.767032500000000,-0.225072765000000
Argus and Grouse,WD25 7BN,51.690009545816800,-0.410555465158262
Quetzal and Thicketbird,AL10 0AH,51.773759650000000,-0.223359363000000
Jerboa and Grackle,HP3 8PX,51.752283828657000,-0.436418209595397
Macaw and Petrel,AL2 1LN,51.720191400000000,-0.302263295000000
Civet and Armadillo,AL10 0BD,51.763712380000000,-0.230304010000000
Ibex and Snipe,WD6 5JF,51.666738985641200,-0.271812962801730
Old World warbler and Jackal,AL9 7FA,51.735251108640700,-0.218208140306166
Black jay and Night heron,AL4 0XX,51.753759000000000,-0.296600000000000
Night heron and Zebra,AL1 2AZ,51.743994510000000,-0.339481363000000
Greenbul and Black jay,AL10 8RY,51.752505800000000,-0.224179051000000
Meadowlark and Fox,AL4 0GY,51.741919000000000,-0.301217230000000
Pitohui and Mamo,WD25 9DS,51.680042515096000,-0.381295599913136
Stilt and Tree warbler,AL3 5SH,51.761235940000000,-0.336573881000000
Quetzal and Macaw,AL8 7BT,51.801296590000000,-0.218825192000000
Parakeet and Kestrel,EN6 3NA,51.709914000000000,-0.254941000000000
Jay and Grackle,AL9 7LF,51.738580310000000,-0.217859862000000
Francolin and Quetzal,AL5 5AR,51.824805840000000,-0.338281829000000
Quetzal and Tahr,AL3 8RS,51.834718150000000,-0.461662000000000
Maya and Wallaby,HP2 7PQ,51.779125804781700,-0.438549238063583
Badger and Diving bird,AL10 8XR,51.749299720000000,-0.224449665000000
Tattler and Myna,WD6 4ES,51.669223209106600,-0.279325051818565
Thicketbird and Coati,HP3 8TF,51.743664142022600,-0.436006044018759
Treepie and Mamo,AL2 1QX,51.719141440000000,-0.289388988000000
Maya and Polecat,WD6 1PD,51.661244198501100,-0.276056013110301
Moluccan boobook and Marmoset,AL9 7QZ,51.726276560000000,-0.201170964000000
Moluccan boobook and Viscacha,AL9 7JB,51.737457270000000,-0.214370153000000
Fish eagle and Condor,AL2 3XQ,51.706332570000000,-0.370703975000000
Grosbeak and Grouse,WD17 4LE,51.666256914787300,-0.410030000000000
Darwin's finches and Mink,WD17 4UJ,51.664977768386900,-0.400760328759003
Grackle and Hawk,AL1 2LG,51.735731000000000,-0.338771000000000
Chickadee and Maya,AL8 6YN,51.792903720000000,-0.223955695000000
Stilt and Argus,WD17 4SH,51.675061407906000,-0.412293693560435
Tit-tyrant and Jay,AL1 1RJ,51.747949100000000,-0.338076045000000
Old World warbler and Songlark,AL8 7EA,51.816966550000000,-0.210329124000000
Myna and Flameback,AL10 1GL,51.764270000000000,-0.226230000000000
B and Wallaby,AL7 1FX,51.809208000000000,-0.188050000000000
Darwin's finches and Armadillo,AL2 3NB,51.705291220000000,-0.362419628000000
Coati and Siskin,AL2 3PG,51.703992920000000,-0.358949755000000
Black jay and Partridge,AL6 9DB,51.828129890000000,-0.271940842000000
Chickadee and Masked owl,AL8 7PB,51.808693670000000,-0.205594236000000
Asiatic leopard and Mink,HP2 5JF,51.762797170059800,-0.450821255615953
Kestrel and Black jay,AL7 3JF,51.790806920000000,-0.188349000000000
Thicketbird and Bunting,AL7 1FZ,51.809749000000000,-0.188875000000000
Dolphin and Pitohui,EN6 2DR,51.695269849035800,-0.202820302405889
Marsh harrier and Boto,WD17 4JT,51.678842664071100,-0.424658435193562
Mamo and Rabbit,AL5 4NA,51.830122640000000,-0.348041838000000
Piping shrike and Skunk,AL5 2UB,51.820999000000000,-0.361666000000000
Parrotbill and Booted eagles,HP2 4RS,51.751162166129600,-0.443367320922857
Solitaire and Chicken,WD7 7AZ,51.687909788640600,-0.309113459228573
Black jay and Mink,AL3 4SN,51.751547610000000,-0.353532454000000
Macaw and White ibis,AL4 8TL,51.805681360000000,-0.286985257000000
American sparrow and Mamo,AL5 1SQ,51.803684200000000,-0.337027999000000
Philippine hawk-owl and Towhee,AL8 7QN,51.816044460000000,-0.205287725000000
Meadowlark and Flameback,AL1 5JH,51.749524650000000,-0.310129000000000
Coati and Jay,WD25 0AW,51.683372142787900,-0.403164550096844
Lemming and Kite,HP3 9FE,51.732346942666900,-0.457365397506830
Tree warbler and Viscacha,WD7 8HP,51.684194035624800,-0.320882539119678
Parrotlet and Asiatic leopard,AL3 6EG,51.767986340000000,-0.344035872000000
Grouse and Shearwater,AL1 5DQ,51.751564410000000,-0.308490281000000
Wader and Kākāriki,WD24 7RH,51.673394621395000,-0.393536409528546
Mole and Macaw,WD25 7DU,51.694903054050100,-0.407374440230991
Recurvebill and Asiatic leopard,EN5 4SA,51.681849479623400,-0.188510197838065
Kangaroo and Old World warbler,AL10 0ST,51.763160890000000,-0.236687283000000
Francolin and Mouse,AL6 0DJ,51.823650000000000,-0.195713000000000
Buzzard and Grouse,WD7 8HT,51.681467984453000,-0.320780871768610
American sparrow and Kite,AL4 0UZ,51.757838780000000,-0.302735321000000
Polecat and Goose,AL7 4SR,51.789749860000000,-0.207520678000000
Mockingbird and Hawaiian honeycreeper,WD17 1NJ,51.659936904518600,-0.401689613642998
Egret and Francolin,AL1 5PG,51.746961220000000,-0.310415041000000
Tattler and Greenbul,HP2 7FU,51.755264000000000,-0.438090000000000
Rabbit and Parrotbill,AL5 5HB,51.826237350000000,-0.340957297000000
Rat and Partridge,EN6 3ND,51.685216000000000,-0.222199000000000
Pitohui and Thicketbird,AL4 9SN,51.770653550000000,-0.301573450000000
Peafowl and White ibis,AL4 8EQ,51.799191910000000,-0.315178104000000
Viscacha and Ice seal,AL5 1SN,51.801863310000000,-0.337979719000000
B and Coati,AL3 4ER,51.751387010000000,-0.342107743000000
Dorcopsis and Francolin,HP3 9WG,51.732790761841800,-0.459667288722020
Linsang and Pratincole,WD25 0HW,51.688748297606500,-0.397145068224849
Buzzard and Bronzewing pigeon,AL7 3QL,51.797733610000000,-0.194514387000000
Quetzal and Asiatic leopard,AL1 1LJ,51.749545600000000,-0.334613046000000
Moluccan boobook and Hawk,HP1 9JJ,51.764175000000000,-0.439340000000000
Mink and Night heron,HP1 9NU,51.764175000000000,-0.439340000000000
Parrotlet and Myna,AL10 8HR,51.748800000000000,-0.232862633000000
Partridge and Mockingbird,AL1 3RD,51.751291510000000,-0.329014648000000
Meadowlark and Stilt,AL10 8SP,51.747517510000000,-0.228503299000000
Gull and Cloud rat,AL7 1UP,51.816177210000000,-0.194575225000000
Parrotbill and Diving bird,WD17 4WE,51.673191550848700,-0.414325950172207
American sparrow and Boto,HP2 6AL,51.771509468900600,-0.453494180579138
Diving bird and Perching duck,WD25 9QG,51.686757990141700,-0.382488292364760
Moluccan boobook and Myna,AL4 9RL,51.763885020000000,-0.302363663000000
Boto and Shearwater,WD7 9AG,51.688084347144700,-0.295681356913322
Elephant and Pitohui,AL9 5BZ,51.774214310000000,-0.211832530000000
Piping shrike and Towhee,WD7 7BL,51.687649375679800,-0.316023960853141
Coati and Maya,AL7 3SR,51.795978670000000,-0.202633068000000
Civet and Rabbit,AL5 3LL,51.826036930000000,-0.374253636000000
Siskin and Elephant,AL4 0JP,51.742403470000000,-0.301763958000000
Herring gull and Vulture,WD6 1NP,51.660488579058500,-0.274812343065272
Guillemot and Pheasant,AL1 4NH,51.755618530000000,-0.320944062000000
Kākāriki and Piping shrike,HP2 5AS,51.761828695289800,-0.468866156793451
Towhee and Moluccan boobook,AL1 3UR,51.751462000000000,-0.334486965000000
Civet and Ice seal,AL1 9XW,51.753408337354000,-0.336122676535098
Diving bird and Zebra,WD17 3BP,51.667469043207500,-0.420064118555040
Duck and Egret,WD25 9TU,51.694992502976900,-0.377116010171007
Thicketbird and Cloud rat,AL8 7LY,51.821150640000000,-0.204025581000000
Mamo and Ibex,WD7 7NT,51.688958138381100,-0.320764133685551
Towhee and Siskin,AL10 0HQ,51.767851010000000,-0.220330471000000
Mamo and Snipe,WD3 4LP,51.662650212564300,-0.463507228678920
Rabbit and Pheasant,AL1 9TP,51.747828000000000,-0.301865000000000
Goose and Puffleg,EN6 2LU,51.691928002037500,-0.191898625394346
Hawk and Magpie,AL4 0NW,51.741146760000000,-0.265586034000000
Rabbit and Badger,AL9 7UW,51.719292380000000,-0.200174138000000
Solitaire and Chicken,AL7 3TH,51.791616880000000,-0.200239886000000
Rat and Minke whale,AL7 1UH,51.814237290000000,-0.195900432000000
Jay and Guillemot,AL10 9FU,51.743793000000000,-0.235145000000000
Goose and Old World warbler,EN5 4HH,51.659006342240200,-0.209431375092595
Lemming and Wader,EN6 2JT,51.697133544362300,-0.198275143417346
Scimitar babbler and Skunk,AL7 9GN,51.804480900000000,-0.195898347000000
Recurvebill and Meadowlark,EN5 5QE,51.659882000000000,-0.191290710594810
Darwin's finches and Tree warbler,AL3 5RB,51.759775660000000,-0.335685690000000
White ibis and Gull,AL3 4JZ,51.746377550000000,-0.360512000000000
Diving bird and Hawaiian honeycreeper,AL8 7LE,51.807686100000000,-0.211465539000000
Maya and Kangaroo,AL9 5NN,51.756734410000000,-0.218391308000000
Stint and Viscacha,WD5 0RU,51.725309960190700,-0.407754043306359
Thrasher and Quetzal,HP2 4DH,51.753425666528200,-0.467817458432896
Kestrel and Eagle,HP2 6NH,51.774578713874600,-0.456462131282559
American sparrow and Condor,AL1 2DJ,51.745551000000000,-0.347082886000000
Masked owl and Thrasher,EN6 3PE,51.695430482883000,-0.232968862267350
Snipe and Thrasher,AL5 2LU,51.794848300000000,-0.364818548000000
Shearwater and Grosbeak,AL3 7DR,51.793389210000000,-0.405894056000000
Skunk and Kestrel,WD17 4TZ,51.674985822321700,-0.418688927297409
Stilt and Tattler,AL10 8SW,51.747449510000000,-0.229360653000000
Skunk and Snipe,AL8 6SR,51.799507500000000,-0.216473690000000
Cuscus and Skunk,WD17 3EJ,51.668846757225400,-0.414202900590196
Masked owl and Stilt,AL2 2JZ,51.712797330000000,-0.332851041000000
Moluccan boobook and Moluccan boobook,WD25 9QY,51.690249753950500,-0.382696590388982
Snipe and Black jay,WD24 5GU,51.674167967753200,-0.406742362479808
Francolin and Rat,WD4 8EJ,51.710891968443200,-0.452551744138697
Darwin's finches and Mink,HP3 8AF,51.732149208401900,-0.450537068548861
Armadillo and Perching duck,AL5 1JB,51.810922750000000,-0.323734733000000
Zebra and Mockingbird,WD6 5LQ,51.667387396594500,-0.268216495537950
Puffleg and Asiatic leopard,WD6 5DN,51.667153740705300,-0.279851741238657
Pheasant and Cloud rat,AL2 2JS,51.720373050000000,-0.336336572000000
Magpie and Myna,WD24 5HP,51.672983872623100,-0.405626930740664
Stilt and Logrunners,HP2 4NJ,51.749847559513700,-0.423667064569098
Triller and Masked owl,EN6 3AD,51.701340272887100,-0.201103673657790
Solitaire and Songlark,AL1 2PU,51.740558170000000,-0.347674892000000
Grosbeak and Recurvebill,EN6 3AE,51.701947971191700,-0.199096928284080
Vole and Herring gull,AL5 5AF,51.821424370000000,-0.334430542000000
Cuscus and Viscacha,AL1 1TT,51.747228710000000,-0.339275855000000
Black jay and Rabbit,AL5 1AD,51.811425760000000,-0.330650263000000
Tattler and Polecat,HP2 5NP,51.764225614313400,-0.451902000000000
Puffleg and Guillemot,AL1 1BH,51.746851010000000,-0.338000457000000
Herring gull and Nukupuʻu,AL4 8BG,51.811849750000000,-0.291306541000000
Stilt and Boto,WD6 5JW,51.665810645300100,-0.272889422397142
Snipe and Night heron,AL4 9HL,51.773089850000000,-0.269478243000000
Meadowlark and Thicketbird,HP2 5XE,51.760380600916800,-0.463321970607004
Prion and B,AL4 8BB,51.812581270000000,-0.293382405000000
Nukupuʻu and Puffleg,WD17 3XE,51.658385610343300,-0.405315219470568
Mouse and Herring gull,AL2 1DF,51.712119450000000,-0.286976063000000
Parrotlet and Hawaiian honeycreeper,AL4 9XL,51.769317630000000,-0.303087411000000
Maya and Buzzard,AL5 4NS,51.825020010000000,-0.350942068000000
Buzzard and Philippine hawk-owl,AL2 1QW,51.721310590000000,-0.292622556000000
Tahr and Hawk,AL1 1TN,51.741292480000000,-0.321446218000000
Crow and Triller,EN5 4RX,51.680189327633300,-0.215755999642212
Skunk and Goose,WD7 7LG,51.667972348796800,-0.308351975973273
Quetzal and Triller,WD24 5RX,51.671357111361500,-0.403037550809030
Songlark and Tahr,WD5 0EQ,51.704241557288000,-0.416381126449931
Condor and Chickadee,AL2 3TW,51.711026840000000,-0.362751000000000
Chipmunk and Zebra,HP3 9NY,51.739747665494000,-0.460140430074843
Night heron and Flameback,AL5 1AN,51.792198230000000,-0.340611620000000
Jerboa and Bunting,AL3 4NF,51.738264870000000,-0.355984992000000
Fish eagle and Crow,WD17 3DH,51.662911503242900,-0.409508504597370
Pratincole and Armadillo,HP3 8JN,51.736862872981500,-0.447276586267813
Meadowlark and Fish eagle,WD4 8DQ,51.717373287903600,-0.456514186255018
Dolphin and Mink,AL5 3HN,51.827570550000000,-0.381135052000000
Parrotlet and Prion,AL1 4TU,51.755624260000000,-0.309425251000000
Egret and Night heron,HP2 6LN,51.773814911085900,-0.459242124388056
Stilt and Elephant,EN5 4PB,51.665253267969300,-0.198672573973020
Chipmunk and Ibex,WD25 7FA,51.699824000000000,-0.402389000000000
Chipmunk and Badger,WD7 9JD,51.697472823861600,-0.288310589077736
Hawaiian honeycreeper and Eagle,AL4 9PH,51.768481820000000,-0.305611541000000
American sparrow and Macaw,HP3 8AX,51.731077776983700,-0.449067710731998
Recurvebill and Grosbeak,WD7 9AA,51.682246000000000,-0.289261000000000
Quetzal and Triller,EN6 3NN,51.703883903011000,-0.219324898469034
Mamo and Eagle,AL7 3QP,51.798784280000000,-0.195009023000000
Coati and Badger,AL5 5TJ,51.810177020000000,-0.342170855000000
Tattler and Petrel,AL8 6SH,51.801325480000000,-0.213617248000000
Magpie and Coati,AL2 2LL,51.719339710000000,-0.336388974000000
Ice seal and Prion,AL8 7TY,51.786513390000000,-0.227729924000000
Francolin and American sparrow,AL3 4DE,51.752820480000000,-0.341099054000000
Kākāriki and Lemming,WD6 5RE,51.664105401062400,-0.260316526078701
Guillemot and Snipe,WD6 5AG,51.665418118218600,-0.268826610060243
Pratincole and Francolin,AL4 9UL,51.764736110000000,-0.297172674000000
Vulture and Guillemot,AL5 3ES,51.822975940000000,-0.376583907000000
Old World warbler and Maya,AL1 3UL,51.752809280000000,-0.332519000000000
Night heron and Greenbul,AL3 4GF,51.742978492905100,-0.359203393257398
Black jay and Kākāriki,AL1 4HA,51.758159430000000,-0.313141340000000
Jerboa and Parakeet,WD7 8AY,51.689174455581600,-0.322058208813547
Thicketbird and Crow,AL1 1UR,51.735201660000000,-0.309926783000000
Old World vulture and Siskin,AL3 7NB,51.796001000000000,-0.398174000000000
Partridge and Songlark,WD24 4PJ,51.664631151203200,-0.389869988469369
Argus and Partridge,WD24 4RD,51.663414022700600,-0.391604863363243
Myna and Old World quail,AL1 4TX,51.757629820000000,-0.310074823000000
Wader and White ibis,AL9 7RB,51.764306850000000,-0.226194092000000
Darwin's finches and Goose,AL10 0UB,51.772501740000000,-0.219857640000000
Magpie and New World blackbird,WD17 1ER,51.664181789111300,-0.399096598103643
Marsh harrier and Triller,AL7 9BN,51.804480900000000,-0.195898347000000
Snipe and Viscacha,HP3 9PL,51.739390947855800,-0.465178283067603
Goose and Wallaby,AL10 9ED,51.745028320000000,-0.237581718000000
Tahr and Fox,WD24 6BT,51.673264688919500,-0.401148205523658
Rat and Badger,AL4 0QR,51.740667180000000,-0.243588533000000
Peafowl and Goose,AL1 5AQ,51.742598250000000,-0.305913750000000
Egret and Thicketbird,AL4 0UJ,51.752648980000000,-0.300148212000000
Boto and Greenbul,AL7 4HL,51.782633850000000,-0.191727000000000
Night heron and Argus,AL3 5RS,51.762993290000000,-0.343218681000000
Old World quail and Tahr,AL1 5TD,51.745253310000000,-0.309204038000000
Argus and Kestrel,AL3 6BE,51.768007780000000,-0.340455385000000
Old World warbler and Tree warbler,AL9 7AY,51.730250000000000,-0.186952000000000
Mamo and Black jay,HP2 5XQ,51.753315373698000,-0.469704606040601
Thicketbird and Lemming,HP3 9QP,51.740384723091000,-0.462783771711394
Parrotbill and Fish eagle,AL2 1QU,51.719171060000000,-0.288953554000000
Linsang and Grouse,WD24 6PY,51.678912749013100,-0.396610046969784
Coati and Meadowlark,AL3 4JF,51.745613810000000,-0.361961485000000
Viscacha and Pitohui,HP2 4HF,51.756957205509300,-0.444370654157528
Logrunners and Tahr,AL5 2QH,51.816406180000000,-0.360614354000000
Black jay and Viscacha,AL2 1JG,51.725983710000000,-0.295530603000000
White ibis and Philippine hawk-owl,HP2 7LE,51.777431655299800,-0.434215552844141
Argus and Hawaiian honeycreeper,AL6 0QX,51.838410230000000,-0.191958633000000
Mouse and Argus,AL3 6RL,51.776824000000000,-0.397056000000000
Solitaire and Minke whale,HP2 7NQ,51.779573687113200,-0.447246031809109
Parrotbill and Old World vulture,AL3 5NA,51.757427380000000,-0.336858729000000
Perching duck and Wader,AL5 3AR,51.822912970000000,-0.367297000000000
Capuchin and Myna,WD25 9NQ,51.685204639745900,-0.391165494875799
Pratincole and Grouse,HP3 8UY,51.744697089434000,-0.437274033161547
Gull and Goose,AL1 4UR,51.766928940000000,-0.319582419000000
Linsang and Buzzard,AL4 8DA,51.811641210000000,-0.293664532000000
Cloud rat and Ice seal,AL10 9HG,51.755963550000000,-0.237040098000000
Egret and Ground sloth,AL4 8QL,51.811225700000000,-0.293535158000000
Stilt and Pratincole,AL1 3BB,51.749409840000000,-0.332647838000000
Flameback and B,AL1 3XZ,51.751121240000000,-0.339205524000000
White ibis and Puffleg,AL1 1HH,51.744323890000000,-0.336702623000000
Argus and Coati,WD6 4TB,51.666721818897900,-0.294010427242284
Minke whale and Peafowl,AL8 6PZ,51.800318400000000,-0.205941286000000
Greenbul and Vulture,HP3 8JP,51.737107831410800,-0.448803352100236
Buzzard and Polecat,EN6 1LQ,51.704187379885700,-0.185678762059894
Jerboa and Piping shrike,AL5 4JZ,51.829051370000000,-0.351157642000000
Songlark and Capuchin,EN6 3BJ,51.701414452846900,-0.208900959761945
Zebra and Meadowlark,AL2 1TE,51.718185920000000,-0.283677726000000
B and Dorcopsis,WD7 8EF,51.682945964015500,-0.317239989778771
B and Logrunners,AL4 9FJ,51.770888000000000,-0.304623000000000
Thrasher and Cuscus,WD25 7GE,51.690227405015600,-0.414700075478128
Jerboa and Mamo,WD24 5JL,51.680139458344600,-0.414777566303902
Black jay and White ibis,WD24 4ET,51.670964601511300,-0.390093739479285
Chipmunk and Perching duck,AL5 2TH,51.814546440000000,-0.355575158000000
Petrel and Lemming,WD7 9HT,51.697271798653800,-0.290561054042642
Tree warbler and Stilt,HP3 9QZ,51.736320687638500,-0.465426000000000
Gull and Goose,AL1 2NF,51.741882510000000,-0.343382664000000
Fulmarine petrel and Logrunners,EN6 5ZD,51.698658000000000,-0.190314000000000
Linsang and Lemming,AL7 3JE,51.790176400000000,-0.186667136000000
Guillemot and Mamo,AL2 3AN,51.728670790000000,-0.363095293000000
Minke whale and Grosbeak,WD25 7AU,51.691617724587300,-0.409124656912895
Songlark and Snipe,AL7 4DX,51.783543250000000,-0.197386165000000
Kite and Cuscus,WD17 1BU,51.658941000000000,-0.402005000000000
White ibis and Masked owl,HP2 7DJ,51.774469000000000,-0.433281000000000
Pheasant and Treepie,WD25 0HZ,51.690257438546400,-0.400332543776926
Egret and Egret,AL2 1JN,51.726249300000000,-0.292146904000000
Solitaire and Civet,AL7 3XB,51.792203500000000,-0.196272331000000
Bronzewing pigeon and Tahr,WD7 9EG,51.691108808264000,-0.276787992921317
Macaw and Macaw,WD17 3LN,51.663766901643000,-0.414915251201095
Chickadee and Hawk,HP2 5RU,51.766199229701300,-0.464080873398944
Zebra and Parakeet,WD24 5EG,51.672885000000000,-0.402246000000000
Mole and Goose,WD24 5AL,51.671468399888800,-0.404609970213395
Greenbul and Tahr,WD18 1DX,51.658969000000000,-0.403421000000000
Nukupuʻu and Hawaiian honeycreeper,WD25 7QH,51.692447395814300,-0.403337122318754
Mouse and Pratincole,WD25 7EU,51.697515733392100,-0.401784093091885
Greenbul and Recurvebill,HP3 9SP,51.736105590583900,-0.467679166079926
Philippine hawk-owl and Masked owl,AL10 0RP,51.766380990000000,-0.234953152000000
Grosbeak and Magpie,AL1 5EW,51.749266830000000,-0.325119997000000
Bunting and Tahr,WD7 7DL,51.692739982684800,-0.315604000000000
Gull and Night heron,WD5 0PL,51.699827731888100,-0.418474303101311
Buzzard and Dorcopsis,WD7 9BX,51.693843020953300,-0.281371000000000
Thrasher and Piping shrike,WD17 1ES,51.664199017103000,-0.397722341660356
Civet and Old World warbler,WD4 8LN,51.701592185454700,-0.437442597798216
Black cockatoo and Elephant,AL2 2RF,51.720255610000000,-0.352251588000000
Macaw and Mamo,AL1 2HU,51.737174040000000,-0.332808574000000
Masked owl and Peafowl,HP3 9EY,51.746420023098200,-0.464983535187328
Peafowl and Pheasant,AL4 9RT,51.766865170000000,-0.301382317000000
Diving bird and Greenbul,AL10 9EX,51.762149640000000,-0.243015789000000
Marmoset and Badger,WD5 0JE,51.697163277407000,-0.430331243631373
Pitohui and Skunk,WD6 4LJ,51.667000812218600,-0.290934313362308
Peafowl and Piping shrike,AL10 9JA,51.754457800000000,-0.237968051000000
Duck and Fish eagle,AL5 4AX,51.824337750000000,-0.358091776000000
Night heron and Chipmunk,HP3 8PB,51.750855635917700,-0.439811000000000
Vole and Kite,WD6 5RJ,51.666678699175200,-0.261635080512682
Capuchin and Thicketbird,WD17 1QT,51.663098413750200,-0.399438422690037
Bronzewing pigeon and Macaw,HP3 9DZ,51.743393000000000,-0.466506000000000
Hawk and Flameback,WD25 9TP,51.696734690366900,-0.378254688915215
Tree warbler and American sparrow,WD17 3TU,51.675648517559400,-0.429209426471351
Pratincole and Eagle,AL4 0XD,51.754299890000000,-0.299897876000000
Skunk and River dolphin,AL5 3QB,51.834389900000000,-0.393198355000000
Thicketbird and Duck,HP3 8PG,51.749169015180700,-0.444276055647991
Capuchin and Hawk,HP2 4RQ,51.759924016271600,-0.434850215053142
Pratincole and Rat,WD5 0SW,51.701201127259900,-0.408311023488437
Black cockatoo and Piping shrike,WD7 8HB,51.693914773640200,-0.324053264701654
Recurvebill and Grouse,EN6 3BW,51.701428000000000,-0.207366000000000
Greenbul and Masked owl,AL5 4LS,51.828796950000000,-0.349686686000000
Philippine hawk-owl and Quetzal,WD7 7DQ,51.690526758606200,-0.316018455768710
Bunting and Scimitar babbler,AL4 9SJ,51.770269830000000,-0.301776270000000
Black cockatoo and Flameback,HP2 4QA,51.759116086753200,-0.434950598838328
Towhee and Coati,WD25 9BN,51.681812113420300,-0.388219218780648
Bronzewing pigeon and Warbler,AL6 9GF,51.819647000000000,-0.222045810000000
Magpie and Asiatic leopard,WD7 7AF,51.682945964015500,-0.317239989778771
Flameback and Pratincole,WD4 8DA,51.717679321749700,-0.452435888542835
Grouse and Duck,AL1 4XE,51.764619110000000,-0.309625450000000
Maya and Bronzewing pigeon,AL5 4DG,51.824761230000000,-0.360731875000000
Chipmunk and Logrunners,AL4 0DW,51.751030510000000,-0.296427774000000
Viscacha and Marmoset,EN6 1DH,51.699995000000000,-0.190150198972750
Pratincole and New World blackbird,WD25 0AA,51.688217000000000,-0.405156000000000
Jay and Duck,AL10 8NP,51.756341770000000,-0.225723806000000
Perching duck and Meadowlark,AL1 1BY,51.749886330000000,-0.341539752000000
Triller and Zebra,AL4 0GB,51.740789100000000,-0.300187786000000
Hawaiian honeycreeper and Warbler,AL7 4TY,51.775738130000000,-0.192116462000000
Parrotlet and Jackal,AL1 3FY,51.747463000000000,-0.326597083826402
Grosbeak and Nukupuʻu,EN5 4HD,51.658822097853700,-0.207963913444885
