name,postcode,lat,lon
Booted eagles and Elephant,SE9 6BF,51.454396000000000,0.033615331300000
Marmoset and Bronzewing pigeon,SE25 5DT,51.385574859654400,-0.071246372806304
Scimitar babbler and Gull,CR0 2EW,51.379972197953200,-0.095422683164419
Capuchin and Cuscus,SW11 1RJ,51.461123000000000,-0.173396000000000
Marsh harrier and Cloud rat,SE5 7PT,51.478621897892600,-0.087139608335199
Wader and Asiatic leopard,SE14 5UH,51.474578828381200,-0.045173000000000
Linsang and Vole,SW16 6DN,51.422993338047100,-0.142035000000000
Kite and Kākāriki,BR3 1AF,51.406311010000000,-0.028489283000000
Black cockatoo and Old World warbler,SE27 0LB,51.427454600641600,-0.106021506041504
Badger and American sparrow,SM1 4JR,51.366106402968200,-0.173415201361755
Bunting and Marmoset,CR7 7DY,51.399343787703800,-0.109382513641605
Flameback and Mamo,SE3 7TN,51.475030749045200,0.015570624508388
Jackal and Stilt,CR2 6DL,51.351117930987000,-0.107289782192044
Linsang and Wader,SE5 7LG,51.480416460866100,-0.092969247133679
Zebra and Myna,SW1P 9GR,51.481087000000000,-0.133947000000000
Cloud rat and Peafowl,SE9 2PD,51.449355900773700,0.066726664402654
Crow and Old World vulture,SM5 2TZ,51.366657003733500,-0.158610789322298
Fish eagle and Fish eagle,SW16 3JL,51.415421517863600,-0.115449679736185
Petrel and Viscacha,SW4 0NF,51.466466000000000,-0.147656000000000
Kite and Partridge,CR0 7QY,51.380920849425300,-0.038461589538472
Stilt and Logrunners,SE9 5QE,51.448210682818800,0.049490999308669
Piping shrike and Cloud rat,SE16 2BW,51.490878854268800,-0.050556201773615
Shearwater and Scimitar babbler,SE27 9TR,51.427052000000000,-0.096637543310547
Hawk and Maya,SW2 1AS,51.459045687465700,-0.111033425140626
Black cockatoo and Snipe,CR0 4JJ,51.371500405619000,-0.116520963101854
Chipmunk and Diving bird,SW2 2TS,51.453863587729100,-0.113679827686874
Condor and Petrel,SE3 9QE,51.462234568413200,0.035319874889709
Old World quail and Tahr,SE12 0TA,51.446425961684000,0.008656000000000
Boto and Cloud rat,CR8 2PJ,51.335120092023700,-0.119591550331274
Moluccan boobook and Treepie,SW2 3BB,51.438208794952500,-0.121044253503793
Pratincole and Grouse,SE15 4QY,51.467901920713000,-0.072268679162009
Quetzal and Triller,SW3 5NY,51.485250131837900,-0.167565000000000
Jerboa and Chicken,SE1 6SL,51.492246467724600,-0.099908826926287
Polecat and Shearwater,CR0 7DT,51.384037797121000,-0.061480879447612
Parakeet and Night heron,SE24 0BF,51.455492000000000,-0.105279000000000
Macaw and Cloud rat,SE23 3PU,51.441378522396100,-0.054607419587703
Philippine hawk-owl and Parakeet,BR2 9AQ,51.396428040000000,0.018510598000000
Shearwater and Zebra,BR2 0PX,51.399739430000000,0.006350023000000
Hawaiian honeycreeper and Badger,SW17 0LT,51.431630030605300,-0.175938989441634
Diving bird and Buzzard,SE21 7AN,51.452366690961500,-0.089547039191871
Meadowlark and Logrunners,SW12 0AP,51.447920990517100,-0.131051000000000
Fox and Badger,SE9 4TY,51.437224045563500,0.046768943830225
Nukupuʻu and Wader,SE17 3DJ,51.491175724705700,-0.102647109265112
Elephant and Cloud rat,CR0 8EX,51.370602646498600,-0.025943242363667
Old World quail and Snipe,CR0 7BN,51.383976177849300,-0.059931360209764
Grouse and Towhee,SE15 3PY,51.461713729197900,-0.059112455915888
Booted eagles and Tit-tyrant,SE10 8NU,51.474826377925000,-0.013022752106922
Flameback and Masked owl,CR2 8SS,51.342691126761700,-0.047000792014487
Solitaire and Cloud rat,SE10 0DE,51.484090488205400,0.011145057277865
Guillemot and River dolphin,CR0 5NG,51.367804082620300,-0.085986075332297
Night heron and Masked owl,SW4 4BW,51.463240711020400,-0.138901000000000
Old World quail and Cuscus,SE16 2LJ,51.491907871489000,-0.043700000000000
Minke whale and Pitohui,SW17 7RJ,51.438606937584400,-0.162610717690837
Condor and Solitaire,CR0 1EF,51.367896281976000,-0.097719591086434
Logrunners and Shearwater,SW4 6AU,51.466976419036000,-0.138536225166704
American sparrow and Diving bird,BR5 1BL,51.389380490000000,0.066322564000000
Wallaby and Mink,CR2 6TB,51.362661119230100,-0.097865000000000
B and Elephant,SE9 3TJ,51.434319808351100,0.063156017414321
Grackle and Buzzard,SW11 2SA,51.467580509700000,-0.171784510482617
Chicken and Parrotlet,BR1 3BS,51.405983840000000,0.032245949000000
Grouse and Cloud rat,SM5 4BF,51.348664000000000,-0.167776000000000
Armadillo and Flameback,BR2 9FU,51.387107354161300,0.039070046839007
Rabbit and Grackle,CR0 6SJ,51.375364631956100,-0.081774000000000
Old World vulture and American sparrow,CR2 8PP,51.340807745307700,-0.058667763993969
Peafowl and Mouse,SW7 4TF,51.493262782155800,-0.181014041783462
Chickadee and Kite,CR8 1AP,51.337036503752400,-0.110152551851313
Parrotlet and Bronzewing pigeon,SE9 4JY,51.427446930467300,0.043785774494755
Dorcopsis and Wallaby,BR5 1AW,51.382425730000000,0.067015270000000
Moluccan boobook and Hawk,SE13 7GU,51.466128000000000,-0.017058000000000
Argus and Quetzal,SW3 2RA,51.492828205723600,-0.160476000000000
Rabbit and Diving bird,SE12 8AA,51.450750108240900,0.014011673039898
Masked owl and Pitohui,BR7 6SJ,51.422453610000000,0.059327634000000
Puffleg and Wallaby,CR8 2FQ,51.338747000000000,-0.115785000000000
Songlark and Badger,BR3 4PX,51.407704380000000,-0.042405738000000
Cloud rat and Zebra,SW9 9JA,51.467332626305900,-0.121403011529916
Booted eagles and Goose,SE13 5RR,51.459225491341000,0.000637271165603
Jerboa and Philippine hawk-owl,SE18 5ES,51.488367422466800,0.053522000000000
Kestrel and Warbler,SW16 4NB,51.400691770705700,-0.125558162884166
Wallaby and Armadillo,SE16 2DX,51.490968779468600,-0.054888321779531
Towhee and Rabbit,SE15 4TP,51.467737869709700,-0.066674843542828
Goose and Philippine hawk-owl,SE23 1DN,51.447048776665000,-0.044091006211164
Cuscus and Mamo,SW17 0RB,51.427547912755100,-0.175972089585427
New World blackbird and Armadillo,SE15 1AN,51.481584680300000,-0.053977104100000
New World blackbird and Civet,SE4 1NT,51.465773720441800,-0.033787000000000
Solitaire and Tahr,SM1 4HB,51.362637523639800,-0.187458154564176
River dolphin and Linsang,SW3 6AX,51.486175355304700,-0.176874251410947
Flameback and Tree warbler,BR3 6ND,51.402477150000000,-0.020847247000000
B and Tahr,CR0 2TY,51.381084000000000,-0.105125743143258
Towhee and Scimitar babbler,SE6 2NZ,51.436682317973600,-0.017987798239744
American sparrow and Wader,SW2 5RH,51.460946524001500,-0.124688329448798
Goose and Chipmunk,SE20 8DZ,51.416773688802800,-0.071429086798262
Kestrel and Stint,SE17 2BW,51.483979013226300,-0.086987448674941
Booted eagles and Greenbul,SE8 5QT,51.483203853813900,-0.029855531422228
B and Kangaroo,CR9 1SA,51.372161780581400,-0.099008304414128
Pratincole and Mockingbird,BR4 9PP,51.376885140000000,-0.024135449000000
Marmoset and Booted eagles,SW2 2EA,51.446113415893800,-0.114330224038413
Viscacha and Masked owl,SW16 6LQ,51.427956443448100,-0.132814778326044
Myna and Maya,BR3 5ED,51.411376980000000,-0.012697616000000
Viscacha and Vole,SM5 1PD,51.382811942223400,-0.165176681308670
Marmoset and Nukupuʻu,SE7 7BB,51.479771000000000,0.035884000000000
Boto and Minke whale,BR3 1BZ,51.413085276570400,-0.038753344060986
Kestrel and Ibex,SE12 9LH,51.446017230761500,0.016782373587750
Quetzal and Mole,SE3 0NE,51.470136048605300,0.025307000000000
Masked owl and Dorcopsis,SW4 6DQ,51.464644778691800,-0.131420000000000
Grouse and Tahr,SE25 5HJ,51.387909468364100,-0.070487058168534
Greenbul and Greenbul,SW9 8BS,51.462960597879900,-0.116817412278310
Guillemot and Peafowl,CR8 2NU,51.343011005348900,-0.111471887940824
Nukupuʻu and Badger,BR3 3BU,51.387556520000000,-0.022885286000000
Jackal and Mouse,CR4 2NX,51.407146608966800,-0.155474963384429
Old World warbler and Parrotlet,SE25 5ET,51.387133995655600,-0.068176964208070
Triller and Boto,SE14 5HQ,51.474192679796300,-0.049726890720884
Hawk and Grosbeak,SE19 1TY,51.419977124400000,-0.079132920700000
Boto and Stint,SM6 6AN,51.360338000000000,-0.152458000000000
Mink and Siskin,SE6 1SA,51.434629989836200,-0.002509349669756
Grouse and Cloud rat,BR4 9DD,51.365886150000000,0.014452083000000
Wader and Skunk,BR1 5PE,51.427368670000000,0.001949855000000
Hawaiian honeycreeper and Gull,SE4 2SA,51.460295078264200,-0.033879723325559
Jerboa and Condor,SW9 9UR,51.465369800188100,-0.119007346126680
Diving bird and Booted eagles,SW11 5PS,51.465399206293300,-0.153098126428762
Crow and Darwin's finches,SW2 1JS,51.460766766893500,-0.114043008080415
Night heron and Hawaiian honeycreeper,SE21 7DG,51.452316596976000,-0.083173063369073
Herring gull and Rat,SW9 9TB,51.465448515908000,-0.116628603488770
Puffleg and Grackle,BR2 9JE,51.397441090000000,0.025987533000000
Stint and Argus,SW9 9JW,51.468792000000000,-0.121473000000000
Stilt and Marmoset,BR1 5HP,51.429334930000000,0.014206259000000
Eagle and Buzzard,SW2 4UN,51.448576415592400,-0.125483051467807
Kite and Flameback,SW11 3AB,51.473833000000000,-0.166125771457995
Diving bird and Jay,SE1 5UY,51.492399265711400,-0.082226865516022
Coati and Marmoset,SE18 9ZZ,51.489548000000000,0.067147000000000
Tit-tyrant and Rat,CR9 3BQ,51.378068000000000,-0.113291000000000
Scimitar babbler and Grosbeak,SM6 9AN,51.357883263342600,-0.146265602421549
Lemming and Zebra,CR4 4EH,51.399031955084800,-0.169602425828815
Triller and Kangaroo,SE14 5TL,51.467401679114000,-0.044775701093656
Partridge and Tree warbler,SW16 4ND,51.401789284553700,-0.126145877790985
Mockingbird and Buzzard,SW16 4NW,51.405204293056500,-0.125445539516392
Duck and Zebra,SW9 6QH,51.472470594211300,-0.108736622920152
Pitohui and Greenbul,SM6 8SP,51.361866451999700,-0.144524696286889
Thrasher and Partridge,BR2 0HE,51.401579870000000,-0.001361847000000
Minke whale and Marmoset,SE10 8AY,51.472591650298400,-0.009044812578199
Rat and Chicken,SM5 2EY,51.377635634095900,-0.165398037756412
Philippine hawk-owl and Vulture,CR0 5EX,51.368553000000000,-0.045833335698617
Partridge and Tit-tyrant,BR3 6TS,51.405758100000000,-0.020763100000000
Linsang and American sparrow,SE17 2DP,51.485951729543900,-0.093818571721033
Maya and Grouse,SE8 3DQ,51.482450778228600,-0.022513891019815
Viscacha and Philippine hawk-owl,SE1 7YD,51.492760984014900,-0.080151672390443
Mink and Songlark,SE25 6RG,51.397982645747700,-0.090879442155582
Booted eagles and American sparrow,SW8 3PL,51.470394134098400,-0.151643750348827
Dolphin and Black cockatoo,SE26 5PH,51.418685334490500,-0.052709031621877
Tree warbler and Stilt,SW2 2TR,51.454425620674800,-0.113958923615616
Pitohui and Civet,SE7 7BS,51.476828536584400,0.036948759949146
Warbler and Logrunners,SE13 6JY,51.458302631864800,-0.013841234664084
Tree warbler and Scimitar babbler,SW4 4ER,51.463324000000000,-0.138875000000000
Tahr and Jay,SM6 8LP,51.361032459350800,-0.128884000000000
Towhee and Petrel,SW2 3AZ,51.438585756529100,-0.123805772263502
Prion and Gull,BR3 5DW,51.411272000000000,-0.016594127000000
Fish eagle and Jerboa,SE5 9PE,51.466067033164200,-0.099787186940823
Petrel and Argus,SW9 6JX,51.476161143476700,-0.111190445477287
Diving bird and New World blackbird,SE8 3QJ,51.489582156474900,-0.034290931495182
Old World quail and Scimitar babbler,SW16 5BU,51.405976397084600,-0.140511223431065
Old World vulture and Songlark,SE1P 4QJ,51.492762382100000,-0.080151676700000
Wallaby and Towhee,SW11 3DF,51.473081877421100,-0.168771114932743
Pitohui and Guillemot,SE7 7BP,51.477098611012100,0.036931990850878
Peafowl and Skunk,SW1P 3XQ,51.481026000000000,-0.135804000000000
Parrotbill and Tahr,CR0 0NN,51.346726496545500,-0.014232249453254
Black cockatoo and Lemming,SW18 1TY,51.464712993852000,-0.184006711579940
Peafowl and B,SE22 8TB,51.453991737587100,-0.086629290906698
Chipmunk and Mockingbird,BR2 9JS,51.399341920000000,0.021629194000000
Lemming and Puffleg,SE1 5AY,51.483497000000000,-0.069040609586678
White ibis and Chicken,SW16 6QT,51.420443535736800,-0.148999596488353
White ibis and Old World vulture,BR1 9DS,51.408226000000000,0.017604000000000
Treepie and Jay,CR2 9LH,51.333980810581200,-0.076570791513346
Songlark and Buzzard,SE17 2AY,51.484082253735000,-0.093002000000000
Ibex and Macaw,CR4 1HH,51.395625747283200,-0.136072150954069
Polecat and Scimitar babbler,BR7 5NL,51.407677000000000,0.056938000000000
Grosbeak and Siskin,SE24 0QH,51.463354986655700,-0.102793518637239
Elephant and Jackal,SE23 3PA,51.440497045249700,-0.057306891232379
Kestrel and Viscacha,BR1 2TQ,51.412147240000000,0.035682984000000
Badger and B,SW3 4TW,51.489772195972400,-0.157875178104218
White ibis and Grackle,CR2 6GB,51.362108065947200,-0.100128483797381
Flameback and Thicketbird,SE13 6BE,51.462250865871700,-0.009624480356193
Cuscus and Ground sloth,SE9 3HG,51.427239739604900,0.059729835524485
Myna and Goose,CR0 9ED,51.358576082109700,-0.017238902728999
Tattler and Tree warbler,SE10 8QT,51.473594671114300,-0.006682775472590
Polecat and Rat,SE14 5UL,51.474649101624100,-0.042579404792640
Nukupuʻu and Mockingbird,BR2 0SH,51.401170450000000,0.007332780000000
Civet and Songlark,CR0 1RX,51.372480061727100,-0.107558346805696
Prion and Darwin's finches,SW10 0UB,51.481281581903800,-0.183708683211669
Old World vulture and Pratincole,BR2 0DB,51.406734920000000,0.009028722000000
Wallaby and Towhee,BR1 2FH,51.397633980000000,0.062352950000000
Grackle and Diving bird,CR0 3AX,51.390820357914400,-0.131912271562823
Peafowl and Fulmarine petrel,SE6 1NS,51.445654000000000,0.000778000000000
Badger and Parrotbill,SW8 4HN,51.473369554565900,-0.135669690113887
Fish eagle and Pheasant,SE6 1AE,51.445278082463000,-0.004131377186352
Diving bird and Booted eagles,SE14 5QJ,51.476943548908300,-0.044814099215868
Asiatic leopard and Bronzewing pigeon,SE3 8NF,51.467726013378600,0.040157221036734
Boto and Chipmunk,SE1P 5DQ,51.492762617800000,-0.080166072400000
Flameback and Songlark,SE4 1AF,51.452476449187700,-0.033107403748168
Jay and Towhee,SW16 4RQ,51.403633239054500,-0.112167398218200
Stint and Buzzard,BR1 4LX,51.424657480000000,-0.005706061000000
Chicken and Jay,CR0 0BY,51.334531181175300,-0.004652559134693
White ibis and Cuscus,SE22 2EE,51.454245000000000,-0.072905000000000
Fulmarine petrel and Goose,SW3 6JZ,51.489285913088500,-0.172198377855153
Condor and Rat,CR0 1XR,51.375862998954700,-0.105435931711802
Tattler and Parakeet,SW1W 9SP,51.491725013467700,-0.148260204459676
Ground sloth and Civet,CR0 3SU,51.379061315454900,-0.106913299890492
Flameback and B,CR0 1RL,51.374278866432700,-0.104236913505400
Bronzewing pigeon and Jay,SM1 3RR,51.368081935594100,-0.183062587673940
Tit-tyrant and Old World quail,SE5 9RS,51.468077000000000,-0.093916000000000
Mamo and Stint,BR3 5UP,51.396359750000000,-0.048050885000000
Parakeet and Warbler,SE14 5RT,51.484844000000000,-0.048250000000000
Peafowl and Kite,BR4 0BJ,51.385070660000000,0.000649423000000
Puffleg and Dolphin,SE14 5PY,51.474928706256600,-0.044785055132356
Linsang and Siskin,SE15 6DR,51.478015644306900,-0.075370528466415
Thicketbird and Solitaire,SE8 4AR,51.476359009310300,-0.027097561927754
White ibis and Stilt,SE27 0AY,51.435693113209400,-0.106098003592424
Condor and Minke whale,CR4 1BH,51.410260561646700,-0.143673416509686
Kestrel and Diving bird,SE26 6EZ,51.423511425226500,-0.056862216456326
Grouse and Prion,BR3 4TN,51.407323420000000,-0.053004849000000
Parakeet and Crow,SE7 7PU,51.484970451057500,0.030527571990226
Diving bird and Kangaroo,SE5 9AT,51.463638341776200,-0.097527056331232
American sparrow and Triller,BR4 0AB,51.380179280000000,-0.009953702000000
Scimitar babbler and Greenbul,SW4 6BY,51.466745655975900,-0.137595389784409
Condor and Scimitar babbler,SE10 9LT,51.483024706502200,-0.000150405084218
Capuchin and Gull,BR3 1TB,51.421289200000000,-0.021861318000000
Parrotbill and Kestrel,SW19 2BT,51.419922178936600,-0.176548962198703
Gull and Scimitar babbler,BR4 0JH,51.379283150000000,-0.017033934000000
Mink and Zebra,SE9 1XE,51.460902450230900,0.061633879765009
Herring gull and Tattler,SE25 4TH,51.399520753553300,-0.068948969419496
Bunting and Recurvebill,SW4 0EG,51.464222339984300,-0.140290000000000
Treepie and Grackle,SM6 0PY,51.356442940023200,-0.149584084560118
Eagle and Kestrel,BR3 3SJ,51.399754870000000,-0.025795280000000
Pheasant and Macaw,SW16 2BJ,51.430484221540100,-0.128827575957384
Gull and Scimitar babbler,SW16 6BB,51.421364672735700,-0.139023665508822
Diving bird and Tit-tyrant,CR0 0HQ,51.345916447760200,-0.005723253230296
Parrotlet and Old World quail,SE17 1RT,51.490796123401400,-0.096425493039078
Pitohui and Gull,SW4 6JS,51.469647635743300,-0.131213959209385
Chicken and Marmoset,SE23 3NR,51.448858764175600,-0.048014607698735
Stilt and Kestrel,SE11 5ES,51.488934964864800,-0.122099671955586
Kākāriki and Recurvebill,SW1P 4AA,51.492559629952400,-0.132841302578650
Marmoset and Civet,SE15 3AF,51.457382706616100,-0.052271631641558
Vulture and Buzzard,SE15 3BP,51.461519959200000,-0.061211000000000
Rat and Parrotbill,SE16 3LS,51.491936891557300,-0.061761736436209
Moluccan boobook and Partridge,SE3 7TA,51.476061709878100,0.017848167027424
Boto and Logrunners,BR2 6EG,51.364288520000000,0.044894325000000
Darwin's finches and Mouse,SE11 4PT,51.485950975413300,-0.110440235344043
Civet and Ice seal,SE1P 4BS,51.492762382100000,-0.080151676700000
Chipmunk and River dolphin,BR7 6EB,51.421888440000000,0.055663166000000
Herring gull and Solitaire,BR1 4HX,51.415798560000000,0.006867000000000
Perching duck and Siskin,SE5 5SF,51.474144486994900,-0.082790978680721
Quetzal and Nukupuʻu,CR0 6EZ,51.383900879501500,-0.086521751818810
Mink and Tit-tyrant,SE15 1EG,51.481101341990600,-0.055279400604894
Lemming and Puffleg,SE11 6UL,51.491946460434600,-0.113073410235536
Puffleg and Parrotbill,SW11 2AG,51.461208000000000,-0.176435309922841
Polecat and Viscacha,SW17 7RD,51.437412705000200,-0.161004008534100
Kākāriki and Rabbit,CR0 3SA,51.378808061677400,-0.109050479628990
Dorcopsis and Hawk,SW17 8LN,51.429256177290800,-0.161561691300147
Quetzal and Towhee,BR7 6JW,51.425449400000000,0.068452804000000
Fox and Macaw,SW18 3SN,51.447839782824400,-0.172227719391346
Mockingbird and Dolphin,SE19 3LJ,51.411513459328200,-0.088475188390082
Zebra and New World blackbird,SE21 7BB,51.443676377768500,-0.082729032118231
Fox and Fulmarine petrel,SW11 3LE,51.473819982309400,-0.175739734685408
Mamo and Jerboa,SE3 7AL,51.475602049315600,0.013723750037974
Chipmunk and Ice seal,BR1 5HX,51.430945470000000,0.019384267000000
Warbler and Recurvebill,SM5 4DD,51.334686535959500,-0.157379766329566
Philippine hawk-owl and Stint,CR0 0HE,51.344613664408200,-0.012140972950788
Black jay and Darwin's finches,CR8 2NS,51.343398798869600,-0.116007657326834
Francolin and Coati,BR1 3SD,51.412550890000000,0.008118859000000
Puffleg and Pheasant,SE26 6JY,51.430259816650800,-0.064704017047227
Pheasant and Old World warbler,SE15 4JR,51.465384000000000,-0.066709596355327
Lemming and Siskin,SW17 9NY,51.425536000000000,-0.157655000000000
Macaw and Ice seal,SE6 3HX,51.429581271812200,-0.022438266920274
Jerboa and Minke whale,SE8 5TG,51.481890581282800,-0.030905894507064
Bronzewing pigeon and Vulture,SW4 0LT,51.466705114827300,-0.144680540179152
Grackle and Prion,SE3 9BE,51.462585129517500,0.016073120997158
Old World quail and Herring gull,SW95 9DD,51.480624000000000,-0.136555000000000
Magpie and Grackle,BR2 8DN,51.383452200000000,0.056210978000000
Treepie and Badger,CR0 1LD,51.374625470786300,-0.095112961218204
Rabbit and Rat,SE25 4AW,51.404288278540100,-0.075592004752909
Ground sloth and Gull,SW1P 4NP,51.491514000000000,-0.133705000000000
Chipmunk and Logrunners,SW3 9DT,51.463240711020400,-0.138901000000000
Solitaire and Parrotlet,SW16 4AU,51.407075477690300,-0.121558677336734
Mamo and Zebra,CR0 1DG,51.368295772020200,-0.101280299689939
Fox and Stint,SE6 3JP,51.436655075337800,-0.023830556456273
Thicketbird and Tattler,BR2 0PJ,51.398033060000000,0.006075000000000
Hawaiian honeycreeper and Thicketbird,CR0 7LG,51.375779581307000,-0.064028215150927
Kangaroo and Elephant,CR0 5EW,51.373099547668900,-0.053164042800419
Magpie and Chipmunk,SW12 8PL,51.448172298920900,-0.152138319261804
Fulmarine petrel and Kite,BR7 5FF,51.420958976350500,0.054887850313877
Armadillo and Grosbeak,SE4 2SR,51.462730670860200,-0.037014209049513
Triller and Siskin,SE11 9BW,51.489148836100000,-0.098453184100000
Stint and New World blackbird,CR2 9JZ,51.332021976462400,-0.091510406730853
Parrotbill and Bunting,SE9 3NS,51.433800242537100,0.066756000000000
Mockingbird and Viscacha,SE11 6TP,51.490450978689700,-0.112904680123080
Greenbul and Logrunners,SE15 3JX,51.459394822423600,-0.055928726477462
Fish eagle and Goose,SW2 3PG,51.441989968045400,-0.109564430505869
Asiatic leopard and Viscacha,SW1V 2JA,51.489551376896100,-0.133108253497157
Black jay and Condor,SW8 2SP,51.480295929959000,-0.127336722448560
Grackle and Philippine hawk-owl,SE19 3EB,51.415624000000000,-0.095092000000000
Masked owl and Myna,CR0 7NS,51.384724064570600,-0.039491823602559
Mockingbird and Vulture,BR6 8LN,51.368956820000000,0.055116123000000
Darwin's finches and Rat,SE3 0AU,51.466228719633200,0.010748277407136
Towhee and Dorcopsis,SW18 2EB,51.453158436352000,-0.182320705960714
Duck and Argus,CR0 6PL,51.380023052456500,-0.083651363899733
Greenbul and Viscacha,BR1 4QW,51.423508310000000,0.010497871000000
Solitaire and Bunting,SW16 5DS,51.416152391057300,-0.135280454197253
Minke whale and Viscacha,SW1V 3JU,51.487568318161600,-0.129991578600457
Old World vulture and American sparrow,SW10 9SR,51.487625900506100,-0.181684904390511
Wallaby and Fox,SE12 8JL,51.454816429341000,0.022798214960892
Egret and Cloud rat,SW8 1BJ,51.477423283620700,-0.122255000000000
Perching duck and Old World vulture,CR4 3HP,51.410946017899800,-0.170679667281412
Myna and Cloud rat,SE11 5TP,51.482510198227300,-0.112325153615560
Marmoset and Night heron,SE3 8PQ,51.469189310093200,0.037717164049891
Maya and Buzzard,SM4 6AS,51.391324164965700,-0.171836117155583
Chipmunk and Kite,SM4 6DR,51.392633344464200,-0.182578814728002
Argus and Egret,SW8 3LT,51.468504401585200,-0.144161217265306
Ice seal and Herring gull,CR7 6ET,51.399641782631300,-0.122883967347599
Asiatic leopard and Pheasant,BR2 9SX,51.389371000000000,0.032501000000000
Stilt and Hawaiian honeycreeper,SE16 2PU,51.491711250486800,-0.048158204157746
Grouse and Tit-tyrant,CR7 8QA,51.399942784059000,-0.095283278226375
Kestrel and Jackal,SE15 1ND,51.481152572005200,-0.062175809429097
Old World quail and B,SE12 0LR,51.434813927539000,0.023986260807003
Diving bird and Prion,SE8 3HF,51.483641551861600,-0.023268939268191
Bunting and Cuscus,SW8 1SR,51.484991208122400,-0.122909842252515
Chicken and Thicketbird,CR2 8SL,51.346327851126000,-0.052618793655690
Siskin and Kite,SE1P 5WG,51.492760984014900,-0.080151672390443
B and Parakeet,CR0 0FD,51.350643030070700,-0.011248189439707
Mouse and Asiatic leopard,BR4 0BW,51.382034230000000,-0.002170379000000
Fulmarine petrel and Chicken,SM5 1EP,51.390122436147200,-0.177820160648240
Grackle and Mamo,BR3 3BA,51.389416640000000,-0.023868724000000
Badger and Cuscus,BR1 2QJ,51.401766990000000,0.036343435000000
Mink and Marmoset,SW1W 8NF,51.490316657578200,-0.153042037919173
Elephant and Badger,SW11 6RW,51.456924907054500,-0.160896425664888
Ground sloth and Perching duck,SE15 3AA,51.459330162465700,-0.056910347172209
Pheasant and Stilt,SE10 8DF,51.472758942839300,-0.014667736232718
Grackle and Civet,CR2 7ZQ,51.360306983034700,-0.090018913201513
Vulture and Jerboa,SE19 2LL,51.418609886269400,-0.077004062083997
Night heron and River dolphin,SW16 6HG,51.427619682785300,-0.131433153919877
Eagle and Pitohui,SE5 0YY,51.480843457057300,-0.101549364978604
Buzzard and Francolin,SE12 9TF,51.431376639656700,0.028265397524751
River dolphin and Philippine hawk-owl,SW8 2HA,51.476282118900400,-0.127141107357622
Quetzal and Macaw,SE23 1PH,51.451890249322900,-0.041063080232382
Cuscus and Marmoset,CR0 5EN,51.371932292533200,-0.047868753891577
Prion and Fish eagle,SE20 8DU,51.416044361265000,-0.070826995140084
Marsh harrier and Siskin,SE6 1HJ,51.440422273309800,0.003758120954922
Old World vulture and Ground sloth,SW12 8RR,51.445057742989400,-0.156509253469816
Tattler and Prion,SE20 9BW,51.415205552800000,-0.053734236200000
Towhee and Black cockatoo,SW6 2UP,51.468382066108600,-0.184595325007082
Shearwater and Eagle,SM2 5EG,51.358259604291100,-0.185232308280914
Jay and Viscacha,SW9 0HA,51.476899587342600,-0.112931216689043
Wader and Diving bird,BR3 1JH,51.418505730000000,-0.041929887000000
Solitaire and Vole,SE10 8PB,51.473192712365700,-0.014792899388715
Grackle and Asiatic leopard,SW12 8SX,51.442822335964300,-0.164197090073215
Mamo and Tahr,SE4 1YD,51.463706000000000,-0.028090000000000
Bronzewing pigeon and Old World quail,CR7 6HF,51.396490208840100,-0.119821661792219
Puffleg and Skunk,SW4 6BX,51.463801538121000,-0.135109499462033
Nukupuʻu and Hawaiian honeycreeper,CR0 1HZ,51.365222937563200,-0.094799238426745
Jerboa and Duck,SW12 9LS,51.437349580136500,-0.143063000000000
Capuchin and Macaw,BR2 6BB,51.359504340000000,0.030934855000000
Egret and Chipmunk,SW2 3FE,51.437060130623800,-0.117739035733821
Meadowlark and Macaw,SW11 4DD,51.476357436033100,-0.150581877026233
Grackle and Mole,SW16 6RU,51.424895634697800,-0.145065430128213
Gull and Parakeet,SE9 5AL,51.450596000000000,0.051020000000000
Towhee and Chicken,SW11 4PR,51.473032572854400,-0.164467697364141
Wallaby and Scimitar babbler,BR1 3AT,51.407844330000000,0.029711433000000
Stint and Recurvebill,CR0 4NL,51.366587161517200,-0.116880590545323
Maya and Minke whale,CR0 7DW,51.380025000000000,-0.041275000000000
Zebra and Coati,SE3 0NL,51.471553765964700,0.015906937755799
Pratincole and New World blackbird,SE13 6SF,51.453330059892900,-0.009623912069431
Old World warbler and Treepie,BR3 4JZ,51.402635870000000,-0.044764415000000
Minke whale and Francolin,SE1P 4NS,51.492762382100000,-0.080151676700000
Tit-tyrant and Coati,BR3 5BP,51.415003000000000,-0.022852000000000
Peafowl and Stint,SE8 3BJ,51.481226241090000,-0.020824202021773
Boto and Wader,BR2 0PW,51.398525920000000,0.002113446000000
Mouse and Grouse,BR3 4RX,51.408221360000000,-0.050220291000000
Vulture and Crow,CR0 4DL,51.364461422265800,-0.111638264183484
Polecat and Coati,CR4 3GF,51.405335155182900,-0.171766329207133
Parakeet and Old World warbler,SW17 0PR,51.434760964055600,-0.177770943001287
Recurvebill and Meadowlark,CR4 2GL,51.411089506608200,-0.156051000000000
Songlark and Chickadee,SW2 1HS,51.447053533847300,-0.124725121360805
Triller and Crow,BR4 0AU,51.379550760000000,-0.003140736000000
Armadillo and Vulture,SE3 7WS,51.466228719633200,0.009333000000000
Jay and Puffleg,BR4 9JN,51.367728050000000,0.006688781000000
Myna and Herring gull,BR7 5BY,51.417343460000000,0.063542043000000
Parrotbill and Grackle,SE15 4AA,51.467458747497700,-0.073755925694742
Mockingbird and Quetzal,SW17 9NF,51.425557773476600,-0.167147418338808
Civet and Marsh harrier,SW12 9LQ,51.449697739640700,-0.145096615811138
Tit-tyrant and Asiatic leopard,SE5 9HN,51.470527000000000,-0.100844662354747
Crow and Snipe,SW2 2JU,51.454715544401800,-0.114652261772582
Parakeet and Dolphin,SM5 4HQ,51.341808468366400,-0.182105988906132
Old World quail and Logrunners,BR2 0BG,51.414562130000000,-0.005915364000000
Flameback and Rabbit,SE7 7BJ,51.475387069646900,0.036582131205485
River dolphin and Shearwater,SW2 2EE,51.447331769868900,-0.115719161378661
Francolin and Magpie,SW4 4BQ,51.463240711020400,-0.138901000000000
Boto and Thicketbird,SE8 3AQ,51.489818560792400,-0.030693956161705
Bunting and Guillemot,CR2 7EY,51.363386000000000,-0.092925000000000
Kangaroo and Grouse,E14 9YD,51.490742543962400,-0.022011048501199
Wallaby and Mamo,CR8 2DS,51.330065502609100,-0.110611439000176
Condor and Civet,SE18 4PF,51.474139058463700,0.041638558298869
Egret and Rabbit,SE18 5RW,51.490426072998200,0.060084545848336
Francolin and Mockingbird,SE5 7BW,51.474429920906000,-0.090914949307294
Egret and Moluccan boobook,SE4 2AH,51.455640186481800,-0.036224467583128
Parakeet and Kākāriki,SE19 3EH,51.415408897619300,-0.098523424133913
Thicketbird and Wallaby,SE9 1QE,51.458041410708200,0.051457233578094
Siskin and Macaw,SE1 5QD,51.490557560289400,-0.070275982760058
Black jay and Skunk,BR2 0QX,51.394624120000000,0.006255574000000
Duck and New World blackbird,SE9 2DU,51.438682400614000,0.069726911965939
Jackal and New World blackbird,SE1 5XQ,51.491920000000000,-0.081973000000000
Lemming and Mouse,BR3 1HZ,51.408546550000000,-0.032016699000000
Polecat and Ice seal,SW6 2FG,51.474122000000000,-0.182971000000000
B and Wallaby,SE3 9YG,51.458578000000000,0.031587000000000
Diving bird and Cuscus,SE1P 4GW,51.492762382100000,-0.080151676700000
Kite and Tattler,BR2 0NE,51.400802590000000,0.004656944000000
Vole and Piping shrike,SE24 4BN,51.473914000000000,-0.096725000000000
Argus and Pratincole,CR8 1BG,51.331818926045500,-0.106146699728390
Argus and Gull,SM5 2EJ,51.371408278543000,-0.164728000000000
Parrotbill and Pratincole,SW11 3PD,51.475168079611100,-0.174533955800513
Eagle and Peafowl,CR0 4TX,51.370748647415500,-0.129094423388012
White ibis and Chickadee,SE15 4UP,51.466552000000000,-0.065055000000000
Siskin and Petrel,SE13 7TJ,51.465508265808400,-0.019834334046135
Duck and Dorcopsis,SW17 7HH,51.439044945960700,-0.166005000000000
Kite and Condor,SW9 7PS,51.464087061209500,-0.111933786569789
Siskin and Jay,SE3 9EX,51.461415000000000,0.023493000000000
Flameback and Cloud rat,SM6 8AE,51.363524581183300,-0.145879812196730
Hawk and Parrotlet,SW17 8AY,51.434148322541700,-0.156991624726473
Crow and Polecat,SW11 6JP,51.452560468195700,-0.161849040895729
Cloud rat and Chipmunk,SW16 1HJ,51.429821000000000,-0.130155955282050
Petrel and American sparrow,SE25 4NP,51.398066705721400,-0.065301221748391
Flameback and B,SW2 1NZ,51.455322644536000,-0.117736312538808
Rabbit and Wader,SE18 3TB,51.481038109662700,0.069757423393668
Mamo and Fulmarine petrel,SE6 4LN,51.435333396333600,-0.033469803375784
Grackle and Petrel,SE11 6TX,51.491054748808900,-0.113542381976799
Chickadee and Francolin,SW9 8NL,51.459152010657000,-0.105749000000000
Mole and Hawk,BR1 4BF,51.416071350000000,0.016772742000000
Goose and River dolphin,SE9 4RW,51.439205024045200,0.036656000000000
Elephant and Civet,SE4 2NP,51.469712503385600,-0.039911007318983
Tit-tyrant and Kestrel,SM2 5LD,51.351985212503500,-0.180755375841181
Fox and Dolphin,SW10 0TL,51.481880587649300,-0.183483255795906
Parrotlet and Marsh harrier,SE7 7RL,51.485903766741400,0.020227161886635
Myna and Magpie,SE1 6NL,51.492760984014900,-0.080151672390443
Kite and Tree warbler,SE12 9PH,51.433611399514400,0.028522643501336
Grackle and Tattler,CR7 8HW,51.408119961767800,-0.100766000000000
Polecat and Stilt,SE4 2DH,51.453421961257800,-0.038550637163403
Jackal and Night heron,SE3 0US,51.467557458268400,-0.000164506737196
Kite and Stint,SE7 8EZ,51.485328363871300,0.049402000000000
Fox and Duck,SW1V 4JF,51.491033496412100,-0.147179038624340
Maya and Tree warbler,CR0 9ES,51.358196956516800,-0.018749080043064
Rabbit and Wallaby,SM5 4WB,51.360338000000000,-0.152458000000000
Skunk and Songlark,SE12 9BN,51.444878480441900,0.022330215963032
Myna and Kestrel,SE23 1EB,51.449845216494400,-0.045151657635778
Grosbeak and Moluccan boobook,SW11 5NR,51.464366550374300,-0.154334737793278
Black cockatoo and Parrotbill,SW1W 8TN,51.492958097255100,-0.152892062134417
Nukupuʻu and Asiatic leopard,SE7 8LX,51.492138000000000,0.038934825015701
Guillemot and Parrotbill,SE25 4LB,51.395152972158000,-0.065841032697463
Mink and Jackal,SE13 6RR,51.451821458339200,-0.006048119732808
Petrel and Old World warbler,SE9 3LX,51.437059911451900,0.053581704241334
Lemming and White ibis,SE5 7RJ,51.474752372109500,-0.086423089999927
Francolin and Meadowlark,BR2 9DD,51.390834180000000,0.011206845000000
Meadowlark and Mamo,CR0 4TH,51.378793525777100,-0.133379106829226
Treepie and Asiatic leopard,CR2 0DN,51.343231850102800,-0.096228257499271
Stint and Herring gull,SE1 5QX,51.489978150237700,-0.069493778837202
American sparrow and Meadowlark,SE26 6XH,51.424767755085000,-0.059959088562434
Jay and Bunting,SE16 3DE,51.485380495340500,-0.055198162999432
Kangaroo and Ice seal,SW12 8LF,51.446146572054600,-0.157287000000000
Quetzal and Songlark,SW17 0PN,51.435896081207700,-0.179639322120818
Thrasher and Black jay,SM6 9NZ,51.353218000000000,-0.133284000000000
Cloud rat and Ibex,SW2 1HZ,51.450298231736800,-0.121253176503058
Treepie and Perching duck,SW9 8AN,51.462052000000000,-0.120722147149986
Shearwater and Asiatic leopard,BR1 1RD,51.408224730000000,0.017577789000000
Linsang and Darwin's finches,SE5 7TY,51.479503458500000,-0.085417812100000
Pitohui and Argus,SW12 8HG,51.441380259815900,-0.161693612681831
Shearwater and Marsh harrier,SW18 3JX,51.442849953933200,-0.173448623299378
Vole and Armadillo,SE1P 5XU,51.492762000000000,-0.080152000000000
Grouse and Darwin's finches,SW11 2JN,51.466611372588900,-0.163285659634199
B and Ice seal,BR7 6EL,51.425284830000000,0.054290814000000
Snipe and Tahr,SE12 0HZ,51.440550840016100,0.018800685139064
Recurvebill and Jerboa,BR2 0TX,51.396606970000000,0.013860775000000
Capuchin and Solitaire,SW4 6PA,51.471537715339100,-0.129624839031587
Tahr and Chicken,SE5 0XX,51.480165773506500,-0.099129222395209
Meadowlark and Towhee,SE15 3DE,51.458562426229700,-0.046967247076911
Thicketbird and Petrel,SE26 6BW,51.425093116750600,-0.065497691299751
Coati and Fulmarine petrel,SE26 6EW,51.420777358861800,-0.060645862894664
Triller and Duck,SW1V 2QF,51.490394766546600,-0.135248931052254
Ibex and Wader,BR2 0NB,51.406612430000000,-0.001688804000000
Towhee and Eagle,BR1 5HB,51.431187490000000,0.006864322000000
Tattler and Parrotbill,CR9 0BG,51.343390522996200,-0.005258551058019
Dorcopsis and Kākāriki,SE18 4GQ,51.474421534780100,0.045553609830771
Night heron and Towhee,CR0 2XF,51.387398861185500,-0.104212129245088
Fox and Minke whale,SW17 7NR,51.431969000000000,-0.166431000000000
Scimitar babbler and Jackal,SE9 5BD,51.447732153195400,0.059860419823115
Vulture and Wallaby,BR7 6TD,51.423755880000000,0.069124309000000
Capuchin and Triller,SE15 2LR,51.477141037343900,-0.052898913232069
Cloud rat and Argus,SW10 9PE,51.488141511007000,-0.176090026424489
Viscacha and Ibex,BR3 6NN,51.404397300000000,-0.017931880000000
Tree warbler and Booted eagles,SW3 5DR,51.484273686429300,-0.172557233359653
Masked owl and Fulmarine petrel,BR1 5PG,51.428921830000000,0.000521629000000
Kākāriki and Old World quail,SE22 8QP,51.454998471273800,-0.077806988641358
Ground sloth and Grosbeak,SW9 8HL,51.461753983596400,-0.115038810697927
Flameback and Black cockatoo,SM1 3SD,51.370993963737600,-0.184700114106818
Treepie and Lemming,SE23 3DY,51.449616927857300,-0.057927240671972
Hawaiian honeycreeper and Booted eagles,SE10 0LP,51.486146834337700,0.016032000098846
B and Flameback,SW16 6TE,51.426497774417300,-0.147431565365500
Buzzard and Coati,SE1P 5ZT,51.492762382100000,-0.080151676700000
Wader and Skunk,SW16 4ST,51.407151850691900,-0.126329263783780
Bronzewing pigeon and Fox,SW9 0DJ,51.470816568043900,-0.113239828148855
Magpie and Bunting,CR2 8LD,51.344416245877500,-0.060439400071041
B and Civet,CR7 6DT,51.396053542932600,-0.121190833756312
Condor and Snipe,SW1V 1JF,51.492483301882200,-0.141055550515563
Logrunners and Quetzal,SW8 1LT,51.483152078248400,-0.118131695185110
Myna and Goose,BR3 3XE,51.394091740000000,-0.015818644000000
Bronzewing pigeon and Jay,SW4 7RZ,51.463255668990300,-0.121757595947175
Old World vulture and Black jay,CR0 9WW,51.368534675525200,-0.098428000000000
Ibex and Francolin,CR0 0NP,51.346664126460900,-0.017451565678592
Tattler and Siskin,SW17 8AR,51.426149000000000,-0.162348000000000
Linsang and Grouse,SE9 6RS,51.466716088217200,0.050622503969570
Tahr and Myna,CR8 2AB,51.339464000000000,-0.114475000000000
Hawk and Armadillo,BR2 7HL,51.376977990000000,0.003227910000000
Duck and Maya,SE20 8RA,51.414745889580700,-0.061893439999314
Stint and Marsh harrier,SW11 2UB,51.462969946327000,-0.182362769224494
Jerboa and Cloud rat,BR3 1TW,51.419677230000000,-0.023326050000000
Moluccan boobook and Triller,SW2 4BD,51.440319742277300,-0.132152323648003
Pitohui and Booted eagles,SW12 9EL,51.448859657082100,-0.148397503874467
White ibis and Eagle,CR0 1XX,51.377088068375100,-0.102784513183495
Crow and Civet,SW16 6TH,51.423473025614100,-0.148934726798840
Philippine hawk-owl and Tattler,SM1 4NG,51.363283080783700,-0.176903264258289
Logrunners and American sparrow,SE6 4XS,51.444035764270900,-0.026893687563198
Vole and Tattler,SW12 9PY,51.449509698991700,-0.145147412617977
Guillemot and Jerboa,SW4 0AA,51.461798983046200,-0.148334509688002
Boto and Petrel,SE4 2LU,51.463303000000000,-0.035627584648790
Rabbit and Maya,SW16 5EB,51.414376457961200,-0.133310631177170
Nukupuʻu and River dolphin,SW17 7BN,51.438316132210400,-0.168161913557261
Shearwater and Partridge,CR0 5AL,51.359045102171300,-0.032788972606940
Duck and Ibex,SE3 9XG,51.460391893764800,0.016537893792324
Snipe and Songlark,SE5 8PS,51.473885809468700,-0.078525104288372
White ibis and Towhee,BR2 8NJ,51.374550030000000,0.044345767000000
Maya and Ice seal,CR0 6BS,51.378586421697400,-0.087088263375551
Grouse and Darwin's finches,SW2 2HU,51.451534337996800,-0.112552463541222
Ice seal and Ibex,BR1 9AL,51.408226000000000,0.017578000000000
Egret and Kestrel,SW10 9QX,51.487995645544600,-0.180013735322007
Coati and Rat,SE23 9AJ,51.437114000000000,-0.053321000000000
Cuscus and Thrasher,SE3 7NY,51.480564933470100,0.010644300345292
Snipe and Meadowlark,SM5 1JZ,51.387385569368700,-0.172424264136678
Coati and Fulmarine petrel,SE23 1HF,51.442525057960000,-0.049464667216430
Moluccan boobook and Peafowl,SW12 0JR,51.445017042107400,-0.142537702274959
Puffleg and Masked owl,SW18 3QL,51.439655759872100,-0.185489962279796
Meadowlark and Marsh harrier,SE4 2AA,51.465376311134300,-0.036583932514653
Grackle and Towhee,SE4 1PA,51.468243107355200,-0.030039334920998
Black cockatoo and Shearwater,SW18 1UY,51.463716000000000,-0.183964000000000
Capuchin and Ice seal,SW9 6FH,51.473086612515300,-0.108927201252268
Philippine hawk-owl and Mink,SW3 3ST,51.488986396822800,-0.166418000000000
Skunk and Pheasant,SE19 1SL,51.422220231088600,-0.078909354611871
Old World quail and Mink,SE20 9DQ,51.415205000000000,-0.053708000000000
Cloud rat and Jay,SE1P 5DZ,51.492760984014900,-0.080151672390443
Asiatic leopard and Philippine hawk-owl,SE4 1SH,51.449102321729300,-0.032460855693798
Zebra and Vulture,SE17 2EY,51.484948937781300,-0.092981796424122
Cuscus and Grouse,SE22 2EJ,51.454245000000000,-0.072905000000000
Cuscus and Nukupuʻu,SE21 7JB,51.447894234720100,-0.092669600384733
Night heron and Grouse,SE6 4BD,51.445063000000000,-0.019517916934265
Parakeet and Fox,SE5 0LG,51.477266620729900,-0.097248051204171
Snipe and Logrunners,SW8 5DZ,51.479319000000000,-0.132561000000000
Condor and Myna,CR0 5PD,51.374773357454300,-0.079933605865512
Bunting and Kangaroo,SW10 0DN,51.481978939567500,-0.176494329428508
Duck and Rat,SE19 3SZ,51.418992400104700,-0.089946600173061
Partridge and Old World warbler,BR3 3RT,51.390658900000000,-0.042155985000000
Ground sloth and New World blackbird,SM5 3BN,51.364247287465500,-0.161971000000000
Peafowl and Philippine hawk-owl,CR2 6AJ,51.351111000000000,-0.099592000000000
Magpie and Warbler,SW11 5JZ,51.466963260117800,-0.160492830983994
Fish eagle and Masked owl,SW11 2NY,51.463989582863300,-0.168141761363926
Cuscus and Ice seal,BR4 0AY,51.381638660000000,0.002037437000000
Prion and Francolin,SE9 1UJ,51.451977883828000,0.063376343392842
Thrasher and Songlark,SE17 1BE,51.491723205713800,-0.092050870726298
Night heron and Coati,SW11 2NN,51.466802697067600,-0.171498858218513
Meadowlark and Ibex,SE26 5NB,51.424677730278000,-0.051821391098116
Crow and Fish eagle,SM5 3SD,51.358775553602600,-0.170417610656140
Tit-tyrant and Elephant,CR8 9DY,51.346587000000000,-0.103401000000000
B and Greenbul,SE5 7SJ,51.477327793249700,-0.085537658509851
Wader and Old World quail,SE3 9DF,51.458504366883500,0.009674618681494
Songlark and Fish eagle,SE1P 5JR,51.492760984014900,-0.080151672390443
Diving bird and Rabbit,SE21 7DH,51.450297925549900,-0.083459106307798
Old World quail and Pheasant,BR3 4GN,51.409011010000000,-0.042565621000000
Eagle and Kangaroo,SE14 5JF,51.475810631016600,-0.051846738839212
Asiatic leopard and Fulmarine petrel,SE20 7SA,51.410124719712000,-0.053820528461736
Hawk and Moluccan boobook,SE26 6RJ,51.431864332963200,-0.069297447644923
Parrotlet and Solitaire,SW9 7JF,51.463420711396400,-0.107973492559746
Magpie and Solitaire,BR1 2PY,51.408205310000000,0.040511891000000
Tree warbler and Mink,SM6 9LJ,51.347767225010700,-0.139508214915321
Old World quail and Flameback,SE10 9AY,51.482885535400000,0.004913207100000
Tahr and Chickadee,SE15 5AL,51.469903105031300,-0.079685937362535
Solitaire and Gull,CR0 0AA,51.340338561702300,-0.005060825116798
Mink and Linsang,SE18 5TL,51.492578000000000,0.044076000000000
Herring gull and Coati,BR4 0TA,51.375431800000000,-0.004182123000000
Prion and Vulture,SW8 3LH,51.469982917794600,-0.140991170051157
Eagle and Towhee,SW11 5JE,51.473490079542000,-0.152944162776814
Meadowlark and Treepie,SW8 2AE,51.470595100758100,-0.136721000000000
Jackal and Chickadee,SE13 5FD,51.453061716700000,-0.001371000000000
Mole and Towhee,SE23 3RF,51.455964544745000,-0.046487977640767
Nukupuʻu and Armadillo,SE7 8TY,51.483151233313700,0.038973258280073
Zebra and Dolphin,SW17 9XL,51.421176623106400,-0.168185673016975
Parrotlet and Mole,SW16 1TX,51.428551732441600,-0.140846313029563
Peafowl and New World blackbird,SW1W 8BX,51.489914051982600,-0.156601851714505
Meadowlark and Pratincole,CR0 7BW,51.387004397035000,-0.057618667540949
Meadowlark and Fish eagle,SW11 6BT,51.458294121254900,-0.158754161987385
Lemming and Egret,SE21 8PJ,51.429874300986200,-0.082832147206496
Jay and Diving bird,SE20 7PU,51.414010506832700,-0.050089026649868
Jackal and Fulmarine petrel,SE14 6PS,51.472900453583600,-0.034273749342154
Myna and Scimitar babbler,SE5 8AX,51.462437350616500,-0.086722341660435
Tit-tyrant and Badger,SM5 2FP,51.380109000000000,-0.165360000000000
Ground sloth and Capuchin,SE8 4SL,51.475812669748300,-0.024025041046033
Treepie and Quetzal,BR3 1PE,51.413014070000000,-0.032975302000000
Maya and White ibis,BR2 7QT,51.383186480000000,0.004605608000000
Stilt and Pheasant,CR8 3LN,51.338062997677300,-0.136613397051276
Peafowl and American sparrow,SE14 6HH,51.480794430325400,-0.036325055892321
Goose and Linsang,SE15 5RT,51.474462718016700,-0.072582493414216
Dorcopsis and Thrasher,CR0 5JQ,51.369144068133200,-0.083789541911478
Marmoset and Hawk,SW11 5GX,51.471502043580200,-0.163204436045778
Crow and Pratincole,SE11 6UE,51.490648170952500,-0.112305934207429
Recurvebill and Boto,BR3 3JF,51.393312520000000,-0.033073019000000
Maya and Hawk,SE8 5BH,51.485103753805600,-0.039121417394380
Jerboa and Capuchin,CR4 2GG,51.410519006842700,-0.153771860794470
Lemming and Herring gull,SE15 6EX,51.478134345845000,-0.076027981206340
Mockingbird and Prion,SE11 6AH,51.492075363106700,-0.118297247949656
Polecat and Gull,SW9 0YF,51.468672930096600,-0.113587426429468
Pratincole and Asiatic leopard,SE15 4UN,51.469496000000000,-0.067450000000000
Nukupuʻu and Kite,SW19 2AT,51.423739567336400,-0.177418268079112
Treepie and White ibis,SW17 9LD,51.421196160304700,-0.166559613396177
B and Petrel,SM5 2RB,51.372096444682500,-0.169441245172259
Thrasher and Parrotlet,SW1P 4EB,51.490841998130600,-0.130016079343145
Kākāriki and Fulmarine petrel,SM6 8QR,51.360894386485400,-0.143903229916116
Vole and Linsang,SE6 3EJ,51.427290500615800,-0.023112582836173
Elephant and Old World quail,SE18 5AN,51.491847922492000,0.058491996512545
American sparrow and Chicken,SE19 1LT,51.425636490043300,-0.079399000958616
Treepie and Gull,BR1 5BP,51.424785970000000,0.028203698000000
Elephant and Cloud rat,CR0 1RG,51.372851198551300,-0.101594714453764
Snipe and Philippine hawk-owl,CR2 0NN,51.343264000000000,-0.095337000000000
Linsang and Grouse,SW12 8DT,51.442929769468800,-0.157861253130901
Flameback and Mamo,SE23 2QU,51.431441599089100,-0.038959917371248
Maya and Old World warbler,SE25 5EE,51.396900147200000,-0.075744025500000
Recurvebill and Solitaire,SE22 0HT,51.457062024582200,-0.067125983642728
Capuchin and Philippine hawk-owl,SW2 9NS,51.454192000000000,-0.122262000000000
Dorcopsis and Hawaiian honeycreeper,SE10 8EP,51.472185756600000,-0.013137555000000
Tit-tyrant and Night heron,BR1 2JU,51.393734870000000,0.050864616000000
Puffleg and Marmoset,SM6 0UB,51.353627222113700,-0.150659779126711
Polecat and New World blackbird,SE10 9XD,51.483517463920100,0.003644720394061
Prion and Goose,SW8 9DS,51.475660814143600,-0.130377866144404
Cloud rat and Hawaiian honeycreeper,SE6 3SB,51.433296015170100,-0.027284544849889
Scimitar babbler and Francolin,CR0 3NW,51.382006460289000,-0.117239346409871
Logrunners and Kangaroo,SM5 3RW,51.362386176833300,-0.166682593931736
Pheasant and Black jay,SE7 8PU,51.477093000000000,0.043103670554229
River dolphin and Darwin's finches,BR6 8HH,51.370521700000000,0.065846903000000
Ground sloth and Kite,SE24 0HP,51.457521192500000,-0.103409751500000
Marmoset and Vulture,SE13 6JQ,51.453042960202200,-0.007016818361331
Triller and Magpie,BR2 7BT,51.372216690000000,0.019701272000000
Hawk and Parakeet,SE4 2AL,51.460735002251100,-0.037056656125056
Meadowlark and Elephant,SE12 8RA,51.451070359260800,0.012644065630157
Solitaire and Shearwater,SE11 4AU,51.484623192126100,-0.106174205132687
Mole and Chickadee,SE10 8NW,51.477595965548200,-0.011951918388775
Hawk and New World blackbird,CR0 8SS,51.376554950760700,-0.059799700876312
Quetzal and Pitohui,SE17 2EP,51.485671388780300,-0.083791071757536
Duck and Flameback,SE1P 5QX,51.492760984014900,-0.080151672390443
Towhee and Night heron,SE9 4DT,51.431145297899100,0.044684540328694
Civet and Magpie,SE18 6EJ,51.487980849890800,0.069740541558767
Chickadee and Siskin,BR1 4BN,51.410810040000000,0.002117995000000
Booted eagles and Myna,SE11 5TS,51.483194056130200,-0.111792822612271
Minke whale and Guillemot,SE9 6AH,51.457006757143100,0.037563179673550
Marsh harrier and Francolin,CR0 2ER,51.387107243491600,-0.093559000000000
Solitaire and Hawaiian honeycreeper,SE10 8UT,51.474714318168600,-0.011717210592905
Duck and Flameback,SW17 1GL,51.428565000000000,-0.165578000000000
Jackal and Perching duck,CR7 8QT,51.405650154253500,-0.091782271523342
Songlark and Tattler,CR0 7SL,51.389597447901400,-0.047133000000000
Elephant and Ground sloth,CR0 6TH,51.380358570845500,-0.089213000000000
Grosbeak and Vulture,SW9 7LX,51.465007015135800,-0.110427332779634
Gull and Stint,SW1V 2RD,51.490815015319500,-0.133402352164245
Thrasher and Ice seal,SW11 9LD,51.464480000000000,-0.164296000000000
Grouse and Tahr,SE9 1XB,51.460412634385200,0.059826730432554
Solitaire and Greenbul,SE26 6HS,51.427643828104400,-0.059319401391413
Jerboa and Kestrel,SM5 2SE,51.376115270439300,-0.173993916934775
Fulmarine petrel and Jackal,SW2 4TW,51.441433860328400,-0.123645885024482
Old World vulture and Stilt,SE11 4DW,51.487464245848000,-0.108922873762063
Booted eagles and Hawk,SE9 4HA,51.440125241047200,0.043876889261101
Old World warbler and Guillemot,CR4 3QZ,51.406221698386300,-0.179135717304361
Treepie and Night heron,SE5 7DU,51.475707615871700,-0.079946178133060
Rabbit and Dorcopsis,SW11 5SR,51.463272676717300,-0.158914000000000
Hawaiian honeycreeper and Booted eagles,SE3 0QB,51.466762671967700,0.005300642058161
Polecat and Jay,BR2 9NW,51.395087860000000,0.031532997000000
Nukupuʻu and Flameback,SE26 4NQ,51.434209216624000,-0.062623599613605
Grackle and Tahr,SE25 6DL,51.406854410172600,-0.086771509568938
Elephant and Herring gull,CR8 3PX,51.341396305335200,-0.142652169148339
Kangaroo and Polecat,SW17 9EX,51.419216449905300,-0.154442570556513
Cuscus and Fish eagle,SW1P 9QE,51.481035000000000,-0.135804000000000
Philippine hawk-owl and Rat,CR4 1EJ,51.402950545859300,-0.141467774954566
Ibex and Old World quail,SE1P 4BN,51.492762382100000,-0.080151676700000
Eagle and Polecat,CR4 3EZ,51.410078993495300,-0.175632059440912
Tit-tyrant and Philippine hawk-owl,SW11 2EE,51.466130666616300,-0.172807066395738
Wallaby and Greenbul,SE26 5SL,51.428503164181400,-0.038553470960723
Cloud rat and Skunk,E14 3RF,51.489055327626100,-0.023279658714648
Ice seal and Gull,SE6 1BN,51.441639046309500,-0.006952137961022
Tree warbler and Argus,SW18 3BN,51.445969205902100,-0.187858824214639
Myna and Pitohui,SE14 5JG,51.476119173339600,-0.051473580124224
Kangaroo and Pratincole,SW2 3EE,51.440557260223300,-0.113292832069268
Cloud rat and Kestrel,BR1 3PD,51.409516630000000,0.025054576000000
Old World warbler and Duck,CR0 0QB,51.350390656068900,-0.022977693558721
Goose and Philippine hawk-owl,SW11 6PX,51.455915878488400,-0.164794551714582
Mink and Chicken,CR0 4QU,51.366928395750700,-0.128072115013517
Elephant and Chicken,SE5 8NE,51.471500777421500,-0.080050818079985
Ice seal and Mockingbird,SM6 7BE,51.371355000000000,-0.139446000000000
Elephant and Gull,SE10 8UA,51.476563688422800,-0.014185711744718
Vulture and Meadowlark,SE26 6EE,51.420259369186000,-0.059776050224173
Dorcopsis and Parrotlet,SE4 2PB,51.466632975941200,-0.042360984452823
Dolphin and New World blackbird,BR2 6HA,51.359781820000000,0.037741354000000
Badger and Buzzard,SE15 3PE,51.464429555079000,-0.064554381618694
Bunting and Asiatic leopard,CR2 0QP,51.342955123673500,-0.100231414502113
Prion and Thicketbird,SW10 9JT,51.487305287490200,-0.187113477042871
Fish eagle and Marmoset,SM6 9DQ,51.353611117544700,-0.138854989800413
Tree warbler and Dorcopsis,CR0 6LW,51.383320117279000,-0.074675308554716
Bronzewing pigeon and Stilt,SW12 0ES,51.444193251210200,-0.138225266773788
Parrotbill and Bunting,SW3 2SR,51.491385388379900,-0.160964869228565
Skunk and Marsh harrier,SE18 5NN,51.492185869556500,0.048437592708849
Pitohui and Recurvebill,CR0 0EW,51.340257984572200,-0.005609925016373
Dorcopsis and River dolphin,SE9 4JN,51.433167550607900,0.042170763097195
Jackal and Tit-tyrant,SE19 3UH,51.412369773468900,-0.094119713722885
Towhee and Vole,SE13 7DG,51.460127988296700,-0.019678545623375
Nukupuʻu and Partridge,CR0 2RF,51.379716377309200,-0.104601427671199
White ibis and Ibex,SE8 5DG,51.488648008318700,-0.040265752069771
Black cockatoo and Badger,CR4 1LT,51.399910281374300,-0.131079000000000
B and Badger,CR2 8PD,51.339894104752800,-0.057801831311898
Fulmarine petrel and Peafowl,E14 3QE,51.488169357322400,-0.021935162254354
Egret and Ground sloth,SE17 2FN,51.483295812800000,-0.092947000000000
Partridge and Booted eagles,SE23 2JG,51.435959665740200,-0.044564731147160
Skunk and Piping shrike,SW9 8LD,51.462025000000000,-0.113268183506694
Mole and Civet,SW11 2DG,51.463421513647600,-0.177853196130552
Moluccan boobook and Kangaroo,SW9 9TH,51.466469348032800,-0.117479204248951
Fox and Towhee,SW10 9NL,51.486904233792600,-0.183859757155296
Moluccan boobook and Quetzal,SE16 7AD,51.492597021026500,-0.041954730321675
Grosbeak and Mamo,SM4 6JD,51.396166000000000,-0.186493000000000
Peafowl and Pratincole,SM1 4QX,51.363934463859600,-0.184102999884681
Lemming and Zebra,BR3 1HQ,51.409728800000000,-0.030125340000000
Elephant and Fox,SE6 4PJ,51.439307554117300,-0.032896212583287
Darwin's finches and Civet,SE10 0SB,51.487436195519700,0.015311050102750
Mamo and Songlark,CR0 2JA,51.384076000000000,-0.097789174356266
Macaw and Piping shrike,SW1V 4LP,51.489923004949700,-0.146330970990535
Capuchin and Meadowlark,SE23 1BW,51.441958269763100,-0.051071688219747
Siskin and Marsh harrier,SM5 4NL,51.353385169480000,-0.166725963696286
Piping shrike and Jerboa,SE6 1QQ,51.434245681124700,0.004725140567119
Thrasher and Solitaire,SE4 1AW,51.450710262340600,-0.033427987178653
Booted eagles and New World blackbird,CR0 8QN,51.367128944974600,-0.034353254764739
Guillemot and Herring gull,SE1 5ZF,51.492760984014900,-0.080151672390443
Tit-tyrant and Old World vulture,SW10 0TY,51.481080000000000,-0.182698211375168
Dorcopsis and Capuchin,BR1 1RF,51.407404510000000,0.014550849000000
Greenbul and Night heron,SE25 5JX,51.396264814771000,-0.071098638520117
B and Boto,SE17 3AN,51.491601750845700,-0.101188893287102
Scimitar babbler and Polecat,BR3 3LB,51.406285470000000,-0.025370231000000
Masked owl and Guillemot,SE12 0UG,51.438803172349400,0.019500618765074
Petrel and Tree warbler,SE22 9NB,51.457088608011100,-0.070062000000000
Nukupuʻu and Mink,SE23 2QJ,51.432630865184600,-0.043397677472205
Herring gull and Mole,SE20 7RZ,51.410124719712000,-0.053820528461736
Jerboa and Condor,SE19 1HP,51.427044246780900,-0.082993759958438
Tree warbler and Cuscus,SE16 2TA,51.487896000000000,-0.047935940017413
Peafowl and New World blackbird,CR2 0FG,51.352764000000000,-0.097803000000000
Kite and Parakeet,SE3 0JX,51.472973521166000,0.024321319693411
Stilt and Fox,SE13 7HZ,51.456958919655700,-0.025861409066321
Elephant and Kangaroo,SE25 5QW,51.396539139877200,-0.071374607244329
Treepie and Mink,CR0 2HE,51.386392531805900,-0.094839931545181
Parrotbill and Old World vulture,SE8 3DN,51.481723613205400,-0.023654325785745
Cuscus and Pheasant,BR1 1HS,51.401560610000000,0.014466560000000
Kite and Night heron,SE23 2ER,51.440868834803500,-0.044513333186816
Egret and Minke whale,SW19 1DG,51.415924431437100,-0.185495030991263
Cloud rat and Macaw,CR7 8PL,51.407820340423500,-0.096940232472744
Parrotbill and Mouse,SE7 7LE,51.482153862013900,0.024915082300831
River dolphin and Masked owl,SW2 3PZ,51.443869318304100,-0.111789255918941
Goose and Fulmarine petrel,SE5 7BY,51.475124843128300,-0.091620340465866
Kangaroo and Grackle,SE19 1BL,51.418890984210900,-0.084284155687999
Marsh harrier and Tattler,SE9 1BQ,51.450526215562700,0.054891189397491
Triller and Tree warbler,SW4 0LW,51.465615207527300,-0.144566381127655
Asiatic leopard and Masked owl,SM5 1AJ,51.385545108147900,-0.183606980514564
Peafowl and Mink,SM6 0RU,51.350901062622800,-0.151142932746209
Chicken and Francolin,CR8 1HH,51.335530909849000,-0.102131893357781
Jackal and Cuscus,SW17 0GG,51.434978791073100,-0.176310000000000
Viscacha and Linsang,SW16 4HY,51.405501628826400,-0.128294630358915
Fulmarine petrel and American sparrow,CR0 4EG,51.360292817998900,-0.110215312103400
Lemming and Wallaby,CR0 4AG,51.369701704720800,-0.119310124780177
Linsang and Logrunners,SE5 7DY,51.474465943584500,-0.088710261129058
Bronzewing pigeon and Jerboa,BR2 0LW,51.403690410000000,-0.004893036000000
Viscacha and Stilt,SM4 6LB,51.394465163261600,-0.188212925626539
Old World vulture and Towhee,SW18 4SR,51.441070336135800,-0.186829652034999
Linsang and Buzzard,SW8 1PU,51.482210401566900,-0.121094124189752
Linsang and Kākāriki,SE13 7SL,51.465522000000000,-0.016335000000000
Chickadee and Thicketbird,SE8 3PY,51.491944907928700,-0.033080069663277
Bronzewing pigeon and White ibis,SM2 5JU,51.354398075519300,-0.180358193866052
Kestrel and Scimitar babbler,SE26 6JT,51.431589536486600,-0.064086753025242
Perching duck and Old World warbler,SW1P 4LG,51.492900541354400,-0.127151553062618
Petrel and Booted eagles,SE3 9AT,51.457790594117400,0.011442619770621
Mink and Hawk,SW17 9JG,51.422471829312100,-0.160165480541481
Old World vulture and Rabbit,SE6 2HA,51.444389735952400,-0.011653215555598
Nukupuʻu and Pheasant,SE12 9LA,51.445976166894700,0.017600858687923
Quetzal and Ground sloth,SW3 5EN,51.485785730699800,-0.172640815621340
Old World warbler and Dorcopsis,BR2 9AR,51.395602510000000,0.013701657000000
Greenbul and Towhee,SE6 1QB,51.435716490203900,0.002329209608663
Francolin and Perching duck,SW16 2RR,51.431932248828200,-0.116021952253845
Armadillo and Grouse,SE15 9HX,51.471767000000000,-0.070899000000000
Kākāriki and Puffleg,SW4 0YQ,51.463239212344900,-0.138901000000000
Wallaby and River dolphin,SW1V 2LX,51.491243989902900,-0.138325780230179
Capuchin and Masked owl,BR3 3FY,51.392356940000000,-0.020119724000000
Ground sloth and Fish eagle,SE10 8JT,51.473887395871800,-0.016519521546415
Thicketbird and Songlark,E14 3QZ,51.489831296794800,-0.020235476253207
Towhee and Pratincole,SE23 2LQ,51.435616845493900,-0.049356104224320
Rabbit and Pheasant,SW12 8RD,51.448126762439100,-0.154385229620072
Nukupuʻu and Diving bird,SE27 0HF,51.424189257444300,-0.100402894977177
Flameback and Stint,SE24 9AP,51.442082074177500,-0.105243726351819
Egret and Macaw,SE9 6ZN,51.449791488436100,0.052684944885480
Viscacha and Chicken,SE13 5PJ,51.458423521509600,0.004416881626030
Badger and Stint,SE15 4LF,51.465015149583600,-0.072260770657247
Kestrel and American sparrow,SE1P 4NJ,51.492762382100000,-0.080151676700000
Mole and American sparrow,CR0 0PP,51.352343446841800,-0.009781410116134
Siskin and Parrotlet,CR0 5HU,51.365794078300700,-0.050801847918043
Songlark and Gull,SE15 1HD,51.482836029385800,-0.050351923864938
Mink and Viscacha,CR0 3HF,51.385761595326000,-0.120362034154121
Ice seal and Magpie,SM5 1DP,51.384179107296600,-0.168068134727665
Tattler and Coati,SW12 0FD,51.447232780770000,-0.140965556477805
Pitohui and Boto,CR0 4RN,51.355298000000000,-0.118818892585688
Argus and Bunting,SW2 1QB,51.455339251161300,-0.110941742866117
Chickadee and Chicken,BR3 3QD,51.400026640000000,-0.038765646000000
Diving bird and Armadillo,SM6 9LX,51.346435714416400,-0.144573644815141
Moluccan boobook and Civet,CR2 6EP,51.351592375273900,-0.107642000000000
Bunting and Boto,SW2 3UB,51.445448155663100,-0.123869886502290
Ground sloth and Macaw,SM6 8PD,51.363565408358200,-0.131470095349536
Snipe and Lemming,SW17 7BD,51.436793015371100,-0.157618961765994
Tree warbler and Wallaby,SE12 8EX,51.455938071117800,0.014585491953899
Stint and Kangaroo,SW1V 3DJ,51.487202834148900,-0.140939036919865
Dolphin and Ibex,SE6 1HR,51.439229446637500,0.003044020130756
Parrotlet and Prion,SW3 2AQ,51.492021776289900,-0.159985000000000
Booted eagles and Masked owl,SE5 7JG,51.476233697250000,-0.091790066336073
River dolphin and Bunting,SM5 3RU,51.361182791214500,-0.168511802722506
Partridge and Ice seal,CR0 0NQ,51.347095664579200,-0.014259370123122
Philippine hawk-owl and Jay,SW16 1XU,51.430466979340100,-0.130094180799930
Recurvebill and Ground sloth,SE21 8JA,51.439884580067700,-0.102690000000000
Asiatic leopard and Asiatic leopard,BR1 1JL,51.404040000000000,0.015237000000000
Philippine hawk-owl and Parrotbill,CR2 9FA,51.335612000000000,-0.073964000000000
Ice seal and Partridge,SE15 1SG,51.480505000000000,-0.065372000000000
Tree warbler and Recurvebill,BR3 4PG,51.408438480000000,-0.038980888000000
Puffleg and Darwin's finches,SW19 8SB,51.421974375743900,-0.184780782413637
Diving bird and Pheasant,SE10 9UF,51.484218456158800,0.002091102518852
Kangaroo and Mouse,SW9 0UA,51.467369517844500,-0.115296910482650
Rat and Tahr,SW11 6XY,51.464565114601500,-0.164321000000000
Puffleg and Bunting,SW11 3JW,51.471316784478900,-0.173219015501410
Jackal and Crow,SE1P 4RU,51.492762382100000,-0.080151676700000
Moluccan boobook and Capuchin,BR7 5LW,51.409370220000000,0.044877660000000
Scimitar babbler and Bunting,SE10 8DN,51.472302113329700,-0.014773966315214
Shearwater and Skunk,BR1 5LY,51.429016400000000,0.010236158000000
Night heron and Capuchin,BR2 8NQ,51.374405430000000,0.045416978000000
Mockingbird and Parrotbill,BR3 3PW,51.405622810000000,-0.032487309000000
Marmoset and Hawaiian honeycreeper,SW17 0GB,51.434675000000000,-0.176095120965047
Hawaiian honeycreeper and Dolphin,SE5 8AN,51.464319782810200,-0.088558367527117
Ice seal and Tree warbler,SE15 2TN,51.472170462491800,-0.060094193887607
Fox and Linsang,SE14 5ND,51.470626077901700,-0.049936592254856
Old World vulture and Pratincole,SE9 6DY,51.455389120363700,0.041636653153112
Logrunners and Minke whale,SE26 6RA,51.427814643680400,-0.066389714782993
Partridge and Darwin's finches,SW11 9LX,51.464480000000000,-0.164296000000000
Jerboa and New World blackbird,SE15 2TF,51.468964161471900,-0.055997120835855
Fulmarine petrel and Thrasher,SE26 6BB,51.432593086086300,-0.062778293457468
Zebra and Old World warbler,BR4 9HX,51.369823440000000,0.003533408000000
Polecat and Asiatic leopard,SM1 4AN,51.363765479530800,-0.188289884755978
Parakeet and Crow,CR2 7LS,51.353387278896200,-0.065647333066874
Parakeet and Philippine hawk-owl,SE17 1AT,51.491961000000000,-0.091718036500000
Badger and Philippine hawk-owl,SE22 0NY,51.448961000000000,-0.066667879828154
Wallaby and Fish eagle,BR3 5BS,51.415512300000000,-0.019522055000000
Petrel and B,SW11 1EG,51.461003409786400,-0.165799700186653
Parrotbill and Elephant,SW12 0EN,51.444130322608500,-0.139925876249576
Mamo and Darwin's finches,SW16 5UL,51.412332099698600,-0.133120677387404
Ice seal and Night heron,SW17 0DU,51.431309873979100,-0.170398681772446
Duck and Jay,SW8 3HT,51.468354479991200,-0.144915989796259
Grosbeak and Marmoset,CR7 8RP,51.397267910883500,-0.095035003432436
Moluccan boobook and Pratincole,BR2 8HS,51.366224760000000,0.035441466000000
Perching duck and Chicken,CR4 3JJ,51.413988822388200,-0.166862359767449
Chickadee and Masked owl,SE18 6LZ,51.493282622382900,0.063843679358264
Warbler and Thrasher,SW17 6LB,51.429878589546700,-0.149682854378241
Guillemot and Songlark,BR1 4QB,51.424763280000000,0.003907341000000
Ground sloth and Old World warbler,SW2 9PD,51.454192000000000,-0.122262000000000
Francolin and Bronzewing pigeon,SE20 8UX,51.414126016203600,-0.061387561315091
Buzzard and Night heron,SW11 1ER,51.460255962977700,-0.168032144128082
New World blackbird and Scimitar babbler,SE15 2EA,51.469947302619000,-0.053464382338687
Vulture and Grackle,CR0 7DQ,51.381755198369500,-0.064839503719166
Francolin and Treepie,SE18 4AD,51.470647549524600,0.055665649532080
Black cockatoo and Marmoset,SE13 5SQ,51.460350000000000,0.004876000000000
Skunk and Chickadee,SE1P 4WX,51.492762382100000,-0.080151676700000
Viscacha and Tahr,BR2 0NL,51.400081550000000,-0.001038996000000
Stilt and Macaw,SW7 4JX,51.492763216706700,-0.184174324975762
Ibex and Marsh harrier,SW4 7AB,51.460952769157700,-0.138755000000000
Snipe and Skunk,SW3 3LZ,51.490879761691800,-0.162555354653296
Songlark and Tit-tyrant,SE10 8NN,51.477998587289500,-0.011300759528665
Chickadee and Chipmunk,SW95 9AG,51.480624000000000,-0.136555000000000
Condor and Prion,CR2 8RR,51.343998628653000,-0.058030361543443
Zebra and Eagle,SW19 1AQ,51.420789863305400,-0.184942775548676
Pitohui and Condor,SE10 9QZ,51.480143000000000,-0.015744000000000
Fulmarine petrel and Tahr,CR0 0QE,51.350992558699000,-0.021343323572219
American sparrow and Jerboa,SE18 6NA,51.492800302536300,0.064167637224665
Buzzard and Shearwater,BR4 4BS,51.376166000000000,-0.015000000000000
Kangaroo and Marsh harrier,SE10 9NQ,51.482938803531300,-0.001968908373705
Hawk and American sparrow,SE16 3RT,51.492527280612500,-0.073030711134164
Parakeet and Treepie,CR4 2JE,51.407698734744900,-0.159133711799004
Asiatic leopard and Parrotlet,SE5 8NG,51.470364409231500,-0.080948044511305
Marsh harrier and Fox,CR7 6HT,51.395838937945100,-0.116225833973453
Grosbeak and Flameback,SE8 3LS,51.485590282163700,-0.032734194993009
White ibis and Viscacha,SW11 1XG,51.460342032120500,-0.162040248706420
Hawk and Perching duck,SE22 0AT,51.456611665646900,-0.065446479316897
Stint and Booted eagles,CR4 1AT,51.410389777724700,-0.150139020199220
Night heron and Old World warbler,SE22 9AE,51.460263920323600,-0.074260414055380
Ground sloth and Myna,CR0 6QJ,51.379592210649000,-0.077662657589601
Lemming and Greenbul,SM6 7JB,51.368637128698100,-0.156433842323526
Diving bird and River dolphin,CR7 7PG,51.398763330225400,-0.116335705114754
Dorcopsis and Grosbeak,BR3 1TA,51.423151610000000,-0.026182361000000
Vole and Dorcopsis,SE9 3LS,51.436698348997200,0.051119478968099
Coati and Wallaby,SE19 1SP,51.425400645777200,-0.080372649516332
Boto and Tit-tyrant,SM1 4BJ,51.363847211869000,-0.186133000000000
Shearwater and Vulture,CR7 8HD,51.404860629114700,-0.102972460157628
Marsh harrier and Armadillo,SE18 4EH,51.480959498849100,0.063503287994000
Songlark and Marmoset,SW8 1FZ,51.483002000000000,-0.126020000000000
Kestrel and Zebra,CR0 2XE,51.385998553616900,-0.102703446761540
Scimitar babbler and Moluccan boobook,BR1 5RJ,51.427132690000000,-0.004778334000000
Diving bird and Bunting,SW11 6PN,51.457420089536600,-0.165525911324758
Logrunners and Philippine hawk-owl,SE26 4EQ,51.431624855282500,-0.057525030676688
Boto and Cloud rat,CR0 2AD,51.376592252074400,-0.097718343438955
Polecat and Parrotlet,SW1V 2PE,51.489706618944300,-0.136083667945867
Old World warbler and Argus,SW8 2JQ,51.475693633853200,-0.130837265352821
Night heron and Fulmarine petrel,CR0 2BF,51.379141086490400,-0.093531611606696
Parakeet and Skunk,BR1 2DX,51.400503320000000,0.041779274000000
Old World warbler and Wallaby,BR3 1JQ,51.415609080000000,-0.045102542000000
Coati and Civet,SE26 6ZD,51.437114000000000,-0.053310507964933
Parrotlet and Grouse,SE25 6UP,51.401315418557200,-0.084601726850820
Coati and Ibex,CR0 0BW,51.336775293237200,-0.002301088915707
Petrel and Guillemot,SW6 2UT,51.469771404317100,-0.183143547906745
Mole and B,CR4 2JW,51.408148873503200,-0.160884239616848
Eagle and Parakeet,SE3 8BP,51.474470363427500,0.027210012852532
White ibis and Goose,SE26 6HH,51.423861000000000,-0.061060139982851
Songlark and Tit-tyrant,SE20 8FL,51.412627103600000,-0.071833745700000
Pheasant and Meadowlark,SE25 4JZ,51.395340002758300,-0.065547000000000
Fulmarine petrel and Booted eagles,SW17 7TG,51.430597406315400,-0.165089956620419
Ibex and Chickadee,SE10 8FX,51.477757783400000,-0.015588415100000
Crow and Viscacha,SM6 0QG,51.345954809171100,-0.146574672408131
Tahr and Shearwater,SW2 2NP,51.444688199992400,-0.114057954118714
Minke whale and Minke whale,SE4 1JF,51.452905984494400,-0.023891671457608
Maya and Stilt,SW10 0PR,51.479451679382300,-0.181102738725384
Peafowl and Vole,SE11 5PW,51.489026707890700,-0.116046040606488
Prion and Viscacha,SE3 0UQ,51.466185534986100,0.002237472444742
Treepie and Parrotlet,BR3 4BF,51.398542150000000,-0.046261596000000
Macaw and Condor,SW18 1GQ,51.462456154129400,-0.183923617469163
Songlark and Triller,SE4 1AJ,51.450034724314400,-0.034435693101206
Stilt and Peafowl,SE10 9FD,51.482271266100000,-0.016069400600000
Grosbeak and Elephant,BR3 6LP,51.405403430000000,-0.023725967000000
B and Booted eagles,SW9 8LL,51.461543000000000,-0.113643404489135
Dolphin and Night heron,SW4 0NP,51.464059813074800,-0.146860930385855
Songlark and Ice seal,SE10 9SD,51.480426307932900,-0.014997256245269
Ground sloth and Argus,SE9 4NB,51.427538040653900,0.050924995149748
Armadillo and Kangaroo,CR0 1TE,51.374973000000000,-0.102613000000000
Mole and Rat,SW3 5SR,51.487656579843400,-0.166905282606737
Snipe and Elephant,CR7 6AY,51.390279635906500,-0.112760215643158
Snipe and Armadillo,SW18 3JB,51.448383677351500,-0.180020598859678
Bronzewing pigeon and Kestrel,SE22 8BB,51.463228000000000,-0.083277000000000
Mole and Prion,SW17 9ET,51.419765773217000,-0.159066011854015
Lemming and Black cockatoo,SW12 0AX,51.444557959402200,-0.132885987028414
Coati and Masked owl,SE4 1SB,51.451557210388000,-0.030311533361428
Shearwater and Grosbeak,SW9 8FX,51.461324000000000,-0.113908000000000
Argus and Goose,CR0 8SE,51.376097279654000,-0.054976683367476
Crow and Cloud rat,SE26 6JW,51.431112037444600,-0.060769315533166
Boto and Dorcopsis,SW4 7PL,51.461800213378300,-0.126337647943630
Boto and Petrel,SE26 4SE,51.427419713850900,-0.052855577516945
Mink and Herring gull,SE7 8QS,51.478673959079200,0.044073305944592
Maya and Kākāriki,CR4 2LQ,51.409616661178400,-0.155289284689677
Buzzard and Chipmunk,SW5 0DG,51.490430667395900,-0.187436049826465
Minke whale and Moluccan boobook,SM1 4LT,51.363612574213600,-0.180165381180417
Ground sloth and Shearwater,SW11 4BN,51.476192394070600,-0.152662199593580
Stint and Darwin's finches,SE22 9JP,51.451628401791500,-0.075199534071355
Vulture and Argus,SE1P 4TJ,51.492762382100000,-0.080151676700000
Treepie and Petrel,SE22 0NR,51.457499496436300,-0.054972848619251
Vulture and Vulture,BR2 0RT,51.398309230000000,-0.000469342000000
Armadillo and Elephant,BR1 3TJ,51.409038620000000,0.022531416000000
Pheasant and Vole,SE27 0FE,51.433573404000000,-0.105610255400000
Guillemot and Argus,SM6 9LA,51.348187176175800,-0.134249745980906
Tit-tyrant and Moluccan boobook,SE13 5EZ,51.457305546073500,-0.007018274678863
Jackal and Mouse,SW1P 9EL,51.481026000000000,-0.135804000000000
Ibex and Skunk,BR1 3AG,51.408157170000000,0.024102995000000
Meadowlark and Mole,SE5 0XJ,51.479745151795600,-0.103697597677050
B and Cloud rat,SW4 9AN,51.454458049576600,-0.152704930251977
Kestrel and Dorcopsis,SW1V 2QP,51.489532000000000,-0.134650000000000
Chicken and Jackal,BR4 9HD,51.362410790000000,-0.001056480000000
Black cockatoo and Fox,SW17 1GD,51.428565000000000,-0.165578000000000
Asiatic leopard and Ground sloth,SM5 1HE,51.387489522012000,-0.181417245260466
Moluccan boobook and Songlark,SW18 2SY,51.456338814217500,-0.175760241791081
Badger and Duck,SW11 3YJ,51.476712000000000,-0.174861000000000
Mink and Old World quail,CR0 9JP,51.346789712330700,-0.043638642894302
Tree warbler and Solitaire,SE25 5RR,51.395769853974800,-0.081483963749435
Skunk and Cloud rat,CR0 2WG,51.386729000000000,-0.108885000000000
Macaw and Badger,SE20 8JW,51.411798613990000,-0.062578913937497
Meadowlark and Badger,SE18 6HQ,51.489449000000000,0.065586000000000
Treepie and Stilt,SW4 6QX,51.470988493499800,-0.127329105916749
New World blackbird and Pratincole,SE17 1JJ,51.489872740246100,-0.097155382642893
Booted eagles and Stint,SE20 8RS,51.413698599892700,-0.052964088510561
Rabbit and Magpie,CR4 1HD,51.400636160467700,-0.149784997072488
Old World vulture and Masked owl,SW17 8HL,51.428958325457100,-0.159200048020963
Peafowl and Mamo,SE20 8XP,51.414186626357500,-0.059616135481639
Kākāriki and Ice seal,CR0 8EA,51.376904076180800,-0.030600843960924
Grosbeak and Recurvebill,SE7 7PT,51.484765008302700,0.029927906672120
Puffleg and Bronzewing pigeon,CR0 6RX,51.383474754727900,-0.066046017580115
Recurvebill and Egret,SW2 4SP,51.444507541386100,-0.124095513260393
Recurvebill and Darwin's finches,SW17 8DX,51.428677786642400,-0.153370864361754
Rabbit and Egret,SW1V 4ED,51.487701621261900,-0.143035000000000
Scimitar babbler and Myna,SE15 2SG,51.478852727578100,-0.061769246625663
Mink and Duck,CR2 8LT,51.347865692910400,-0.055870805842127
Elephant and Skunk,SE13 6HN,51.450694453011800,-0.012760982315482
Gull and Old World vulture,SW2 2PW,51.445555702739300,-0.113201939330708
Ibex and Dolphin,BR3 1BX,51.406574550000000,-0.028118481000000
Jerboa and Old World warbler,CR0 7AD,51.379898191527200,-0.072203529673567
Prion and White ibis,SE10 0JJ,51.487278219214500,0.012466469200377
Armadillo and Stint,BR3 5JG,51.408829360000000,-0.024239697000000
Puffleg and New World blackbird,SE15 1AY,51.479212709707300,-0.062330042707813
Logrunners and Badger,SE10 9RF,51.481070312890700,-0.010547839250705
Grosbeak and Marsh harrier,SE7 8QW,51.477198079379200,0.040003836881821
Condor and Marsh harrier,SE4 2JD,51.456952358487700,-0.042631268385015
Tahr and Grosbeak,CR0 2PT,51.387849432965600,-0.103158676354165
Chickadee and Solitaire,CR0 7RD,51.390237173225500,-0.044904953923685
Darwin's finches and Dorcopsis,SM5 2PY,51.366757261749400,-0.166723517967878
Asiatic leopard and Parrotbill,SE26 6BN,51.427013977731300,-0.063647208434454
Wallaby and Fox,BR4 9JJ,51.368180830000000,-0.000331098000000
Chipmunk and Marsh harrier,SE20 7UP,51.405555265458700,-0.064611335674812
Shearwater and Fish eagle,SW17 7NE,51.435418465042700,-0.165155753418584
Rat and Maya,SE9 1YA,51.462972588958000,0.057437005811519
Jackal and River dolphin,SW9 9PH,51.465703222582000,-0.125789054645379
Marmoset and Ibex,BR2 0LT,51.401419830000000,-0.007277808000000
Quetzal and Crow,CR90 9ND,51.378068553019200,-0.113291303141438
Argus and Maya,CR7 8BJ,51.410389326000000,-0.108423615431404
Old World vulture and Moluccan boobook,SW16 2UE,51.430668703961500,-0.128647340616056
Darwin's finches and Condor,CR4 3HJ,51.409562007014700,-0.164407995680098
Old World vulture and Cloud rat,BR1 3AX,51.406644260000000,0.030981139000000
Mink and Boto,BR2 8HF,51.367538470000000,0.037985136000000
Dolphin and Triller,SM1 3LE,51.376715739646300,-0.187236000000000
Viscacha and Stilt,SE8 5QJ,51.482073697753300,-0.027355013651962
Parrotlet and Cuscus,SE15 6NW,51.484170169783700,-0.073397444324126
Crow and Black jay,BR3 4HY,51.409448000000000,-0.034725000000000
Chipmunk and Myna,SM2 5HN,51.357590362906100,-0.186149264084704
Triller and Black jay,SW16 1TT,51.430243350519600,-0.139209583884473
Chipmunk and Chicken,SE27 9RS,51.431464021626800,-0.091368000000000
Chipmunk and Petrel,SE22 9EQ,51.452286559398000,-0.074207524320940
Partridge and Kite,SE15 1JB,51.483156283731000,-0.064644000000000
Peafowl and Parakeet,BR1 9SE,51.403877920000000,0.020377067000000
Condor and Crow,SW2 1HA,51.451084452919100,-0.122616970643339
Grackle and Guillemot,BR2 7LB,51.380661000000000,0.018205000000000
Dorcopsis and Black cockatoo,SE19 1BP,51.419139701294300,-0.086848223366796
Mockingbird and Ice seal,CR2 8TD,51.343832541966000,-0.046420986780516
Songlark and Duck,SE19 2HX,51.414950000000000,-0.075820000000000
Bunting and Viscacha,SW10 9PJ,51.485834818133200,-0.181583315158926
Chicken and White ibis,SE8 5RR,51.490048481568400,-0.041199633924727
Dolphin and Thicketbird,SM5 2JT,51.370994201442400,-0.159356292933333
Treepie and Marsh harrier,SE3 8SP,51.476730904402500,0.024934106168910
Condor and Cuscus,SM5 2ST,51.376494679026300,-0.170645220174609
Tit-tyrant and Dolphin,CR7 7NW,51.393074660463600,-0.103186923460406
Diving bird and Ice seal,SW10 0NU,51.480542711191800,-0.183032357064997
Rat and Myna,BR2 9JT,51.398700690000000,0.021787811000000
Towhee and Gull,SE15 1LR,51.483471176415400,-0.061212000000000
Black cockatoo and Mole,SM1 3QE,51.369053702971600,-0.176731542869917
Solitaire and Thrasher,CR0 7JY,51.376059923251300,-0.066301061918730
Masked owl and Argus,SE9 4QU,51.436309940305700,0.044526693453867
Zebra and Petrel,CR0 5UQ,51.368431511372200,-0.087511503854557
Dolphin and Booted eagles,SW16 1NJ,51.435346069134000,-0.130412896961878
Night heron and Diving bird,SE13 5QQ,51.457234762260600,0.000305511061623
Dolphin and Badger,SE20 8PS,51.413122895318900,-0.059459847522586
Petrel and Nukupuʻu,SW3 9AT,51.463324000000000,-0.138901000000000
River dolphin and Capuchin,SW11 1LZ,51.461970527620600,-0.163241656028002
Kangaroo and Capuchin,SW17 0HA,51.426389522305600,-0.168751000000000
Treepie and Jay,CR0 8LJ,51.367652470313300,-0.025912093857794
Ice seal and Triller,SW9 0DX,51.478470713270100,-0.113888848773078
Warbler and Skunk,SW12 8LS,51.446351939381600,-0.159896560917783
Peafowl and Mole,SE10 8SY,51.473681406191200,-0.011790924717661
Meadowlark and Badger,BR1 5AQ,51.420720050000000,0.022025886000000
Ibex and Thicketbird,SW11 2DA,51.464626297724300,-0.179575991559246
Civet and Fulmarine petrel,SE26 4HD,51.428365607197100,-0.040544558712192
Cloud rat and Siskin,SE8 9EA,51.481268000000000,-0.025851000000000
Peafowl and Black cockatoo,SE27 9TH,51.427330300524700,-0.098345034075062
Dorcopsis and Myna,SW1V 4HT,51.490916883691300,-0.144922184750427
Triller and Kangaroo,SW9 9DL,51.469731000000000,-0.123407000000000
Hawaiian honeycreeper and Snipe,SE15 1QA,51.478032467004000,-0.066009133374328
Goose and Marsh harrier,SM6 0HS,51.359252853892300,-0.152128115138283
Philippine hawk-owl and Recurvebill,SE15 6NE,51.479898779335300,-0.071762849384196
Moluccan boobook and Snipe,BR5 1BP,51.389473060000000,0.069230178000000
Eagle and Kākāriki,SE25 5ER,51.387586624333600,-0.067812957929537
Myna and Solitaire,BR1 9LX,51.408224730000000,0.017577789000000
Peafowl and Tattler,CR0 9UG,51.343916131200300,-0.003383407977609
Wallaby and Grosbeak,SE3 8RU,51.474250140143100,0.032657871786361
Ground sloth and Stint,CR7 7EA,51.394852220279900,-0.106893980668945
Snipe and Coati,SW2 4JN,51.449420129940700,-0.128197356384751
Pratincole and Egret,SE19 1JS,51.422999094275300,-0.089146663937792
Bunting and B,SE5 7ET,51.477903558436900,-0.083900638416783
Ibex and Jerboa,SW3 4QZ,51.490326746742700,-0.161122707810209
Mamo and Parakeet,BR3 5TY,51.408496720000000,-0.017855258000000
Ice seal and Thicketbird,SW9 0EW,51.478174000000000,-0.114398546742968
Elephant and Night heron,CR0 3HJ,51.386780272414200,-0.123884616758539
Duck and Mouse,BR1 3TB,51.410059350000000,0.019139678000000
Fox and Eagle,CR0 5BP,51.372514373193600,-0.091408000000000
Kangaroo and Black jay,SE7 7RF,51.487032430571400,0.022048753392311
Goose and Pratincole,SE12 0HU,51.442461241373800,0.018050314208959
Duck and Kākāriki,SE4 1DP,51.470894898384300,-0.033726408779932
Chicken and Philippine hawk-owl,SW9 8AS,51.463473843402700,-0.119099704433934
Macaw and Darwin's finches,CR9 1RZ,51.372161780581400,-0.099008304414128
Jerboa and Tit-tyrant,SW3 4EJ,51.488459000000000,-0.162336000000000
Dorcopsis and Ground sloth,BR1 3NP,51.414414040000000,0.023185727000000
White ibis and Parrotlet,CR0 7EP,51.382128000000000,-0.064013304355213
Meadowlark and Ground sloth,BR1 2LJ,51.395665390000000,0.050519701000000
Songlark and Jackal,SE7 7BX,51.475488173916400,0.035938613885469
Tattler and Peafowl,SW16 6TQ,51.424076055128100,-0.148967895698098
Petrel and Eagle,SW1V 4JX,51.488561212748700,-0.144945779778599
Jerboa and Polecat,CR8 2BA,51.345387298302200,-0.104926857424617
Perching duck and Scimitar babbler,SE5 7PF,51.478828231495300,-0.089867217442057
Zebra and Francolin,SM4 6AZ,51.393199369249600,-0.175024309710947
Tahr and Recurvebill,SE5 8QL,51.473449090208900,-0.084260093525460
Triller and Mockingbird,CR0 1HW,51.366556237408800,-0.094945024866733
Guillemot and Parrotbill,SW19 8HD,51.425766382026500,-0.188082776730678
Bronzewing pigeon and Tattler,SE23 3TY,51.439633089681500,-0.056724825164351
Chipmunk and Eagle,SE8 4RU,51.475380835197500,-0.024547714245646
Moluccan boobook and Chickadee,SE6 1TW,51.435750311395200,0.007711759978881
Partridge and Thicketbird,CR8 2LH,51.339672027228500,-0.116332758647301
Chickadee and Dolphin,CR7 7AJ,51.397811223192800,-0.100805870413661
Rabbit and Quetzal,SW1V 4RA,51.489181299597100,-0.144920610860987
Macaw and Ground sloth,SM6 9JS,51.355839412894500,-0.129701905143290
Treepie and Cuscus,SE13 5EF,51.460940650992300,-0.002382818205603
Goose and Peafowl,SE6 4PU,51.441739300433500,-0.028834552921622
Kangaroo and Prion,SE27 0BQ,51.433413676292100,-0.109731464268047
Diving bird and Nukupuʻu,BR2 8NE,51.374419500000000,0.044095684000000
Ground sloth and Linsang,CR4 2GB,51.411022795181500,-0.154355519398595
Dolphin and Mockingbird,SW1P 1DQ,51.481026000000000,-0.135804000000000
Tit-tyrant and Ibex,SW8 2BB,51.477046000000000,-0.128764762885602
Zebra and Mole,SE4 1PY,51.468532263148800,-0.027982343543920
Skunk and Jerboa,CR0 2NJ,51.389966000000000,-0.103862000000000
Night heron and Tree warbler,SE15 3LX,51.464122748005200,-0.056879529070913
Tahr and Skunk,SM6 8SJ,51.361327284311700,-0.147390608950045
Grouse and Dorcopsis,SW16 4SY,51.406512741224000,-0.128540913286004
Parrotbill and Viscacha,SW9 0LP,51.479491670820700,-0.113069051608484
Cloud rat and Triller,SE15 3PS,51.463070851193700,-0.060696059978469
Puffleg and Diving bird,SE5 8PA,51.471737712540100,-0.083539840202819
Thrasher and Skunk,SW10 0BZ,51.483032264070300,-0.175415337195482
Jerboa and Mink,SW11 1AB,51.464565114601500,-0.164321000000000
Snipe and Tattler,SE14 6QL,51.472848000000000,-0.030547000000000
Minke whale and Grackle,SE25 4NH,51.399053498515600,-0.064066355248344
Magpie and Hawaiian honeycreeper,SE9 4QJ,51.438971438613100,0.041969199754550
Triller and Warbler,SW1V 2AR,51.491451000000000,-0.139974000000000
B and Dolphin,SE18 3NJ,51.474971852228000,0.068517975138073
Masked owl and Ice seal,SW1W 8BL,51.491856913981200,-0.157776738561156
Kangaroo and Armadillo,SW2 1JU,51.460702046950200,-0.114491937091468
Pratincole and Mamo,SE25 4DS,51.406056062865400,-0.074266867498587
Buzzard and River dolphin,SW1V 2NE,51.489367305089700,-0.135103595351920
Prion and Magpie,BR1 2XU,51.408224730000000,0.017577789000000
Mink and Darwin's finches,SW9 7JR,51.468253910437500,-0.109750000000000
Vole and Grackle,CR4 1LN,51.396364871623800,-0.135050214348099
Pheasant and Hawk,SW18 1QZ,51.463833000000000,-0.184535000000000
Mole and Tattler,SE19 3DA,51.409639917927400,-0.093255427102495
Maya and Pratincole,SE5 0JG,51.476144000000000,-0.096138304445126
Guillemot and Towhee,CR9 1QE,51.372161780581400,-0.099008304414128
Asiatic leopard and Maya,SE26 6JF,51.430150014985400,-0.060781278796737
Towhee and Grosbeak,SM1 4TB,51.362053000000000,-0.186777000000000
Rat and Kākāriki,CR0 1JT,51.363861155072800,-0.094008209982038
Stilt and Scimitar babbler,SW3 6DZ,51.486554044447100,-0.174626596651168
Shearwater and Philippine hawk-owl,CR2 7BA,51.361935198927400,-0.093769000000000
Black jay and Prion,BR2 9PX,51.389652320000000,0.041583625000000
Warbler and Kestrel,SE17 2FU,51.483778000000000,-0.093236000000000
American sparrow and Diving bird,SE25 4XU,51.395971454952200,-0.065849634726884
Puffleg and Jackal,SW4 6SP,51.473492286590500,-0.128133741591227
Towhee and Mouse,SE4 2AX,51.459127090573300,-0.035946000000000
Hawk and Meadowlark,SE13 7JG,51.466128000000000,-0.017058000000000
Bronzewing pigeon and Skunk,SE3 0QT,51.468876068043400,-0.002079414392220
Cloud rat and New World blackbird,BR4 0LF,51.377832450000000,-0.021120137000000
Quetzal and Mamo,SM5 2PE,51.363622243359300,-0.171546042921666
Wallaby and Tit-tyrant,SE12 0PS,51.443183839710600,0.014729242180548
Triller and Myna,SW10 0AZ,51.484324233663300,-0.177538597937367
Tree warbler and Asiatic leopard,SE11 5EW,51.488853149436900,-0.120921875090160
Tree warbler and Parakeet,SW4 9PY,51.459616170132000,-0.139397114418077
Wallaby and Peafowl,SW4 7BZ,51.459179946575800,-0.134016731149489
Parrotbill and Towhee,SM5 1HH,51.386162980134200,-0.177646888283664
Lemming and Mink,BR1 5QR,51.424846230000000,-0.008344581000000
Marsh harrier and Vulture,SM5 2QX,51.369630173016300,-0.169295369509472
Viscacha and Jay,SE5 9EJ,51.470422490049700,-0.097201653950404
Badger and Masked owl,BR1 2LX,51.397017970000000,0.054418534000000
Flameback and Coati,SE7 7SR,51.488859766878000,0.024662000000000
Puffleg and Viscacha,SE9 6RR,51.464130976293700,0.048289480868051
Duck and Perching duck,SE10 9DS,51.482517558332800,-0.010513657320337
Philippine hawk-owl and Boto,SW17 9JT,51.418503500267700,-0.161719899402986
Macaw and Badger,SE13 5RB,51.455200283290700,0.001586000000000
Old World quail and Magpie,CR0 4DE,51.362789707229000,-0.109466119780136
Rabbit and Treepie,SE21 9BT,51.436412000000000,-0.087137000000000
Partridge and Linsang,SW18 3NR,51.447208322143900,-0.178354854025117
Bunting and Marmoset,SE6 4QX,51.447994711743200,-0.022218420291677
Eagle and Jackal,SE8 3JY,51.484509815912700,-0.022496826925010
Pratincole and Zebra,SW8 4FA,51.471898000000000,-0.138008000000000
Goose and Rat,SW18 3JD,51.447601738452700,-0.178310346166931
Jerboa and Towhee,SE21 8RR,51.438406363435400,-0.089870618694868
Snipe and Perching duck,SW19 2UF,51.410669791289300,-0.179505433794946
Thicketbird and Ice seal,CR4 9DZ,51.405148000000000,-0.174840000000000
Hawk and Songlark,SE23 3DP,51.446503193877900,-0.063225781468629
Egret and Petrel,BR4 9HT,51.370289000000000,-0.001029000000000
Rabbit and Moluccan boobook,SW18 3EQ,51.443611168818800,-0.188311918574203
Marmoset and Parrotbill,SE1P 4JL,51.492762000000000,-0.080152000000000
Pratincole and Scimitar babbler,SE20 7ED,51.418372175506900,-0.053887309026081
Tree warbler and Boto,SE18 3QJ,51.478553213167600,0.068391988665059
Magpie and Mouse,SW11 6LZ,51.457000918606600,-0.156575089592785
Logrunners and Wader,SW17 9AU,51.424042103555400,-0.170286212107715
Ice seal and Mockingbird,SE15 5AR,51.471860660624400,-0.075125615872588
Kite and Mockingbird,CR0 5EY,51.372503495157000,-0.052470931792212
Hawk and Triller,SW9 0BL,51.470216966279800,-0.113462000000000
Chickadee and Old World vulture,SM6 0RL,51.349984663557700,-0.148350761447245
Cuscus and Armadillo,SE22 0LS,51.455530850270200,-0.064254293597043
Crow and Songlark,CR0 2BN,51.380565000000000,-0.093135798853375
Vulture and Zebra,SW12 0AF,51.447352703530000,-0.142385354802768
Cloud rat and Kite,SW8 4RP,51.477144352800200,-0.131584396604508
Songlark and Kite,CR7 6BF,51.393404746672100,-0.120882496766377
Fulmarine petrel and Fish eagle,SE4 1YX,51.459253621121700,-0.031837175058564
Chicken and Thrasher,SE1P 4LE,51.492762382100000,-0.080151676700000
Chickadee and Kite,SE9 4NF,51.425863860753300,0.049469081090266
Mink and Night heron,SE5 7FR,51.478010000000000,-0.084735000000000
Mole and Duck,SE22 9PB,51.454425104811900,-0.073556171682538
Towhee and Mamo,SE12 8JQ,51.457501928670500,0.022470708674122
Siskin and Cloud rat,SE21 8RQ,51.437405928943200,-0.091941095357043
Parrotbill and Myna,SE14 6DZ,51.480711935218900,-0.042146991926745
Civet and Night heron,SW11 1QD,51.461874962071200,-0.168848000000000
Bronzewing pigeon and Rat,SW16 2LS,51.434907190252400,-0.119280595523373
Vole and Jerboa,SW9 6XA,51.477649186329400,-0.103654922602747
Mamo and Minke whale,SE9 1UB,51.454244298413000,0.064385357894278
Eagle and Coati,CR2 0PS,51.351610638327400,-0.095521935470197
Marmoset and Old World warbler,SE3 9FA,51.460353157600000,0.029276294500000
Mole and Mockingbird,CR0 2SS,51.387478616503400,-0.110820192932277
Towhee and Cloud rat,SM6 9DE,51.354788815641600,-0.137701370417386
White ibis and Booted eagles,BR4 9BD,51.370777490000000,-0.004944863000000
Pitohui and Chicken,SE19 3QD,51.414164022643900,-0.089989670788935
Meadowlark and Crow,SW16 5AG,51.416766001460000,-0.141640938463768
Old World vulture and Hawaiian honeycreeper,SW2 1JJ,51.460972450345900,-0.112854089498245
Viscacha and Mouse,SW16 5LG,51.417949382937100,-0.129540800016368
Scimitar babbler and Grackle,SE19 1AX,51.424709328855800,-0.085939557498337
Cuscus and Argus,BR2 7BS,51.374061000000000,0.020808582000000
Parrotlet and Duck,SE12 9AR,51.441116255238700,0.023559801460973
Polecat and Moluccan boobook,SE12 9DZ,51.444771078647700,0.027506147046966
Snipe and Egret,SW1V 3QD,51.488009329854700,-0.133401707589560
Stilt and Minke whale,SW12 9RS,51.442838507181300,-0.146367455048965
Linsang and Old World quail,CR0 9EQ,51.357937554335000,-0.019894984209158
Rat and Solitaire,SE7 7JW,51.480344470187900,0.025022158814904
Mamo and Songlark,SW1V 4BA,51.486230007773500,-0.145947814414248
Rat and Mink,SM4 5HA,51.407389000000000,-0.163374000000000
Mamo and Greenbul,BR1 3GJ,51.410182780000000,0.012487232000000
Herring gull and Eagle,SE21 8QQ,51.429166766338400,-0.082458966036831
Grosbeak and Goose,SW9 6NE,51.477944000000000,-0.109605000000000
Zebra and Skunk,SW8 1XJ,51.477732057088000,-0.122214223618634
Mamo and Darwin's finches,SM6 0JG,51.358342090460700,-0.154821979550499
Shearwater and Linsang,SE15 6JR,51.478380795334400,-0.073511808376240
Chickadee and Boto,SE27 0HT,51.431343030069700,-0.104019254912836
Philippine hawk-owl and Lemming,SW4 7NJ,51.460102891973000,-0.130423450258405
Tree warbler and Fox,SE18 3LQ,51.475203594718900,0.064553939769224
Shearwater and Boto,SW12 0PE,51.441976204550300,-0.143020821232737
Kākāriki and Ice seal,SW1W 8QY,51.488768892311300,-0.150122897945633
Pratincole and Tit-tyrant,SW5 0BT,51.490379638007300,-0.187625335245387
Armadillo and New World blackbird,SE16 2PP,51.492843000000000,-0.047476000000000
White ibis and Chicken,SE24 9BA,51.442704698711700,-0.107045469289342
Ice seal and Stilt,CR0 0NY,51.345236497733400,-0.015459776748969
Skunk and Meadowlark,SM6 8RW,51.358366575158800,-0.147826057333521
Maya and Lemming,SE7 8PS,51.476473894989200,0.041310796531363
Rabbit and Goose,SE1P 4SR,51.492762382100000,-0.080151676700000
Stilt and Bronzewing pigeon,SE3 9SG,51.464429806289700,0.014959481529154
Asiatic leopard and Hawaiian honeycreeper,SW6 2RE,51.473816745171000,-0.184221185417659
Pratincole and Snipe,SW4 7AF,51.459819216922600,-0.137459900959333
Chipmunk and Pratincole,SE5 0SJ,51.480708185936800,-0.094872524736349
Wallaby and Pheasant,SE1P 4GG,51.492762382100000,-0.080151676700000
Magpie and Skunk,SE12 9PS,51.430372875654200,0.032220318670858
Old World quail and Asiatic leopard,CR8 4JB,51.331145133715600,-0.129127899836740
Lemming and Ground sloth,SW4 8QX,51.454188996251300,-0.136839860652170
Viscacha and Jackal,CR0 7PF,51.383081418791700,-0.051533282335278
Viscacha and Darwin's finches,SE20 7EQ,51.416908028710300,-0.055071281507922
Recurvebill and Warbler,BR1 2EU,51.393071200000000,0.042008949000000
Viscacha and Jay,SE4 1YS,51.458589071719600,-0.032427168868497
Buzzard and Solitaire,SE6 9QR,51.438362000000000,-0.019918000000000
Hawaiian honeycreeper and Gull,SE11 5LF,51.489635111863800,-0.117533446439327
Dolphin and Prion,CR4 4EU,51.397392933613800,-0.174889000000000
Chickadee and Herring gull,SE21 8JB,51.441128000000000,-0.105096000000000
River dolphin and Bronzewing pigeon,SE9 6QH,51.454145582765900,0.044877336096208
Elephant and Vulture,SW2 4QB,51.444599156964400,-0.127013015569758
Magpie and Grackle,SW9 7RU,51.475359653304600,-0.106658708543139
Hawaiian honeycreeper and Greenbul,BR3 4LL,51.403868990000000,-0.042138196000000
Perching duck and Towhee,CR4 2LU,51.407406592229500,-0.158282723612314
Macaw and Scimitar babbler,SW11 5BE,51.472646432507000,-0.161632156961634
Thrasher and Asiatic leopard,BR2 6AR,51.339052000000000,0.002952000000000
Thrasher and Goose,SE19 3UZ,51.418247827701300,-0.102792178195897
Linsang and Triller,SE18 5JZ,51.491232523617400,0.052558032452853
Meadowlark and River dolphin,SW9 9RU,51.466088745844600,-0.125154178628259
Hawaiian honeycreeper and Kite,SW1V 1PG,51.491163604892900,-0.144033460982103
Stilt and Snipe,CR2 6AS,51.362618254128600,-0.098872002767946
Wader and Civet,SW16 3ND,51.413569446787100,-0.110449458088570
Tit-tyrant and Peafowl,CR0 8NH,51.369498618285800,-0.028203251149438
Dorcopsis and Crow,SE9 6HZ,51.459078718225200,0.038389620521260
Masked owl and Grackle,SE3 9AG,51.463365177618400,0.019865015959543
Towhee and Warbler,CR2 6HW,51.357458185161700,-0.096213021447919
Francolin and Meadowlark,BR3 4JY,51.403805770000000,-0.043736828000000
Bunting and Old World warbler,SM6 7AG,51.372555711757200,-0.152296570193607
Thicketbird and Zebra,SE9 4NX,51.430893080962700,0.033336771375529
Flameback and Guillemot,SE17 3AA,51.489147407590800,-0.098453179680267
Maya and Lemming,SW2 9JP,51.454192100200300,-0.122288033161689
Mamo and Piping shrike,SE15 4JT,51.465427255629000,-0.068341792069211
Badger and Nukupuʻu,CR0 7NG,51.381735487294200,-0.040927286369056
Booted eagles and Mamo,CR0 6PE,51.380628797056600,-0.082749467298793
Thrasher and Snipe,SM5 3RB,51.358321672784100,-0.171297491607249
Grackle and Songlark,SE23 2LL,51.435015923405200,-0.050532707946338
Jay and Macaw,SE5 7FY,51.477801000000000,-0.092361000000000
Flameback and Guillemot,CR0 6RN,51.382498856665700,-0.071763714958486
Rabbit and Peafowl,CR8 2AS,51.340939329703900,-0.110149963090818
Boto and Cuscus,BR1 4BU,51.407622930000000,0.005487260000000
Lemming and Solitaire,SE8 5PZ,51.479820804256700,-0.028143509933285
Cuscus and Thicketbird,SE15 3EJ,51.454781580032500,-0.048352098277631
Tahr and Nukupuʻu,SE23 2DZ,51.438216541513500,-0.044007908104373
Eagle and Parakeet,CR0 5UG,51.370928394480500,-0.087321256509592
Mole and Jerboa,SW3 6HU,51.489215000000000,-0.176220000000000
American sparrow and Hawk,SW10 0EY,51.481874417162900,-0.177290612611605
Minke whale and Towhee,SW8 4TY,51.471695372060100,-0.136702671211981
Guillemot and Polecat,SE17 2QB,51.483777000000000,-0.093261000000000
Perching duck and Pheasant,SW17 9AA,51.421897338616800,-0.160706414998072
Snipe and Skunk,SE27 0SR,51.427761622394800,-0.104987463453989
Vole and Macaw,CR0 2XD,51.387830179738400,-0.100859849823065
Solitaire and Moluccan boobook,SE1P 4AF,51.492763000000000,-0.080126000000000
Mole and Duck,CR7 7PA,51.395490230828500,-0.114673281736072
Booted eagles and Kite,SE3 0TA,51.466856569124000,0.008745805735966
Chickadee and Guillemot,SW18 3SW,51.447784328562000,-0.170402232798495
B and Civet,SW17 1GW,51.428565000000000,-0.165578000000000
Tahr and Myna,CR0 0FB,51.351464092947100,-0.009819577242660
Kākāriki and Elephant,SE1P 5WW,51.492762382100000,-0.080151676700000
Logrunners and Capuchin,SE17 2FF,51.483776871200000,-0.093261203600000
Moluccan boobook and Elephant,SW3 3PB,51.492048460924300,-0.166556253947042
Old World vulture and Old World quail,SW11 3SL,51.470369921068900,-0.175359010587490
Goose and Viscacha,BR2 0ST,51.402056840000000,0.005459411000000
Prion and Francolin,CR0 8JS,51.366581000000000,-0.030038000000000
Rat and Siskin,SE6 3LB,51.434326829427800,-0.026017208790286
Pratincole and Siskin,E14 3UQ,51.491413279964600,-0.025525735665237
Stilt and Cuscus,SE18 4DL,51.479463074329900,0.061664322413262
Greenbul and Greenbul,SW3 4UY,51.489756523974300,-0.164905247440206
Minke whale and Hawaiian honeycreeper,CR7 7DL,51.396969326523400,-0.108244125286448
Greenbul and Chipmunk,SE12 9EU,51.442810845864400,0.019159377292305
Gull and Quetzal,SE3 9NF,51.455597722850000,0.025985079795663
Duck and Rat,SW10 9AD,51.484562078117000,-0.188244879437475
Pratincole and Goose,BR5 1BN,51.388301060000000,0.065828366000000
River dolphin and Pratincole,SE5 9QG,51.468807702681500,-0.099658921585169
Parakeet and Egret,SW16 1HA,51.434604022480800,-0.127867870442974
Jackal and Marmoset,SW11 5BZ,51.472324511040600,-0.154877522964637
Mockingbird and Old World warbler,SW2 1QW,51.455630779409300,-0.119566057845980
Herring gull and Prion,SW11 4QT,51.475999883477600,-0.166177413796325
Triller and Armadillo,SE6 3DT,51.427616000000000,-0.030078000000000
Quetzal and Pheasant,SW1V 2SX,51.491684319296400,-0.136608024124613
Petrel and Chickadee,CR0 3HZ,51.383132734852900,-0.115138051358721
Black jay and Condor,SW4 8HD,51.449490549778300,-0.132612807268703
Jackal and Petrel,SE13 7DZ,51.462394728383300,-0.013865112466338
Stint and Recurvebill,SW1W 8BE,51.488230839899600,-0.150258000000000
Mockingbird and Magpie,SW12 0JH,51.446103546939900,-0.136204800329824
Coati and Marsh harrier,SW16 4UY,51.404172751607300,-0.119995427985450
Lemming and Meadowlark,SE6 4LE,51.439355837759300,-0.030951629272689
Recurvebill and Towhee,BR3 6TP,51.403231760000000,-0.018672401000000
Rabbit and Skunk,SW8 4BJ,51.477784820142200,-0.145872670903890
Capuchin and Macaw,SE1 5BA,51.484385264569400,-0.068433725952597
Parakeet and Capuchin,SE6 4SB,51.446708966598400,-0.021698328105066
River dolphin and Crow,SE8 4RD,51.476585933081300,-0.025086074580611
Black cockatoo and Minke whale,SW1P 9TJ,51.481034838432500,-0.135803635271134
Night heron and Perching duck,SW18 3PR,51.441439431448000,-0.182210449512253
Songlark and Asiatic leopard,SE20 8AG,51.412535258724300,-0.066344213493362
Hawk and White ibis,CR7 7QY,51.400622915286100,-0.112305730977315
Greenbul and Grosbeak,SE13 6RX,51.451073964959100,-0.006512470211952
Guillemot and Polecat,SE5 9EL,51.470041429024000,-0.096439990157989
Badger and Rat,SE16 3EJ,51.489043292859000,-0.061884459463214
Moluccan boobook and Chicken,SW17 7HA,51.441636572841200,-0.166315000000000
Greenbul and Prion,SE6 9SG,51.445075189023800,-0.020804759237888
Piping shrike and Kākāriki,BR3 1HD,51.412195880000000,-0.034592267000000
Lemming and Herring gull,SE9 5SU,51.451738043493700,0.046842000000000
Puffleg and Tahr,CR7 8NP,51.404639294691500,-0.094872472384526
Prion and Parrotbill,SE10 8BH,51.479398000000000,-0.010520000000000
Capuchin and Greenbul,CR0 6SU,51.376511000000000,-0.080529904664335
Francolin and Quetzal,SE5 7AN,51.474296444405400,-0.091554115005395
Fulmarine petrel and Grouse,SE8 5NG,51.483114734618100,-0.032823000000000
Mink and Vole,SW8 2QY,51.471016406880700,-0.133591412450109
Black jay and Darwin's finches,SW4 7DJ,51.458992000000000,-0.131174000000000
Linsang and Recurvebill,SE22 0RY,51.452226574503700,-0.054661000000000
Mockingbird and Linsang,CR2 7AJ,51.354691917595100,-0.087595435776554
Fulmarine petrel and Parrotlet,SM6 9RL,51.356971295116900,-0.143760184540952
Treepie and Petrel,BR1 4BE,51.412501000000000,0.006814353000000
Siskin and Cuscus,SE14 6TR,51.473470690083700,-0.029137344283865
Tattler and Magpie,SE23 3QX,51.449791114596200,-0.055415608124664
Piping shrike and Wader,SW18 1QT,51.463732000000000,-0.184367000000000
Macaw and Tattler,SM5 1QU,51.380596545405400,-0.180540849519686
Linsang and Grackle,SW2 4DY,51.447541331838200,-0.125424703554499
Wader and Fish eagle,SM6 0BL,51.357882473900000,-0.151809887000000
Darwin's finches and Thrasher,SE7 7FJ,51.481274477874500,0.028966372127001
Mink and Darwin's finches,CR2 8PF,51.340606096662300,-0.059523402378907
Quetzal and Bunting,SE25 4UX,51.395868000000000,-0.068197000000000
Coati and Piping shrike,SE26 4BZ,51.435692673353400,-0.059884713023158
Triller and Maya,CR0 5LR,51.374095627078800,-0.090738238191576
Shearwater and Thrasher,SW11 1DL,51.461977000000000,-0.161336101630445
Wader and Perching duck,BR2 8JQ,51.384232410000000,0.044001175000000
Recurvebill and Kangaroo,BR7 6HY,51.423121300000000,0.063802317000000
Towhee and Lemming,SE17 2AG,51.487815809671100,-0.084046863338426
Mockingbird and Moluccan boobook,SW12 8RG,51.451264802013100,-0.156647832160676
Francolin and Solitaire,CR8 3YY,51.346677130583400,-0.103409016923130
Black cockatoo and Hawaiian honeycreeper,SW1V 4QF,51.489257336450600,-0.142339126144361
Argus and Warbler,SW7 3DA,51.490630830291400,-0.180038438019114
Civet and Kangaroo,CR7 8PD,51.406984751144300,-0.100310773197769
Pratincole and New World blackbird,BR2 9NY,51.396399790000000,0.031073603000000
Black cockatoo and Macaw,SW4 6HD,51.467580000000000,-0.136802437917221
Siskin and Cuscus,CR0 3QD,51.388398797915000,-0.116028365058022
Elephant and Tit-tyrant,SE14 5QQ,51.476184515536500,-0.045134567982319
Condor and Mole,BR3 1PU,51.413627970000000,-0.025096993000000
Gull and Rabbit,SW12 8SB,51.447595215435600,-0.162336275023201
Linsang and Vole,SW1V 4AD,51.487726686922900,-0.144489916043522
Fish eagle and Pitohui,SE24 9AA,51.450666000000000,-0.100489929430255
Vole and Triller,SW3 4DJ,51.488678622870700,-0.162110891754836
Triller and Lemming,SE20 8TS,51.407149668584200,-0.064774074359298
Hawk and Asiatic leopard,BR2 7ND,51.384385000000000,0.014962682000000
Herring gull and Tree warbler,BR3 5LB,51.406522380000000,-0.022354886000000
Flameback and Hawk,SE25 6QA,51.397926329108300,-0.089631089777834
Treepie and Myna,SE10 0FY,51.485970000000000,0.009658000000000
Pratincole and Logrunners,SW9 7JT,51.465707620591200,-0.109261019570604
Maya and Jerboa,CR8 3AL,51.337861483974400,-0.122867613142379
Meadowlark and Marmoset,SE3 7PL,51.481829090500800,0.011391220154470
Pratincole and Diving bird,SE12 0PQ,51.445115414800000,0.013864407500000
Rat and Pheasant,SW8 2AS,51.469069146874600,-0.135286000000000
Old World quail and Jerboa,SE23 3QE,51.442507336764500,-0.058689349824129
Magpie and Goose,SW9 8FT,51.458378000000000,-0.105767000000000
Stilt and Pratincole,SE1P 5YA,51.492762382100000,-0.080151676700000
Grouse and Coati,SW11 5EE,51.462474661748300,-0.156973555098934
Darwin's finches and Thicketbird,CR0 9HG,51.343161338191300,-0.036398392404848
Shearwater and Logrunners,CR0 2RB,51.378661000000000,-0.101556000000000
River dolphin and Thicketbird,SW2 4AY,51.441474586813300,-0.130133854221206
Thicketbird and Rabbit,SE1P 5UF,51.492762000000000,-0.080152000000000
Logrunners and Vole,SE11 6QR,51.492844964871200,-0.111350847575778
Towhee and Puffleg,CR0 1ER,51.370504991592000,-0.097769510128524
Philippine hawk-owl and Logrunners,SW2 2YD,51.450186000000000,-0.112502930836977
New World blackbird and River dolphin,SW16 4QL,51.408578397959400,-0.136839585643272
Pitohui and Crow,SE9 3EG,51.432414177346400,0.053891284575646
Recurvebill and Night heron,SE25 6EA,51.398484387601700,-0.075921868195155
Rat and Grouse,SW16 2EP,51.425276408553500,-0.123228972075728
Boto and Gull,SW2 5SR,51.460759649538800,-0.119758326549301
Jerboa and Egret,SE16 2DB,51.491177000000000,-0.057055000000000
Moluccan boobook and Kestrel,SE22 9ER,51.456767491091600,-0.071629466694475
Prion and Polecat,CR4 2LZ,51.406166746268900,-0.157211031019006
Dolphin and Myna,SE15 5NW,51.472355346710300,-0.076775106973587
Piping shrike and Old World vulture,SW1W 8TJ,51.492376051784700,-0.151907208647149
White ibis and Parrotbill,CR0 6DA,51.381291710244400,-0.088096377685356
Old World warbler and Ice seal,SW11 4FP,51.475345000000000,-0.153507000000000
Myna and Mamo,BR2 8NZ,51.378710330000000,0.043510862000000
Goose and Coati,SE26 5AJ,51.424600061210300,-0.036390349433141
Treepie and Grosbeak,SW17 8LR,51.431529985072100,-0.163772216766741
Badger and Parrotlet,SW9 7TF,51.470421830622100,-0.106603967183382
Fish eagle and Greenbul,SE21 8SD,51.430867121025700,-0.084703948889016
Flameback and Argus,BR4 0QJ,51.376548980000000,-0.012237805000000
Diving bird and Hawaiian honeycreeper,SW8 1AS,51.479189846967700,-0.117229094193928
Civet and Macaw,CR0 1BJ,51.363854591980300,-0.098030721898981
Linsang and Kite,SE14 5NY,51.473365311788900,-0.041093598946763
Marsh harrier and Thicketbird,SE8 4JE,51.469946696153700,-0.021729955486048
