name,postcode,lat,lon
Egret and Hawk,SM4 6LY,51.385151334834400,-0.195953443347858
Old World quail and Mouse,KT3 6AG,51.392053915593100,-0.253277556482284
Perching duck and River dolphin,W8 4RT,51.508915452258700,-0.193605203262892
Parrotlet and Eagle,SW15 2NQ,51.462880439091400,-0.208969000000000
Prion and Treepie,UB3 2BL,51.507281969966300,-0.419270649188521
Armadillo and Parakeet,SW13 8DL,51.485210281537800,-0.231889280977412
Marsh harrier and Hawaiian honeycreeper,SW18 4QS,51.442385346984200,-0.195123546497831
Piping shrike and Grouse,W12 0SF,51.515340094466100,-0.237612029569591
Pratincole and Wader,TW8 9PA,51.492567688212600,-0.308197518375277
Philippine hawk-owl and Tattler,W14 8QA,51.496110561517000,-0.206414712188472
Stint and Logrunners,KT1 2UH,51.407633720747400,-0.300075642626857
Old World quail and Black cockatoo,W11 4DG,51.510540752966800,-0.215777191988118
Capuchin and Solitaire,W4 1PE,51.493532608199000,-0.256200923103771
Tahr and Ground sloth,W5 2SB,51.520982604127900,-0.300672780348904
Nukupuʻu and Philippine hawk-owl,NW10 4QD,51.534291414573500,-0.239100622641973
Grackle and Hawaiian honeycreeper,TW7 7PQ,51.464212800481200,-0.347151660055604
Fox and Songlark,TW2 5LQ,51.438887264457700,-0.349490425566704
Meadowlark and Perching duck,W5 9SR,51.513326610090300,-0.307270046579881
Asiatic leopard and Moluccan boobook,TW13 5LT,51.441594299353400,-0.379811342621084
Black jay and Darwin's finches,TW2 6EA,51.446065673541000,-0.367651448886068
Treepie and Maya,TW3 3RX,51.465372294168800,-0.368301512251487
Kite and Kangaroo,TW10 6PR,51.456522751293000,-0.296777518755474
Flameback and Perching duck,W4 1ED,51.500051978778900,-0.253171421736624
Maya and Vole,KT2 5BA,51.419861882788200,-0.304310660147939
Grackle and Booted eagles,NW10 6AU,51.530505333722700,-0.235037000000000
Elephant and Tree warbler,W2 4LW,51.509969149185500,-0.192540351799452
Argus and Greenbul,UB4 0QL,51.524080938890700,-0.411395044344420
Old World warbler and Mamo,TW16 6PZ,51.415650362121300,-0.419255055644931
Guillemot and Ibex,SW20 0HN,51.420155299038700,-0.234055708484922
Pratincole and Quetzal,NW10 5DN,51.530091240688100,-0.220577999746111
White ibis and Duck,TW12 3SD,51.425002798868400,-0.374572718582218
Siskin and Night heron,TW1 1QW,51.459456724747500,-0.320635618768225
Perching duck and Hawk,UB1 3FA,51.518404000000000,-0.356858000000000
Magpie and Hawk,W6 9AR,51.492163052030700,-0.239168624648887
Mouse and Peafowl,W11 1UF,51.516342223729600,-0.212912942269434
Chickadee and Triller,TW9 2ND,51.463582261386600,-0.301607000000000
Siskin and Treepie,TW5 0SA,51.486964345737900,-0.368409483610988
Shearwater and B,UB6 9LQ,51.529322167357900,-0.355189336813670
New World blackbird and Mole,UB2 4SB,51.507809000000000,-0.360619000000000
Hawk and Mink,KT12 5NT,51.373077886423300,-0.404472025859816
Chipmunk and Hawk,NW6 9WD,51.535966000000000,-0.194644000000000
Guillemot and Dorcopsis,KT9 1LQ,51.365824206613100,-0.286267601902329
Capuchin and Vole,W3 6DB,51.522519000000000,-0.261206000000000
Chicken and River dolphin,W10 6LT,51.517401109094000,-0.219270963411903
Black cockatoo and Old World vulture,W9 2BJ,51.523579701510600,-0.201167000000000
Fulmarine petrel and Fox,KT6 6PG,51.387853756804900,-0.308397313851159
Argus and Kestrel,W14 0EU,51.499447271397300,-0.220129309007255
Ibex and Parrotlet,KT12 4ER,51.367645000000000,-0.395747000000000
Boto and Kangaroo,KT6 7JL,51.379743952091200,-0.285604082566825
Duck and Hawk,W5 4YD,51.503894444575300,-0.293671854234623
Wallaby and Greenbul,W4 5YS,51.493879800439900,-0.273951000000000
Kangaroo and Chicken,W5 4BJ,51.494059785561400,-0.310648868910837
Macaw and Peafowl,W3 7DP,51.520291812576400,-0.250018786547307
Booted eagles and Chickadee,W8 5ED,51.502124000000000,-0.189321000000000
Vulture and Jerboa,TW3 9SD,51.475228019650700,-0.368957850614989
Parrotlet and Dorcopsis,W11 4EW,51.511442271491700,-0.211793264353103
Ice seal and Parrotlet,KT5 8LP,51.394735110381200,-0.283189426665426
Kite and Tattler,TW2 5PE,51.438391162199200,-0.358990054126152
Viscacha and Francolin,TW5 9WA,51.481276492114000,-0.413948464331223
Darwin's finches and Booted eagles,W11 4XU,51.504613000000000,-0.214986000000000
Shearwater and Meadowlark,SW6 3EW,51.467820316699500,-0.193054628187765
Argus and Perching duck,KT13 9RW,51.375008000000000,-0.428069000000000
Duck and New World blackbird,SW18 4TS,51.454689000000000,-0.193386000000000
River dolphin and Bronzewing pigeon,SW15 2EZ,51.455629229419300,-0.213618000000000
Parakeet and Jackal,TW1 9QB,51.456007000000000,-0.336573000000000
Stint and Black jay,SW20 8RE,51.410921061932800,-0.228170752999188
Songlark and Darwin's finches,KT6 4HJ,51.396961151084200,-0.312000171467492
Crow and Marsh harrier,SM4 6SQ,51.385558911236800,-0.190892925054475
Kite and Goose,KT12 2NQ,51.389079340753200,-0.413372647832346
Hawk and Jerboa,W4 5HU,51.500604889345600,-0.265584242721723
Asiatic leopard and Badger,W13 0NZ,51.512272677752300,-0.327830973362630
Kangaroo and Condor,SW15 2AL,51.458685958108300,-0.213136159524825
Wader and Nukupuʻu,SW15 6JR,51.464674167817800,-0.233259011011025
Quetzal and Stint,SW19 8QX,51.420401936176900,-0.197097145738033
Mouse and New World blackbird,W12 9AE,51.502872799315900,-0.241551111512332
Perching duck and Armadillo,W12 2FJ,51.513921437702200,-0.321631194869861
Stint and Old World quail,TW2 6JU,51.448469311417900,-0.360111073860655
Stint and Thrasher,W4 1JD,51.497538143616300,-0.259491299081010
Towhee and Capuchin,KT1 2LE,51.399394214234800,-0.305498949698438
Wader and Parakeet,KT6 6AD,51.393776717605100,-0.298246319051914
New World blackbird and Warbler,W3 9SP,51.511421491436200,-0.284455695069311
Fox and Fox,KT4 7NX,51.382420774806200,-0.245912895687161
Armadillo and Armadillo,KT8 9BJ,51.403342528481000,-0.345824621861292
Zebra and Parrotlet,KT12 4PX,51.372156374906100,-0.390352334726927
Cloud rat and Logrunners,TW4 5EY,51.459568113696400,-0.380326561680277
Logrunners and Kestrel,KT8 0DR,51.400593310891300,-0.355584623194370
Grosbeak and Rabbit,W12 0UZ,51.513922000000000,-0.321609000000000
Macaw and Marmoset,SW15 2PP,51.464172942714200,-0.213238561302067
Dolphin and Philippine hawk-owl,KT12 5QN,51.370244255685700,-0.403737255431509
Kestrel and Flameback,KT10 8EP,51.386128950065900,-0.354622858818113
Tattler and Tit-tyrant,W10 5DT,51.524332094196600,-0.206733078159110
Puffleg and Minke whale,W10 6HR,51.518169642882900,-0.211861299053731
Herring gull and River dolphin,TW10 7AF,51.444807852490300,-0.301890224615128
Shearwater and Linsang,UB4 9LD,51.532195050528600,-0.404999566570068
Pitohui and Vulture,KT4 7PY,51.375214642193500,-0.263818391519911
Polecat and Jerboa,UB6 8SP,51.528186140866700,-0.349852962429116
Mouse and New World blackbird,W5 3LG,51.509769349885000,-0.285238288419339
Duck and Chicken,W3 7NG,51.515633859295300,-0.256063232987256
Tahr and Prion,TW11 0PU,51.430116316058100,-0.346699232552012
Goose and Stint,W10 6SU,51.515537110921200,-0.217325891362227
Bronzewing pigeon and Quetzal,UB3 2BS,51.514892959179900,-0.414870940316519
Buzzard and Guillemot,TW9 2EE,51.470573950923500,-0.288479216538310
Greenbul and Quetzal,KT3 6QP,51.394182027825800,-0.240446430431801
Grouse and Minke whale,TW11 0NY,51.427573551275800,-0.344935381395912
Fish eagle and Mink,W6 6JA,51.492366227822100,-0.238815140762069
Warbler and Mole,SW18 4XG,51.443179264163300,-0.196648000000000
Chickadee and Stint,SW19 4LJ,51.417500832299900,-0.218496304865319
White ibis and Jerboa,TW15 1DH,51.432389499087800,-0.453290290358239
Black cockatoo and Elephant,UB4 9BY,51.526483648131000,-0.392383518319121
Hawaiian honeycreeper and Hawaiian honeycreeper,TW11 0SR,51.433594523813500,-0.349120099173779
Minke whale and Piping shrike,KT2 6SE,51.417672799718000,-0.286112566314231
Tit-tyrant and Wallaby,W4 3DL,51.488847863372500,-0.278129875929509
Kestrel and Parakeet,W10 4BA,51.532321959528500,-0.209389211091126
B and Ice seal,W4 3EA,51.487335131111400,-0.265180385611171
New World blackbird and Pitohui,TW9 4HB,51.468349530225300,-0.287021907166675
Diving bird and Guillemot,W8 4PF,51.502378000000000,-0.189455983824666
Jay and Myna,UB1 1NX,51.513589287256500,-0.384565145725077
Zebra and Marmoset,KT1 1PX,51.412648374364900,-0.307813150992112
New World blackbird and Kite,TW11 0BX,51.416683721561900,-0.317774142021424
Towhee and Goose,TW14 0BA,51.455409379048100,-0.403618302401939
Badger and Rat,SW19 8DG,51.436606685550300,-0.198861948207138
Stilt and Grouse,SW5 0ST,51.494991000000000,-0.192658000000000
Pitohui and Chickadee,KT6 4TF,51.396637381464300,-0.301417678230728
Kākāriki and Jackal,W6 7BL,51.495298591917300,-0.218144383530464
Hawaiian honeycreeper and Myna,TW2 7BG,51.451938952212500,-0.361296461338725
Buzzard and White ibis,W4 1RT,51.494149738723200,-0.256580735939297
Asiatic leopard and Hawaiian honeycreeper,KT8 9EL,51.401935959608300,-0.347471175853013
Minke whale and Bronzewing pigeon,W7 3DL,51.524534704577700,-0.345213592014042
Meadowlark and Puffleg,KT7 0UP,51.384165166122200,-0.327072064806915
Tattler and Boto,W13 8AJ,51.521161159504700,-0.321192008835101
Triller and Herring gull,TW3 9WP,51.470271000000000,-0.360964000000000
Mouse and Diving bird,KT5 9PB,51.377943000000000,-0.280460428879415
Kestrel and Mamo,NW10 5SE,51.532519627369200,-0.222502000000000
Grackle and Pheasant,KT10 0EU,51.360802491378800,-0.327061553487295
Bunting and Meadowlark,TW17 8SA,51.402408571010000,-0.430925421689915
Badger and Parrotbill,SW18 4DQ,51.449954628399200,-0.190881661512966
Tit-tyrant and Asiatic leopard,W9 2HT,51.523159229997400,-0.194756994620766
Pitohui and Buzzard,UB4 8EB,51.530145684618600,-0.424361010277642
Old World vulture and Vulture,W7 3FA,51.510016000000000,-0.329621000000000
Thrasher and B,W6 9PN,51.490059234960400,-0.223692759496242
Kākāriki and Mamo,KT3 6EU,51.397840169239800,-0.245121866794685
Tahr and Pheasant,UB10 0SN,51.530144000000000,-0.442310000000000
Asiatic leopard and Lemming,W11 9FL,51.513921437702200,-0.321631194869861
Crow and Chicken,KT12 5PP,51.370697922912500,-0.415961955658238
Coati and Myna,KT1 3DZ,51.408353608932700,-0.292068743987894
Wader and Polecat,TW3 1XZ,51.466501668540900,-0.354526570256922
Night heron and Nukupuʻu,W4 1ND,51.495976736380800,-0.250042562030630
Night heron and Thrasher,KT4 8PX,51.380565574156400,-0.219499662850503
Linsang and Armadillo,SW15 6NX,51.461134508698000,-0.225147113632907
Moluccan boobook and Night heron,W14 0HB,51.497451597358400,-0.216029046659234
Civet and Parrotbill,KT5 9QL,51.382404527215100,-0.269007180613751
Viscacha and Zebra,KT13 9XY,51.368407306864400,-0.453162743401669
Jackal and Vulture,UB4 0NB,51.517337595514600,-0.388381675966458
Mink and Thicketbird,SW6 5PU,51.479300000000000,-0.199154000000000
Petrel and Bunting,W9 3DS,51.528004752536400,-0.202278219886515
Kangaroo and Grosbeak,TW1 9QL,51.456007000000000,-0.336573000000000
Tahr and Parrotbill,TW11 8UJ,51.432979800932600,-0.343790518853769
Herring gull and Triller,SW15 2NN,51.464209076310800,-0.210890529530924
Cuscus and American sparrow,W13 0AS,51.513515834761200,-0.325465153815186
Treepie and Old World warbler,TW13 5JQ,51.443578959201200,-0.386792046067826
Lemming and Chickadee,W3 0HE,51.516800870026100,-0.283359988981330
Meadowlark and Duck,UB6 9LJ,51.532624863637200,-0.352806710294662
Kākāriki and Pheasant,SW19 7AL,51.424879547754500,-0.203494459535505
Kestrel and Tit-tyrant,KT8 2ED,51.401797452034800,-0.374863551971790
Mink and Kangaroo,SW6 3BQ,51.468591975376300,-0.209250582230853
Grackle and Ground sloth,W11 3ND,51.510725492388900,-0.200205966005601
Masked owl and Civet,UB1 1NZ,51.512765711093800,-0.385487788916522
Macaw and Stint,KT4 7SR,51.384603040835600,-0.250528897699129
Pheasant and Zebra,UB2 4UJ,51.507991090329800,-0.351245516633306
Pheasant and Grouse,W4 5DP,51.500991638682600,-0.264373700590866
Elephant and Rat,UB1 3QU,51.511764000000000,-0.364987000000000
Macaw and Coati,W6 9SP,51.484499151452300,-0.222324514895057
Black cockatoo and Skunk,SM4 4JZ,51.381714074613700,-0.221107702766670
Linsang and Bunting,KT9 2GA,51.363131158688700,-0.312612177784249
Black cockatoo and Songlark,KT2 5QX,51.431227615070500,-0.307371293663855
Old World quail and Bunting,SW19 5PJ,51.437047392353100,-0.217898000000000
Petrel and Chipmunk,KT13 9RR,51.377793000000000,-0.430575000000000
Egret and Shearwater,TW10 5EE,51.465063481025200,-0.280004250290460
Marmoset and Shearwater,UB3 3EX,51.516683000000000,-0.405498000000000
Duck and Petrel,KT2 7BY,51.413181190325900,-0.274172341373485
Darwin's finches and Mamo,KT6 6PB,51.387589571262600,-0.310031115326392
Parakeet and Guillemot,SW20 8PA,51.414703559001000,-0.226758997532873
Condor and Towhee,NW10 7FR,51.531368069500000,-0.283215854500000
Peafowl and Marsh harrier,W8 7AJ,51.505062337300200,-0.198584717627256
White ibis and Diving bird,W3 8SF,51.504632181541300,-0.272808788822438
Eagle and Solitaire,UB8 3EZ,51.523439540981400,-0.445407387822047
Linsang and Lemming,W6 8QS,51.484953606064900,-0.214356402375027
Bronzewing pigeon and Ground sloth,TW15 1BL,51.436002000000000,-0.446219000000000
Skunk and Egret,W10 5QY,51.522461692481400,-0.206734480816473
Petrel and Duck,W7 3SJ,51.508321696960100,-0.337716882607038
Old World warbler and Elephant,SW6 3SR,51.473265658358200,-0.194538593274705
Pratincole and Petrel,KT9 1ND,51.367037825581200,-0.308518000396580
Eagle and Argus,TW8 9GW,51.492181000000000,-0.291321000000000
Tahr and Marmoset,UB2 4RS,51.502452489241200,-0.373187454071508
Mockingbird and Magpie,KT3 3RG,51.401548360870000,-0.276736000000000
Partridge and Kākāriki,SW13 9PJ,51.479966807753000,-0.240200037837955
Partridge and Tahr,UB2 4JZ,51.497007256795600,-0.373482167641086
Duck and Diving bird,SW20 2AL,51.417013700000000,-0.213582399999950
Mink and Chicken,W8 7JD,51.506290917283600,-0.200121334649918
New World blackbird and Parrotbill,SW18 5EQ,51.450968299278000,-0.198311199557602
Piping shrike and Boto,SM1 9SN,51.361625845703700,-0.194924000000000
B and Fox,UB3 1DB,51.504310092804700,-0.424286863482584
Viscacha and Treepie,SW6 3RY,51.467274749400200,-0.205544357151158
Tahr and Viscacha,SW20 0SZ,51.415668279241800,-0.238255345929220
Mockingbird and Diving bird,TW4 5AA,51.463736207850100,-0.383921965348383
Grosbeak and White ibis,W12 0BQ,51.516295418850100,-0.249163060257289
Kangaroo and Triller,TW11 9NU,51.427932057595800,-0.318943422431283
Old World quail and Myna,NW10 5AG,51.534516454109700,-0.230152413084083
Elephant and Lemming,SM4 5NA,51.398173631117400,-0.191933469008363
Armadillo and Jay,W4 3AH,51.490242139646900,-0.280612545332002
Nukupuʻu and White ibis,SM4 6PW,51.389591939062600,-0.194672069747002
Puffleg and Treepie,UB1 2AW,51.514125347882100,-0.379098484728487
Shearwater and Parakeet,SW19 4NR,51.417504354867200,-0.221688914925231
Myna and Booted eagles,TW12 1QE,51.424037716365400,-0.359518612573035
Rabbit and Old World quail,W12 7HW,51.507820815310900,-0.228549992765639
Badger and Grouse,W8 6LA,51.497067281204300,-0.192690605486306
Lemming and Chipmunk,SW15 1ER,51.466936558847100,-0.216974687406497
Stint and Thicketbird,KT6 5PX,51.391709068738700,-0.318848393398322
Philippine hawk-owl and Bunting,TW3 1HH,51.468632071379800,-0.364110715602350
Rat and Condor,SW18 5BL,51.443378974571700,-0.204783171766727
Warbler and Badger,UB4 9NG,51.530098947481900,-0.391102824060894
Wader and Ice seal,W5 2ST,51.512156000000000,-0.313415557613295
Elephant and Rabbit,SW6 2JB,51.479859466649700,-0.189439340049781
Prion and Stint,TW10 7RX,51.437716038493900,-0.326783000000000
New World blackbird and Mamo,W7 1AQ,51.521244095358900,-0.338385138755389
Tahr and Jackal,W2 5LX,51.517094040650500,-0.193310473496332
Fox and Kākāriki,SW19 8AY,51.438140112273000,-0.202096540982059
Marsh harrier and American sparrow,NW6 5QH,51.532562672431900,-0.195754729349257
Vole and Kite,TW1 2ET,51.455205865860100,-0.311290000000000
Kangaroo and Bronzewing pigeon,KT8 2HE,51.395314979364500,-0.382740515794914
Quetzal and Solitaire,TW2 5HW,51.441228031664000,-0.358010653131247
Polecat and Civet,SW6 5QH,51.479078099261800,-0.198845438210946
Thrasher and Minke whale,TW2 6BY,51.444139317416200,-0.369446918759896
Shearwater and Night heron,KT17 2JZ,51.365400265396900,-0.243675860662933
Kestrel and Stilt,SW15 5DN,51.451129150383900,-0.240877332449801
Kestrel and Philippine hawk-owl,TW4 7LG,51.471617505711800,-0.393376873754157
Boto and Perching duck,W14 8RD,51.496518000000000,-0.204266000000000
Wallaby and Grackle,SM4 6PR,51.389163508636600,-0.192547370823420
Towhee and Wader,UB1 1BJ,51.516980207338500,-0.383320985961942
Goose and Asiatic leopard,NW10 5EL,51.531861562636400,-0.225843545066946
Tit-tyrant and Stilt,W11 9HW,51.513922000000000,-0.321609000000000
Recurvebill and Mole,SW18 4LS,51.456917000000000,-0.197386000000000
Black cockatoo and Minke whale,W4 1TE,51.493575196370700,-0.246994099991611
Grosbeak and Flameback,SW18 5TS,51.447264848315300,-0.203680957429796
Old World quail and Diving bird,W12 7EL,51.509058136943500,-0.230205000000000
Condor and Mamo,W13 9QB,51.504328791224600,-0.313756094563399
Herring gull and Buzzard,W9 2NF,51.527643173287400,-0.192792000497687
Jerboa and Scimitar babbler,SW6 7QW,51.480688521048100,-0.208287082569505
Chicken and New World blackbird,SW19 7EG,51.424588666845000,-0.206814185555375
Treepie and Duck,KT7 0HL,51.381880816130100,-0.345420101300802
Bronzewing pigeon and Boto,SW15 1HY,51.471126291733200,-0.227005560326594
Greenbul and Magpie,W12 8QP,51.502355851232400,-0.225736143377434
American sparrow and Diving bird,KT13 8NR,51.374691470638700,-0.451686584277250
Bunting and Fulmarine petrel,SW6 6PN,51.476365915923500,-0.220279087920913
Ibex and Viscacha,TW2 6PY,51.444984286032200,-0.350781583722230
Scimitar babbler and Pitohui,KT8 9JS,51.400630812557900,-0.352492389921096
Kite and Jerboa,KT12 2YA,51.394873375901000,-0.403656404021089
Solitaire and Tree warbler,TW14 0PZ,51.465408355255600,-0.416183060709305
Argus and Nukupuʻu,KT12 2PB,51.388780150806100,-0.418513947104063
Old World warbler and Ice seal,SW18 1LU,51.452243424085800,-0.200535046699342
Songlark and Viscacha,TW2 7BU,51.453132599469600,-0.359843236700513
Grosbeak and Nukupuʻu,UB4 8LF,51.536055451673600,-0.428525840301979
Eagle and Puffleg,UB4 0LY,51.517965207021000,-0.392178995329158
Armadillo and Meadowlark,KT19 9PU,51.369233851954800,-0.274115545980718
Bronzewing pigeon and River dolphin,SW6 4QJ,51.477407039175900,-0.192517386251800
Goose and Recurvebill,SM3 8NU,51.362681509755500,-0.215510454225348
Tattler and Mamo,TW8 0QS,51.488671048129300,-0.310487946971704
Ground sloth and Duck,TW3 3RE,51.466285136237800,-0.371868160312523
River dolphin and Boto,TW1 4JP,51.445384843337600,-0.338391497569767
Polecat and Zebra,W3 6TS,51.518076677849200,-0.264949445209160
New World blackbird and Mamo,TW2 5TT,51.440714793264100,-0.340719306890196
White ibis and Ice seal,W5 2AA,51.514115599507100,-0.304617812427536
White ibis and Philippine hawk-owl,W6 8DB,51.492854511356000,-0.218859118971712
Dorcopsis and Ice seal,KT2 6QS,51.411891298477600,-0.289851837822469
Buzzard and Goose,W2 5EA,51.518651308362100,-0.190495842216174
Hawk and Fish eagle,KT12 2NZ,51.389126916901300,-0.422224473382828
Shearwater and Quetzal,W3 6PL,51.516372789288000,-0.267089635177476
American sparrow and Pheasant,TW16 6LY,51.413538416384300,-0.424691699722772
Dorcopsis and White ibis,TW9 3DZ,51.480787469946900,-0.287736860013727
Pitohui and Asiatic leopard,SW15 6FF,51.462240032227200,-0.226414000000000
Fulmarine petrel and Night heron,W5 3AP,51.519489411859000,-0.287655097439275
Shearwater and Warbler,W4 2PH,51.486171856967700,-0.251037299681094
B and Piping shrike,KT10 9EE,51.362940319214700,-0.356114732941306
Grackle and Kangaroo,SM4 5QH,51.387995901051000,-0.204925002349299
Wader and Old World vulture,W2 4JN,51.511150325711100,-0.193329457206497
Mole and Fox,W3 8FX,51.501309000000000,-0.271658000000000
Solitaire and Thrasher,TW12 2AR,51.415811949238700,-0.369994812761119
Black cockatoo and Bunting,W10 5JG,51.522735957274900,-0.223144000000000
Old World vulture and American sparrow,W6 8NH,51.485300967337800,-0.218420000000000
Grackle and Mole,TW1 1DB,51.454765439985100,-0.335330595666198
Maya and Songlark,SW6 6SP,51.478749857882900,-0.213391000000000
Thrasher and Boto,KT13 0AX,51.365987922915500,-0.437543063627611
Viscacha and Diving bird,W13 9RP,51.506554846251000,-0.319740366855225
Thrasher and Ibex,SW17 0FU,51.433379000000000,-0.188922000000000
Stilt and Solitaire,W9 3UE,51.521785848143500,-0.196670793390841
Hawk and Greenbul,TW13 4QU,51.436120200158500,-0.424174010997759
Prion and River dolphin,SW14 8JU,51.463475434569500,-0.264991230782918
Ibex and Crow,UB1 1EJ,51.509659054412000,-0.387788000535300
Capuchin and Solitaire,W14 9UU,51.487758083662500,-0.202507685325771
Stint and Boto,TW15 1PP,51.428538015482600,-0.440186282748641
Darwin's finches and Guillemot,KT7 0DE,51.388980170693600,-0.333033571853619
Fish eagle and Prion,SW18 4BB,51.450018606292700,-0.197369928742084
Francolin and Badger,UB6 8RW,51.531076730000100,-0.349503354795792
Herring gull and Diving bird,KT2 7JS,51.426073058437500,-0.272981000000000
Linsang and Snipe,W4 2PX,51.488923019278500,-0.247388600479735
Marmoset and Treepie,SW19 3JH,51.406678074014800,-0.201116535594009
Tree warbler and Warbler,SW15 6HZ,51.463666622115400,-0.227870539947106
Ground sloth and Logrunners,TW15 1LR,51.427223692806800,-0.435354708667799
Nukupuʻu and Warbler,W8 4BY,51.505428724915700,-0.193757505866290
Magpie and Guillemot,TW1 1PR,51.461715184774100,-0.323244674002035
Old World vulture and Logrunners,SW6 6TQ,51.477044486164000,-0.215817329162399
Shearwater and Siskin,UB4 9TG,51.522684343832200,-0.391392972767135
Eagle and Armadillo,W2 7TB,51.500496000000000,-0.276962000000000
Condor and Argus,SW19 4RL,51.418823415329000,-0.225060673816684
Lemming and Marmoset,SW6 7HW,51.481522855902900,-0.205806059438304
Goose and Fox,KT1 3DE,51.408042210699500,-0.293532590078550
Argus and Diving bird,TW7 4HJ,51.474898758853100,-0.345455100438695
Darwin's finches and Asiatic leopard,W13 9PA,51.509286986053900,-0.316498373264661
Chickadee and Shearwater,KT2 6EH,51.415550849231300,-0.297236541591118
Bunting and Marsh harrier,KT1 3EH,51.408624816873500,-0.289700509741135
Condor and Warbler,SW19 3QZ,51.413930000000000,-0.207681385430728
Treepie and Jerboa,SM4 6PD,51.383467270042600,-0.198132218838234
Tattler and Fish eagle,UB6 9TE,51.536998013206800,-0.362006883072674
Nukupuʻu and Marsh harrier,UB5 6JY,51.532262000000000,-0.388129000000000
Parrotlet and Bunting,W4 1HF,51.498217134641100,-0.258171000000000
Fulmarine petrel and Badger,W7 9DX,51.504550000000000,-0.332832000000000
Elephant and Goose,UB4 9RU,51.526345943085000,-0.383018130175379
Boto and Viscacha,TW7 4BW,51.479128700366100,-0.352732911769895
Boto and Condor,UB3 2HD,51.514512622993700,-0.416671226268283
Mole and Lemming,TW6 2BW,51.475761817197700,-0.423773163170017
Badger and Hawk,TW13 5DU,51.445119591949800,-0.397041000000000
Piping shrike and Towhee,TW17 8RY,51.400847168108300,-0.431841422358236
Fish eagle and New World blackbird,SW19 6EX,51.443594206907000,-0.218158000000000
Flameback and Flameback,SW20 9JZ,51.404428270793700,-0.209817039377453
River dolphin and Marsh harrier,UB3 3BW,51.504056000000000,-0.415319000000000
Dorcopsis and Herring gull,TW12 3LX,51.427237855285100,-0.378175857316191
Fox and Rat,KT4 7NJ,51.384142536352700,-0.250402746079580
Moluccan boobook and Tattler,SW6 6DD,51.476873010289100,-0.209876641704062
Kangaroo and Ground sloth,SW19 5AB,51.429339977858600,-0.212324825872477
Puffleg and Perching duck,W11 1EA,51.517726514631600,-0.201111894525340
Partridge and Prion,SW6 5SS,51.472869182464700,-0.211502090526204
Macaw and Gull,UB1 1QH,51.515092108517000,-0.381384534759804
Vole and Macaw,KT4 8JQ,51.381365618787300,-0.237920198679236
Diving bird and Francolin,KT1 1LY,51.406567393887100,-0.307793126886027
Meadowlark and Elephant,SW20 8BB,51.408016642447200,-0.228182372003034
Mink and Herring gull,SW15 6BX,51.456475866428800,-0.225111907578797
Peafowl and Jerboa,KT8 2EG,51.401965488086000,-0.377905437065508
Grackle and Herring gull,W4 5BW,51.497067495049300,-0.265818000000000
Hawaiian honeycreeper and Fox,SW13 9WT,51.477204891446500,-0.235744000000000
Duck and Bunting,W3 8QG,51.505219191501700,-0.275423488907769
Mink and Ground sloth,UB1 3LA,51.519519318908100,-0.363455598584062
Cuscus and Peafowl,KT3 3QT,51.402129271035900,-0.261994281279803
Old World warbler and Dolphin,KT1 2AF,51.401027206449400,-0.303382771054277
Linsang and Greenbul,SW15 6RG,51.455788639264000,-0.223080254045153
Mockingbird and Viscacha,SM1 2PS,51.373494849298200,-0.201670363258273
Thrasher and Cloud rat,W5 2BY,51.513326610090300,-0.307270046579881
Wader and Grackle,W4 2DA,51.488991663124800,-0.256820708942096
River dolphin and Condor,W6 9LR,51.492736000000000,-0.237087000000000
Pratincole and Wallaby,SM4 6LL,51.387048371970500,-0.196511215771020
Capuchin and Piping shrike,TW5 0PP,51.479283563128200,-0.369605237370927
Perching duck and B,TW3 1BT,51.469955000000000,-0.366029000000000
Treepie and Wader,W6 8ZB,51.492364569747800,-0.238815133557647
Parakeet and Parakeet,SW6 1TX,51.486948062954300,-0.196736000000000
Elephant and Hawaiian honeycreeper,SW19 3RQ,51.419096961881700,-0.205231333998587
Kākāriki and B,SW15 3DB,51.453225000000000,-0.228338886349877
Skunk and Philippine hawk-owl,TW3 3FG,51.467476171385600,-0.375914652848240
Mockingbird and Gull,SW19 6HH,51.442147531733800,-0.217192044176905
Darwin's finches and Fish eagle,UB4 0XE,51.519197667940500,-0.400769269410034
Armadillo and Cuscus,TW1 2PT,51.455471000000000,-0.311628000000000
Fox and Lemming,SM1 2SF,51.363179775245600,-0.200465579505201
Vulture and River dolphin,KT8 9BU,51.407309000000000,-0.346415000000000
Black jay and Maya,KT4 8LQ,51.376189634312900,-0.233391629136418
Coati and Linsang,KT4 8TB,51.372507948894300,-0.233145419449184
Grouse and Stint,UB4 0HP,51.517872559699400,-0.401190419968341
Capuchin and Jackal,SW13 0HS,51.469971000000000,-0.240397000000000
Linsang and Shearwater,KT13 8PF,51.375313168811600,-0.455185804638666
Tahr and Tattler,KT6 6NY,51.387878706836800,-0.309503060792280
Mamo and Skunk,KT1 2QW,51.407750088281000,-0.301279125048252
Booted eagles and Minke whale,W12 0TB,51.510397492281900,-0.243221290293594
Dorcopsis and Stilt,W8 7BU,51.501312237339300,-0.197983371293640
Cuscus and Chicken,TW13 4QS,51.436167749002500,-0.423697594780806
Mamo and Duck,TW2 5NR,51.436787647815500,-0.347264088626495
Bunting and Dolphin,W7 3BJ,51.514837807711600,-0.342815000000000
Old World warbler and Old World quail,UB3 2DL,51.519818574770300,-0.414714354786620
Marmoset and Mink,UB4 8BE,51.528670481000500,-0.420980825224465
Grackle and Asiatic leopard,KT12 1ES,51.380483320319800,-0.421415216236455
Linsang and Siskin,KT12 1LT,51.373768114583600,-0.414246815908625
Dorcopsis and Civet,KT1 3NS,51.408496384803400,-0.285219115772776
Hawk and Bronzewing pigeon,UB3 2EX,51.513305219655300,-0.417822779264173
Greenbul and Siskin,TW15 1BX,51.434736714875000,-0.451944984569523
Parrotbill and Perching duck,SW18 5SL,51.450039219069500,-0.201053470604262
Ice seal and Gull,TW1 2AT,51.455097282406500,-0.316376831884549
Kite and Grosbeak,W5 3JG,51.507741771952100,-0.296049885394555
Ground sloth and Puffleg,KT3 4QN,51.405391914136700,-0.257039624751594
Triller and Condor,SW19 5PB,51.438305519848900,-0.219413554349969
Jackal and Triller,N8 1AN,51.535964000000000,-0.194669000000000
Myna and Elephant,KT10 8PG,51.369515000000000,-0.376831629015932
Triller and Guillemot,W4 4JR,51.490565865100800,-0.267780234367850
Marmoset and Mink,W12 7QW,51.512138697074400,-0.231034224922817
Wader and Vulture,TW4 7ET,51.469386248620800,-0.385435684302742
Parakeet and Capuchin,KT17 2LL,51.364205788548600,-0.239584437900534
Towhee and Kestrel,W11 4EG,51.511859884181700,-0.215005080435042
Partridge and River dolphin,SW19 8BB,51.438508026009300,-0.200873470784699
Towhee and B,W3 6HY,51.514360528165900,-0.266618337718500
Bronzewing pigeon and Petrel,SW19 6AF,51.446015170249600,-0.220207370824044
Francolin and Recurvebill,SW6 7EE,51.480674626766800,-0.206789856568713
Recurvebill and Chickadee,SW20 8HR,51.416220921342200,-0.221853772453338
Grouse and Scimitar babbler,TW11 9DG,51.420287923915600,-0.320158749254949
Pitohui and Ground sloth,TW15 2EP,51.434372756347100,-0.455712206334015
Civet and Bunting,TW16 5NT,51.412204000000000,-0.402391000000000
Diving bird and Meadowlark,KT12 2PP,51.387734010909900,-0.425635444552618
Ground sloth and Linsang,UB3 4BQ,51.504015000000000,-0.419599177560034
Macaw and Snipe,SW19 6NU,51.441369106545000,-0.208013232775486
Hawk and Parrotlet,TW3 3GF,51.467780000000000,-0.368065000000000
Meadowlark and Asiatic leopard,UB1 2AA,51.512147719779800,-0.376545821877087
Maya and Mink,TW3 2RF,51.459464010690700,-0.353484147070767
Asiatic leopard and Boto,TW3 1QB,51.472657187443600,-0.356148164655291
Parrotbill and Stilt,TW10 6DY,51.461696634379200,-0.294526354145090
Egret and Pitohui,SW19 5LP,51.444574000000000,-0.222312818867865
Hawaiian honeycreeper and Quetzal,TW2 6RQ,51.448129000000000,-0.344782000000000
Kestrel and Towhee,TW9 3PG,51.476465168963300,-0.288561124414903
Elephant and Parakeet,W12 0LW,51.508162405244100,-0.242889364237538
Masked owl and Diving bird,TW3 1BF,51.472264000000000,-0.354298000000000
Wader and Towhee,TW17 8AA,51.396946297596700,-0.443992000000000
Shearwater and Kite,KT3 4JT,51.406392749982500,-0.254801707914397
Minke whale and Hawaiian honeycreeper,W3 0DA,51.520341227884600,-0.265454360295137
Scimitar babbler and Maya,W2 5UH,51.519076077964000,-0.197642655826020
Jerboa and Vulture,W11 2BJ,51.515722608705900,-0.202963606818428
Badger and Skunk,W3 7LU,51.515506539040400,-0.258993841744700
Civet and Kākāriki,TW16 5AG,51.420657606467500,-0.407188060617887
Greenbul and Cloud rat,SW15 6HW,51.457442805268000,-0.230184372391779
Kākāriki and Ground sloth,W14 0BJ,51.500332567902300,-0.220988103785083
Vulture and Mockingbird,SM1 2LY,51.372263650227800,-0.205827733639557
Myna and Stint,KT12 9HU,51.377224000000000,-0.409796000000000
Bronzewing pigeon and Recurvebill,W5 4JT,51.501856523838100,-0.303199726732398
Dorcopsis and Thicketbird,W3 3GH,51.500496000000000,-0.276962000000000
Moluccan boobook and Prion,KT3 3EQ,51.407885310431000,-0.273609669443952
Kangaroo and Old World vulture,KT6 4EH,51.394442690598400,-0.310712929841541
Bunting and Wallaby,SW19 6BB,51.444047963495700,-0.217981439660020
Grackle and Peafowl,W3 9AN,51.502161987018900,-0.285250088688341
Eagle and Fulmarine petrel,KT10 9BS,51.363611858560200,-0.353347046308000
Grosbeak and Tree warbler,SW5 0EA,51.489380598347000,-0.189897637361866
Pratincole and Rabbit,SM1 3HQ,51.382575068789400,-0.190421382280005
Partridge and Buzzard,W6 7NJ,51.495182000000000,-0.224569268548034
Polecat and Wallaby,UB1 2RQ,51.515172652307700,-0.374852936654698
Mockingbird and Treepie,W5 5JE,51.505153209485300,-0.307313575086396
Armadillo and Diving bird,TW10 6NN,51.457491511225200,-0.294755061646877
Badger and Tree warbler,TW14 0XQ,51.459725275148100,-0.408217986024296
River dolphin and Hawk,W7 1BP,51.526407094977000,-0.337216921503821
Perching duck and Parrotbill,W12 7JG,51.506335020732000,-0.227224285440215
Pratincole and American sparrow,KT6 4NR,51.392192939152900,-0.306239344449745
Ground sloth and Asiatic leopard,TW7 4JE,51.475912035299100,-0.340162471386600
Zebra and B,W7 2JN,51.503264737989100,-0.329889742716345
Warbler and Moluccan boobook,W3 8GJ,51.500496000000000,-0.276962000000000
Rabbit and Jay,KT3 3TP,51.406103865219600,-0.261987377177480
Old World vulture and Parrotlet,W10 5NT,51.522233617736000,-0.203126000000000
Bunting and Herring gull,TW1 3DB,51.448476594161600,-0.324377280145573
Puffleg and Ibex,SW19 4NG,51.419886000000000,-0.218562000000000
Armadillo and Petrel,KT8 8EZ,51.402916000000000,-0.369857000000000
Darwin's finches and Egret,KT12 3TD,51.384112219841600,-0.403858396302856
Magpie and Civet,TW3 1RH,51.470388842035500,-0.354703487918976
Lemming and Vulture,TW13 7BU,51.436524687833500,-0.404219153565652
Bronzewing pigeon and Piping shrike,TW1 4TP,51.433508138174900,-0.331585983981319
Buzzard and Bronzewing pigeon,W12 7JY,51.507071704483500,-0.225394451222526
Bunting and Grouse,TW9 1EZ,51.463093000000000,-0.302032000000000
Jay and Asiatic leopard,KT12 2SP,51.389578019647800,-0.415669398505182
Booted eagles and Marsh harrier,KT3 4HW,51.403675746757800,-0.252906686665753
Ibex and Old World vulture,TW14 9HH,51.456299176887800,-0.420183111734724
Chicken and Marmoset,UB2 4FX,51.507671000000000,-0.350068000000000
Triller and Eagle,NW6 6TE,51.535830681854300,-0.204204849123376
Egret and Partridge,NW6 5YR,51.530672000000000,-0.197190507120752
Kangaroo and Rabbit,KT3 3PP,51.398979158975000,-0.256967125503090
Siskin and Puffleg,SW18 1EN,51.462968000000000,-0.190871000000000
Grackle and Badger,W3 0TG,51.525896466530700,-0.272018693599318
Zebra and Tattler,W4 4AH,51.492219337711700,-0.273191526932353
Solitaire and Armadillo,TW12 1JZ,51.432067779560400,-0.353735524500267
Mink and Parakeet,W9 2AT,51.524698252445600,-0.197914000000000
Snipe and Fulmarine petrel,W11 2JA,51.514898617088400,-0.204941715437020
Crow and Jay,KT13 0DS,51.365878837709200,-0.444212229004534
Tattler and Gull,TW13 7LL,51.439589270276500,-0.414025943175983
Herring gull and Fish eagle,UB4 8HZ,51.525805407539800,-0.437355049024307
Egret and Fox,KT12 2DX,51.392385952546800,-0.410527295237745
Parrotlet and Parrotbill,W3 8FS,51.501123000000000,-0.270771342912430
Mouse and Scimitar babbler,TW11 0ND,51.422620286638700,-0.336786476186989
Thrasher and Flameback,NW10 6FF,51.529003000000000,-0.250391000000000
Polecat and Francolin,SW15 5NU,51.459317447830700,-0.242419466678709
Solitaire and Macaw,UB3 5HU,51.481575000000000,-0.423299000000000
Civet and Parrotbill,W5 4NL,51.501840922267200,-0.294065533706249
Civet and New World blackbird,TW2 5QN,51.439867224357300,-0.346922715458868
Marsh harrier and Duck,UB18 7YN,51.500717740213000,-0.402684069553087
Mockingbird and Marsh harrier,NW10 5SR,51.531602742888200,-0.229544533356044
Black jay and Mink,W7 1NT,51.520491530922700,-0.332993000000000
Triller and Quetzal,TW5 9BB,51.479480363308800,-0.394295886060143
Darwin's finches and Prion,W13 9DA,51.510220752962300,-0.322529000000000
Greenbul and Black jay,KT1 9XQ,51.404537000000000,-0.292355000000000
Hawaiian honeycreeper and Parrotbill,NW10 6TU,51.530719533205200,-0.249186434843188
Chickadee and Magpie,KT3 4TA,51.400217000000000,-0.252463000000000
Piping shrike and Mamo,SW5 9QH,51.494114739684700,-0.195414852002885
Wallaby and Quetzal,W11 1JF,51.516849354277300,-0.203726391969345
Black jay and Black cockatoo,UB4 0BT,51.523431873089800,-0.408621160609351
Zebra and Lemming,W8 7AN,51.505381826986000,-0.199479912876380
Tattler and Macaw,TW4 5PY,51.449278000000000,-0.383267000000000
Flameback and Fulmarine petrel,NW26 9BR,51.534059000000000,-0.248150000000000
Mole and Kestrel,UB1 2EU,51.517460476961000,-0.369294582509861
Crow and Hawaiian honeycreeper,W4 2ED,51.492662497130100,-0.253324246932076
New World blackbird and Capuchin,SW13 0JQ,51.467810375897600,-0.252315378292049
Coati and Civet,UB3 5BW,51.484389755470300,-0.441593972274308
Vole and Hawaiian honeycreeper,KT13 0AF,51.363946862337500,-0.433518608899496
Armadillo and Treepie,W7 1QG,51.520697757539300,-0.330938543823736
Dolphin and Flameback,W14 9DR,51.490119866154300,-0.206995467127891
Francolin and Goose,KT1 3BA,51.403409415603500,-0.294653927826439
Guillemot and Maya,SW6 1JX,51.483881304491700,-0.198339331470014
Goose and Triller,SW19 9HL,51.417014004537400,-0.213582414209598
B and Coati,NW10 6BR,51.531018620629700,-0.232551614943986
Diving bird and Armadillo,SW5 0RH,51.494248577423700,-0.193594417755045
Thrasher and Thrasher,TW3 3BU,51.469974893812200,-0.376617740779910
Hawk and Boto,W2 5EB,51.518958779448700,-0.193524956535733
River dolphin and Jackal,KT2 6HT,51.416825005989300,-0.294571781679362
Asiatic leopard and Triller,TW12 3XX,51.424278198198100,-0.381344339751700
Mamo and Black cockatoo,W13 0EQ,51.519994000000000,-0.327494552744658
Eagle and Kestrel,SM3 9HX,51.380484166293800,-0.217103009702153
Macaw and Cloud rat,KT2 5JZ,51.421353337002900,-0.289369241392109
Treepie and Perching duck,UB4 9TJ,51.522323149107400,-0.391939035100291
Thrasher and Egret,TW3 9WX,51.470271000000000,-0.360964000000000
Jackal and Night heron,SW14 8DX,51.464231507398400,-0.259578315067945
Greenbul and Magpie,W11 9EQ,51.513921437702200,-0.321631194869861
Wallaby and Black jay,TW1 4DH,51.445117096920400,-0.334731708073031
Badger and Nukupuʻu,W6 9LS,51.492127895853500,-0.237426950379014
Pratincole and Badger,UB4 9JL,51.532357487325400,-0.407689984585386
Crow and Jay,KT19 0SB,51.360114114504700,-0.251591371111899
Vulture and Petrel,KT9 2QT,51.366192898668300,-0.313402000000000
Meadowlark and Jay,W6 8QE,51.484278822246100,-0.209615445167314
Nukupuʻu and Booted eagles,W10 5PY,51.523664979650200,-0.205447501926364
Prion and Mouse,SW20 0BQ,51.409364605337200,-0.237663652752526
Lemming and Viscacha,UB1 2QN,51.531889371333500,-0.372916893545026
Petrel and Dorcopsis,UB6 9SJ,51.536684591458600,-0.358240339829271
Nukupuʻu and River dolphin,NW10 7GL,51.529287000000000,-0.281642000000000
Towhee and Solitaire,SW18 4PW,51.450071874083200,-0.199080480958840
Asiatic leopard and Asiatic leopard,W10 5EH,51.524917906743900,-0.208584091810791
Rat and Logrunners,TW2 6SH,51.447259802027900,-0.338711993589286
Marsh harrier and Flameback,W3 6NA,51.506581433400400,-0.268397761895469
Herring gull and Black cockatoo,KT1 3DX,51.409657551507200,-0.289604458910075
Condor and Snipe,UB4 8RE,51.527410151471900,-0.419539572575657
Wallaby and Flameback,HA0 1DJ,51.534665637483800,-0.306666019493990
Darwin's finches and Lemming,W12 9SR,51.499518484119300,-0.242141257395360
Diving bird and Tree warbler,TW1 4BQ,51.444317175834800,-0.336660282322632
Lemming and Booted eagles,UB1 2TX,51.523933557530200,-0.366612810094334
Fulmarine petrel and Moluccan boobook,TW3 3QZ,51.465592071859000,-0.372468691488307
Mole and Tree warbler,TW2 5LL,51.439065375630200,-0.353843659993598
Grackle and Stint,W2 7YU,51.500496000000000,-0.276962000000000
Logrunners and Pitohui,TW5 0JD,51.479971591407700,-0.380972002722885
Shearwater and Guillemot,SW6 4QT,51.476184000000000,-0.201235000000000
Parrotbill and Bronzewing pigeon,W11 3DY,51.512446720603300,-0.199431000000000
Masked owl and Guillemot,SW6 3SW,51.474415112808500,-0.194435611474968
Jackal and Jay,UB4 8BY,51.532012786664900,-0.421441887852513
Marmoset and Kestrel,W12 9UA,51.500894374629000,-0.251770458180243
Prion and Thicketbird,TW14 9NE,51.447675179164200,-0.414825132103240
Minke whale and Bunting,W6 9EF,51.490078332017400,-0.227926961555734
Diving bird and Diving bird,UB3 2AP,51.516420779174600,-0.426160592993367
Diving bird and Wallaby,SW10 9AH,51.487371748008700,-0.191417572194120
Piping shrike and Thicketbird,TW14 0XJ,51.460463655938300,-0.406306561137799
Jackal and B,W11 3BP,51.511165337860500,-0.199568946806063
Skunk and Fox,KT1 1HW,51.407676198858400,-0.308141000000000
Crow and Mockingbird,UB3 3BT,51.505852694144500,-0.416639990858120
Viscacha and Condor,W3 7BN,51.507595000000000,-0.249987000000000
American sparrow and Vulture,TW17 9AQ,51.395605600575300,-0.451526865960283
Flameback and Triller,TW13 4HT,51.439427900315300,-0.418722121760761
River dolphin and Quetzal,W10 4HP,51.531090546352600,-0.210014230934571
Flameback and Jackal,TW17 8EL,51.396609000000000,-0.453879000000000
Chickadee and Stilt,W12 7GP,51.510468000000000,-0.226795000000000
Asiatic leopard and Gull,KT2 6AJ,51.417990474334200,-0.295563893229888
Linsang and Vulture,TW13 4QZ,51.437206510472900,-0.424712133943432
Argus and Skunk,TW17 8HW,51.396237610259800,-0.438165799339439
Kite and Magpie,SW20 8RF,51.411405294648200,-0.226297036901904
Tree warbler and Rat,W2 4BY,51.513494953235300,-0.188509550761173
Chipmunk and Meadowlark,KT19 0TD,51.368349374973800,-0.262339745190196
Cloud rat and Fulmarine petrel,UB2 4DP,51.498797437082800,-0.380031287422243
Goose and Tree warbler,UB1 3AX,51.509396776772700,-0.364942338809678
Pratincole and Crow,UB6 9HN,51.526419780627200,-0.361766627511397
Nukupuʻu and River dolphin,W12 7HP,51.507352613309100,-0.228510511537134
Tree warbler and Polecat,TW13 6RN,51.430112914048000,-0.393667867863155
Black cockatoo and Armadillo,W5 1PL,51.524690186047300,-0.302725897652016
Triller and Mink,SW6 4ED,51.475360444957600,-0.204463869652701
Perching duck and Partridge,W11 1LJ,51.517223268994800,-0.205830418436762
Ground sloth and Mink,SW15 3PZ,51.434212000000000,-0.259281000000000
Snipe and Meadowlark,TW3 2EH,51.460549084506200,-0.362902645539122
Coati and Greenbul,NW6 5NJ,51.536073766562500,-0.190179870352285
White ibis and Crow,SW20 8RB,51.412276592215200,-0.229800818692142
Mockingbird and Dorcopsis,KT8 0BJ,51.394267977750400,-0.351484783727084
Herring gull and Cloud rat,TW12 2JN,51.421953048358300,-0.375774012310798
Jackal and Old World quail,KT2 6JS,51.416887869940300,-0.292095836875536
Guillemot and Diving bird,TW16 5LX,51.413998577706700,-0.408167273437315
Capuchin and Petrel,SW19 9HR,51.417014004500000,-0.213582414200000
Gull and Marsh harrier,W3 6RG,51.506910000000000,-0.267429185926568
Flameback and Prion,W4 3XQ,51.488077292832600,-0.272815074160166
Crow and Kestrel,UB3 2JU,51.514375611465800,-0.413851239104175
Warbler and Kangaroo,UB3 3LP,51.505613767742100,-0.411605065565057
Kestrel and Buzzard,SW6 3DW,51.469218410729000,-0.199176156795065
Hawk and Moluccan boobook,SW19 8DH,51.437107162804900,-0.199245124223030
Chickadee and Parrotlet,TW14 9PD,51.452778620606700,-0.419844076525108
Fox and Duck,SM3 8EB,51.365356457279000,-0.230605056990724
Boto and Stilt,SW18 4FS,51.448403000000000,-0.198671000000000
Black jay and Songlark,KT5 9DX,51.388839163324900,-0.279112683661052
Triller and Flameback,TW16 7LU,51.422777000000000,-0.427599600275304
Towhee and Darwin's finches,TW3 1SS,51.468925849349100,-0.354900089753004
Wader and Magpie,W4 4AB,51.491273371825300,-0.280415295591102
Kestrel and Tree warbler,KT9 1RX,51.371649517481900,-0.302198886529154
Eagle and Old World vulture,W4 1DS,51.498467678538900,-0.254269310256108
Minke whale and Maya,UB4 9LP,51.531589198649900,-0.395519681880909
Coati and Stilt,W12 7QA,51.514036859536900,-0.231681299252960
Cuscus and Vole,TW13 4TG,51.444199776175800,-0.425176620306654
Armadillo and Treepie,W12 7FS,51.510847000000000,-0.235197000000000
Tree warbler and Scimitar babbler,SM4 4AT,51.399066300973000,-0.203197801019218
Magpie and Coati,TW5 9UJ,51.480776276131000,-0.414196237660390
Mockingbird and Tattler,TW15 2AL,51.424436506165000,-0.450279346617924
American sparrow and Jay,W2 4PR,51.514307413151300,-0.191932000000000
Old World quail and Hawaiian honeycreeper,W9 2NR,51.527257285663600,-0.192259458102063
Treepie and Duck,W4 2HD,51.491834644189100,-0.255703915086973
Rabbit and Grouse,NW10 9AA,51.536111087548400,-0.250133085669333
Meadowlark and Darwin's finches,SW18 9LA,51.448230588836900,-0.191525532439553
Civet and Meadowlark,KT4 7JD,51.379050325387400,-0.256272915934557
Fox and Chickadee,SW6 4BD,51.475592033996500,-0.196117146525264
Jay and Philippine hawk-owl,TW2 7SA,51.450980781378100,-0.336043933131093
Ibex and Ibex,UB3 5JB,51.482179713819000,-0.424920078311167
Piping shrike and Mouse,TW4 6BU,51.462005000000000,-0.397904000000000
Chicken and Mamo,TW17 8SR,51.410472707571300,-0.432791894456658
Mouse and Towhee,TW15 2HP,51.429480845892300,-0.452295235253809
Tattler and Kite,W5 5EG,51.509354636302900,-0.306379000000000
Tit-tyrant and Mockingbird,KT6 7RG,51.378417031931900,-0.292033656160077
Prion and New World blackbird,SW19 4QE,51.424170941774600,-0.217158141947264
Old World vulture and Old World warbler,KT12 3EX,51.378204710906600,-0.392712267832768
Ibex and Egret,TW13 7DP,51.438170321919800,-0.406204892735215
Guillemot and Bunting,KT2 7RH,51.419534334657200,-0.282432986917636
Cuscus and Duck,KT2 5FX,51.414107000000000,-0.303006000000000
Quetzal and Boto,TW7 5LD,51.478833722159200,-0.337565067339474
Elephant and Booted eagles,W4 5HT,51.498010108658400,-0.268290409674921
Quetzal and Jay,W14 8TH,51.494653109512500,-0.214135864744689
Polecat and River dolphin,W7 3AF,51.521776346524700,-0.344866652799267
Cuscus and Mole,KT10 8DT,51.379736018457800,-0.354033029608034
Thrasher and Mockingbird,SW10 9DZ,51.487810661391300,-0.190723220313645
Chickadee and Minke whale,KT13 8EY,51.376382000000000,-0.456342000000000
Parakeet and Triller,UB2 5EH,51.499242509354900,-0.392117552115950
Grosbeak and Old World vulture,SM1 1PU,51.370588079977000,-0.194514516968744
Francolin and Wallaby,W8 4JQ,51.504103751132700,-0.194141306461366
Chicken and Nukupuʻu,SW6 7AD,51.479326562779300,-0.203774000000000
Armadillo and Meadowlark,KT1 9SU,51.407825169819400,-0.306467004083741
Viscacha and Prion,W6 9AZ,51.492799407717900,-0.242025186163134
Linsang and Goose,KT4 8XA,51.371621766923200,-0.234012838591772
Booted eagles and American sparrow,SM1 4HE,51.367316000000000,-0.189179608299496
Greenbul and Black jay,KT2 5FG,51.413896476676800,-0.306849000000000
Night heron and Mamo,SW15 5LS,51.464146132114900,-0.243601607845981
Rat and Pratincole,KT1 2LT,51.404028093707100,-0.307556176141050
Old World warbler and Flameback,KT12 5AB,51.369515923894000,-0.427682600017313
Jackal and Grackle,W5 3RH,51.514397301025900,-0.290569945103912
Rat and Wader,W7 1EU,51.515910139600300,-0.335856000000000
Grackle and Thrasher,KT5 8EG,51.395612113891400,-0.293980787117932
Macaw and Ibex,W14 8EQ,51.501977585217200,-0.207365789593564
Guillemot and Armadillo,KT4 7PT,51.378496605805000,-0.260159337514662
Logrunners and Songlark,TW4 7EZ,51.468483146372300,-0.386460989274637
Masked owl and Maya,W3 0EA,51.520369365368100,-0.283874445764198
Civet and Thicketbird,TW7 6TH,51.471725839438400,-0.325282255694199
Grouse and Logrunners,W13 9BL,51.509137000000000,-0.320963000000000
Parrotlet and Skunk,KT2 7PE,51.417455042942300,-0.268848372858545
Mouse and White ibis,KT2 6PL,51.417040195520300,-0.290824589659545
Triller and Tahr,W2 4HZ,51.511597230373500,-0.191985926112479
Mink and Macaw,SW6 7UG,51.482119763437700,-0.201332383234138
Thrasher and Capuchin,W12 9ST,51.501298242086400,-0.244493334581786
Piping shrike and B,W5 4XP,51.494187524625000,-0.308281607636285
Condor and Warbler,W4 1AP,51.502516059720600,-0.256203834783451
Old World quail and Kite,TW12 3DL,51.425778650504900,-0.365698973317121
Pheasant and Chickadee,KT12 3HT,51.381697086449600,-0.410092858275708
Elephant and Macaw,UB1 2XD,51.524649207959100,-0.366990830187821
Partridge and Asiatic leopard,SW19 6YF,51.417012378398100,-0.213582407668003
Jay and Macaw,TW12 2QY,51.420205477198900,-0.378151515272783
Chicken and Jackal,W4 5BP,51.499349546167500,-0.267043825957688
Solitaire and Parrotbill,W5 1QG,51.527016771007400,-0.308160749925601
Minke whale and Black cockatoo,SW15 9GR,51.460497000000000,-0.218541000000000
American sparrow and Ibex,TW2 7QY,51.454082283589500,-0.339788503322537
Civet and Prion,SM1 2QP,51.369937448392500,-0.201910310763521
Marsh harrier and Ibex,KT10 8JN,51.383770828027700,-0.348082423244484
Tahr and Asiatic leopard,SW6 3HA,51.466894324716300,-0.191320338180306
Civet and Buzzard,W6 7AN,51.493817827554300,-0.223676312667242
Asiatic leopard and Towhee,KT1 1AN,51.411857130592000,-0.300983185894944
Jackal and Meadowlark,TW3 3RJ,51.466262757394600,-0.370904369552231
Fish eagle and Lemming,TW1 2JH,51.451532150131000,-0.308592225890485
Moluccan boobook and Kākāriki,TW4 5LB,51.453753586811500,-0.374732019546360
Tahr and Prion,W6 0UB,51.498559710845600,-0.236977137804968
Kākāriki and Songlark,W12 9RA,51.506213001018400,-0.238223584892472
Scimitar babbler and Marmoset,SW18 1HP,51.459751917852100,-0.197591056967973
Dolphin and Bronzewing pigeon,W9 3EL,51.530323396121700,-0.202186884784999
Skunk and Old World warbler,TW11 8PN,51.427011756485200,-0.339547097237364
Triller and Kākāriki,SW13 3BR,51.469275000000000,-0.266087000000000
Vole and Grouse,SW18 5JU,51.445196000000000,-0.197099000000000
White ibis and Kangaroo,SW15 1NB,51.470483527747100,-0.223157309165476
Towhee and Bronzewing pigeon,KT3 5DU,51.394986853656100,-0.261230006501401
Nukupuʻu and Tahr,W6 6EG,51.492364569747800,-0.238815133557647
Polecat and Thrasher,TW8 8QH,51.482587180682100,-0.300804164082694
River dolphin and Rat,SM1 4BR,51.368961974947400,-0.194032549159358
Civet and Thrasher,SW19 4DW,51.419917181269200,-0.209470814132557
Ibex and Shearwater,KT12 1EY,51.380898000000000,-0.420065000000000
Jackal and Black cockatoo,SW15 2PD,51.464787357669000,-0.214020773422126
Minke whale and Pheasant,W7 2JU,51.503163915248600,-0.331651268379318
Mamo and Black cockatoo,W5 2JA,51.520724900778900,-0.295925712539244
Cuscus and Polecat,UB6 8HB,51.533348135619600,-0.340957819372030
Mole and Songlark,KT7 0JE,51.385916021567600,-0.338893568937846
Stilt and Tree warbler,TW1 2LB,51.452378580593300,-0.309294964681652
Stint and Rat,W11 2BW,51.516257093451100,-0.203807343451173
Maya and Polecat,W10 5YR,51.519473416851500,-0.207140138022739
Magpie and Lemming,TW16 7JT,51.429729089496800,-0.421013353806851
Shearwater and Rat,W4 2SR,51.485306038848500,-0.250263857597827
Chickadee and Parakeet,SW19 5JW,51.436941274012300,-0.221955702588548
Stint and Francolin,KT5 8HJ,51.395530238033700,-0.281607188190498
Moluccan boobook and Philippine hawk-owl,NW10 3PP,51.537128581338800,-0.228652405161309
Rat and Old World vulture,KT2 7RG,51.419148359710000,-0.283094651923069
Badger and Guillemot,UB4 0ED,51.522902146122400,-0.406693650897246
Guillemot and Zebra,W5 1NB,51.527563032002000,-0.317381322986177
Eagle and Pratincole,UB3 1DD,51.504968743560900,-0.425791492738876
Kangaroo and Dorcopsis,W8 7BH,51.500423898955000,-0.196937819708602
Stilt and Macaw,TW17 9HX,51.390199913642800,-0.443788000000000
Capuchin and Polecat,TW11 9PG,51.425075157225900,-0.314747454616090
Shearwater and Bunting,KT5 8NL,51.394898457366600,-0.290672444922910
Gull and Capuchin,TW9 4AW,51.476288652656700,-0.281410869233359
Tattler and Warbler,TW5 0PD,51.479023184440800,-0.366403132315999
Cuscus and Ground sloth,W8 7DW,51.500036000000000,-0.196745099801031
Tattler and Rat,KT3 3LJ,51.401636534663600,-0.273068627804856
Pitohui and Pheasant,KT3 5RF,51.393786351093600,-0.256086422995294
Grosbeak and Peafowl,W9 2LZ,51.529171954206300,-0.193380227278550
Black cockatoo and Vole,UB1 1LE,51.510980165479700,-0.379901834249779
Condor and Night heron,TW9 1XJ,51.463622639326700,-0.292784603943349
Recurvebill and Night heron,W11 1AE,51.519311075324500,-0.205344784003897
Fulmarine petrel and Vole,NW6 9SN,51.535983966100000,-0.194754364400000
Parrotlet and Jay,TW4 7AR,51.469491436590800,-0.381976494047018
Black jay and Recurvebill,SW19 7EQ,51.425233763858100,-0.206659475810557
Philippine hawk-owl and Minke whale,SW15 3JY,51.453743000000000,-0.215042000000000
Hawaiian honeycreeper and Old World quail,NW10 7GD,51.531281000000000,-0.286492000000000
Kestrel and Grouse,SW15 2HB,51.454709251262500,-0.213593708308964
Recurvebill and Prion,W9 2DN,51.525511490917100,-0.192761075850851
Grouse and Goose,W9 4GF,51.498289000000000,-0.198295000000000
Darwin's finches and Goose,W11 3AX,51.510115581849500,-0.205590870060386
Crow and Stilt,W4 5RT,51.492496330414800,-0.276739157432799
River dolphin and Elephant,KT4 8UY,51.372243702617300,-0.238888232761669
Pratincole and Dorcopsis,UB3 3HB,51.509717071183200,-0.414474157273730
Gull and Logrunners,TW12 1ER,51.432861796206800,-0.376494926435407
Polecat and Badger,TW3 3EN,51.468484916295600,-0.376166708116783
Bronzewing pigeon and Mink,KT13 9LN,51.378479000000000,-0.433439000000000
Cloud rat and Stilt,SW6 3PJ,51.468984981221800,-0.206240350511557
Viscacha and Chicken,TW4 5QW,51.453209387267300,-0.378291951430071
Thicketbird and Thrasher,W3 0QY,51.500494168981200,-0.276984999790184
Macaw and Myna,TW8 9AH,51.491919780247700,-0.300702083097057
Grackle and Boto,UB18 9ZA,51.500717740213000,-0.402684069553087
Triller and Tree warbler,TW9 4HD,51.472083643162800,-0.285946126255434
New World blackbird and Masked owl,UB2 5QG,51.496687487615400,-0.382872117901996
Rabbit and Coati,KT13 8AH,51.371893608932400,-0.456364053929443
Chickadee and Siskin,UB1 1ES,51.508964687984800,-0.386991124997372
Mole and River dolphin,W6 0AB,51.496253606599800,-0.227759513435158
Francolin and Nukupuʻu,W6 9NP,51.490447462210800,-0.245299085656420
Cloud rat and Chickadee,KT2 6SH,51.418112000000000,-0.287755146260633
Pitohui and Siskin,TW5 9HT,51.486512198351400,-0.383160093363618
River dolphin and Kite,KT3 4LE,51.408608147251200,-0.253811490979622
Old World vulture and Mole,KT7 0JZ,51.386593778601700,-0.344847714701613
Argus and Siskin,TW16 7BF,51.420427493954700,-0.426943000000000
Solitaire and Hawk,SW6 3UH,51.467898794123600,-0.209306447036747
Hawaiian honeycreeper and Ibex,W9 3HF,51.528905228949200,-0.200599226522799
Guillemot and Armadillo,SW6 6BQ,51.481070000000000,-0.212615864743799
White ibis and Booted eagles,TW7 6DD,51.470104559866500,-0.327616521453786
New World blackbird and Egret,W4 4BU,51.490700929127400,-0.274502105767922
Goose and Ibex,TW10 7HL,51.439014216043200,-0.314176924761870
Pitohui and Towhee,KT2 7JA,51.427361223091100,-0.269826188390644
Meadowlark and Cloud rat,UB3 5NA,51.485498470126300,-0.437739440529872
Darwin's finches and Bunting,W2 5HL,51.516145789919100,-0.188966485227461
Condor and Skunk,UB6 8DP,51.531089185118200,-0.309956130209816
Capuchin and Parrotbill,TW16 5NS,51.412521094571100,-0.401359386319063
Puffleg and Tattler,SW14 8AG,51.464949910119800,-0.266187810708499
Crow and Tahr,TW4 5PS,51.449386000000000,-0.380687000000000
Fish eagle and Mamo,KT3 3JY,51.405839731329600,-0.267257000000000
Mamo and Polecat,SM1 1RD,51.372639615251800,-0.196344718826081
Old World vulture and Darwin's finches,W11 3TD,51.505290726572900,-0.207034035561676
Black cockatoo and Vulture,UB3 1AJ,51.503798000000000,-0.420861000000000
Skunk and Wallaby,W6 9UZ,51.492364569747800,-0.238815133557647
Quetzal and Herring gull,W5 3XA,51.507436972765800,-0.293640387621626
Grosbeak and Skunk,SW14 8NT,51.465895895748600,-0.263877247642241
Wader and Fulmarine petrel,TW3 4DF,51.476177933718200,-0.364848782241429
Masked owl and Coati,TW2 6DH,51.446299831115500,-0.373500050545234
Old World quail and Tattler,SW19 8HT,51.430636994455200,-0.195442701513896
Siskin and Philippine hawk-owl,TW16 6RG,51.405293000000000,-0.411949000000000
Civet and Polecat,W13 0AN,51.526923568009900,-0.331792099794890
Masked owl and Mole,SW6 1DZ,51.486097000000000,-0.195448000000000
Duck and Dorcopsis,KT9 1RY,51.370384439663800,-0.300536026860047
Kangaroo and Asiatic leopard,TW15 1TF,51.424313743340200,-0.434274639150837
Thrasher and Quetzal,KT1 2DT,51.405484000000000,-0.303664000000000
B and Greenbul,TW10 5ND,51.433092426996600,-0.305115626957436
Mamo and Hawk,TW16 7AT,51.419094176443500,-0.422573537299384
Maya and Perching duck,W3 8LJ,51.501459280741600,-0.283316967595295
River dolphin and Philippine hawk-owl,SW6 4UU,51.474347076872500,-0.199953369109016
Ground sloth and Shearwater,KT1 4HT,51.415569751990900,-0.312220834069859
Thrasher and Wallaby,KT1 3RU,51.408300754729900,-0.274341718449318
Bunting and Mink,KT13 8PU,51.375386273783700,-0.453229274580142
Mole and Ground sloth,W8 6TX,51.499815846954100,-0.194238762432990
Wader and Grackle,W5 4YN,51.502892279590000,-0.295250995805563
Shearwater and Bronzewing pigeon,KT17 2JT,51.365126869233000,-0.242235426585438
Wader and Tattler,SM4 4QU,51.389182041992700,-0.221378635488395
Marsh harrier and Parakeet,UB10 0NS,51.528599492389100,-0.444611747347956
Armadillo and Towhee,W4 5ST,51.497609416446100,-0.264300483882285
Darwin's finches and Thicketbird,W5 3JW,51.506306473276900,-0.295051529095457
Tattler and Black jay,W3 9QB,51.511794000000000,-0.281439521731745
Cloud rat and Parrotlet,SW6 3DA,51.469208684815500,-0.198543025886331
Marmoset and Hawaiian honeycreeper,KT9 1AG,51.369115101477100,-0.303542506186152
Black jay and Meadowlark,SW19 6TQ,51.447363636916100,-0.216039075204942
Solitaire and Meadowlark,W10 4RZ,51.527712632038600,-0.216129549759298
White ibis and Vulture,SW15 1EU,51.467218758570100,-0.220159905415667
Gull and Parrotlet,W6 9JR,51.492371597297400,-0.232707024701304
B and Mole,UB6 8QY,51.528338625158900,-0.352384742901214
Hawk and Meadowlark,TW2 6BE,51.444176186186600,-0.366927376718591
Shearwater and Chicken,TW9 9GA,51.463747000000000,-0.304974000000000
Pitohui and Stint,W13 9YH,51.508626823198800,-0.320629632271790
Cloud rat and Triller,SW20 9BG,51.401315526524200,-0.227478110925602
Boto and Kākāriki,KT6 5LE,51.386802068062800,-0.324072775519635
Minke whale and American sparrow,TW1 4NE,51.442979645021300,-0.335557712560751
Mamo and Parrotbill,SW15 5LE,51.464377000778600,-0.252432154747828
Philippine hawk-owl and Myna,W8 6TY,51.500168124515000,-0.193173068187818
Mamo and Cloud rat,UB10 0NE,51.528144166379100,-0.442147671194989
American sparrow and Bunting,SW6 4AX,51.476351903545100,-0.196994387948894
Jerboa and Fish eagle,KT3 4NE,51.400701958798900,-0.238672330276597
Petrel and Old World vulture,KT12 2BQ,51.390051037310100,-0.413410902413292
Jackal and Bunting,TW9 1XH,51.463081083108500,-0.292646457944208
Tattler and Pitohui,SW19 5NQ,51.437114975628500,-0.225704199294506
Stint and Gull,SW14 7JL,51.465333175743800,-0.270218757332100
Tit-tyrant and Triller,W8 9DJ,51.498288000000000,-0.198319000000000
Grosbeak and Rabbit,SW14 7EB,51.462888135870500,-0.277609939860908
Condor and Snipe,W10 6QZ,51.518836775135800,-0.224403884229864
Nukupuʻu and Cuscus,SW18 5DB,51.443640554095400,-0.200729327436825
Goose and Fox,KT4 8DE,51.387308974541000,-0.240264537988603
Night heron and Mole,W9 2HF,51.523803516218900,-0.191632230189705
Treepie and Jay,W13 9NJ,51.507723140385400,-0.312175376935708
Buzzard and Herring gull,W9 2LA,51.527195713026600,-0.193516119173047
Civet and Fish eagle,SW19 2TH,51.414836874197100,-0.191348002021272
Philippine hawk-owl and Fulmarine petrel,KT6 4EG,51.392752585355600,-0.310746432733345
Capuchin and Ibex,TW10 7HG,51.440050801967600,-0.314973301969357
Gull and Hawk,NW6 5AY,51.534449730577400,-0.193329875709340
Old World vulture and Bronzewing pigeon,SW20 9AU,51.403453802158600,-0.232111199740444
Quetzal and Mockingbird,KT4 7AP,51.371230783194900,-0.255822979480645
Jay and Capuchin,TW13 5LL,51.442777940827000,-0.384129450158990
Black cockatoo and Linsang,SW14 7ZU,51.469282898737300,-0.266095552663794
Fox and Ice seal,W11 9EF,51.513921437702200,-0.321631194869861
Kite and Tit-tyrant,SW19 3EY,51.412933000000000,-0.201978000000000
Piping shrike and Linsang,KT5 8RL,51.390180219805100,-0.297043061687199
Badger and Peafowl,W11 3AH,51.508719415214400,-0.207202057439954
Flameback and Lemming,TW9 3NP,51.474373249259000,-0.286940272391995
Treepie and Pheasant,SM3 8PQ,51.364839773811100,-0.219649941921199
Minke whale and Warbler,KT12 2PT,51.389190572769900,-0.417608700322237
Guillemot and Piping shrike,TW13 5HX,51.442784299989300,-0.390474956242801
Eagle and Minke whale,W7 1BX,51.524809541942400,-0.337433683498980
Tit-tyrant and Stilt,KT6 7UA,51.381379206200400,-0.297226028891029
Egret and Kite,W9 2HU,51.523444894188000,-0.196374610281634
Peafowl and Parakeet,SM1 3BS,51.371277070023400,-0.191958770895968
Parakeet and Scimitar babbler,SW15 1EJ,51.466021442742500,-0.214750028328925
Moluccan boobook and Wallaby,TW13 5DY,51.445244210885100,-0.398720383205465
Black jay and Fulmarine petrel,W5 2DN,51.517936000000000,-0.307570506203381
Chicken and Snipe,SW6 1DT,51.481086057988800,-0.192587962252170
Fox and Stint,SW13 0EH,51.472218136770000,-0.244587516014477
Maya and Songlark,W9 2AP,51.523988469310300,-0.194882768551954
Vole and Perching duck,KT1 4EJ,51.415298297708000,-0.315854816366350
Kestrel and Piping shrike,W7 2BX,51.497758433295700,-0.325264726621045
Tit-tyrant and Prion,KT7 0YR,51.392174091241200,-0.343927669972392
Perching duck and Petrel,SW6 2PD,51.468194100921600,-0.189886757325258
Scimitar babbler and Egret,KT12 1SL,51.377260063727200,-0.409815516443051
Logrunners and Goose,KT9 2AW,51.361356565032100,-0.293774368889317
Triller and Perching duck,UB1 2HP,51.526718117945500,-0.365749126276351
Pitohui and Francolin,SW15 3TU,51.448780284414300,-0.226432141793983
Elephant and Vulture,TW12 2SA,51.413942717949200,-0.362339028094380
Dorcopsis and Marmoset,TW8 0QJ,51.489849778126000,-0.304308116996932
Night heron and Wader,TW16 7RG,51.426673442000900,-0.424484600595646
Ice seal and Stint,W2 5SA,51.515600000000000,-0.192494422645661
Fish eagle and Zebra,UB4 8EW,51.528166569107800,-0.431680710038588
Warbler and Herring gull,TW6 3RE,51.466683340447100,-0.423380549091956
Old World vulture and Asiatic leopard,SW18 4DZ,51.446296664563600,-0.189846188378135
Marsh harrier and Philippine hawk-owl,TW13 5BZ,51.448570345070700,-0.401280797133913
Grouse and Wallaby,W13 8AN,51.521912757375500,-0.317791386196170
B and Thrasher,TW16 7QX,51.423715000000000,-0.419020000000000
Piping shrike and Herring gull,W10 4UR,51.532432079898700,-0.207178939661962
Thicketbird and Stilt,KT1 4HY,51.414311230119900,-0.311001691079772
Marsh harrier and Moluccan boobook,SW18 5JA,51.451769989696400,-0.203086750101438
Partridge and Towhee,KT9 1PN,51.370461534881100,-0.308348738232247
Quetzal and Prion,TW1 1LB,51.454522714252400,-0.322716590744011
Marmoset and Ice seal,TW4 7PL,51.472892177882200,-0.398472493763130
Recurvebill and Chicken,KT12 1DJ,51.384510884997800,-0.417338973260749
Armadillo and Linsang,KT3 4NB,51.400211624910200,-0.241350778120510
Logrunners and Prion,SW6 3LA,51.468262525301900,-0.212517296682915
Grosbeak and Vole,TW7 5DP,51.479264735663400,-0.336253308393910
Thicketbird and Buzzard,SW15 5BL,51.452304231291100,-0.237090076150698
Coati and Puffleg,TW7 7QS,51.457992211339300,-0.332694209393231
Parrotbill and Grouse,TW12 9DL,51.414573000000000,-0.370046000000000
Zebra and Hawk,TW9 1PQ,51.461096771331400,-0.310858601203528
Moluccan boobook and Marmoset,SW15 4AG,51.446887926531300,-0.237500156523386
Pheasant and White ibis,SM3 9TU,51.373234135401800,-0.215200752590178
Ground sloth and Rat,KT3 4FB,51.400840000000000,-0.238255000000000
Mole and Boto,SM1 4DD,51.366963031638200,-0.189787042891442
Flameback and Pitohui,TW14 8EW,51.450039519378400,-0.437553991219230
Ibex and Flameback,TW11 8JJ,51.427363376139600,-0.332011181615466
Black cockatoo and Grouse,UB4 0SW,51.521997098972200,-0.416224286238308
Treepie and Stilt,TW3 3LR,51.465797368880100,-0.374952012185705
Bunting and Capuchin,KT10 8LP,51.362576113982500,-0.384885049864584
Tit-tyrant and Moluccan boobook,TW7 5ED,51.477885111815200,-0.334085823736535
Gull and Pratincole,TW7 6JT,51.471691900801600,-0.339970067492771
Pitohui and Civet,NW10 6JR,51.525732119802200,-0.265148600743271
Partridge and Capuchin,SW6 5UB,51.480226289795800,-0.197489665998831
Herring gull and Kite,W4 1AF,51.503716718812800,-0.258333734124691
Tattler and Thrasher,W10 5QA,51.522053486849400,-0.205914463753976
Elephant and Coati,KT8 2HJ,51.394915403521600,-0.381805896530255
Philippine hawk-owl and Cloud rat,SW6 6AS,51.481869000000000,-0.213656000000000
Flameback and Mouse,KT12 3RD,51.386957410671000,-0.383782501130763
Mockingbird and Tit-tyrant,TW7 7DT,51.462982198013700,-0.331375087535236
Maya and Pheasant,KT6 6PY,51.386087737820400,-0.308778612380615
Pratincole and Meadowlark,TW16 6AT,51.395504790929400,-0.423730010665903
Parrotbill and Parrotbill,TW13 6UP,51.429070462847400,-0.387820920390147
Piping shrike and Chipmunk,KT19 0HH,51.364266053597100,-0.262293188225104
Hawk and Asiatic leopard,TW17 7BF,51.394584508153800,-0.448959697410587
Condor and Triller,W3 0AH,51.523299694025700,-0.270934963543191
Cloud rat and Diving bird,UB3 2HZ,51.512345909745900,-0.413374103772446
Lemming and Herring gull,KT5 9JL,51.383633472011000,-0.282857592197808
Lemming and Pitohui,TW5 9WB,51.486237407535100,-0.405782650462316
Pheasant and Gull,SW18 4AZ,51.451681712791000,-0.196167412688580
Asiatic leopard and Zebra,SW15 6JF,51.463625000000000,-0.229852583474361
Puffleg and Kākāriki,W11 3DS,51.511751625586300,-0.199099077104269
Shearwater and Cloud rat,TW3 2LQ,51.459161839586700,-0.364017480014039
Rabbit and Duck,TW9 2TE,51.466710187144700,-0.300429402859941
Minke whale and Bunting,KT7 0QN,51.394773233753600,-0.333168003039469
Logrunners and Coati,W7 3PD,51.505346338812400,-0.333358303919526
Old World vulture and Pratincole,KT19 9NJ,51.364762374733600,-0.281308183834791
Quetzal and Thicketbird,W5 4EG,51.496803878595300,-0.312621961182688
Stint and Tahr,KT7 0JH,51.384912853481100,-0.342350264376247
Wader and Bunting,TW2 7NL,51.451814964456300,-0.352449635861306
Stint and Solitaire,TW11 0DG,51.420942521838700,-0.328836251945850
Prion and Armadillo,W4 5AX,51.500882714344200,-0.267345868446563
Chipmunk and New World blackbird,UB1 3BL,51.509174768927500,-0.375498666609059
Songlark and Buzzard,NW6 5FS,51.533820000000000,-0.203159000000000
Stilt and Capuchin,W3 7JU,51.508971000000000,-0.250553000000000
Kestrel and Pratincole,TW13 5BW,51.447175662427200,-0.401876354876570
Vole and Guillemot,W4 4AU,51.491811258551400,-0.279689210525920
Condor and Songlark,SW5 9QQ,51.493642983973500,-0.195145367001579
Shearwater and Masked owl,W11 4UJ,51.505071125109000,-0.215630614930976
Nukupuʻu and Snipe,W14 9UD,51.488016616668900,-0.203534603205478
Ibex and Philippine hawk-owl,SW19 4EG,51.419863073632100,-0.211227593729042
Wader and Hawaiian honeycreeper,UB3 2QL,51.519359637024800,-0.438152198708950
Armadillo and Herring gull,TW11 9EF,51.423236859584800,-0.328925164487397
Guillemot and Goose,W6 8LT,51.486304507114700,-0.216262491740936
Capuchin and Crow,TW12 2PX,51.417613725581600,-0.381263362417053
Guillemot and Parakeet,TW17 8HP,51.395731213272400,-0.438628655922736
Minke whale and Triller,W10 5DL,51.523951313835200,-0.220702034541371
Night heron and Flameback,W5 5AS,51.511855080254400,-0.305624055691386
Minke whale and Elephant,TW13 4AQ,51.444936394702900,-0.407811279794681
Meadowlark and Fish eagle,SW14 7HT,51.468207819641400,-0.273680651656517
Skunk and B,KT12 4QT,51.375151579775600,-0.393681283425773
Warbler and Parrotlet,UB3 3DQ,51.506178548212700,-0.417464437693342
Masked owl and Pratincole,W14 8PE,51.496732619882300,-0.212513072105160
Philippine hawk-owl and Asiatic leopard,KT7 0UL,51.386006641029600,-0.326933055803548
Prion and Ice seal,KT12 3AX,51.383519179257500,-0.395989464621103
Recurvebill and Parrotbill,SW15 6AQ,51.459069029639400,-0.218216965279577
Dolphin and Condor,SW17 0BA,51.433197621732600,-0.189329000000000
Prion and Marmoset,W7 3HS,51.510616211621400,-0.336552556804723
Mockingbird and Tahr,W6 8ED,51.484720302453900,-0.218527953905691
Chipmunk and Stilt,KT4 7LW,51.381432370619400,-0.258625351224505
Viscacha and Kangaroo,W5 4XS,51.495970438541500,-0.307826631600053
Black jay and Old World quail,W8 6UY,51.498518469362400,-0.195831619515857
Partridge and Tree warbler,KT2 6EU,51.417890138471800,-0.294230123698245
Booted eagles and Triller,TW16 6AH,51.402051918441800,-0.414447708036881
Grackle and Nukupuʻu,UB3 4PN,51.498595426569200,-0.413464000000000
Hawk and Partridge,UB8 3JH,51.532147524719800,-0.454525401838278
Night heron and Minke whale,KT5 9BN,51.383914692394200,-0.281797976456145
Scimitar babbler and Piping shrike,W13 8JS,51.516834456543400,-0.319837742923159
Treepie and Piping shrike,W12 7GA,51.507200985951700,-0.223242341604990
Wader and Kestrel,KT8 9BT,51.403036249553800,-0.344512988743647
Tattler and Recurvebill,W2 4RN,51.510431381957700,-0.188545000000000
Moluccan boobook and Ground sloth,KT13 0GN,51.366199000000000,-0.443937000000000
Treepie and Siskin,TW14 0AN,51.458848320340400,-0.410522812907676
Mockingbird and Wallaby,TW3 4LN,51.474705000867400,-0.379228933933183
Argus and Mamo,UB10 0NL,51.527389925174700,-0.441553525001528
Marmoset and Dolphin,UB6 9NS,51.534274180921800,-0.357562891464678
Parakeet and Civet,W4 3UR,51.476274528303000,-0.271273705503264
Herring gull and Grouse,W12 0UE,51.516314649679000,-0.232457857038172
Tahr and Parrotlet,TW3 2DB,51.464686000000000,-0.362852290181719
Mamo and Flameback,TW8 8FP,51.484235000000000,-0.314519000000000
Meadowlark and Kite,W14 9SL,51.486414278519700,-0.210482429069313
Ground sloth and Peafowl,NW10 5YN,51.533243496428700,-0.235190478954588
Grackle and Solitaire,W2 5AP,51.515781692149500,-0.195682852338982
Pheasant and Tit-tyrant,W11 1NY,51.514897169483400,-0.209553752371297
Jackal and Wader,W12 7FP,51.513380000000000,-0.227849000000000
Ice seal and Peafowl,SW19 1JW,51.415688802902600,-0.194693964194394
Fox and Triller,UB1 2ST,51.519072717565600,-0.370130637117788
Parakeet and Vole,KT3 5QR,51.389571898938200,-0.266595153057774
Tit-tyrant and Scimitar babbler,W14 0NJ,51.500040324016100,-0.213593910508007
Guillemot and Prion,W5 2LW,51.518468141444400,-0.293473181430072
Chickadee and Chipmunk,SW19 2XJ,51.415303538644900,-0.191286440235760
Pitohui and Viscacha,TW4 5LL,51.452947266530000,-0.374947757755426
Snipe and Fish eagle,KT1 2TL,51.401296682005600,-0.297162142628442
Buzzard and Night heron,KT19 0QT,51.360962997718900,-0.251228676004497
Parakeet and Polecat,W2 4JL,51.510652936079900,-0.193147378553482
Scimitar babbler and Prion,SW15 6BH,51.456845916898500,-0.218087622352556
Petrel and Ground sloth,KT12 2QE,51.390011270067300,-0.419118278512628
Recurvebill and Jerboa,KT3 3QE,51.401786223401900,-0.257665509311368
Philippine hawk-owl and Kangaroo,W9 3PS,51.524910953082900,-0.199906169687326
Macaw and Prion,W14 0DU,51.501510001549400,-0.217988574112464
Chicken and Wallaby,TW8 8QJ,51.481741762133400,-0.304522449867947
Warbler and Mamo,SW18 1RW,51.456228478440400,-0.202969247393020
Herring gull and Minke whale,TW4 6HT,51.468386660882000,-0.401740095291629
Myna and Dolphin,SW6 1HJ,51.479920397808300,-0.190473830232202
Vulture and Wader,SW15 3AF,51.453683943671500,-0.233165185065433
Black cockatoo and Linsang,W12 9SA,51.502412897697800,-0.246871117113851
Parrotbill and Bunting,KT8 9DL,51.402756561662600,-0.346995915222989
Kangaroo and Perching duck,TW4 6NF,51.473081000000000,-0.407638000000000
Armadillo and Ibex,W14 9JP,51.489166454438000,-0.208746984043200
Marmoset and Pratincole,UB3 2UA,51.524054732266100,-0.435541031745648
Old World warbler and Quetzal,UB3 2SA,51.518651934056800,-0.424901801979514
Crow and Dolphin,SW5 0TE,51.493123751260400,-0.190628113475740
Minke whale and Treepie,KT3 5JU,51.391818086726100,-0.256764954592211
Magpie and Petrel,KT10 8BG,51.380099228890700,-0.362627500080508
Booted eagles and Wader,SW15 2AW,51.458040634540300,-0.214456866104906
Thicketbird and Wader,SW20 9NP,51.407673499903600,-0.216232596198579
Egret and Partridge,W7 2AX,51.498324354924100,-0.326482986211346
Triller and Booted eagles,W12 8LW,51.502792000000000,-0.217031000000000
Diving bird and Tahr,TW10 7AX,51.443732000000000,-0.300785369184771
Vulture and Prion,W5 5TL,51.511660000000000,-0.312578000000000
Mink and Thicketbird,TW11 9RL,51.420152685297700,-0.308255066322826
Parrotbill and Pheasant,W3 9DJ,51.507232866807000,-0.271716164416145
Buzzard and Booted eagles,TW3 1AE,51.466407638245300,-0.361296491812693
Hawaiian honeycreeper and Francolin,TW7 4EY,51.473633922286700,-0.345792000000000
Puffleg and Flameback,TW9 3BY,51.480989959131300,-0.283135164450228
Chickadee and Tattler,SW6 2PX,51.479049437557100,-0.193346000000000
Pratincole and American sparrow,KT12 9EZ,51.377260063727200,-0.409815516443051
Fish eagle and Piping shrike,TW8 8DZ,51.487523677225200,-0.311365767022562
Shearwater and Skunk,SW6 3BB,51.471050857808500,-0.194366854720182
Cloud rat and Fish eagle,TW3 1UQ,51.467115867238500,-0.361141546497095
Moluccan boobook and Herring gull,SW13 0HF,51.472396865724800,-0.251132182942895
Cloud rat and Moluccan boobook,KT2 7SG,51.416719531439400,-0.284264257980151
Tahr and Recurvebill,W3 0UE,51.506332000000000,-0.256937000000000
Mouse and Mouse,SW18 1UJ,51.457380000000000,-0.192953000000000
Tit-tyrant and Grouse,W3 9NG,51.509895222193100,-0.273589690167558
Argus and Viscacha,SW15 4EQ,51.451521818868400,-0.247281247893535
Towhee and Marmoset,W13 8DJ,51.528059823287700,-0.318790232902293
Myna and Mamo,SM1 1NL,51.365451000000000,-0.193682000000000
Minke whale and Magpie,UB8 3DB,51.521294831431700,-0.445062408525994
Dolphin and Tahr,TW2 5SE,51.438437626749900,-0.340571615097234
Polecat and Grouse,UB4 8NL,51.533566644503300,-0.417971077817295
Grackle and Linsang,KT12 2TR,51.385535475505900,-0.417964712703492
River dolphin and Buzzard,KT13 8LW,51.378710404782500,-0.456407781995928
Buzzard and Black jay,W14 0DS,51.499989585030900,-0.219719173333437
Herring gull and Meadowlark,TW2 5PG,51.435842171160700,-0.352923640964602
Grackle and Mockingbird,TW8 8FR,51.484109000000000,-0.314523000000000
Masked owl and Flameback,TW1 3HD,51.449999290724300,-0.328365626186697
Zebra and Meadowlark,SW18 1SA,51.462384000000000,-0.195491000000000
Booted eagles and Kākāriki,KT2 6JR,51.416390245788600,-0.293739466802532
Badger and Treepie,W7 3QX,51.519469542852400,-0.341981067121596
Coati and New World blackbird,SM1 1NU,51.366347585096400,-0.194192865792553
Warbler and Vulture,W13 9ED,51.506594981976500,-0.323802403389979
Elephant and Black cockatoo,TW12 3AJ,51.423097731107200,-0.363380000000000
Warbler and Partridge,SW6 6PG,51.478013646338900,-0.223383122730753
Towhee and Prion,TW12 3AB,51.422583611115700,-0.360994605354237
River dolphin and Vulture,KT12 2ND,51.385251065802600,-0.411564916626045
Prion and Cloud rat,W3 6FS,51.500494168981200,-0.276984999790184
Grosbeak and Diving bird,W7 3HY,51.510368638711300,-0.337483864174952
Mockingbird and Fulmarine petrel,W3 8PU,51.506753425166800,-0.270912949295358
Vole and Fulmarine petrel,KT6 5BF,51.379873064137600,-0.307826000000000
Argus and Badger,UB3 1QD,51.503904739371900,-0.441058039555922
Hawk and Recurvebill,TW5 0QT,51.482730539341500,-0.371109741764184
Quetzal and Goose,TW1 3SH,51.445766549894300,-0.329815334256338
Jackal and Asiatic leopard,SM4 9SQ,51.401403756517900,-0.196133485806587
Cuscus and Civet,TW2 5HH,51.440153322704500,-0.360250653715727
Kangaroo and Rat,SW19 9LD,51.416938000000000,-0.213374000000000
Mockingbird and Rat,UB3 2GB,51.514090894548000,-0.421931835956200
Macaw and Capuchin,KT2 6AZ,51.416623028371800,-0.287503676037955
Civet and Puffleg,W5 5NA,51.508821683138100,-0.301687279730181
Triller and Bronzewing pigeon,KT3 6EZ,51.395202484516200,-0.241930996365282
Cuscus and Kite,SW15 3HL,51.452840474944400,-0.218430693647450
Ground sloth and Cuscus,W12 7PJ,51.509698882821600,-0.232036605117526
Fulmarine petrel and Tree warbler,TW1 4QG,51.439520000000000,-0.331813000000000
Solitaire and Guillemot,KT2 7NT,51.420341000000000,-0.275398000000000
Mole and Meadowlark,TW3 1RS,51.470824795093300,-0.353089595371335
Duck and Pitohui,UB2 5JQ,51.496280638702000,-0.392524303169301
Bronzewing pigeon and Crow,TW4 5HF,51.463671497596500,-0.378583337742443
Mouse and Zebra,TW14 8AA,51.452213499281200,-0.427304417100473
Flameback and Skunk,KT5 9AE,51.390213509871800,-0.283301178961317
Recurvebill and Grosbeak,W4 3PR,51.485528531182900,-0.279277528421930
Herring gull and Quetzal,KT2 7EZ,51.413949312666200,-0.271986335145241
Ground sloth and Fish eagle,UB5 6PH,51.536274613007500,-0.405448144768610
Boto and Civet,W12 8LA,51.505925032700100,-0.229848329276332
Perching duck and Guillemot,SW15 6DB,51.456530553648900,-0.223972659928581
Magpie and Gull,NW10 7HJ,51.531165776625600,-0.290417693461628
Partridge and Maya,W4 3UF,51.477106382519700,-0.272192682580820
Marmoset and Minke whale,W4 1DT,51.499534576440800,-0.253450539232704
White ibis and Kite,KT13 0JG,51.363495000000000,-0.435301000000000
Tattler and Guillemot,KT8 9YE,51.402924202347200,-0.369877955543591
Ibex and Badger,TW4 5JD,51.457829661940300,-0.376213790024742
Maya and Cloud rat,KT3 6QF,51.398191748702400,-0.242779557848149
Warbler and American sparrow,SW5 0PB,51.492116073664500,-0.189429157147222
Piping shrike and Crow,TW3 2WN,51.470269992859400,-0.360985338420831
Hawaiian honeycreeper and Grosbeak,W8 6QD,51.496568224997400,-0.192984072339719
Fox and Argus,SW19 7QR,51.424283239918900,-0.210954318015723
Wader and Zebra,KT3 3BN,51.403903363703700,-0.259137809524816
Chipmunk and Minke whale,KT3 5BJ,51.397182846571300,-0.260140470161678
Parrotlet and Pheasant,W8 5JL,51.495117529514800,-0.190462728410797
Francolin and Argus,KT6 7TG,51.378359579024600,-0.293645160855414
Mouse and New World blackbird,SW13 0LS,51.471002008631700,-0.246246829359641
Parrotlet and Capuchin,SW18 5PJ,51.448427824073500,-0.209751697687152
Wallaby and Wallaby,KT12 2JR,51.389907000000000,-0.416635000000000
Marmoset and Grackle,SW18 5JG,51.449503396007300,-0.200124669935424
Bronzewing pigeon and Treepie,TW7 4NF,51.481066692328800,-0.348587457802715
Ground sloth and Quetzal,KT12 4RE,51.369510445965000,-0.394783772108467
Tit-tyrant and Old World quail,SW19 2XG,51.415378431219900,-0.189730322491372
Goose and Recurvebill,KT5 9NH,51.383963158447400,-0.271032188761985
Fox and Moluccan boobook,SW14 7JF,51.464906834656600,-0.266923668415208
Egret and Mockingbird,UB1 1BA,51.507170146160200,-0.379446172863966
Chipmunk and Diving bird,TW5 0NF,51.482079943142800,-0.377498000000000
Mole and Night heron,W4 4NF,51.490907964751400,-0.265981077456466
Elephant and Maya,UB1 1HT,51.510802422461700,-0.382660611916581
New World blackbird and Snipe,TW7 6JQ,51.469785155442400,-0.335503905264782
Wallaby and Songlark,TW12 3YA,51.426266676201800,-0.379476052302895
Shearwater and Polecat,SW20 8SL,51.414699376376000,-0.213456861591927
Kite and Tit-tyrant,UB6 9TR,51.533708206997200,-0.369204263742953
Mink and Logrunners,W3 9EZ,51.512405762889200,-0.271260994783634
Warbler and Booted eagles,KT10 1TJ,51.369929428879900,-0.361898500021611
Jay and Diving bird,SW18 5LE,51.440689617074600,-0.196542969026766
Perching duck and American sparrow,TW14 9SR,51.456497219728300,-0.428898837271797
Kangaroo and Minke whale,W14 8EA,51.505029001327300,-0.211684109341224
Bunting and Ibex,KT19 9JN,51.362808775019200,-0.275649880761645
Marmoset and Guillemot,W14 4DH,51.496734234314500,-0.212513078618519
Hawaiian honeycreeper and Mockingbird,SW13 0AY,51.469611870124200,-0.251310666362325
Rat and Kestrel,W5 4JE,51.501320707548800,-0.305323193047451
Hawk and Flameback,TW12 2BB,51.413566000000000,-0.367547617515843
Triller and Pitohui,W2 5AH,51.515455000000000,-0.194255000000000
Argus and Dorcopsis,TW13 4RZ,51.435946898548300,-0.436078185095272
Logrunners and Grackle,TW13 5AL,51.446567338031900,-0.406732824851355
Shearwater and Flameback,KT9 1HX,51.364259761633600,-0.297386992963479
Dorcopsis and Tahr,KT2 6LG,51.413935913049000,-0.290695895439324
Tattler and Jay,UB3 4QT,51.501163000000000,-0.410852000000000
American sparrow and Scimitar babbler,SW6 7ND,51.482593784875900,-0.208212410221571
Masked owl and Grosbeak,TW13 5ER,51.446389124287500,-0.397615436449349
Ibex and Kākāriki,SM3 9NT,51.383765403377900,-0.202906116359165
Marmoset and Maya,W7 2BH,51.501744476233800,-0.327957003803764
Lemming and Condor,TW7 6HQ,51.466995939318300,-0.341738569102668
Grouse and Fox,KT10 1SL,51.369929428879900,-0.361898500021611
Minke whale and Piping shrike,TW17 0SN,51.410525729903800,-0.442165320072760
Dorcopsis and American sparrow,W8 5SF,51.500882202780600,-0.192827849652930
Bunting and Macaw,UB2 4EF,51.498714033017800,-0.381391000000000
Moluccan boobook and Quetzal,SW20 9ES,51.408029101715700,-0.211243700343196
Prion and Meadowlark,TW3 4AE,51.474844061313100,-0.354989589127023
Triller and Kangaroo,TW16 9BG,51.420055000000000,-0.421059000000000
Booted eagles and Cuscus,KT10 9DB,51.364159019945200,-0.352609182654379
Diving bird and Petrel,NW10 5TJ,51.533359422099000,-0.221431000101359
Chicken and Ground sloth,SW14 8FF,51.467990000000000,-0.266136000000000
Mamo and Night heron,TW1 4TG,51.432470490673300,-0.336400020546001
Eagle and Stilt,KT2 6RB,51.411890000000000,-0.290956178042278
Towhee and Pheasant,UB18 9HG,51.500717740213000,-0.402684069553087
Crow and Marsh harrier,KT3 5LH,51.386338742661400,-0.255967146116835
Kākāriki and Linsang,TW1 4QJ,51.443208000000000,-0.330689679730126
Old World vulture and Masked owl,W12 0SZ,51.510689683722500,-0.239926000000000
Quetzal and Shearwater,TW17 9JR,51.388928176469900,-0.453865016381784
Elephant and Jay,UB5 6JP,51.532940731971700,-0.395717267817906
Recurvebill and Chicken,SW14 8SQ,51.469664129030000,-0.260105000000000
Old World quail and B,W11 1EF,51.516612371466400,-0.205868836725706
Cloud rat and Chickadee,W5 2AW,51.516033921359600,-0.311680836460252
Fulmarine petrel and Pitohui,TW5 9AF,51.478712649404700,-0.387496906556366
Mink and Towhee,W3 8SZ,51.503075000000000,-0.273767000000000
Perching duck and Cloud rat,W3 7AN,51.514608885974500,-0.258494813255417
Tit-tyrant and Chipmunk,TW9 2SP,51.465207760565900,-0.301622554845458
Magpie and Crow,KT6 4NQ,51.391924492965200,-0.307056000000000
B and Black jay,SW13 8AB,51.481613778497100,-0.229536851829175
Masked owl and Flameback,W13 8JB,51.518768619032100,-0.311752676983613
Fish eagle and Moluccan boobook,W7 1JA,51.525574453296800,-0.340649330598940
Thicketbird and Argus,SW5 0ER,51.492269865847500,-0.190071303659740
Buzzard and Eagle,KT17 2JR,51.363226326306000,-0.243227530654721
Treepie and Thrasher,TW10 7EG,51.440690165977300,-0.308791333780797
Fox and Recurvebill,W6 0SN,51.498278752937100,-0.242822868618098
Mouse and Coati,KT10 1TA,51.369929428879900,-0.361898500021611
Old World warbler and Triller,KT10 0QD,51.373036449507400,-0.341902805662918
Minke whale and Hawk,KT9 1EL,51.366935017001400,-0.306381293236614
Warbler and Bronzewing pigeon,W14 9PZ,51.487156063900000,-0.203712463186338
Darwin's finches and Mamo,W14 9RE,51.486270853465900,-0.208745232785655
B and Polecat,TW12 2UJ,51.421203645468700,-0.363273282835496
Jackal and Viscacha,SM3 8LX,51.367690799696900,-0.221450064069147
Civet and Perching duck,SW6 3PP,51.467903362436100,-0.204900597542381
Shearwater and Towhee,W8 4LD,51.502724529651700,-0.191587869391277
Badger and Macaw,UB8 3ED,51.524466120741500,-0.442129038472621
Flameback and Petrel,NW10 3HT,51.535906576354800,-0.219212112760504
Tahr and Fox,W13 0HL,51.520303791584800,-0.326008965682488
Petrel and Dorcopsis,TW9 2DX,51.468188986957200,-0.289576288928886
Badger and Puffleg,W7 3BA,51.509624905706200,-0.335133195223355
Moluccan boobook and Chickadee,UB3 3PJ,51.512061660235300,-0.405673984344189
Scimitar babbler and Perching duck,TW5 9AN,51.474991569121300,-0.392207172723371
Quetzal and Mockingbird,W5 1AY,51.531291000000000,-0.295710000000000
Rabbit and Prion,W13 0EL,51.521952377824300,-0.328110685211745
Grouse and Booted eagles,TW2 6PB,51.445417632646900,-0.346434491444032
Kite and Eagle,UB4 0RP,51.521582396475100,-0.417478293501213
Chicken and Magpie,TW3 3AJ,51.470279146042600,-0.373914500488771
Egret and Civet,W8 6TJ,51.498496322170700,-0.193224775872254
Magpie and Armadillo,W8 6AP,51.497327405466300,-0.196152382483116
Pheasant and Mouse,TW10 6LN,51.460166681382200,-0.296915378781269
Puffleg and Pitohui,W14 0HN,51.498682779798000,-0.218343771486868
River dolphin and Rat,W7 3EX,51.517980546729900,-0.339066021182032
Meadowlark and Tree warbler,W11 2NS,51.512433706029800,-0.207229181759677
Masked owl and Goose,KT1 2NN,51.406912725512700,-0.307420922440139
Chipmunk and Chicken,SW19 5UA,51.424589878066000,-0.215732208349768
Wader and Grouse,TW7 7ND,51.458304923366100,-0.347796902845611
Herring gull and Francolin,W2 5HB,51.521569213377600,-0.193695535798322
Meadowlark and Boto,TW11 9DR,51.418520515984200,-0.317936821244406
Rabbit and Wallaby,UB6 9BH,51.527584021303600,-0.351157772693714
Songlark and Marsh harrier,TW10 6UB,51.457392220483800,-0.304028594044225
Tahr and Lemming,SW6 6AZ,51.479542233725100,-0.211543489761468
Tattler and Thicketbird,NW26 9NG,51.534061000000000,-0.248126000000000
Wallaby and Songlark,TW16 6AP,51.399802000000000,-0.416179000000000
Magpie and Treepie,W14 8XP,51.495196000000000,-0.207214000000000
Shearwater and Warbler,NW6 5HA,51.536367474378800,-0.191148729250926
Herring gull and Mouse,TW14 9QH,51.446970832342200,-0.423944430826464
Fox and Egret,W2 4DJ,51.514175110036600,-0.189462600738523
Piping shrike and Armadillo,W10 5NS,51.521799000000000,-0.209759000000000
Puffleg and Vulture,KT6 5EJ,51.380139156714600,-0.310334268973077
Skunk and Ibex,W13 8EA,51.522261000000000,-0.316923158262059
Snipe and Marsh harrier,W2 5BL,51.515408350990900,-0.195380527576398
Hawk and Jackal,W13 8LH,51.513976614746000,-0.319957304721607
Coati and Logrunners,KT4 8UQ,51.370652851466700,-0.238345857528340
Old World quail and Bunting,W8 6SU,51.500370380079300,-0.194043949556642
Thrasher and Lemming,NW10 4JJ,51.536948258972400,-0.245977049028398
Grouse and Peafowl,KT4 7SA,51.382742609941100,-0.262685661674160
Pheasant and Treepie,SW6 3EJ,51.465023966636000,-0.195410981187823
Kangaroo and Mamo,W11 1BP,51.518618954056700,-0.200082191399796
Capuchin and Wallaby,W6 8HW,51.487842634961600,-0.214517210876244
Night heron and Buzzard,KT12 1LR,51.381394147595400,-0.414946079546088
Pratincole and Chipmunk,W3 0JD,51.519376044485100,-0.267076542123355
American sparrow and Night heron,W6 8RA,51.488393315273900,-0.220574210103360
Argus and Boto,KT13 9AL,51.373683634147000,-0.451634376166742
Badger and Nukupuʻu,W11 1RH,51.515816814614000,-0.213250585920166
Partridge and Recurvebill,W11 3BN,51.511697636317300,-0.200268532891300
Dolphin and Puffleg,KT19 9LS,51.364284622829500,-0.276944756960835
Minke whale and Maya,UB1 1JB,51.510405259983500,-0.383856355369776
Kite and Vulture,SW5 9JU,51.487687250822400,-0.195553403945469
Vole and Logrunners,KT3 6BB,51.387934193943900,-0.246578792624045
Herring gull and Mole,TW16 7AZ,51.419167000000000,-0.421186261127298
Kite and Pheasant,TW1 4QA,51.436968637324100,-0.337804867456397
Kangaroo and Hawaiian honeycreeper,UB3 2QQ,51.522173387038900,-0.433371275742204
Duck and Fulmarine petrel,W7 1AG,51.522703000000000,-0.337813000000000
Elephant and Chipmunk,W3 6SQ,51.510642169645700,-0.262666747407127
Mouse and Crow,NW10 6BA,51.531006851404300,-0.233561294512251
Booted eagles and Hawk,W10 6HP,51.513607000000000,-0.218612000000000
Fish eagle and Pitohui,KT12 1AW,51.386764653325400,-0.424432738440140
Black jay and Night heron,TW12 1HN,51.428352836264500,-0.360503000000000
Jay and Boto,KT5 9JH,51.384011223664400,-0.283475783433857
Maya and Vulture,SW18 2LB,51.453507000000000,-0.190345842996045
Diving bird and Moluccan boobook,SW19 4ED,51.419973094691200,-0.210187755900813
Towhee and Stilt,TW8 9LN,51.493838015847100,-0.320251200575263
Mouse and Marsh harrier,TW3 4AF,51.475498431314200,-0.356766019656271
Grackle and Darwin's finches,TW14 9XL,51.447243337713200,-0.421474229061477
Minke whale and Skunk,W3 6YJ,51.517100281797900,-0.259134855000711
New World blackbird and Tree warbler,KT1 3EU,51.406705062427800,-0.290634829043814
Black cockatoo and Cloud rat,SW15 5LR,51.465055000000000,-0.244157000000000
Skunk and Chipmunk,SW13 0DR,51.473616502811300,-0.242489130599489
Bronzewing pigeon and Duck,W5 9HA,51.509851349249500,-0.307600601420207
B and Black cockatoo,TW14 9EB,51.456134445759100,-0.415971484568825
Zebra and Warbler,TW3 3PW,51.463781502248800,-0.370949538841488
Duck and Thicketbird,W3 8PL,51.501063969197900,-0.278433121012819
Warbler and Maya,TW3 2NU,51.465259505994300,-0.348683065559635
Grouse and Eagle,TW7 4RA,51.484110702621800,-0.348275863881229
Chipmunk and Songlark,W7 3RB,51.520710858948900,-0.342008057794611
Kite and Grosbeak,SM4 4JX,51.381028031089300,-0.220343934897434
Elephant and Kestrel,TW13 5EG,51.441284093066400,-0.390585249081982
Towhee and B,W10 4AJ,51.531479081472200,-0.214266620802438
Buzzard and Dolphin,NW10 7HA,51.531262493713900,-0.289649944730416
Zebra and Herring gull,SW15 1UT,51.460496000000000,-0.218598516592434
Civet and Capuchin,TW5 0NE,51.482794339106600,-0.378308482341377
Night heron and Minke whale,UB8 3DE,51.520083368674900,-0.443215474028516
Jerboa and Darwin's finches,KT12 3LA,51.382013646039900,-0.398341346595215
Diving bird and Old World warbler,TW3 2DS,51.462894173719300,-0.357621854756483
Peafowl and Vulture,KT3 6LE,51.398837995218200,-0.234919952598496
Dolphin and Grosbeak,TW8 8HX,51.481689750119800,-0.312762200788042
Ground sloth and White ibis,TW14 9BN,51.449842323416500,-0.414160027048355
Masked owl and Stilt,UB3 2HG,51.513601475154200,-0.413791656519133
Lemming and Jay,TW15 1SG,51.425265150442300,-0.433980000000000
Moluccan boobook and Scimitar babbler,UB6 8EX,51.534514106374600,-0.344563285318156
Puffleg and New World blackbird,SW19 1EN,51.420072305376000,-0.194377424116364
Solitaire and Guillemot,TW3 1QH,51.470357390384800,-0.360161513055884
Shearwater and Thicketbird,NW6 6NU,51.536594561440000,-0.206267000000000
Logrunners and Pheasant,W12 7ET,51.507340004242700,-0.229462061451481
Rat and Magpie,KT5 8ST,51.388647108597800,-0.294268584023375
Bunting and Hawk,UB4 0HN,51.519948772096800,-0.401117717248297
Nukupuʻu and Old World warbler,KT6 7TY,51.383281470882500,-0.296321919117828
Viscacha and Mamo,W3 6QD,51.512808324738400,-0.262598751109634
Francolin and Minke whale,UB1 3DY,51.509209959239300,-0.359934214554177
Mouse and Tattler,KT1 3DJ,51.410037042529900,-0.293429565229888
Stilt and Stilt,W10 5QG,51.523007271586000,-0.210662757428428
Goose and Cloud rat,TW13 4RY,51.435612119133100,-0.438621743558932
Argus and Nukupuʻu,TW3 9SX,51.475228019650700,-0.368957850614989
Triller and Grackle,SW6 7RW,51.479718077089600,-0.204220731669960
Capuchin and Old World vulture,SW6 4EL,51.472858776373700,-0.204936473465752
Rabbit and Armadillo,W3 0RX,51.504981140392200,-0.255836000000000
Towhee and Bronzewing pigeon,TW11 9QQ,51.426036797125300,-0.312209215890438
Piping shrike and Civet,TW14 0HD,51.458985416792300,-0.402745032397394
Thrasher and Francolin,TW4 7LY,51.469450844633500,-0.395382282935805
Wallaby and Philippine hawk-owl,SW6 7SF,51.483153833242100,-0.204849096752905
Moluccan boobook and Wallaby,SW15 6EJ,51.459169399818700,-0.222459535312025
White ibis and Hawaiian honeycreeper,KT7 0UT,51.385016627172600,-0.324985910148576
Partridge and Treepie,KT2 5JF,51.418746264385200,-0.296830160556320
Night heron and Grackle,TW9 3DF,51.483502587561200,-0.284005762958227
Boto and Partridge,KT10 0BX,51.372826560095400,-0.334712253102887
Marmoset and Jay,NW10 4SL,51.535816000000000,-0.245337402122442
Booted eagles and Thrasher,W9 4HU,51.498289000000000,-0.198295000000000
Bronzewing pigeon and Bunting,SW6 1RF,51.485322688300300,-0.197922442116550
Viscacha and Wallaby,W14 8GE,51.500105000000000,-0.211767000000000
Dorcopsis and Bunting,TW1 4QU,51.443275612191600,-0.332971204978681
Songlark and Egret,TW17 8TH,51.405983653130800,-0.429293398739555
Gull and Hawaiian honeycreeper,NW10 6BN,51.531655878200800,-0.233835000000000
Bunting and Buzzard,KT12 2AH,51.385963000000000,-0.407631000000000
Cloud rat and Recurvebill,SW20 9HA,51.402434516718600,-0.227736766364948
Parrotbill and Old World quail,W14 9BG,51.491247576803900,-0.210177936859900
Ice seal and Diving bird,UB4 9HU,51.531793993073700,-0.409237893506603
Guillemot and Partridge,W14 9BY,51.491135694861100,-0.208151222743879
Dolphin and Herring gull,SW18 4PX,51.441665970465200,-0.193957588247404
Old World quail and Kite,UB1 1NP,51.513876164196700,-0.383848818654205
Grosbeak and Kestrel,W3 3GD,51.500496000000000,-0.276962000000000
Moluccan boobook and Dorcopsis,W5 2SQ,51.520085956222400,-0.300230495357640
Kite and Ibex,W10 4NP,51.527475347552300,-0.206465416658642
Cloud rat and Rat,SW15 6ED,51.458139485728800,-0.220959333216266
Puffleg and Shearwater,TW12 1AS,51.433761281090200,-0.370679629104994
Chickadee and Kākāriki,KT12 1QB,51.384463094761300,-0.418461564170859
Pratincole and Rabbit,W3 7PB,51.517122118786400,-0.257577412895205
Polecat and Chipmunk,UB8 3EW,51.525996492990400,-0.447684460212321
Fox and Parrotlet,W10 6NB,51.517978359494100,-0.221756378819342
Goose and Elephant,SW15 6TG,51.461407420024700,-0.218988000000000
New World blackbird and Buzzard,TW10 7HE,51.440896882808100,-0.315028497842034
Parakeet and Parakeet,KT12 3LU,51.384816621710700,-0.404078200684169
Grosbeak and Snipe,SM4 6QG,51.390352282889400,-0.190330161041244
Bronzewing pigeon and Argus,NW10 5RN,51.533675335262600,-0.220322892417089
Asiatic leopard and Mink,UB6 9SU,51.536304480500800,-0.361281994340740
Marsh harrier and Crow,KT9 1DJ,51.368538000000000,-0.295907000000000
Bunting and Cloud rat,UB4 8EU,51.527055829319800,-0.436043643886788
Mink and Ground sloth,SW5 9UJ,51.489147516003900,-0.192859758224045
Lemming and Linsang,SM1 4DQ,51.368792074813400,-0.191180297345657
Ibex and Magpie,TW14 8AY,51.452207147825700,-0.425491203698050
Puffleg and Tree warbler,TW4 6EE,51.463315592074200,-0.395856601494938
Solitaire and Grosbeak,W14 0HD,51.498111997554900,-0.218063479576081
Marsh harrier and Skunk,W12 7PD,51.510140773584100,-0.232120375132639
Mink and Ground sloth,TW12 2RD,51.421191093027100,-0.379195325992470
Kite and B,KT2 5SU,51.422774087909500,-0.304217260576251
Diving bird and Mockingbird,W4 4EU,51.491710126956300,-0.270977991236259
Flameback and Cuscus,W12 8JN,51.505076350018000,-0.232604574723636
Peafowl and Tit-tyrant,W5 5ER,51.508339713556500,-0.305668006141697
Argus and Diving bird,W10 5FT,51.524850918510200,-0.206554123858709
Meadowlark and Siskin,W8 5UH,51.497332770391600,-0.190663135010810
Linsang and Ground sloth,UB1 3ER,51.509931431977300,-0.347270192518166
Wader and Macaw,TW11 0QH,51.430018438367700,-0.351881530739730
Tahr and Stint,SW13 9QN,51.480619370628400,-0.247145274346731
Civet and Polecat,TW7 7NF,51.458194219692900,-0.349513824295662
Old World quail and Francolin,KT1 4AN,51.412303700518500,-0.312096649457025
Greenbul and Kangaroo,KT8 8DE,51.402924202347200,-0.369877955543591
Greenbul and Greenbul,W12 2FB,51.513921437702200,-0.321631194869861
Kestrel and Fox,SW20 9ZU,51.417012378398100,-0.213582407668003
Kangaroo and Dorcopsis,UB1 1EN,51.510080374075900,-0.387038187214719
Herring gull and Black jay,SW15 5BB,51.452019349597300,-0.233099916188793
B and Fox,W6 0AU,51.499789325164100,-0.230849672362947
Maya and Triller,KT5 9NN,51.380392000000000,-0.278797000000000
Magpie and Pitohui,W8 7QE,51.500641751012300,-0.198240345556413
Old World vulture and Coati,TW15 1AR,51.432866142173700,-0.441074695356107
Jerboa and Dorcopsis,TW2 6DN,51.446584051962800,-0.373245311338928
Chipmunk and Piping shrike,UB1 2LF,51.516842174553200,-0.371392103577638
Macaw and Pheasant,TW1 1HX,51.456949318540600,-0.329551144095053
Vole and Kākāriki,KT6 5LA,51.386443214176700,-0.320363582025781
Vole and Chicken,KT12 5BL,51.365532509394700,-0.429040055745115
Tree warbler and Duck,UB4 0JQ,51.515670384883400,-0.397304124932719
Pratincole and Dolphin,TW4 6LT,51.475642505444100,-0.406958414519372
Parrotbill and Snipe,TW7 6TL,51.472579773225000,-0.326518087916204
Rat and Elephant,TW12 2JH,51.419428646527500,-0.375302593087326
Thrasher and Tit-tyrant,KT3 6RH,51.392800911839400,-0.251509860880998
Capuchin and Rat,KT4 8TD,51.372602037513400,-0.231633195231340
Linsang and Mouse,TW11 0LG,51.426495905117300,-0.348225180544393
Hawk and Triller,SW14 7JJ,51.466111753118500,-0.269354292829554
Boto and Logrunners,TW1 4SR,51.435954786145700,-0.329741589565294
Zebra and Kākāriki,KT8 2TT,51.400821798303500,-0.373244862708474
Diving bird and Gull,SM4 4BQ,51.395226845457200,-0.215581169767249
Pheasant and Minke whale,KT1 1SY,51.411629111570000,-0.302891000000000
Fulmarine petrel and Pheasant,UB2 5LW,51.500773043564400,-0.395535937639183
Buzzard and Grackle,SM3 9SB,51.371325525940400,-0.219786293131059
Boto and Cloud rat,SM3 9LL,51.380267684813700,-0.208805518642492
Jackal and Stilt,TW9 1XD,51.461934000000000,-0.289162000000000
Tahr and Kangaroo,SW19 8AD,51.434956519086300,-0.198712000000000
Mole and American sparrow,TW16 7QB,51.423576883421600,-0.419571307249497
Jay and Tit-tyrant,SW6 2EZ,51.479380000000000,-0.198517000000000
Old World warbler and Chickadee,KT2 5AY,51.419230043784300,-0.304147074712323
Thrasher and Rat,KT8 2PG,51.399026112931700,-0.362469288938603
Skunk and B,SW18 4LH,51.456586061288700,-0.193469512809523
Kangaroo and Lemming,SM1 2RE,51.363339537980000,-0.197988572560934
Old World vulture and Grosbeak,W10 4DR,51.530545901164600,-0.211448496412871
Mole and Marsh harrier,KT1 1JE,51.409308400007000,-0.305808285415448
Grackle and Parakeet,TW16 7NN,51.425671547234200,-0.427554074601668
Egret and Coati,KT13 9SH,51.377850839716900,-0.433647549747504
Vulture and Myna,W13 8HY,51.520392179097900,-0.312096232804212
Myna and Pheasant,NW10 5TY,51.535890164237700,-0.238375648884582
Hawk and Booted eagles,SW19 7AG,51.424904214840300,-0.205104510824947
Ground sloth and Hawaiian honeycreeper,TW14 0JS,51.457616600480100,-0.407888305087772
Grackle and Snipe,W4 4EJ,51.489821927676200,-0.270991806252901
American sparrow and Piping shrike,W5 3HF,51.512657096049000,-0.290865671194261
Grosbeak and Ibex,W5 2QA,51.513533267591300,-0.296970000000000
Grouse and Fox,SW20 0NW,51.417029781348400,-0.242690048013830
Polecat and Songlark,SW15 3JA,51.450967423455000,-0.218258938097706
Boto and Francolin,W12 8EJ,51.501591045786700,-0.229872184033153
Nukupuʻu and Petrel,SW19 1TA,51.415599020036400,-0.195287130000958
Minke whale and Capuchin,TW12 1SW,51.426992000000000,-0.362973551382118
Songlark and Old World quail,TW17 8UQ,51.394582493237200,-0.448959681774314
Cuscus and Gull,KT1 9SY,51.404537000000000,-0.292355000000000
Vulture and Pitohui,W6 8HZ,51.486749487549200,-0.213004329679963
Solitaire and Cloud rat,SW20 8QF,51.413246703117500,-0.220229143762484
Maya and Ice seal,TW7 6LW,51.470626987975900,-0.341606924288854
Bronzewing pigeon and Chicken,SW19 3SH,51.417549587964200,-0.204601617257484
Treepie and Fulmarine petrel,KT3 5HP,51.399689977648000,-0.265479497046673
Francolin and Vulture,SW6 6TH,51.477010000000000,-0.215146521396080
Tree warbler and Chickadee,KT9 1EZ,51.370886559864200,-0.302916722713395
Polecat and Thrasher,KT3 5JS,51.392251004181200,-0.254434325117434
Crow and American sparrow,KT10 8LL,51.363711751904500,-0.381814169298910
Tit-tyrant and Dolphin,SW6 4UH,51.473212000000000,-0.200913389874162
Francolin and Linsang,TW11 9PJ,51.423227000000000,-0.312457000000000
Treepie and Argus,TW10 7AW,51.442223727634300,-0.303525734990575
Elephant and Black cockatoo,KT12 2EN,51.392338329887400,-0.403715887029085
Kangaroo and Shearwater,W10 5SJ,51.526040000000000,-0.214249000000000
Stilt and Vulture,KT9 2GF,51.360805913068100,-0.313502001442756
Kestrel and Macaw,SW14 8PH,51.466388048285600,-0.259467469786420
Night heron and Argus,W5 1DD,51.522577731187400,-0.313122000000000
Logrunners and Civet,TW4 7DS,51.470446880175800,-0.380186123358754
Stilt and Minke whale,W11 4LX,51.510823225284900,-0.210707845822015
Jay and Egret,W11 9HU,51.513922000000000,-0.321609000000000
Mole and Asiatic leopard,TW5 9AW,51.476600189549500,-0.384936188137146
Chipmunk and Mouse,KT2 7TU,51.421037980158900,-0.280722604210426
Polecat and Asiatic leopard,SM1 3JE,51.378565779437000,-0.198683938712146
Mouse and Fish eagle,TW16 6AA,51.404222305220700,-0.412029157805327
Towhee and White ibis,W11 1TS,51.515405833365700,-0.214607038460770
Hawk and Skunk,W7 1AJ,51.522963368490500,-0.334070205610070
Booted eagles and Ground sloth,UB4 0AW,51.523488624433100,-0.414140054712531
Armadillo and Grouse,N8 7WW,51.535964000000000,-0.194669000000000
Duck and Diving bird,UB1 2HA,51.522564118088200,-0.365133860742409
Jay and Moluccan boobook,KT3 5BQ,51.396894207294200,-0.259475786723771
Kangaroo and Civet,W13 0BD,51.528193921712000,-0.328804718252561
American sparrow and Snipe,KT19 0EF,51.363520418566700,-0.260525816350113
Piping shrike and Dorcopsis,TW3 4FB,51.473536000000000,-0.367427000000000
Puffleg and Maya,NW10 5BJ,51.530929509539200,-0.218930556448268
Crow and Ground sloth,SW15 4PH,51.453024873827600,-0.251584719602315
Scimitar babbler and Mole,SW15 3HA,51.452960122687400,-0.219203251950476
Tit-tyrant and Asiatic leopard,SW15 2HA,51.455361364662000,-0.214489444665797
American sparrow and Bronzewing pigeon,SW6 3AX,51.469236945515200,-0.191616447004749
Polecat and Petrel,UB6 9UF,51.533857619526000,-0.369602632591686
Civet and Francolin,KT2 5TF,51.419219654705900,-0.298466511988910
Vole and American sparrow,TW15 1DU,51.432005542139400,-0.448052393221144
Eagle and Fox,TW1 9PE,51.456007000000000,-0.336573000000000
Macaw and Chipmunk,KT6 7SA,51.382803867495900,-0.293163722236035
Bunting and Cuscus,TW11 0JR,51.425821796641800,-0.334900992490205
Songlark and Civet,UB4 8JJ,51.526379000000000,-0.437090000000000
Thicketbird and Dorcopsis,KT4 8UG,51.370762721923700,-0.239074360310044
Fulmarine petrel and Tree warbler,SW18 5NU,51.443929212605600,-0.205481097774357
