name,postcode,lat,lon
Siskin and Wallaby,CH45 3JX,53.426865703535900,-3.065931025045960
Logrunners and Herring gull,CH49 4SE,53.394895000000000,-3.105163000000000
Greenbul and New World blackbird,CH31 9AS,53.329736753735100,-3.098884753755990
Stint and Dolphin,CH41 6EP,53.389729965683900,-3.031395402100500
Buzzard and Capuchin,CH46 0ST,53.399582209326800,-3.113408166477450
Night heron and Gull,CH60 7TE,53.334880357829800,-3.099662754271320
Old World vulture and Elephant,CH48 5EA,53.376106368314600,-3.178561449278140
Badger and Black jay,CH41 0BR,53.397521963682300,-3.053180718944250
Coati and Chipmunk,CH41 4DD,53.391101293867300,-3.032541722144160
Puffleg and Pheasant,CH49 0XE,53.382943907152000,-3.097834127902740
Masked owl and Snipe,CH43 7FD,53.391382758503200,-3.071329707103580
Booted eagles and Rat,CH45 4RP,53.420963513706600,-3.050314124096410
Guillemot and Grosbeak,CH43 9JJ,53.378146000000000,-3.072020000000000
Mockingbird and Parrotbill,CH61 4UT,53.356153000000000,-3.114815000000000
Grouse and Meadowlark,CH43 7TT,53.396917464772500,-3.083560454543620
Tit-tyrant and Lemming,CH61 9PF,53.347821038438600,-3.095173719174250
Marmoset and Darwin's finches,CH48 1PX,53.365165925549700,-3.153402000000000
Triller and Vulture,CH47 3DL,53.393961130426200,-3.173162000000000
Cloud rat and Buzzard,CH43 1TG,53.386664782669800,-3.044823406159590
Crow and Parrotlet,CH41 2XP,53.387282000000000,-3.032885000000000
Grackle and Parrotlet,CH48 6EA,53.373100513855900,-3.167024685468830
Minke whale and Stilt,CH45 3NB,53.420259392130300,-3.059806873068790
Stint and Skunk,CH47 7BW,53.402034714670800,-3.153331705630780
Treepie and Petrel,CH43 0SF,53.372244451016000,-3.057140000000000
Fulmarine petrel and Wader,CH63 5RG,53.357217899524900,-3.028130826724710
Boto and Lemming,CH48 4HB,53.372492193316700,-3.184970062125610
Tree warbler and Dorcopsis,CH43 8SQ,53.394262319426600,-3.052799450485820
Viscacha and Ibex,CH44 0EL,53.421263154350000,-3.030367901170180
Night heron and Tahr,CH45 2NG,53.438623379041000,-3.049680864265940
Night heron and Booted eagles,CH48 6EX,53.375713093112300,-3.157205017029080
Perching duck and Gull,CH44 0AX,53.417569646547700,-3.033378197680290
Greenbul and Black jay,CH61 6UZ,53.338461162566500,-3.107099132810590
Wader and Mockingbird,CH42 8JS,53.367699543107400,-3.036545000000000
Parakeet and Thicketbird,CH47 5BH,53.396298666156700,-3.174637705177250
Snipe and Magpie,CH60 9HT,53.329588958606200,-3.116015000000000
Herring gull and Francolin,CH46 3RJ,53.415384140453300,-3.111564090178900
Puffleg and Magpie,CH44 3BS,53.417102139406300,-3.049872874541950
Old World quail and Badger,L22 1RR,53.469645887535500,-3.022530790578850
Skunk and Fox,CH45 0NE,53.432630103522400,-3.058835000000000
Puffleg and Gull,CH49 7LF,53.373732450428900,-3.080837293190550
Meadowlark and Fish eagle,CH42 6RX,53.369042947469000,-3.026566984518890
Old World warbler and Warbler,L22 0PT,53.475281553418900,-3.021521214339110
Pitohui and Minke whale,CH61 4UB,53.353117860489000,-3.118191157008640
Armadillo and Fulmarine petrel,CH46 2QG,53.416008366099300,-3.094593207809010
Cuscus and Rat,CH45 8NE,53.427357175956300,-3.074281115400940
Jackal and Grouse,CH45 5JE,53.431605000000000,-3.049553000000000
Kangaroo and Logrunners,CH48 6DA,53.377644568863400,-3.172064670308120
Vole and Armadillo,CH43 0UE,53.371224166554600,-3.061850541540880
Black jay and Warbler,CH61 1AP,53.347235853249800,-3.079611000000000
B and Snipe,CH49 3PZ,53.370122186150700,-3.124257799829050
Marsh harrier and Crow,CH63 2JF,53.352511024650400,-3.023555478501600
Parrotbill and Jay,CH44 6RB,53.411447492211900,-3.024067659100840
Siskin and Snipe,CH41 0AG,53.398938805072100,-3.050508494243200
Magpie and Thicketbird,CH46 6EG,53.397127385746200,-3.127857253041760
Tree warbler and Tahr,CH60 8QH,53.319533309023400,-3.098967824232800
Jay and Black cockatoo,CH44 7JY,53.405866111584800,-3.024851000000000
Magpie and Wallaby,CH46 6EY,53.397744687355000,-3.130069390913440
Rat and Mouse,CH41 6NX,53.391525680249300,-3.021183278075940
Herring gull and Marmoset,CH49 4ND,53.391177000000000,-3.107698000000000
Macaw and Old World quail,CH45 7NQ,53.422858643529900,-3.038156479607670
Jay and Old World warbler,CH43 1XG,53.386437923891600,-3.047118310925970
Treepie and Jackal,CH43 4UL,53.387589179692900,-3.040876518537310
Chickadee and Asiatic leopard,CH48 6EW,53.374648186097800,-3.164105758555700
Masked owl and Myna,CH46 8SG,53.406509080227800,-3.111874195166050
Crow and Philippine hawk-owl,CH45 1JE,53.430155000000000,-3.039659000000000
Condor and White ibis,CH60 9JR,53.325842228030500,-3.109925000000000
Songlark and Rabbit,CH43 7UA,53.397261971317500,-3.083238338188210
Parrotlet and Marsh harrier,CH48 2HS,53.364862946303900,-3.171969223694790
Fish eagle and Greenbul,CH63 2NB,53.349972231130000,-3.027145190861670
Snipe and Shearwater,CH45 3PZ,53.432939954876800,-3.074211209229330
Wader and Warbler,CH41 0DG,53.397036019380400,-3.063380501279760
Shearwater and Guillemot,CH41 3RL,53.395064128712500,-3.030967972356070
Solitaire and Songlark,CH46 7SZ,53.405315436558400,-3.130811601414010
Skunk and Flameback,CH60 4RY,53.322213591773900,-3.105612482787770
Condor and Greenbul,CH41 2QS,53.388529000000000,-3.030118000000000
Viscacha and Kangaroo,CH43 0RP,53.368616164132800,-3.049792181349660
Old World quail and Gull,CH45 4LP,53.423702425384400,-3.046529145372890
Tahr and Thicketbird,CH46 4TH,53.412396856668500,-3.117654604077290
Fox and Pheasant,CH60 9LF,53.321447686646600,-3.106778700275690
Ice seal and Prion,CH60 8PD,53.321375637845900,-3.097063497286900
Diving bird and Crow,CH44 7DZ,53.408126132507600,-3.023536563234560
Fulmarine petrel and Kākāriki,CH63 5LS,53.363500476609800,-3.021295000000000
Grouse and Argus,CH61 1AW,53.347414778675000,-3.079585474953160
Ice seal and Buzzard,CH45 9LF,53.437237340673500,-3.044754267539630
Chipmunk and Mouse,CH41 4NZ,53.397191000000000,-3.035667000000000
Stilt and Booted eagles,CH46 0TQ,53.393293099854600,-3.114988405171210
Armadillo and Chicken,L22 8QB,53.476739032280300,-3.032871980671120
Boto and Ice seal,CH41 4NT,53.393088000000000,-3.021491000000000
Civet and Ice seal,CH60 8NB,53.322880909086800,-3.088769679149510
Prion and Ground sloth,CH45 5AX,53.433614964117500,-3.042678489238260
Pratincole and Grackle,CH47 4AL,53.387360313118100,-3.184962021000140
Fulmarine petrel and Boto,CH41 7DF,53.404942134948700,-3.067879784112270
Treepie and White ibis,CH41 2TF,53.387317461931900,-3.029713185048420
Hawaiian honeycreeper and Skunk,CH46 3SX,53.415483867360600,-3.108572531563680
Black jay and Lemming,CH41 0BL,53.397230563748400,-3.052586981183970
Masked owl and Shearwater,CH60 8NR,53.314141295735900,-3.088021837966210
Marsh harrier and Scimitar babbler,CH61 3XB,53.355777524997700,-3.094070570362840
Grackle and Scimitar babbler,CH41 8JN,53.402016927876800,-3.058210223388340
Darwin's finches and Mamo,CH49 4RB,53.388573411522100,-3.117917452204820
Gull and Triller,CH46 2RP,53.418856587735200,-3.087849996807690
Mouse and Eagle,CH48 5JG,53.374329536007800,-3.185517119601110
Recurvebill and Diving bird,CH41 9EL,53.381232436519000,-3.021282685836880
Minke whale and Duck,CH60 1XT,53.325778000000000,-3.075766000000000
Tattler and Armadillo,CH44 2DS,53.419336237683600,-3.063545741071980
Prion and Jackal,CH61 3UY,53.357227831844100,-3.092755433054940
Tit-tyrant and Kangaroo,CH43 1XD,53.384180430541200,-3.046235982801490
Polecat and Pheasant,CH44 6JL,53.410344593928900,-3.021649149192760
Treepie and Fulmarine petrel,CH45 6UB,53.422947702626200,-3.059738310690100
Prion and Rabbit,CH61 7UA,53.355943056169000,-3.091700857467330
Hawaiian honeycreeper and Zebra,CH41 9ET,53.380592933457500,-3.021432748681730
Jerboa and Wallaby,CH49 0WJ,53.379024000000000,-3.100799000000000
Polecat and American sparrow,CH47 8XN,53.401003687743800,-3.153980660249350
Polecat and American sparrow,CH47 2BN,53.394731981691300,-3.175812695834190
Buzzard and Badger,CH60 7RZ,53.335621996551100,-3.099171228282080
Towhee and Greenbul,CH42 5PU,53.376936683268400,-3.022217106151640
Stint and Parrotbill,CH48 2HR,53.365216977948100,-3.170701528169700
Goose and Old World quail,CH44 2DZ,53.418671000000000,-3.061618000000000
Booted eagles and Darwin's finches,CH41 3QA,53.395194705904600,-3.025888426347350
Bunting and Buzzard,CH60 0AE,53.326541206826400,-3.095319000000000
Stint and Songlark,CH41 2YQ,53.386382316036200,-3.025404000000000
Towhee and Mole,CH47 5BJ,53.395950520852200,-3.174102165701740
Puffleg and Black jay,CH45 6US,53.427570378983300,-3.055413500091520
Asiatic leopard and Diving bird,CH45 5DP,53.424732500170400,-3.042837297613560
Lemming and Chickadee,CH44 1EE,53.422123609740700,-3.032736240115420
Condor and Stint,CH49 6JA,53.386365589317200,-3.092298816527560
Old World quail and Chickadee,CH61 8AB,53.329754000000000,-3.098884000000000
Philippine hawk-owl and Zebra,CH49 5LY,53.372174444917300,-3.093979786475690
New World blackbird and Mamo,CH47 6AZ,53.402745576532000,-3.157953000000000
Badger and Armadillo,CH46 1QB,53.414800621468500,-3.085098403540670
Condor and Chickadee,CH44 2EB,53.420040665416100,-3.061155713523460
Skunk and Black cockatoo,CH42 9PH,53.374289861887100,-3.035200955715020
Philippine hawk-owl and Egret,CH42 6PN,53.373257078115100,-3.025721388400720
Thrasher and Crow,CH46 9RG,53.398082000000000,-3.098957493563500
Fox and Rat,CH60 4TG,53.326992534234200,-3.099159557949050
Tattler and Egret,CH46 6DT,53.401417456308700,-3.133310324869300
Tahr and Thrasher,CH49 0TB,53.384779802988500,-3.088770054553830
Guillemot and Old World warbler,CH46 1QP,53.408213011853600,-3.099688310587930
Ice seal and Kangaroo,CH61 8SQ,53.344364646789700,-3.110256293481000
Parakeet and Civet,CH45 4PP,53.426157959703600,-3.052488959039570
Jackal and Perching duck,CH63 5LX,53.362042174211600,-3.024279841043510
Minke whale and Fish eagle,CH60 6SQ,53.330755000000000,-3.107515000000000
Wallaby and Old World vulture,CH43 9TB,53.384100224119400,-3.059404569740880
Maya and Argus,CH42 6RR,53.367972311885400,-3.026676500125360
Peafowl and Old World quail,CH45 5LA,53.430985969783000,-3.045218019666800
Skunk and Ibex,CH45 7QX,53.429578179302700,-3.033458815452290
Chickadee and Parrotlet,CH46 6AQ,53.401824571509800,-3.115858277444640
Rabbit and Magpie,CH43 3HA,53.367439168031700,-3.062928654799400
Warbler and Crow,CH48 6DB,53.377388086235400,-3.171636710492620
Rabbit and Macaw,CH44 0DE,53.419398995774200,-3.028910000000000
Night heron and Pheasant,CH47 6AR,53.401350171893900,-3.156261245643720
Capuchin and Viscacha,CH61 1DD,53.346499617129900,-3.081379972216280
River dolphin and Parrotbill,CH48 2HJ,53.365438845240000,-3.169159678959890
Mole and Triller,CH41 8DG,53.400539531441000,-3.046336545701610
Shearwater and Triller,CH60 2TW,53.328137198429400,-3.087056667116610
Argus and Marsh harrier,CH61 7UL,53.351949206219100,-3.093957484543980
Herring gull and Parrotlet,CH48 7HR,53.367440673855500,-3.171273502110570
Vulture and Night heron,CH48 2JP,53.356464730948200,-3.161175945467860
Zebra and Puffleg,CH48 5EU,53.376005257299200,-3.182421936146280
Treepie and Zebra,CH42 6QE,53.372346843885800,-3.024947978401430
Prion and Dorcopsis,CH47 7BL,53.402388117521300,-3.152107865014580
Nukupuʻu and Egret,CH41 3PE,53.395428000000000,-3.023165462970300
Goose and Ice seal,CH63 5QA,53.364786274970600,-3.032340594628980
Grackle and Thrasher,CH49 6QD,53.382606640286000,-3.101268331503990
Darwin's finches and Jerboa,CH41 7EJ,53.407274769923200,-3.070632000000000
Towhee and Tahr,CH8 9SX,53.329395235288800,-3.295644105130000
Kākāriki and Fulmarine petrel,CH60 8PH,53.319887781240500,-3.101468985935660
Nukupuʻu and Marsh harrier,CH45 7NE,53.423396119859000,-3.039403572474530
New World blackbird and B,CH43 3DL,53.365702592843800,-3.058061297802460
Bunting and Bronzewing pigeon,CH60 1XL,53.324892370225000,-3.075128046948330
Guillemot and Mink,CH46 2QB,53.415767076677300,-3.090509515691150
Kestrel and Fish eagle,L23 6YU,53.475609000000000,-3.027267000000000
Ice seal and Songlark,CH61 8RJ,53.347971492981500,-3.096409398537660
Fish eagle and Cuscus,CH49 6JE,53.387412500464000,-3.089874739224330
Buzzard and Scimitar babbler,CH41 4JQ,53.399082030631400,-3.036342000000000
Polecat and White ibis,CH60 3RP,53.320316000000000,-3.083266642371990
Armadillo and Philippine hawk-owl,CH45 8RH,53.418964507510000,-3.074942239829470
River dolphin and Argus,CH44 8DJ,53.415450575545200,-3.024765691259650
Vole and Snipe,CH61 3XW,53.354763865438800,-3.097755682378640
Bunting and Old World warbler,CH49 8HX,53.374736000000000,-3.088243000000000
Pheasant and Parakeet,CH46 0RW,53.397681213932100,-3.120592653301290
Peafowl and Goose,CH49 0TL,53.384288765398400,-3.097237264240510
White ibis and Pitohui,CH45 8LN,53.420740711058300,-3.076341357944860
Tattler and Darwin's finches,CH61 1BS,53.349828079033500,-3.083086699621830
Ground sloth and Thicketbird,CH46 8UJ,53.406912081650000,-3.101369650293510
Siskin and Macaw,CH48 7EP,53.370043710015100,-3.172442000000000
Philippine hawk-owl and Coati,CH41 2ZE,53.385599000000000,-3.025868000000000
B and Jackal,CH60 7SS,53.333899120499600,-3.098841592663090
Eagle and Cuscus,CH45 5LF,53.430008804070200,-3.042861124167580
Fox and Tit-tyrant,CH44 3AF,53.416017989478400,-3.051516284716350
Egret and Boto,CH45 7SH,53.424904941853900,-3.038522381995950
Old World vulture and Badger,CH8 9UF,53.330539800492200,-3.300573701617300
Badger and Bronzewing pigeon,CH63 5PA,53.357415668336900,-3.029172344164070
Zebra and Ice seal,CH63 5QZ,53.360150047300500,-3.027930949549960
Capuchin and Recurvebill,CH45 8LU,53.423123380765200,-3.074279691457100
Cuscus and Mamo,CH45 0JT,53.435772233697100,-3.057001660326950
Condor and Vole,CH49 3NB,53.377651579164900,-3.116007778587600
Logrunners and Partridge,CH44 5UJ,53.417467078956200,-3.044134049650140
Old World vulture and Badger,CH60 3SJ,53.319218000000000,-3.084443000000000
Dolphin and Old World vulture,CH42 0HD,53.380588000000000,-3.032486021720670
Pratincole and Skunk,CH60 0AG,53.325808005231100,-3.092087335002370
Wader and Nukupuʻu,CH48 1NF,53.365581980305600,-3.143254452001860
Skunk and Vole,CH42 7LP,53.376760196987700,-3.027068296815390
Wader and Meadowlark,CH60 4SX,53.326631545891900,-3.109990916896700
Shearwater and Parrotbill,CH46 0SZ,53.396816780009600,-3.113065250179870
Grackle and Kite,CH47 6BQ,53.401723759772400,-3.163145227700500
Tree warbler and Tattler,CH48 2JZ,53.364893000000000,-3.172631000000000
Goose and Quetzal,CH61 3XG,53.354084417335900,-3.095394416460240
Siskin and Old World quail,CH46 9RB,53.397453355277000,-3.098688910117800
Ibex and Old World quail,CH42 9JH,53.377503210114200,-3.035744914282700
Myna and Prion,CH47 5AN,53.400736422235000,-3.168517979314500
Puffleg and Bunting,CH44 8BH,53.423130705754700,-3.028531991886080
Stilt and Old World quail,CH63 2JN,53.352696694120300,-3.022868833864440
Kite and Mole,CH44 9DF,53.412086222983600,-3.032357599618220
Thicketbird and Ground sloth,CH44 6PQ,53.414320885590200,-3.021278061752650
Perching duck and Herring gull,CH46 3SD,53.414779992438100,-3.106929277194820
Snipe and Diving bird,CH49 0WN,53.378407000000000,-3.102421000000000
Moluccan boobook and Shearwater,CH44 7HY,53.406074556105800,-3.021682192985500
Scimitar babbler and Linsang,CH49 4PA,53.391899000000000,-3.100636000000000
Mole and Boto,CH41 3QT,53.398217000000000,-3.027149000000000
Fulmarine petrel and Skunk,CH41 2TJ,53.386862230641900,-3.029341336778030
Solitaire and Ibex,CH49 7LQ,53.372388794114500,-3.086259446150260
Hawaiian honeycreeper and Hawaiian honeycreeper,CH42 9JN,53.376593423638700,-3.035963348396930
American sparrow and Dorcopsis,CH48 3HS,53.366788638951400,-3.181790915645700
Myna and Parrotbill,CH43 1YJ,53.390662375326300,-3.047161868769410
Philippine hawk-owl and Snipe,CH60 9LA,53.326936865897700,-3.120599334751390
Civet and Recurvebill,CH45 3HT,53.428322514684200,-3.066870511917310
Chickadee and Tahr,CH61 6XZ,53.341128570324300,-3.103473363314810
Logrunners and Buzzard,CH43 9XE,53.390735000000000,-3.084330898631380
Kite and Petrel,CH44 2AT,53.419909631889900,-3.051582230258600
White ibis and Herring gull,CH43 7PW,53.389848275281500,-3.071035537770700
Ibex and Triller,CH45 5BS,53.432809962791600,-3.046002000000000
Duck and Grosbeak,CH41 8EG,53.400095000000000,-3.035542000000000
Night heron and Siskin,CH44 2BR,53.421747803040400,-3.058203647406070
Ice seal and Gull,CH44 8AT,53.418800000000000,-3.027344000000000
Cuscus and Elephant,CH61 3UD,53.355069450855700,-3.109422727569990
Chicken and Mockingbird,CH61 3UJ,53.353630414623800,-3.117212975815320
Dorcopsis and B,CH49 4PF,53.393584932108800,-3.100980338621280
Cloud rat and Cloud rat,CH42 7HT,53.380684607465300,-3.030635530148350
Ibex and Piping shrike,CH43 9JW,53.378825771360100,-3.064219483698290
Viscacha and Fish eagle,CH47 3EP,53.395829649264700,-3.172970475145040
Meadowlark and Perching duck,CH44 5SN,53.411759730859300,-3.051230686693690
Asiatic leopard and Quetzal,CH45 2NE,53.438104779101400,-3.049367000680160
Flameback and Piping shrike,CH46 3RN,53.415237364342300,-3.102186642213720
Ice seal and Linsang,CH43 2LT,53.376083775713700,-3.059056000000000
Stint and Kangaroo,CH49 3AP,53.378462697997000,-3.131061985960920
Stint and Night heron,CH45 3JQ,53.429305406606300,-3.060468420887760
Thrasher and Piping shrike,CH45 2PD,53.438429000000000,-3.053317000000000
Logrunners and Grackle,CH49 2PL,53.380643000000000,-3.116296000000000
Hawaiian honeycreeper and Dolphin,CH41 4PE,53.392687445826700,-3.021978025653480
Capuchin and Solitaire,CH45 2LY,53.437425635409400,-3.043780397929530
Kangaroo and Dorcopsis,L22 8QE,53.477378149643200,-3.032766964042660
Fulmarine petrel and Stilt,CH49 3NL,53.375039729714200,-3.127062998828890
Kestrel and Thrasher,CH60 4RA,53.327584837676100,-3.100240855904740
Capuchin and Cloud rat,CH41 1EB,53.408386000000000,-3.057827000000000
Thrasher and Flameback,CH44 1AA,53.420827396740100,-3.043283433729380
Rat and Dolphin,CH43 9XY,53.393906441855800,-3.083065000000000
Peafowl and Old World quail,CH42 9LB,53.374491487064500,-3.039925728866340
River dolphin and Shearwater,CH41 3RG,53.394027770799700,-3.028145786760370
Treepie and Recurvebill,CH43 5RF,53.384488075523600,-3.038801201712110
Badger and Kākāriki,CH45 5DB,53.432361031327100,-3.049240000000000
Meadowlark and Flameback,CH45 5HN,53.427740909404400,-3.050345782249300
White ibis and Perching duck,CH43 2LG,53.377434040553500,-3.055946943308200
White ibis and River dolphin,CH47 6AS,53.402724598133700,-3.161909037637830
Old World quail and Dolphin,CH45 4RU,53.420644579021600,-3.051826086303740
Old World quail and Linsang,CH8 9HQ,53.326366458492700,-3.303254537907120
Francolin and Egret,CH61 3XE,53.355837000000000,-3.096578456327640
Nukupuʻu and Grackle,CH44 3BT,53.419089978843800,-3.050749451214810
Capuchin and Vulture,CH43 2LA,53.383014390909700,-3.047996492766680
Bronzewing pigeon and Mole,CH41 0DH,53.394682234625800,-3.059186188738950
Chipmunk and Pitohui,CH45 2NR,53.438556191498100,-3.045042547832030
Crow and Hawk,CH8 9TW,53.329015021050200,-3.294475913174620
Vulture and Parrotlet,CH46 2PQ,53.415460844943100,-3.088605884147000
Ice seal and Petrel,CH43 9TQ,53.383878616491500,-3.063097630713490
Black jay and Pratincole,CH43 2LX,53.378408637382500,-3.051446164892090
Parrotlet and Prion,CH43 3AP,53.369577914215400,-3.069038913786430
Minke whale and Viscacha,CH45 8JL,53.424293249224400,-3.073135363630490
Minke whale and Jay,CH43 9XU,53.393381741377000,-3.084884211651670
Old World quail and Siskin,CH60 2SG,53.328663000000000,-3.084728000000000
Argus and Shearwater,CH63 5QB,53.364209775896900,-3.031440011968650
Old World vulture and Booted eagles,CH48 1PN,53.385867000000000,-3.140911000000000
Polecat and River dolphin,CH44 9BT,53.414411260556900,-3.035829260623520
Armadillo and Civet,CH42 7JH,53.379557000000000,-3.030142000000000
Vole and Songlark,CH61 6UW,53.334743675567400,-3.093997611840320
Triller and Armadillo,CH45 8PH,53.422057453444400,-3.073861557572070
Francolin and Marsh harrier,CH61 8RX,53.350144863728200,-3.103450874124390
Old World warbler and Cloud rat,CH41 4AW,53.392287705674100,-3.026660217464820
Thrasher and Lemming,CH41 6AH,53.391525680249300,-3.021183278075940
Black cockatoo and Flameback,CH45 4RT,53.421532857495700,-3.050990275369420
Moluccan boobook and Quetzal,CH45 2JN,53.438825328255600,-3.043046947448400
Wallaby and Towhee,CH46 7UA,53.406697628563100,-3.118633391536990
New World blackbird and Marmoset,CH45 5AR,53.432972417211700,-3.043174529107630
Old World vulture and Buzzard,CH44 1DY,53.422509007882700,-3.034942649188020
Petrel and Magpie,CH41 2UE,53.384524886978900,-3.035599641567280
Masked owl and Kākāriki,CH43 6US,53.386194415236900,-3.061456314181170
Solitaire and Piping shrike,CH41 0BG,53.398380400328200,-3.051652810302890
Pratincole and Jerboa,CH60 4RG,53.326156318556600,-3.100159049654700
Diving bird and Cuscus,CH41 1JW,53.406037000000000,-3.036652775153600
Triller and Old World warbler,CH48 1LB,53.365652109352300,-3.162973757983570
Chipmunk and Nukupuʻu,CH60 8QB,53.319149340683000,-3.100639312458020
Skunk and Flameback,CH61 4YN,53.359117776254000,-3.113900516817570
Pratincole and Chicken,CH43 4UN,53.389933539345900,-3.037055000000000
B and Chipmunk,CH46 6AF,53.400151056078000,-3.114942000000000
Jerboa and Marmoset,CH49 8HZ,53.374670763571600,-3.091323052695890
Kangaroo and Parrotlet,CH41 2ZB,53.387025309896700,-3.025014940005670
Treepie and Kākāriki,CH63 8QQ,53.355434295968600,-3.028568680517180
Treepie and Piping shrike,CH42 7JE,53.378793082369600,-3.028996348171050
American sparrow and Prion,CH61 4YQ,53.358927785137200,-3.116915807901960
Zebra and Francolin,CH42 9LP,53.381858678144800,-3.037263844011950
Mouse and Badger,CH43 7XR,53.389535969967600,-3.071779536952400
Guillemot and Siskin,CH45 1NF,53.432186864063600,-3.036351860414140
New World blackbird and Vole,CH42 8LJ,53.367930969816100,-3.040787885086330
Fox and Boto,CH60 7SF,53.330989123358200,-3.104412900758610
Masked owl and Meadowlark,CH45 4QQ,53.427431062473900,-3.052866569618100
Crow and Viscacha,CH46 0SL,53.400250190979200,-3.114072357847390
Perching duck and Bronzewing pigeon,CH42 0HT,53.384712393227800,-3.027425117672070
Kangaroo and Puffleg,CH47 3BU,53.393557878427200,-3.174547177363890
Ibex and Condor,CH44 2BZ,53.421276886181900,-3.065670809984470
Pheasant and Rabbit,CH45 8PE,53.421616763923000,-3.066868113793780
Boto and Maya,CH44 5UH,53.418287088229700,-3.042875154940550
American sparrow and Parakeet,CH60 9LQ,53.330324325297800,-3.117880131640210
Badger and Bronzewing pigeon,CH46 3RG,53.415528170375000,-3.100870112820740
Hawaiian honeycreeper and Towhee,CH48 3JE,53.363676476209100,-3.174701781750500
Marmoset and Dorcopsis,CH47 0LW,53.397678000000000,-3.162403000000000
Cloud rat and Mockingbird,CH60 2SQ,53.328703882163500,-3.084052974097970
Treepie and Dolphin,CH44 5SD,53.412732593701200,-3.049975860541960
Pheasant and Marsh harrier,CH45 7NJ,53.425868603527900,-3.039343504165110
Rat and Buzzard,CH49 6PA,53.385181578594900,-3.108596866629030
Masked owl and Grouse,CH63 8QG,53.354295000000000,-3.028364183913140
Solitaire and Snipe,CH44 7HA,53.409984028125800,-3.028049236936600
Dolphin and Flameback,CH47 9SE,53.393356575001700,-3.152781208159030
Grackle and Boto,CH43 0RD,53.368109820319800,-3.047059436585660
Vulture and Darwin's finches,CH60 1UB,53.332172033392200,-3.078284436206710
Masked owl and Songlark,CH61 6UQ,53.339768313785300,-3.096964899340150
Capuchin and Partridge,CH44 0AE,53.425267270317900,-3.030585541520320
Skunk and Bunting,CH41 6LA,53.391525680249300,-3.021183278075940
Dorcopsis and Warbler,CH44 7BH,53.408318524494800,-3.021013895722390
Chickadee and Parrotbill,CH42 0JA,53.383800341919400,-3.028951731614010
Dorcopsis and Tahr,CH60 5SS,53.330751406066500,-3.095096729484730
Nukupuʻu and Cloud rat,CH61 9NR,53.344821513961100,-3.092903747051260
Mockingbird and Recurvebill,CH47 9SG,53.394394265571000,-3.149575947731480
Polecat and Fish eagle,CH43 9YX,53.391008911617400,-3.084853931227750
Buzzard and Grosbeak,CH48 9UX,53.373477797103900,-3.155040028614720
Wallaby and Quetzal,CH44 0EE,53.423117762783100,-3.031074894777860
Fish eagle and Lemming,CH41 9EJ,53.381641986153100,-3.021308000000000
Darwin's finches and Songlark,CH43 9YU,53.382286689987300,-3.075235717353410
Shearwater and Prion,CH46 7SP,53.405321758559000,-3.127291830818840
Wader and Fulmarine petrel,CH45 7LJ,53.422404014961900,-3.041847301092310
Duck and Jay,CH41 3RY,53.394667674684800,-3.025860312909090
Old World quail and Partridge,CH43 1YB,53.382948076113500,-3.044281351330920
Black jay and Solitaire,CH47 7BY,53.403048941563500,-3.150696760947900
Tattler and Parakeet,CH48 9XT,53.372991415265000,-3.150487470355680
Herring gull and Viscacha,CH46 6JE,53.398871627688800,-3.132565850189960
Macaw and Herring gull,CH48 1LJ,53.360825000000000,-3.149138000000000
Grouse and Myna,CH63 2NE,53.347228267607100,-3.021130558441990
Jackal and Cuscus,CH42 5LF,53.379465057169900,-3.025073851679350
Recurvebill and Badger,CH43 9YT,53.382044000000000,-3.075335000000000
Pitohui and Parrotlet,CH61 1BZ,53.346258464432400,-3.082200056183560
Armadillo and Prion,CH44 6LF,53.412677089563200,-3.023239644269810
Mamo and Recurvebill,CH41 8AB,53.396851644790700,-3.040440860532430
Logrunners and Crow,CH61 7UW,53.354012907535400,-3.094370926908360
Francolin and Elephant,CH41 0AJ,53.399860015314300,-3.054095773342890
Pheasant and River dolphin,CH61 7UH,53.351040311085100,-3.095045931055720
Armadillo and Jay,CH46 0TH,53.394203019900800,-3.114771577886460
Cuscus and Bunting,CH27 9BX,53.421734000000000,-3.043516000000000
Tahr and Polecat,CH63 2PB,53.348283176009600,-3.023904842402830
Songlark and Jerboa,CH27 9SA,53.415697271202700,-3.023251979394600
Petrel and Lemming,CH61 8TB,53.348267000000000,-3.105400000000000
Elephant and Badger,CH42 9LA,53.374978875912500,-3.033489030072460
Dolphin and Mink,CH60 2UE,53.325520165039700,-3.082245602099700
Moluccan boobook and Jerboa,CH42 0HY,53.384160000000000,-3.028053949176030
Elephant and Perching duck,CH41 2SW,53.386343261978400,-3.028020714082970
Triller and Parrotlet,CH46 8TZ,53.405788000000000,-3.103431000000000
Eagle and Viscacha,L22 8QD,53.475701882275100,-3.033268668900490
Crow and Chipmunk,L22 9QW,53.479882316123300,-3.025896196377550
Thicketbird and Triller,CH49 5NT,53.370645936223200,-3.092933000000000
Grackle and New World blackbird,CH49 0UX,53.383934060297200,-3.093891000000000
Tree warbler and Bronzewing pigeon,CH45 7LG,53.422671919224600,-3.042049482759250
Boto and Bronzewing pigeon,CH41 9AL,53.383593074338900,-3.022737416910290
New World blackbird and Viscacha,CH48 3HU,53.365281784834000,-3.180546927940910
Gull and Capuchin,CH41 4HZ,53.396208510852800,-3.035838235522420
Black jay and Mouse,CH63 1JX,53.316182659451600,-3.053893673909820
Cloud rat and Grouse,CH44 7EZ,53.409788384132500,-3.027803815622680
Parrotlet and Mouse,CH47 9SL,53.396728349084900,-3.148962092649520
Chicken and Kite,CH46 9AF,53.401346000000000,-3.096696000000000
Snipe and Linsang,CH43 8TG,53.394370035006600,-3.057900161836960
Magpie and Parrotlet,CH47 9RJ,53.395836771220200,-3.152518000000000
Flameback and Marsh harrier,CH41 8HL,53.402457000000000,-3.051197000000000
Parrotlet and Goose,CH43 0SN,53.371075449363400,-3.055308661726610
Linsang and Argus,CH44 5SY,53.411853850866600,-3.048705504897740
Grouse and Black cockatoo,CH41 4BZ,53.388867754274900,-3.034426969963600
Thrasher and Eagle,CH49 4PQ,53.393796502337300,-3.099481964029420
Parrotlet and Macaw,CH41 4DP,53.389357486883700,-3.034183000000000
Mink and Scimitar babbler,CH41 2TR,53.386241000000000,-3.034618000000000
Mockingbird and Thicketbird,CH61 8SY,53.346911278340500,-3.107062729951840
Boto and Coati,CH44 8BY,53.416600196383600,-3.023830374412270
Old World warbler and Quetzal,CH44 2DP,53.419815903138300,-3.065197891022370
American sparrow and Perching duck,CH48 1LF,53.365077922837300,-3.161936189665100
Parakeet and Badger,CH61 6XQ,53.341326589777600,-3.109261139276730
Gull and Partridge,CH44 0BF,53.423938000000000,-3.030792000000000
Booted eagles and Warbler,CH45 8QW,53.419344668168700,-3.082610930656100
Crow and Jackal,CH45 6UZ,53.427505873033300,-3.057624280987820
Linsang and Kākāriki,CH49 0WB,53.383651662214300,-3.098092896490800
Hawaiian honeycreeper and Peafowl,CH61 0HL,53.348985970399900,-3.134052045680810
Moluccan boobook and Kangaroo,CH49 6NW,53.386729821126800,-3.111268381279880
Solitaire and Warbler,CH45 1HB,53.429268627651500,-3.038056847080360
Rat and B,CH45 5AJ,53.432456107538500,-3.041566377807470
Tahr and Greenbul,CH44 0DT,53.420411503681200,-3.032183119509120
Philippine hawk-owl and Condor,CH46 8ST,53.405739279502600,-3.105716740651950
Snipe and Viscacha,CH48 5JA,53.378287128160900,-3.174367336401800
Viscacha and Towhee,CH41 9DW,53.383126153236600,-3.021628705988340
Viscacha and Pratincole,CH60 0AS,53.326777000000000,-3.096030000000000
Ground sloth and Stilt,CH45 7LR,53.426701327407400,-3.040748412266000
Jay and Greenbul,CH47 0LB,53.398666383397900,-3.167859643698060
Polecat and Pratincole,CH61 8SR,53.344724583053900,-3.111181934163580
Stilt and Triller,CH43 5RW,53.382207402046500,-3.039542484904970
Macaw and Peafowl,CH47 5AR,53.400391391340800,-3.170704479306630
Boto and Eagle,CH63 2LZ,53.349513108687600,-3.027224287086810
Piping shrike and Kākāriki,CH47 5AH,53.399630912675200,-3.168502723067300
Gull and Minke whale,CH48 4DS,53.369973704546600,-3.182405149807850
Badger and Snipe,CH45 3LL,53.426347647305900,-3.067573539847940
New World blackbird and Duck,CH45 7PN,53.426923870273900,-3.032717167990240
Marmoset and Kākāriki,CH43 1TY,53.387568000000000,-3.050559000000000
Magpie and Parrotbill,CH43 0XB,53.374459267458400,-3.066996645714990
B and Fox,CH44 8BR,53.422954117336300,-3.029204913450780
Black jay and Peafowl,L23 9YD,53.475609000000000,-3.027267000000000
Skunk and Marsh harrier,CH44 3AH,53.415088517249900,-3.049883448733920
Mole and Moluccan boobook,CH46 7AA,53.402686000000000,-3.113141000000000
Black cockatoo and Piping shrike,CH47 0LG,53.398477916098100,-3.165989507657560
Parrotbill and Skunk,CH60 8QE,53.320217290848000,-3.098880314561200
Mamo and Vole,CH60 6SD,53.331558000000000,-3.106199000000000
Macaw and Kite,CH46 6DW,53.399319682654600,-3.119372324387890
Vulture and Siskin,CH45 8LQ,53.425163835662300,-3.072284430053280
Chickadee and Dorcopsis,CH44 5TN,53.418392450913900,-3.041102192461390
Mamo and Duck,CH63 6HR,53.354662000000000,-3.048232000000000
Maya and B,CH60 3RB,53.317134753920300,-3.086041432213620
Rabbit and Warbler,CH49 2RQ,53.384114799906000,-3.117920897753220
Kestrel and Cloud rat,CH43 9SS,53.383078675408200,-3.076127680835580
Pheasant and Magpie,CH42 6QG,53.374107091595600,-3.031393595534190
Triller and Parakeet,CH60 5SB,53.329744141182800,-3.086301692733990
Ibex and Eagle,CH46 2QZ,53.417716822233700,-3.090604554119400
Kite and Herring gull,CH43 5RJ,53.383155143883600,-3.037942000000000
Thrasher and Prion,CH48 2JW,53.357175677864400,-3.165010000000000
Fish eagle and Ibex,CH44 4DB,53.412194316151900,-3.043703971616480
Pheasant and Goose,CH48 0RA,53.369971817670100,-3.183502294401670
Partridge and Parrotbill,CH41 0DR,53.397531600266400,-3.061227153448310
Thrasher and Myna,CH46 9SN,53.403658329702600,-3.096457160440850
Armadillo and Peafowl,CH43 2HT,53.375948410387000,-3.052152181109610
Buzzard and Egret,CH61 6XW,53.343903553131300,-3.111506060044270
Jerboa and Minke whale,CH63 4JH,53.311487000000000,-3.034941000000000
Tahr and Fox,CH49 6NN,53.386380172309000,-3.111051000000000
Herring gull and Wader,CH43 1YA,53.386874709175000,-3.046512562625210
Armadillo and Recurvebill,CH49 0XT,53.382079443521500,-3.094083395960990
Kestrel and Dorcopsis,CH46 1RN,53.415757867006800,-3.098378392259650
Vulture and Argus,CH43 6TJ,53.390521639304200,-3.059037756057690
Marsh harrier and Rat,CH49 0UH,53.382847648402400,-3.100477723585450
Elephant and Armadillo,CH61 8TE,53.347100043865800,-3.104153367101770
Quetzal and Rat,CH49 0TE,53.384463097590200,-3.095873556636250
Fulmarine petrel and B,CH60 3RF,53.318622464909900,-3.087520355161310
Grouse and Booted eagles,CH60 9HL,53.331859495011800,-3.122875756433070
Moluccan boobook and Ground sloth,CH47 2DW,53.393969722378200,-3.178363270327020
Herring gull and Ground sloth,CH41 7BL,53.403896544369200,-3.061144917076700
Old World vulture and Ice seal,L22 0PJ,53.475281553418900,-3.021521214339110
Triller and Philippine hawk-owl,CH44 2HQ,53.420940901898900,-3.054918216219200
American sparrow and Asiatic leopard,CH47 2DD,53.395409596809400,-3.179109891520670
Myna and Tahr,CH41 8AF,53.397728336004600,-3.049140141908150
Fulmarine petrel and Magpie,CH63 8QZ,53.356564853593400,-3.024629270449030
Philippine hawk-owl and Bunting,CH45 8JA,53.426962776187000,-3.073157466275990
Duck and Cloud rat,CH43 1XR,53.390704965515200,-3.054576255906940
Macaw and Fox,CH46 2QR,53.416422252762400,-3.092587630135890
Asiatic leopard and Siskin,CH43 1XP,53.383137270177100,-3.046166000000000
Kākāriki and Hawk,CH42 5LE,53.380648697190300,-3.024365639857700
Argus and Macaw,CH42 6AB,53.372519000000000,-3.027958000000000
Bronzewing pigeon and Black cockatoo,CH44 8ES,53.417055131590000,-3.027377224411550
Elephant and Bronzewing pigeon,CH49 5LR,53.373616765746300,-3.093535756581950
Macaw and Rabbit,CH46 1RH,53.412432385021900,-3.101256538424310
Meadowlark and Flameback,CH49 1QZ,53.375469794237500,-3.104270000000000
Capuchin and Argus,L22 5QA,53.472714555897800,-3.027365479428260
Vulture and Partridge,CH47 3AJ,53.397425726751300,-3.178849804289920
Perching duck and Petrel,CH42 4QB,53.369681723350500,-3.022313894408710
Civet and Meadowlark,CH41 0BA,53.398717068287400,-3.054247999117740
Logrunners and Parrotbill,CH48 9XX,53.370454204374800,-3.160130000000000
Condor and Kangaroo,CH42 0LJ,53.376677362211400,-3.025202307008160
Philippine hawk-owl and Pratincole,CH42 0JJ,53.383671867528500,-3.031339149884320
Greenbul and Cuscus,CH60 5TY,53.330576337210300,-3.087704321764600
River dolphin and Stilt,CH43 5WD,53.381854518109900,-3.043578452396550
Wader and Flameback,CH44 8HB,53.415861195840500,-3.028236156097390
Vulture and Elephant,CH44 4BB,53.411329751668200,-3.034477000000000
Darwin's finches and Francolin,CH49 7NR,53.375967199468800,-3.079240365508180
B and Puffleg,CH48 5EZ,53.376435610283000,-3.178901253995540
Pratincole and Tahr,CH43 9TG,53.384636016736600,-3.060681000000000
White ibis and Wallaby,CH43 3HG,53.364242616338300,-3.065554092777410
Grouse and Hawaiian honeycreeper,CH44 4DQ,53.413777751355500,-3.039424740565520
Maya and Kite,CH60 3SL,53.317491928458500,-3.078379627908170
Buzzard and Treepie,CH60 5RJ,53.328198095021900,-3.094160436758720
Mole and Mole,CH46 3RR,53.414707617466800,-3.100171857215640
Scimitar babbler and Tattler,CH43 7ZH,53.401230006384200,-3.080827309047870
Wader and Towhee,CH45 5DF,53.423685000000000,-3.043494554199460
Lemming and Mamo,CH61 9NQ,53.345279203201400,-3.093966944136840
Greenbul and Old World vulture,CH48 1QT,53.352399711299200,-3.160449452532030
Wallaby and Diving bird,CH44 7AW,53.409263964868100,-3.025023126297000
Gull and Pitohui,CH43 7QU,53.399588202758300,-3.077491849225170
Mamo and Jackal,CH43 3DT,53.366186000000000,-3.066421299000240
Booted eagles and Ibex,CH43 7NU,53.399289333724000,-3.062699723562250
Crow and Quetzal,CH42 8PZ,53.371853367970400,-3.049769000000000
Petrel and Treepie,CH63 2JG,53.353503189072800,-3.024210266226640
Fulmarine petrel and Armadillo,CH43 7ZA,53.399314249468700,-3.077966215313410
Maya and Myna,CH45 9JH,53.436369702668600,-3.051870000000000
Boto and Meadowlark,CH41 3PY,53.396584903379900,-3.025560531823190
Pitohui and Argus,CH60 5SJ,53.332952878739900,-3.093230963005830
Eagle and Grackle,CH43 9TJ,53.383183267147200,-3.063456168444100
Kite and Stint,CH63 6HA,53.338701782840800,-3.023795408495680
Parakeet and Mole,CH29 9FR,53.390175000000000,-3.179430000000000
Booted eagles and Maya,CH48 8AN,53.370283420703400,-3.168300379020850
Partridge and Grackle,CH61 6XX,53.341647286705600,-3.106671001676100
Meadowlark and Wader,CH42 8LY,53.370272844472300,-3.037147609194900
Fox and Skunk,CH60 0EE,53.325220870974700,-3.093378575338110
Francolin and Parrotlet,CH45 8QB,53.421363632384100,-3.071045132088150
Triller and River dolphin,CH45 5AT,53.433057112036700,-3.042740091635000
Marsh harrier and Asiatic leopard,CH44 8DN,53.415381982942100,-3.025426060221180
Myna and Songlark,CH61 1BG,53.352840465446900,-3.084950932391340
Diving bird and Egret,CH45 9LG,53.435684485563500,-3.046552643209170
River dolphin and Buzzard,CH43 1XS,53.385866989211700,-3.047645574776220
Gull and Goose,CH47 3AP,53.396649380175700,-3.178271881527720
Linsang and Marmoset,CH48 4DQ,53.370912725561200,-3.181078423979470
Egret and Parrotbill,CH41 9EA,53.382656891080400,-3.022158000000000
Marmoset and Coati,CH42 0HW,53.385084934193500,-3.028005426900570
Crow and Polecat,CH45 3JE,53.430416902563800,-3.063852521228450
Greenbul and Parrotbill,CH41 9HH,53.385370128185700,-3.020960749378450
Duck and Old World quail,CH43 0TR,53.370892639081400,-3.059708000276340
Elephant and Towhee,CH43 6XS,53.388857000000000,-3.057312000000000
Chicken and Eagle,CH43 7AB,53.393036589594700,-3.062965384412110
Zebra and Goose,CH42 6QW,53.370756932503500,-3.030035079373780
Wallaby and Wallaby,CH41 3RQ,53.394459929455300,-3.028065974386140
Parrotbill and Black jay,CH47 8AB,53.400032000000000,-3.153260000000000
Condor and Puffleg,CH44 8BQ,53.421574986216900,-3.027561454354360
Ice seal and Parrotlet,CH48 8BQ,53.369910365249600,-3.153981571540520
Kestrel and B,CH44 0ET,53.424538368577300,-3.031034032727010
Maya and Solitaire,CH46 8TB,53.403944740432300,-3.108272454362190
Puffleg and Thrasher,CH43 9UU,53.388727726602100,-3.084630511549860
Wallaby and Solitaire,CH43 2GB,53.381143000000000,-3.052446000000000
Cuscus and Warbler,CH44 2AY,53.420509573115200,-3.053884291357380
Hawk and Diving bird,CH44 0EA,53.421974196469000,-3.031303038252190
Black jay and Ibex,CH41 2XY,53.390398403119000,-3.022511000000000
Ground sloth and Lemming,CH47 1HA,53.391995184605100,-3.185316355468990
Greenbul and Tit-tyrant,CH46 8SW,53.407034912100200,-3.107525427033280
Buzzard and Tattler,L22 8QH,53.476416000000000,-3.031855000000000
Wader and Guillemot,CH48 7EQ,53.373610284343800,-3.171083000000000
Snipe and Philippine hawk-owl,CH48 2HQ,53.362550385758300,-3.173122970514030
Pratincole and Polecat,CH47 5BA,53.402340000000000,-3.166471000000000
Darwin's finches and Old World vulture,CH44 6LR,53.412625915476100,-3.025013713758660
Petrel and Vole,CH46 7TR,53.401230880885700,-3.113977654707360
Kite and White ibis,CH44 3BG,53.416561907566700,-3.058119999609490
Badger and Vole,L22 6RD,53.479915472991500,-3.040769814345630
Linsang and Grosbeak,CH46 8SQ,53.407301866728300,-3.107818182626260
Linsang and Meadowlark,CH45 5AF,53.434117393493000,-3.041757535054260
Grackle and Quetzal,CH49 3NS,53.371396976856200,-3.123479729923500
Egret and Grackle,CH46 6JT,53.400490959763000,-3.133375942953640
Armadillo and Moluccan boobook,CH61 8RA,53.348582000000000,-3.096620000000000
Kākāriki and Ibex,CH60 4RN,53.326592902735400,-3.105788000000000
Argus and Philippine hawk-owl,CH48 2WG,53.390175000000000,-3.179430000000000
Goose and Grouse,CH61 8TF,53.347177497838700,-3.103554490762640
Solitaire and American sparrow,CH48 3HL,53.366858024166900,-3.180229820995690
B and Night heron,CH44 1ED,53.422819890297200,-3.031218170698530
Kestrel and Coati,CH45 5EP,53.431038762290800,-3.043292732255070
Pheasant and Guillemot,CH48 9UR,53.371682042646400,-3.154826095460420
Old World quail and Fulmarine petrel,CH49 0UW,53.377914255706100,-3.096396876327070
Vulture and Maya,CH49 8HS,53.375014475881700,-3.089122177476500
Treepie and White ibis,CH44 5TY,53.419151034937200,-3.040699405439370
Grosbeak and Booted eagles,CH60 5RX,53.328941818227100,-3.089374000000000
Black jay and Viscacha,CH43 5RB,53.384718000000000,-3.037303000000000
Darwin's finches and Maya,CH48 9YE,53.374934553238800,-3.154057292340100
Peafowl and Mouse,CH63 5PR,53.363461865062000,-3.030610454319440
Elephant and Guillemot,CH63 5RD,53.359798451702400,-3.027005882121390
Thicketbird and Capuchin,CH49 8HE,53.377764253126500,-3.092168832115610
Night heron and Stilt,L22 5PL,53.474878034127000,-3.029783256961250
Peafowl and Darwin's finches,CH63 5PS,53.366830929359000,-3.028738048118340
Marsh harrier and Mouse,CH44 0EU,53.423842986151600,-3.031408473565690
Badger and Armadillo,CH45 2NJ,53.437855681278500,-3.056210363860580
Grackle and Dolphin,CH43 9SJ,53.387416605410500,-3.078537630904820
Masked owl and Zebra,L22 5NP,53.476236497835000,-3.029650416020540
Jerboa and Duck,CH43 7ZR,53.398638612368800,-3.083092829552850
Moluccan boobook and Tahr,CH47 9RW,53.397837145370800,-3.146766069335310
Ice seal and Rat,CH45 1JW,53.427682028318400,-3.041675388473650
Goose and Grosbeak,CH44 2DQ,53.421840252906100,-3.063984453947540
Elephant and Mockingbird,CH48 5DD,53.377575000000000,-3.187396000000000
Ibex and Warbler,L22 0NN,53.476828398024500,-3.027721027933280
Solitaire and Kestrel,CH43 0UT,53.375364807862700,-3.067259794913360
Asiatic leopard and Perching duck,CH41 4JJ,53.397998982662900,-3.037716579173450
Rabbit and Recurvebill,CH48 7EX,53.370604996646900,-3.176741179555640
Wader and Booted eagles,CH43 5RU,53.380344321744200,-3.039812798411850
Vulture and White ibis,CH44 9EF,53.410199308358300,-3.031380000000000
Boto and Rabbit,CH41 3JP,53.395389872035100,-3.030433000000000
Treepie and Siskin,CH44 9DS,53.412439623443600,-3.028905846231390
Civet and Boto,L22 4QZ,53.480057519497100,-3.021183906099150
New World blackbird and B,CH46 8UA,53.406528762549300,-3.102969332322480
Crow and Grackle,CH45 3HB,53.428028073217200,-3.067735000000000
Marmoset and Herring gull,CH42 9NA,53.380411000000000,-3.033245000000000
Armadillo and Logrunners,CH27 9DY,53.421734000000000,-3.043516000000000
Dolphin and Francolin,CH48 1QJ,53.371776159001700,-3.136596436442940
Quetzal and Solitaire,CH48 1NG,53.366495000000000,-3.139064655548840
Shearwater and Cloud rat,CH61 1AZ,53.353980000000000,-3.082381000000000
Myna and Grouse,CH63 5NB,53.363514523251800,-3.024495494246620
Polecat and Tree warbler,CH49 5NA,53.371792137461700,-3.093519069578390
Stint and Chicken,CH45 3JG,53.427889907340200,-3.060944890907010
Zebra and Jerboa,CH60 1UT,53.331075441011500,-3.077159000000000
Mink and B,CH45 5BP,53.432744284230800,-3.046645960696620
Marsh harrier and Parakeet,CH63 1JH,53.323113750489400,-3.046692909881910
Cloud rat and Tahr,CH49 4QH,53.389054527640800,-3.114531763610950
Philippine hawk-owl and Black jay,CH44 5UL,53.417950441244000,-3.042310183809470
Peafowl and Nukupuʻu,CH27 9ZW,53.415698000000000,-3.023252000000000
Boto and Solitaire,CH43 4XQ,53.389244299659800,-3.039713972716770
Fulmarine petrel and Boto,CH44 1BX,53.422542612795400,-3.039231000000000
Songlark and Vole,CH45 2PE,53.437134000000000,-3.041240490841530
Jay and Partridge,CH49 6JW,53.392301319968600,-3.090992159184160
Cloud rat and Dorcopsis,CH48 3JW,53.367671607383800,-3.174587000000000
Coati and Darwin's finches,CH60 5RZ,53.327435945522300,-3.092745000000000
Triller and Black cockatoo,L22 0NJ,53.476047713522800,-3.025472193322140
Tahr and Pheasant,CH49 6NR,53.385767359742200,-3.092839813450890
Skunk and Snipe,CH48 0QN,53.370703098714300,-3.184995545290070
Minke whale and Shearwater,CH26 9EU,53.365704000000000,-3.065905000000000
Warbler and Hawk,CH45 8NP,53.423374487796700,-3.072344733123800
Perching duck and Guillemot,CH61 3XY,53.355167652301000,-3.110461987926150
Tree warbler and Tree warbler,CH42 8NA,53.370737000000000,-3.038628983600490
Francolin and American sparrow,CH49 7NH,53.374329099716100,-3.078477430424990
Ice seal and Capuchin,CH43 6WB,53.388854000000000,-3.059628000000000
American sparrow and Meadowlark,CH41 4HQ,53.395633220145100,-3.033763929858400
Polecat and Polecat,CH41 8HX,53.402255118152100,-3.055674158142310
Maya and Rabbit,CH44 3BZ,53.415926691211500,-3.049633269239350
Philippine hawk-owl and Rabbit,CH41 3QB,53.396059524640600,-3.022885984105160
Night heron and Ice seal,CH45 5JA,53.428743099168600,-3.047796838941750
Siskin and Dorcopsis,CH41 4HE,53.399799000000000,-3.031237206246410
Civet and Bronzewing pigeon,CH41 4HN,53.396300470266400,-3.032486737982970
Old World warbler and Bunting,CH49 9DW,53.381291140989600,-3.097701398036830
Guillemot and Mole,CH48 4EH,53.373048914412600,-3.174117981300140
Rabbit and Macaw,CH49 8EH,53.376293888142400,-3.086824841643360
Recurvebill and Cuscus,CH48 5BW,53.377711251859700,-3.177162623306810
Ice seal and Kangaroo,CH61 5UY,53.343951129573100,-3.104447509159390
Fulmarine petrel and Treepie,CH60 2TR,53.324393199345300,-3.088537937842260
Old World quail and Piping shrike,CH43 4YH,53.387324014522700,-3.037261409345310
Civet and Thrasher,CH45 6UN,53.428289832835500,-3.053339311198100
Pitohui and Mole,CH43 2JF,53.382683321713800,-3.050889994977140
Piping shrike and Moluccan boobook,CH60 7SP,53.330785138064600,-3.102170217656020
Tree warbler and Rat,CH44 9AZ,53.412861853192200,-3.033098547667170
Gull and Condor,CH41 7EL,53.406663000000000,-3.063485000000000
Rat and Thrasher,CH60 1UA,53.333868520988800,-3.077561355527650
Coati and Warbler,CH42 6SJ,53.373533000000000,-3.025157000000000
Rat and River dolphin,CH44 2EP,53.416750726604600,-3.060140906370120
Old World vulture and Triller,CH43 2JW,53.383963852746000,-3.048380651342090
River dolphin and Logrunners,CH46 6HL,53.397873291631100,-3.127876981939030
Coati and Black jay,CH47 1HG,53.390542058244500,-3.182283541833830
Vole and Perching duck,CH46 8TT,53.402906949250000,-3.106771401013880
Parakeet and Mamo,CH61 6UY,53.337297377036400,-3.102698605414800
Zebra and Pratincole,CH49 8HA,53.378533360819900,-3.084717132040330
Cloud rat and Chicken,CH43 7ZT,53.396638623566600,-3.080921000000000
Jay and Songlark,CH43 3DF,53.365758153774600,-3.054831563592840
Black cockatoo and Pratincole,CH44 8BA,53.422104532998400,-3.029741174788030
Old World quail and Old World vulture,CH44 1BH,53.420874950451200,-3.038860534672400
Skunk and Logrunners,L22 1RA,53.472019596093400,-3.025601045282430
Philippine hawk-owl and Old World quail,CH49 4GP,53.386026014456900,-3.119249011517830
Booted eagles and Prion,CH43 9XQ,53.391600986067200,-3.083996811919270
Hawaiian honeycreeper and Greenbul,CH42 8PJ,53.371958774052400,-3.042764922686170
Scimitar babbler and Mouse,CH46 8SD,53.406726000000000,-3.113775000000000
Triller and Ibex,CH60 5RN,53.326340765555500,-3.092806630764030
Maya and Viscacha,CH48 5HJ,53.376504123105000,-3.172860128527250
Pratincole and Marsh harrier,CH46 6HU,53.400233484210700,-3.132090640920460
Parakeet and Herring gull,CH43 2HL,53.373312314079700,-3.057498383816250
Parrotbill and Viscacha,CH42 9JT,53.376185628514600,-3.034269857543660
Partridge and Triller,CH41 8DD,53.401292000000000,-3.055951000000000
American sparrow and Triller,CH47 8XX,53.408066000000000,-3.143183531756560
Flameback and Stilt,CH47 3DF,53.395868878319200,-3.170805909063990
Ice seal and Tahr,CH46 0PX,53.393661070758600,-3.118516000000000
Thicketbird and Prion,CH43 9TS,53.382802171238700,-3.058801029543460
Solitaire and Wallaby,CH44 1AX,53.418491493501000,-3.036951643028300
Peafowl and Civet,CH49 1RJ,53.376660391663000,-3.120100721560820
Hawaiian honeycreeper and Thicketbird,CH49 5LF,53.372417513674200,-3.076144446294530
Thicketbird and Flameback,CH48 8GG,53.367588068351000,-3.163147000000000
White ibis and Logrunners,CH46 6BD,53.402657239200000,-3.117820839000000
Minke whale and Chipmunk,CH49 5LX,53.373830111487400,-3.093796755397560
Vole and Eagle,CH43 7NT,53.390851116867000,-3.072474224425690
Tree warbler and Snipe,CH45 6UX,53.426787546956600,-3.059562938870390
Civet and B,CH49 5LB,53.370179293052200,-3.075141126268680
Kākāriki and Logrunners,CH41 2TZ,53.385101627108900,-3.035433219281840
Mole and B,CH47 4AG,53.383654344294600,-3.184302795154860
Scimitar babbler and Fish eagle,CH63 5NU,53.360121884776300,-3.030154179265340
Wader and Cuscus,CH49 4RX,53.394602095568200,-3.106795000000000
Mouse and Mole,CH49 4GD,53.395501999595300,-3.092893753621270
Night heron and Wallaby,CH46 3RT,53.415571902671400,-3.112097000000000
Triller and Logrunners,CH45 0JN,53.431704924943300,-3.057487727773040
Quetzal and Hawaiian honeycreeper,CH46 6AR,53.402633106654000,-3.115909522022400
Linsang and Prion,CH63 8PY,53.354464258169700,-3.025345119586940
Polecat and Badger,CH45 5EZ,53.429919000000000,-3.047088000000000
Polecat and Badger,CH44 7DX,53.408878599199300,-3.023840460034950
Coati and Partridge,CH49 6NB,53.385839494227000,-3.103562012833300
Mole and Scimitar babbler,CH41 8HG,53.400675000000000,-3.051454000000000
Black cockatoo and Songlark,CH43 0RR,53.368853397037200,-3.049392218961330
Wader and Egret,L22 8QF,53.476789034977800,-3.031245894392480
Mouse and Viscacha,CH41 0AU,53.398174415041000,-3.056655997509450
Civet and Bunting,CH43 7YW,53.403126373938400,-3.082845837752270
Jerboa and Grouse,CH48 8AF,53.372255994705500,-3.165137765801580
Old World warbler and Magpie,CH49 4NG,53.390159146879100,-3.107884155590660
Diving bird and Rat,CH49 4RG,53.392437828337300,-3.103522205559340
Bronzewing pigeon and Lemming,CH48 2LA,53.358478711390700,-3.162057139582430
Tahr and Kākāriki,CH63 5QY,53.359982063780600,-3.028648170630320
Marsh harrier and Wallaby,CH44 4SB,53.416077823059300,-3.022900010607660
Wader and Grackle,CH44 4DX,53.411691326770500,-3.041210000000000
Parrotbill and Snipe,CH27 9ZZ,53.415697271202700,-3.023251979394600
Songlark and Bunting,CH60 9JG,53.325302810794600,-3.111575000000000
Mamo and Kākāriki,CH60 9JJ,53.320495810199300,-3.113434666313010
Magpie and Black jay,CH46 0TN,53.394461081969100,-3.112161604054570
Flameback and Badger,CH60 5SN,53.329623179389800,-3.091674262730740
Night heron and Thicketbird,CH44 3DT,53.416043399188700,-3.056783063241920
Fox and Vulture,CH48 4DZ,53.372963339121700,-3.183690464039300
Rat and Jackal,CH45 9JB,53.433042179848300,-3.050596943695250
Ground sloth and New World blackbird,CH44 5RH,53.418994834871600,-3.048279366935780
Lemming and Puffleg,CH8 9HA,53.326527048989600,-3.290136321821600
Gull and Dorcopsis,CH45 5JL,53.431553498421700,-3.051222491522610
Old World warbler and Black cockatoo,CH49 2PT,53.381000460436300,-3.115478979961670
Songlark and Booted eagles,CH48 1PD,53.354272000000000,-3.140717085504820
Old World quail and Asiatic leopard,CH60 3SB,53.317017430070100,-3.076176010424150
Greenbul and Cloud rat,CH41 3PB,53.396563698916700,-3.025936002740230
Minke whale and Jackal,CH63 5LU,53.363360777898200,-3.022508170371650
Old World warbler and Hawaiian honeycreeper,CH43 7ZF,53.400356906088000,-3.079962900292340
Flameback and Philippine hawk-owl,CH48 3HT,53.366110410713900,-3.181291221136410
Tit-tyrant and Recurvebill,CH61 9PW,53.350427062257600,-3.093302555289790
Perching duck and Stilt,CH49 6NL,53.387859277946700,-3.106771883290370
Triller and White ibis,CH48 1ND,53.354820070898900,-3.162062762704280
B and Grosbeak,CH60 4SE,53.324906000000000,-3.108114000000000
Goose and Towhee,CH45 7QU,53.429077758924000,-3.035192557287470
Kestrel and Songlark,CH63 2LP,53.353302596128400,-3.027676000032930
Grackle and Mink,CH46 4TD,53.410409000000000,-3.115993000000000
Jay and Jay,CH60 9HE,53.335238400581300,-3.121072286309900
Peafowl and Masked owl,CH41 8DE,53.398415976700900,-3.049653378049410
Ground sloth and Civet,CH63 2JS,53.351515040574700,-3.025439579437630
Civet and Night heron,CH42 0NP,53.383660036300000,-3.024362767961960
Cloud rat and Coati,CH48 6DY,53.373842296979800,-3.167465848973130
Diving bird and Bunting,CH41 7EQ,53.405288191440300,-3.071393325726610
Prion and Recurvebill,CH60 8PA,53.312356000000000,-3.103406000000000
Macaw and Cuscus,CH41 7DJ,53.405708627212500,-3.072622336915260
Fish eagle and Old World warbler,CH45 0ND,53.434040045569500,-3.053647114138990
Marmoset and B,CH45 1JQ,53.431375000000000,-3.040953000000000
Crow and Condor,CH41 6RY,53.391963581915300,-3.022532109790030
Cuscus and Myna,CH46 6AD,53.401202227895400,-3.113194774334250
Old World quail and Fulmarine petrel,CH49 9AT,53.381270526443200,-3.096032099880510
Mockingbird and Moluccan boobook,CH46 0RS,53.395784143469300,-3.120633037295510
Tahr and Linsang,CH64 7TP,53.315018274822600,-3.054435385144880
Marmoset and Diving bird,CH63 2JB,53.353608235325100,-3.023491628228170
Gull and Piping shrike,CH8 9QF,53.313055667180900,-3.266313985860420
Vulture and Boto,CH43 3DW,53.367437098091700,-3.058104287542320
Ibex and Booted eagles,CH49 3AJ,53.375197414570100,-3.128450093370250
Treepie and Linsang,CH46 1QG,53.415166275171600,-3.083437621474840
Herring gull and Linsang,CH8 9HS,53.328783653537300,-3.309905153270960
Myna and B,CH43 7SH,53.400017000000000,-3.059798000000000
Ibex and Quetzal,L23 7WD,53.475517869943800,-3.027269000000000
Grosbeak and B,CH8 9LA,53.325694985023300,-3.305471263061760
New World blackbird and Mole,CH48 5HL,53.379235238911800,-3.175761464198120
Petrel and Wallaby,CH46 0QQ,53.398809560407800,-3.105627276248690
Guillemot and Civet,CH44 0EP,53.424770000000000,-3.031386000000000
Linsang and Wader,CH43 9RD,53.388776248242700,-3.075294038512600
Magpie and Grackle,CH44 4AS,53.409154211748500,-3.039793386125590
Armadillo and Masked owl,CH49 3AD,53.374611870215800,-3.123819896907530
Diving bird and Kite,CH44 9AH,53.415164484718700,-3.031890521353360
Peafowl and Herring gull,CH49 0WG,53.379252000000000,-3.099467000000000
Darwin's finches and Armadillo,CH44 6LB,53.412156848230700,-3.026251145518620
Herring gull and Diving bird,CH43 2NB,53.376164608810900,-3.061133000000000
Snipe and Lemming,CH63 2JW,53.349728639158100,-3.020964987127780
Magpie and Pitohui,CH48 9UF,53.373277506419800,-3.159934785495430
Siskin and Myna,CH41 1AE,53.404543000000000,-3.038854000000000
Guillemot and Armadillo,CH43 3ET,53.364228000000000,-3.067312000000000
Stilt and Macaw,CH46 0QD,53.397788038518300,-3.104307368818550
Grosbeak and Siskin,L22 5RN,53.468965622201000,-3.024292084009160
Capuchin and Tree warbler,CH48 2JF,53.360827116223700,-3.160903875942450
Marmoset and Mockingbird,CH49 0TU,53.384058652302300,-3.088992209230300
Wallaby and Quetzal,CH43 4UJ,53.386743661149100,-3.039908632823120
Asiatic leopard and Scimitar babbler,CH60 9JN,53.325805241968400,-3.111846271056900
Parakeet and Bronzewing pigeon,CH46 6BH,53.399943377531800,-3.124743138641730
Bunting and Mamo,CH41 6EN,53.390934971478400,-3.025078819478680
Shearwater and Puffleg,CH43 0ST,53.371175812374100,-3.054123747121930
