name,postcode,lat,lon
Chipmunk and River dolphin,CV3 9FR,52.381624000000000,-1.460987000000000
Bronzewing pigeon and Grouse,CV8 1JL,52.341116529235900,-1.574221329564280
Rat and Viscacha,CV6 4FN,52.442885382128600,-1.520249455682090
Maya and Towhee,CV5 7FN,52.416096878196900,-1.600656254783920
Kestrel and Eagle,CV2 3PQ,52.424225853715200,-1.476643781962010
Fulmarine petrel and Gull,CV1 5AS,52.414869682665200,-1.495867805327900
Hawk and Moluccan boobook,CV7 8ES,52.481055965934300,-1.586654665923960
Towhee and Vole,CV6 6NQ,52.450159509098800,-1.488328748493740
Marmoset and Guillemot,CV6 7AZ,52.444714159699300,-1.480682467906560
Parrotbill and Rat,CV4 9BY,52.401953868851000,-1.559687693522050
Bunting and Moluccan boobook,CV5 8LX,52.410416290867800,-1.558001068360280
Wallaby and Thicketbird,CV6 6FX,52.441174147631300,-1.502084879457870
Booted eagles and Old World warbler,CV12 8EL,52.484458247979900,-1.482497281380000
Lemming and Ibex,CV1 5QD,52.412218000000000,-1.510776000000000
Pitohui and Tit-tyrant,CV4 8AR,52.393472484490700,-1.596466437525160
Pitohui and Jay,CV7 9FL,52.467110517983000,-1.477062910659600
Badger and Vulture,CV35 7QR,52.315223000000000,-1.576100673870240
Jay and Eagle,CV6 5FN,52.428259064354200,-1.494479755505320
Jerboa and Armadillo,CV6 1BB,52.415962557495000,-1.529848447114700
Maya and Chickadee,CV12 0HL,52.470803000000000,-1.503524000000000
Fulmarine petrel and Warbler,CV8 3JG,52.351470421816600,-1.519521523693650
Greenbul and Vole,CV8 1JA,52.340645454856000,-1.573227756196940
White ibis and Jackal,CV12 8PR,52.479700994960200,-1.469963918049340
Tahr and River dolphin,CV7 9BA,52.462750272591800,-1.512865763368110
Shearwater and Fox,CV12 9ER,52.476618522278500,-1.458296046654260
Fox and Logrunners,CV5 7ZG,52.381624000000000,-1.460987000000000
Old World warbler and Fulmarine petrel,CV2 3BP,52.422376880800800,-1.451505308979620
Elephant and Shearwater,CV3 6FY,52.383219022919300,-1.511757666790460
Tree warbler and Goose,CV4 8DL,52.394532765927700,-1.573252204288780
Jay and Old World warbler,CV6 4FJ,52.442008725667300,-1.516904736626660
White ibis and Treepie,CV8 3LE,52.368387975206500,-1.491094798697030
Scimitar babbler and Elephant,CV3 2HJ,52.400765427827800,-1.455594658233900
Myna and Masked owl,CV4 8AJ,52.394004000000000,-1.561565000000000
Fulmarine petrel and Kestrel,CV5 6NU,52.399524213452500,-1.524261695197140
Recurvebill and Tattler,CV2 5JH,52.407905649469400,-1.461930810229720
Flameback and Pitohui,CV7 7NN,52.435853366022900,-1.644591480885300
Mamo and Solitaire,CV2 1BP,52.431479065138600,-1.462202822596730
Philippine hawk-owl and Old World warbler,CV5 8JT,52.414032693807500,-1.535161766447160
Rabbit and Mockingbird,CV7 9HZ,52.447046420955100,-1.413797000000000
Crow and Maya,CV6 1FG,52.418009952781500,-1.540692619186820
Egret and Gull,CV8 2QA,52.342775727333800,-1.558425928361060
Buzzard and Solitaire,CV6 7LF,52.433340796928600,-1.472358596246540
Vulture and Coati,CV1 3FE,52.403559000000000,-1.516854000000000
Herring gull and Asiatic leopard,CV5 6JJ,52.406746591413300,-1.529578881367960
Old World vulture and Egret,CV5 8JX,52.413638414516000,-1.535489355969500
Armadillo and Greenbul,CV8 3ZZ,52.351029000000000,-1.516781000000000
Night heron and Greenbul,CV6 7BD,52.443741871834300,-1.476294958372500
Parrotbill and Quetzal,CV3 1DS,52.397225117116400,-1.473876806706430
Thrasher and Civet,CV5 7LY,52.416075739307200,-1.571485897942600
Triller and Capuchin,CV7 9GE,52.463599485441000,-1.484140072187340
Towhee and Duck,CV7 9FS,52.464742000000000,-1.438703000000000
Tahr and Kākāriki,CV1 5QT,52.407478009894900,-1.505242660379740
Flameback and White ibis,CV3 5JX,52.388911253793100,-1.503466309051010
Grouse and Old World quail,CV7 8EU,52.481408432611000,-1.589640000000000
Kite and Piping shrike,CV6 2AZ,52.432876536204500,-1.537596468131610
Tree warbler and Zebra,CV12 0AH,52.483224463162000,-1.494483442450600
Pratincole and Hawk,CV5 7EQ,52.416074363370500,-1.594040156964540
Skunk and Pitohui,CV8 2NN,52.348324576425200,-1.558928530437850
American sparrow and Francolin,CV6 3HE,52.427190876084200,-1.525258248113100
Asiatic leopard and Black cockatoo,CV3 6RE,52.376371437289100,-1.505971938261920
Petrel and Ground sloth,CV1 5QN,52.381624000000000,-1.460987000000000
Crow and Mole,CV3 2AQ,52.406213734327600,-1.438343679720590
Mole and Magpie,CV3 3NB,52.389315390042300,-1.464228642272880
Treepie and Duck,CV4 0BH,52.381624000000000,-1.460987000000000
Perching duck and Partridge,CV4 9QT,52.410179465949500,-1.579349205914100
Myna and Hawk,CV8 1BB,52.355341482868600,-1.592775845931000
Tree warbler and Buzzard,CV6 9LP,52.433866732644600,-1.493298000000000
Magpie and Tahr,CV6 5PA,52.427526313845200,-1.501885630284980
Siskin and Ibex,CV12 0HQ,52.470758957178100,-1.506005661419140
Old World vulture and Triller,CV3 1NA,52.402968527440300,-1.468767075150340
Goose and Condor,CV1 5EL,52.409698466063500,-1.495426905887960
Pheasant and Duck,CV5 7PG,52.418056600355900,-1.574819120088470
Mole and Old World vulture,CV12 9JJ,52.476748560532400,-1.421192000483500
Grackle and Herring gull,CV1 2DG,52.401549641546600,-1.490360782541060
Rat and Coati,CV1 2LW,52.404178684461300,-1.503971164320210
Thicketbird and Grackle,CV2 4JA,52.411977690204400,-1.486080104966670
Quetzal and Rat,CV7 7GR,52.384376751142500,-1.641860524004830
Polecat and Tit-tyrant,CV4 9WN,52.409461000000000,-1.597332696640410
River dolphin and River dolphin,CV6 3DT,52.433207202727400,-1.519060139413670
Goose and Skunk,CV12 9NP,52.475646288758100,-1.423753508167930
Coati and Cuscus,CV12 9RB,52.475965510782000,-1.419170504073120
Condor and Treepie,CV5 6LB,52.403151369941900,-1.532057072276940
Condor and Songlark,CV6 2HT,52.443261935330100,-1.522216772725300
Gull and Hawk,CV6 6LQ,52.446464217489700,-1.490328382336990
Ground sloth and Ibex,CV3 1JS,52.396930589180400,-1.480641000000000
Mouse and Jay,CV6 5FT,52.428918144200000,-1.488854061427380
Linsang and Rat,CV2 1AL,52.430112386058600,-1.456262856220680
Solitaire and Solitaire,CV3 4LF,52.383737000000000,-1.491403000000000
B and Old World quail,CV12 9AU,52.478046232452700,-1.463844047507160
Recurvebill and Marmoset,CV6 4GA,52.443399400200000,-1.511843307113850
Songlark and Ibex,CV3 1PT,52.399324421608400,-1.482258929291790
Mockingbird and Piping shrike,CV6 4JZ,52.447555138520400,-1.508060184313470
B and Herring gull,CV6 7JX,52.428972852452400,-1.476690538889050
Pratincole and Crow,CV8 3NL,52.378152000000000,-1.388488000000000
Mockingbird and Songlark,CV5 6PY,52.398484580886800,-1.518394036939240
Parrotbill and Black cockatoo,CV3 3HA,52.389918436521200,-1.458461189807980
Black cockatoo and Linsang,CV2 5AW,52.409817616719200,-1.455395063670020
Meadowlark and Guillemot,CV6 4EP,52.441338139340800,-1.520016160128300
Black jay and Black cockatoo,CV8 2GU,52.348823957984300,-1.577509180426110
Duck and Kestrel,CV8 2XZ,52.342451000000000,-1.499226992654940
Cuscus and Dolphin,CV7 9JT,52.464119514466600,-1.412307000000000
Herring gull and Songlark,CV1 5BL,52.414743687277800,-1.491634920622070
Warbler and Triller,CV12 0GS,52.477682906337800,-1.499687000000000
Wallaby and Bronzewing pigeon,CV5 9EE,52.438259057125500,-1.558105155000690
Logrunners and Gull,CV23 9QS,52.331876789780200,-1.364442444484840
Rabbit and Darwin's finches,CV3 6RD,52.376015953055500,-1.506960108190150
Skunk and Petrel,CV8 2UH,52.346080168060900,-1.557365448299510
New World blackbird and Prion,CV5 8AR,52.408948370453300,-1.557324807029930
Thrasher and Mouse,CV12 0LQ,52.475347538580200,-1.506881834995050
Ice seal and Hawk,CV5 7HL,52.412678200186700,-1.569210628469520
Mamo and Tahr,CV6 7ND,52.439987933157700,-1.485901000000000
Hawk and Mamo,CV3 1LD,52.400473781526600,-1.468561685759530
Duck and Mole,CV2 3BX,52.417038106487800,-1.463569403706060
Tattler and Ice seal,CV5 6GE,52.402247785943300,-1.528641916243670
Mink and Ground sloth,CV6 5JA,52.436632240446300,-1.499502996686860
Chickadee and Thicketbird,CV3 4ER,52.382427800858000,-1.471981086433190
Eagle and River dolphin,CV11 6ZB,52.495875935266700,-1.402396419548810
Stilt and Wader,CV1 4GU,52.416833204619900,-1.505255469158920
Fox and Jay,CV3 5AH,52.382271390587000,-1.504392878251810
Egret and Civet,CV3 6EU,52.376811896521800,-1.516837545406420
Buzzard and Scimitar babbler,CV1 5SS,52.413800000000000,-1.497835000000000
Eagle and Puffleg,CV3 4BD,52.386332000000000,-1.486670331578580
Logrunners and Old World quail,CV3 1LE,52.400033742984100,-1.466670975962980
Bronzewing pigeon and Thicketbird,CV8 3GH,52.385024386912500,-1.400014847407940
Maya and Mole,CV5 9BX,52.435130000000000,-1.597984000000000
Darwin's finches and Darwin's finches,CV5 6FP,52.397660350232700,-1.537126734812620
B and Jackal,CV4 9RQ,52.399817677534300,-1.588104511409420
Viscacha and Chickadee,CV4 9FU,52.407736650292000,-1.572522168554190
Chipmunk and Parrotbill,CV5 8FS,52.409915938074100,-1.546936315416900
River dolphin and Vole,CV6 1FS,52.421613661273100,-1.542669744980980
Cuscus and Fox,CV6 7DL,52.441992757117100,-1.479228581577470
Mouse and Pratincole,CV2 5LP,52.407413887057300,-1.468493027538860
Chipmunk and Dolphin,CV3 6NL,52.381552197543000,-1.519650666662840
Minke whale and Cloud rat,CV1 4ET,52.418175249240900,-1.512357016344760
Bronzewing pigeon and Parakeet,CV8 2HU,52.349278125183200,-1.561502855115730
Night heron and Zebra,CV2 4LP,52.413410350785400,-1.484754976768770
Black cockatoo and Polecat,CV2 4FQ,52.410419956437700,-1.489670560515580
Jerboa and Meadowlark,CV5 8PF,52.411879156580700,-1.531641326301450
Egret and Stint,CV2 2DG,52.426847476998900,-1.436728581924110
Thicketbird and Kangaroo,CV1 2NU,52.404681961203100,-1.510403750205560
Kite and Kākāriki,CV5 9AB,52.427891000000000,-1.574270737313730
Grouse and Coati,CV3 5NN,52.379905145467800,-1.501819064138900
Rat and Magpie,CV1 4QD,52.381624000000000,-1.460987000000000
Badger and Crow,CV5 7QZ,52.420946654234500,-1.575997108121180
Prion and Dorcopsis,CV1 2HN,52.405038385139000,-1.509635444718680
Linsang and Quetzal,CV6 9LD,52.433866732644600,-1.493298000000000
Songlark and Bronzewing pigeon,CV3 5FE,52.396075802853600,-1.507618474901920
Flameback and Black jay,CV3 2BZ,52.391268294289200,-1.418959926879000
Pitohui and Rat,CV8 3AY,52.354532851230600,-1.518724842416650
Flameback and Polecat,CV1 4AU,52.413950143428500,-1.521224929981430
Piping shrike and Old World quail,CV2 3HP,52.421101098198400,-1.475474984022250
Scimitar babbler and New World blackbird,CV23 0JZ,52.392148431106900,-1.371321699973170
Snipe and Darwin's finches,CV8 2JB,52.349388730909200,-1.564672808078220
Vulture and Buzzard,CV4 9ST,52.404478133599300,-1.571392420572070
Bronzewing pigeon and Maya,CV8 1DL,52.337789262699300,-1.586640587701160
Boto and Egret,CV5 9NT,52.417394894912200,-1.558607690920010
Capuchin and Songlark,CV6 1FJ,52.419024268270900,-1.542608296642220
Fulmarine petrel and B,CV12 8BU,52.482639752341800,-1.473771878272170
Macaw and Egret,CV12 9JG,52.475965310488200,-1.417300692428620
Argus and Myna,CV2 5JD,52.410027032850800,-1.463845534410100
Cloud rat and Black jay,CV12 8QF,52.480733033096300,-1.483792552738360
Tree warbler and River dolphin,CV8 1LD,52.350396942659000,-1.582485766141450
Night heron and Mink,CV6 4LL,52.446673576160700,-1.503626636321990
Vulture and Viscacha,CV2 3QH,52.423504056227500,-1.478093456820860
Hawaiian honeycreeper and Pheasant,CV1 4FS,52.415061152317700,-1.504158068413670
Boto and Civet,CV5 9BY,52.438055000000000,-1.590940000000000
Egret and Chickadee,CV8 3HQ,52.380847000000000,-1.400439000000000
Old World warbler and Macaw,CV1 2JY,52.405673608097800,-1.508893431244770
Macaw and Skunk,CV1 4NL,52.422165911596000,-1.507783883590390
Chicken and Gull,CV3 2UQ,52.400214859942400,-1.432187990641680
Fish eagle and Darwin's finches,CV6 6QG,52.444079105530900,-1.489693842301390
Minke whale and Stint,CV1 5LY,52.413083064221100,-1.502812783773000
Fox and Coati,CV2 3PR,52.422261291130500,-1.478843548822320
Grackle and Black cockatoo,CV3 5AD,52.380907522713700,-1.502880250385100
Hawaiian honeycreeper and Siskin,CV6 1QE,52.418690890200500,-1.540097396301330
Goose and Maya,CV2 5JN,52.408707415621100,-1.464273141211010
Minke whale and Scimitar babbler,CV8 1EZ,52.340104196120600,-1.585342057308470
Puffleg and Dolphin,CV2 5FJ,52.412720429762000,-1.459093595806640
Goose and Crow,CV5 9PE,52.426247762465200,-1.570166708687360
Magpie and Fulmarine petrel,CV6 4HY,52.448161851050000,-1.513468039964160
Chicken and Macaw,CV4 9UF,52.401692756696200,-1.600080720550870
Maya and American sparrow,CV5 7EX,52.416388452965700,-1.588670680105440
Ground sloth and Bunting,CV3 6PX,52.382935658515700,-1.514993013911470
Dorcopsis and Pitohui,CV6 4NQ,52.442881350715400,-1.498888056064870
Towhee and Hawk,CV6 2PL,52.437862000000000,-1.520436000000000
Flameback and Masked owl,CV7 9AZ,52.462905108232400,-1.511171424074040
Parakeet and Thicketbird,CV2 5FW,52.410546583738100,-1.457517753247210
Macaw and Solitaire,CV4 9WF,52.410569166445400,-1.601014869123150
Black jay and Old World warbler,CV8 1RT,52.338026325488000,-1.577406545855320
Solitaire and Wader,CV35 7BQ,52.319698773462000,-1.645727671244700
Bronzewing pigeon and Grosbeak,CV5 9LA,52.414465944061600,-1.554299715275740
Zebra and Hawaiian honeycreeper,CV12 0GG,52.474227031999700,-1.496971513263800
Polecat and Meadowlark,CV6 1FX,52.422811685065300,-1.543274972380070
Mockingbird and Tit-tyrant,CV4 9PH,52.408952707877100,-1.583271209725040
Masked owl and Quetzal,CV3 6LP,52.383962128966100,-1.524237895615450
Capuchin and Fulmarine petrel,CV7 7BJ,52.409386859953500,-1.641716948289600
Moluccan boobook and Hawk,CV6 3LP,52.426301376337900,-1.514311580640300
Thicketbird and Recurvebill,CV4 9HZ,52.398652450112900,-1.596948312687680
Pitohui and Boto,CV6 7EX,52.444883089806600,-1.480253818651050
Kestrel and Macaw,CV2 1JL,52.439705924131300,-1.472385577193820
Jerboa and Nukupuʻu,CV3 1PD,52.399747965321300,-1.484546788331230
Civet and Polecat,CV1 5SF,52.409718000000000,-1.504385000000000
Thicketbird and Eagle,CV4 7AY,52.384988798667800,-1.540609107692560
Kestrel and Solitaire,CV2 3FB,52.419431394530500,-1.454159169316150
Parrotlet and Goose,CV6 2NB,52.423755410286300,-1.536280124922810
Cloud rat and Songlark,CV12 8JX,52.480424000000000,-1.474638000000000
Wallaby and Prion,CV3 6SS,52.373908277354600,-1.510332642454250
Flameback and Crow,CV2 4EG,52.410045574739200,-1.482133294512340
Tahr and Jay,CV2 4GA,52.411719655597100,-1.488773477226840
American sparrow and Skunk,CV8 1HN,52.341255000000000,-1.577390000000000
Partridge and Prion,CV6 6NW,52.448116000000000,-1.491516000000000
Petrel and Philippine hawk-owl,CV6 1HH,52.419845374146500,-1.522881502677320
Kangaroo and Kite,CV4 9UR,52.406150000000000,-1.579055000000000
Jackal and Flameback,CV8 3BX,52.350815368914100,-1.467351346735960
Diving bird and Songlark,CV3 4BA,52.386646023624600,-1.478469247583040
Jerboa and Greenbul,CV12 0GP,52.474569260870700,-1.499234867347140
Tattler and Lemming,CV1 4NU,52.416219298745400,-1.508747000000000
Tree warbler and Jay,CV5 6ET,52.399174064105800,-1.533891000000000
Asiatic leopard and Stilt,CV1 5RE,52.407374000000000,-1.508875000000000
Buzzard and Capuchin,CV2 2BB,52.423466014528300,-1.440271553441040
Chipmunk and Bunting,CV8 3FZ,52.380188877052500,-1.379351238121320
Jackal and Snipe,CV2 3JG,52.419557000000000,-1.475735000000000
Minke whale and Parakeet,CV6 5GF,52.425167117103000,-1.490441552239300
Myna and Hawaiian honeycreeper,CV2 4AW,52.410319598958300,-1.476984722936140
Perching duck and Philippine hawk-owl,CV2 2LT,52.430310924924300,-1.446729819720110
Fox and River dolphin,CV2 2NJ,52.434077536070200,-1.444755798028020
White ibis and Rabbit,CV7 8LQ,52.463159000000000,-1.531318000000000
Darwin's finches and Siskin,CV4 9ET,52.405744536982700,-1.568587255524010
Rabbit and Grackle,CV8 1LN,52.345089150799900,-1.576429130549760
Jay and Chipmunk,CV2 5LS,52.408486528841600,-1.471126219730860
Tattler and Wader,CV23 9PS,52.332840879556800,-1.411742108207940
Jackal and Guillemot,CV2 4HN,52.411319997767200,-1.483691422344730
Warbler and Warbler,CV5 7BE,52.411554670874600,-1.576748685062350
Ground sloth and Ice seal,CV5 9NW,52.417637273076000,-1.560928414034940
Mink and Armadillo,CV2 1FN,52.435819834394100,-1.461105800342360
Eagle and Tree warbler,CV6 1BA,52.415905346134100,-1.531289936303410
Myna and Towhee,CV3 9LN,52.381624000000000,-1.460987000000000
Old World quail and Hawaiian honeycreeper,CV7 9HF,52.461568456252900,-1.503223734595210
Petrel and Recurvebill,CV12 9JP,52.472320500774700,-1.416524395224920
Prion and Triller,CV6 7PN,52.437978000000000,-1.488256000000000
Chipmunk and Piping shrike,CV23 0LS,52.410932778147800,-1.361954644456880
Asiatic leopard and Black jay,CV8 2FL,52.357379988873000,-1.564388767442750
Hawaiian honeycreeper and Petrel,CV4 8FD,52.392520235244200,-1.561309810488200
Quetzal and Ice seal,CV8 3QE,52.365208252536400,-1.432460461991810
Dorcopsis and Kākāriki,CV1 3AP,52.410126099348200,-1.524882747831200
Jay and Vulture,CV6 2HW,52.442245820276000,-1.524390369978770
Kite and Fish eagle,CV6 4JD,52.445132698026200,-1.502775902631490
Mouse and Stilt,CV2 3GU,52.420788528929600,-1.473920011854850
Magpie and Fulmarine petrel,CV5 6GG,52.402689631367400,-1.528975275028200
Goose and Mouse,CV3 6AU,52.397765213281200,-1.516153247012320
B and Kākāriki,CV2 4GB,52.410963821375600,-1.488620498012730
Civet and Mole,CV6 1HQ,52.417314394612200,-1.526172946643000
Flameback and Puffleg,CV3 5NL,52.379687382005600,-1.503481579723460
Magpie and Condor,CV1 5LE,52.410577000000000,-1.494667000000000
Cuscus and Thicketbird,CV3 5BS,52.389524431589600,-1.512555088421230
Pratincole and Puffleg,CV8 1AE,52.353330266077600,-1.588330970796860
Asiatic leopard and Parrotlet,CV5 9LL,52.414583525001700,-1.566589748023410
Snipe and Kangaroo,CV8 1GB,52.336843478797300,-1.578489206093720
Old World warbler and Buzzard,CV3 3BY,52.389432063379900,-1.460230432547750
Thrasher and Bronzewing pigeon,CV8 2FQ,52.354823830791100,-1.570962310831800
Jerboa and Vulture,CV2 1SQ,52.430534172110700,-1.463979250870850
Argus and Old World quail,CV3 9ET,52.381624000000000,-1.460987000000000
Black jay and Philippine hawk-owl,CV8 2DZ,52.352348483767200,-1.557934186769460
Puffleg and Parrotbill,CV3 2QW,52.390714000000000,-1.412002000000000
Macaw and Cuscus,CV2 2FQ,52.439541486260300,-1.455926185244370
Boto and Civet,CV2 3GD,52.419838602486000,-1.478666066877700
Thrasher and White ibis,CV7 8BL,52.471896651096600,-1.564510967139280
Elephant and Pheasant,CV6 7LW,52.435054000000000,-1.489533000000000
Coati and Jerboa,CV1 2JB,52.402493000000000,-1.511536000000000
Grackle and Grackle,CV2 2TN,52.436022808847800,-1.445481550072990
Old World vulture and Ibex,CV7 9HW,52.455463827355700,-1.407431822979570
Bronzewing pigeon and Shearwater,CV2 2TB,52.434723000000000,-1.436452000000000
Pitohui and Herring gull,CV2 1QA,52.448650603217400,-1.476325052660780
Quetzal and Pitohui,CV3 5BJ,52.389208895030400,-1.505843400727150
Condor and Mole,CV6 1LF,52.420099711921300,-1.530275004435070
Partridge and Perching duck,CV4 9AT,52.400075661409600,-1.562307852118980
Jackal and Macaw,CV2 1NU,52.468052422156800,-1.450805499267150
Ibex and Jackal,CV4 8JX,52.385790424928400,-1.577171286650130
Kestrel and Tree warbler,CV3 1LA,52.400075393951500,-1.467934471222240
Parakeet and Philippine hawk-owl,CV6 9NZ,52.433882000000000,-1.493290000000000
Buzzard and Old World warbler,CV1 2JX,52.404526900902000,-1.507700832000080
Tit-tyrant and Bunting,CV6 5QG,52.429398000000000,-1.489334000000000
Ice seal and Chickadee,CV2 2FS,52.440148244126400,-1.454933079162560
Hawk and Perching duck,CV8 3DX,52.363743000000000,-1.408380000000000
Buzzard and Marmoset,CV3 6JY,52.383804453250300,-1.516393950842610
Warbler and Magpie,CV5 6AP,52.392119845646100,-1.548088322486200
Black jay and Greenbul,CV2 3NX,52.421359809645400,-1.470986977202630
Ground sloth and Argus,CV23 0NW,52.411263152493900,-1.369918053002290
Vulture and Elephant,CV1 2HA,52.405963426782500,-1.511580236551170
Capuchin and Parrotlet,CV2 1RJ,52.430120915100100,-1.464043092283060
Dorcopsis and River dolphin,CV6 1EP,52.417985936252900,-1.532267730333080
Francolin and Chipmunk,CV5 6FZ,52.400971419929000,-1.530963081215430
Kākāriki and Coati,CV8 2GH,52.350094112707900,-1.575705996490750
Bunting and Grouse,CV5 8JW,52.413406007743700,-1.535829943130380
Parakeet and Philippine hawk-owl,CV1 4BH,52.418793930731100,-1.514144063216400
Treepie and Towhee,CV6 1BH,52.417611171623800,-1.528448800141620
Jackal and Cloud rat,CV1 4FA,52.413373000000000,-1.507441000000000
Cuscus and Myna,CV2 1BQ,52.431719377521700,-1.461670404801680
Nukupuʻu and Mink,CV12 9HA,52.474523830707600,-1.462237925219440
Chickadee and Songlark,CV3 6BJ,52.381751169475500,-1.535706341945600
Jackal and Vole,CV6 3AU,52.427667884422000,-1.520929331287060
Tahr and Rabbit,CV8 1EJ,52.340527298535600,-1.582945616335310
Eagle and Jerboa,CV7 9JD,52.446898634093300,-1.416963201911480
Lemming and Songlark,CV32 7HY,52.311542226671300,-1.510169990716070
Meadowlark and Wader,CV6 1QW,52.421693195516400,-1.529920048450360
Lemming and Badger,CV6 7NJ,52.427561184608500,-1.480722197957420
Prion and Elephant,LE10 3LG,52.486982588952500,-1.370751526344840
Black jay and Parrotbill,CV6 6PE,52.441402270647200,-1.492299245859210
Tattler and Capuchin,CV5 7EP,52.416611194008000,-1.590682929983700
Kite and Parrotlet,CV12 9ND,52.474785771183500,-1.429845156069530
Old World vulture and Mockingbird,CV12 8DU,52.486362199989500,-1.469869165710320
Grackle and Mole,CV8 2HZ,52.351277000000000,-1.564522000000000
Stilt and White ibis,CV12 8DB,52.488253589348600,-1.482850389262830
Fulmarine petrel and Viscacha,CV2 4HX,52.411459970278500,-1.484865901974170
Ice seal and Flameback,CV2 4EQ,52.408784837958600,-1.483706307878240
Old World warbler and Skunk,CV4 8BB,52.392799130404100,-1.586318220431250
Elephant and Marmoset,CV8 2BQ,52.346228656878300,-1.565892886939510
Siskin and Grackle,CV4 8FX,52.396054407507100,-1.564022986543340
Civet and Polecat,CV5 8BQ,52.407860604636500,-1.557335689666560
Grackle and Cuscus,CV6 5EH,52.418789646364600,-1.493823400191580
Puffleg and Peafowl,CV4 9JB,52.398001771109200,-1.595954849150620
Lemming and River dolphin,CV3 2NR,52.408193677920600,-1.446418439849150
Partridge and Tree warbler,CV1 4NF,52.410701000000000,-1.513351000000000
Siskin and Grosbeak,CV4 9HL,52.398737154706500,-1.587614863637630
Rat and Warbler,CV4 7LE,52.371208000000000,-1.555150000000000
Warbler and Chickadee,CV32 7DY,52.309873268249500,-1.524166739286210
Moluccan boobook and Black jay,CV5 6QJ,52.398146895166000,-1.518471374240180
Mockingbird and Stint,CV4 9BD,52.401741383647700,-1.565436781386060
Tit-tyrant and Triller,CV8 2NX,52.349999377726200,-1.559631238593830
Minke whale and Bunting,CV6 7PL,52.437558467935500,-1.490298873730550
B and Myna,CV1 4BY,52.415074655342700,-1.514787722990850
Pheasant and Kākāriki,CV4 9XH,52.400756855472000,-1.559332156683420
Jackal and Mamo,CV1 2UA,52.400645777981600,-1.504025460420590
Ibex and Argus,CV6 7NW,52.427610729418100,-1.479721554239650
Chicken and Triller,CV1 3LD,52.407518183956400,-1.520236125569890
Dolphin and Armadillo,CV2 2HQ,52.431015894769700,-1.447529933269980
Guillemot and Gull,CV1 5NR,52.411668000000000,-1.499465525299960
Diving bird and Diving bird,CV6 7AJ,52.440773484179100,-1.488246187515490
Tree warbler and Siskin,CV32 7XA,52.313583977556700,-1.497546832813640
Hawk and Tattler,CV5 9BJ,52.424280546820800,-1.570612293410740
Kite and Parrotlet,CV6 5BY,52.429353542920900,-1.493937775576000
Solitaire and Fox,CV1 2AY,52.402413402466800,-1.494716260969330
Coati and Tattler,CV3 3DB,52.386396425984000,-1.460899243544820
Pratincole and Chipmunk,CV5 8DZ,52.407281086719000,-1.537452398278320
Bunting and Francolin,CV6 1DS,52.413930596933100,-1.523062918548430
Marsh harrier and Skunk,CV1 2XL,52.403521000000000,-1.501588000000000
Nukupuʻu and Rat,CV3 9FA,52.381624000000000,-1.460987000000000
Moluccan boobook and Logrunners,CV6 4AY,52.435109055258700,-1.516200000000000
Grackle and Partridge,CV2 5LL,52.407534673380000,-1.471372799920350
Pheasant and Warbler,CV4 9SP,52.403093234526900,-1.594218032798790
Old World vulture and Peafowl,CV3 2LF,52.394861910569900,-1.444645330129670
Triller and Old World vulture,CV1 4DY,52.420588609229400,-1.508977794191230
Zebra and Tattler,CV1 3AA,52.410027993584100,-1.520620535149320
Coati and Wallaby,CV5 8AZ,52.410450228407600,-1.552678952357670
Crow and Kite,CV6 3AT,52.427652047363900,-1.521458947023170
Thicketbird and Ice seal,CV3 1FG,52.398656397573200,-1.466261356003110
Polecat and Grouse,CV2 3NZ,52.423925269080300,-1.473735637271020
Duck and Mink,CV5 7QD,52.424066066951000,-1.573452549389520
Old World warbler and Marsh harrier,CV6 3GD,52.420769435352800,-1.513578293977390
Grackle and Kākāriki,CV6 2LF,52.430219234072000,-1.524931576476640
Masked owl and Puffleg,CV4 8DA,52.393053000000000,-1.574060000000000
Treepie and Ibex,CV6 5EB,52.423116080795600,-1.494332678339330
Hawk and Rat,CV6 5QU,52.421732000000000,-1.502987000000000
Armadillo and Badger,CV7 7RE,52.396172293964000,-1.648011021771330
Ice seal and Buzzard,CV32 7JS,52.312567595913500,-1.499553267945560
Greenbul and Magpie,CV7 8EH,52.488206166454800,-1.611476197558950
Old World vulture and Grouse,CV2 1BW,52.432172133691400,-1.466356844831600
Quetzal and Francolin,CV8 1GF,52.335304647812500,-1.585695114932000
Pitohui and Pitohui,CV6 6GS,52.440568521074100,-1.490749448084470
Prion and Crow,CV12 8AR,52.489004106506600,-1.473637051738180
Tahr and Minke whale,CV12 0PA,52.468213000000000,-1.511716000000000
Myna and B,CV23 0PS,52.423391824742900,-1.361701336468820
Marmoset and Old World quail,CV6 4BL,52.437590524243900,-1.509362621705690
Fish eagle and Gull,CV5 9GD,52.426000023221500,-1.566330796737100
Myna and Egret,CV12 8PY,52.481146239322600,-1.471492645452320
Thrasher and Mamo,CV6 7FF,52.435757326157100,-1.492496475256240
Linsang and Condor,CV2 1HQ,52.429094000000000,-1.461379000000000
Peafowl and Peafowl,CV3 3JF,52.387588413189200,-1.470024083851150
Snipe and Cuscus,CV6 1JF,52.422537807120200,-1.523970040084350
Hawaiian honeycreeper and Hawk,CV4 7AZ,52.382586020553800,-1.542308896415380
Thrasher and Mamo,CV3 1QE,52.404414000000000,-1.464840000000000
Grackle and Chickadee,CV3 4GB,52.387382329721800,-1.487732294920540
Piping shrike and Chicken,CV2 4QD,52.415819204898500,-1.484638699275930
Herring gull and Wader,CV2 4DA,52.409016678470200,-1.477132431499220
Mamo and Skunk,CV8 2TB,52.343020357692600,-1.556529944943890
Minke whale and Black cockatoo,CV3 3HG,52.384596838357300,-1.468502484871650
Kestrel and Kestrel,CV3 4RS,52.381556000000000,-1.461948000000000
Towhee and Solitaire,CV6 9NN,52.433882000000000,-1.493290000000000
Tree warbler and River dolphin,CV5 9JF,52.413512749608500,-1.554235808448590
Lemming and Zebra,CV7 7PA,52.390932789893700,-1.645583992760040
Kite and Stilt,CV1 4AQ,52.411070864209300,-1.520623936141730
Polecat and Guillemot,CV7 8LW,52.460202197095800,-1.525183089417510
Pitohui and Fulmarine petrel,CV3 2TJ,52.393818592345500,-1.436943240719740
Thicketbird and Capuchin,CV12 8QS,52.479678655295000,-1.479107883989320
Elephant and Francolin,CV2 4GE,52.413615402810100,-1.488501631803520
Grosbeak and Cuscus,CV1 2GY,52.406120198692100,-1.510358437144130
Mink and Vole,CV1 3JB,52.406260594343900,-1.516075055499920
Fish eagle and Gull,CV5 7EU,52.415979972084800,-1.590130061813590
Kite and Tree warbler,CV12 8HD,52.484584966366500,-1.480640346194470
Jay and Linsang,CV12 9NN,52.475852545738100,-1.423647754663490
Logrunners and River dolphin,CV6 5HF,52.428080394509500,-1.486392980605290
Mockingbird and Peafowl,CV2 1AN,52.431562418545700,-1.456833345025760
Marsh harrier and Treepie,CV2 5GH,52.413674997810000,-1.467373944055870
Badger and Quetzal,CV12 8AU,52.489982497641500,-1.475319050174420
Coati and Zebra,CV6 7HN,52.433496570620200,-1.473018630741710
American sparrow and Vole,CV2 3BU,52.417754614995900,-1.464957547672270
Prion and Scimitar babbler,CV1 4FB,52.415791000000000,-1.505238000000000
Buzzard and Myna,CV6 2NQ,52.440706438274900,-1.528364229813930
Fox and Diving bird,CV1 2GF,52.401171647716800,-1.511574329986730
Argus and Marsh harrier,CV6 7JZ,52.430626624741100,-1.476597423119970
Dolphin and Rat,CV8 2LL,52.340210139993200,-1.507902000000000
Elephant and Wallaby,CV4 7BG,52.389240000000000,-1.544782000000000
Parrotbill and Hawaiian honeycreeper,CV6 7LG,52.432760756619100,-1.475351347468070
Logrunners and Pheasant,CV4 9XB,52.397425000000000,-1.587289000000000
Linsang and Duck,CV6 1FT,52.421393571566400,-1.543877805278830
Jackal and White ibis,CV1 5ZT,52.381624000000000,-1.460987000000000
Dolphin and Old World warbler,CV3 2EU,52.398371327719600,-1.445336148016420
Rat and Grouse,CV4 9YU,52.412218000000000,-1.510776000000000
Badger and Flameback,CV3 2ER,52.397832447106400,-1.443535181563490
Eagle and Rabbit,CV6 7DJ,52.442062277575100,-1.478683432921540
Mink and Ground sloth,CV6 1PZ,52.414401734983000,-1.523969385877520
White ibis and Parrotlet,CV7 9BT,52.471392389268500,-1.483798742347390
Siskin and Hawk,CV2 1GW,52.439822244636600,-1.462277824345030
Mouse and Grackle,CV6 6EL,52.449995142699900,-1.481547386056630
Elephant and Tahr,CV12 9QE,52.479603009151800,-1.437056645387230
Wallaby and Eagle,CV8 1BY,52.355655073193300,-1.589865764179380
Tattler and Tattler,CV23 9NW,52.348731276520500,-1.400124428979810
Grouse and Marmoset,CV3 1NZ,52.398686811844500,-1.488615566244410
Tahr and Meadowlark,CV23 0PT,52.426304639834800,-1.371777306240050
Parrotbill and Grosbeak,CV1 4DJ,52.411678828308000,-1.522013987719850
Recurvebill and Peafowl,CV3 2FU,52.399516404043100,-1.455727602804660
Vole and Scimitar babbler,CV6 1BS,52.417795528909900,-1.534137087822500
Jackal and Wader,CV8 3DL,52.348968260960100,-1.518814605483530
Viscacha and Logrunners,CV4 9RY,52.403721711302300,-1.583629142866570
Crow and Mouse,CV2 4GR,52.414884551250900,-1.490942281793330
Tit-tyrant and Piping shrike,CV5 6BD,52.397255040155200,-1.546213510917030
Fish eagle and Parrotbill,CV3 2GY,52.397149115921600,-1.451215441069480
Asiatic leopard and Quetzal,CV7 9QD,52.468985564963400,-1.480264506400100
Civet and Moluccan boobook,CV1 4DU,52.417103740619100,-1.514133223104210
Polecat and Parakeet,CV1 5GU,52.414012798772000,-1.501567344448250
Goose and Towhee,CV12 9QT,52.480906159972200,-1.420209813924090
Egret and Parrotlet,CV3 2BL,52.393814194747600,-1.426671083440680
Cuscus and Booted eagles,CV5 9NH,52.414836979740700,-1.562176516166640
Grouse and Coati,CV6 4LT,52.447970217001900,-1.501978863486100
Stint and Marsh harrier,CV2 1GH,52.441258000000000,-1.465379000000000
Mink and Skunk,CV5 9LB,52.414152851528800,-1.554714533397910
Marmoset and Shearwater,CV7 7DY,52.385450649219600,-1.646200878063210
Petrel and Bunting,CV3 2QR,52.404213158674100,-1.439236317566010
Ice seal and Badger,CV12 8EB,52.480781476502200,-1.476400279215030
Black cockatoo and Chicken,CV4 9QZ,52.408556743637000,-1.578085697951610
Condor and Mole,CV8 2RG,52.339701297018700,-1.523744070789010
Macaw and Zebra,CV6 1GA,52.421653104566200,-1.538934324288470
Parakeet and Guillemot,CV1 4HE,52.419076669872800,-1.500010474656300
Prion and Ground sloth,CV12 9NS,52.477703000000000,-1.439908000000000
Black cockatoo and Condor,CV7 8DH,52.493912871516300,-1.576813163449660
Night heron and Grosbeak,CV6 9EW,52.433865000000000,-1.493298000000000
Coati and Jay,CV12 8RW,52.475464064930200,-1.477464511712740
Moluccan boobook and Maya,CV6 4BW,52.437280000000000,-1.510175000000000
Francolin and Myna,CV6 3BN,52.418663274483600,-1.517365629333550
Chicken and Boto,CV6 7EQ,52.433772687865600,-1.482620213852780
Parakeet and Guillemot,CV6 4LA,52.447870327586500,-1.508189096471990
Mole and Minke whale,CV2 1QE,52.449577550910000,-1.478580037250460
Cloud rat and Pheasant,CV3 5JR,52.388464143222600,-1.499768494497640
Myna and Capuchin,CV3 6JH,52.377436003776700,-1.519974417894300
Diving bird and Fulmarine petrel,CV6 5RJ,52.429671000000000,-1.498795000000000
Guillemot and Ice seal,CV6 6AZ,52.450549320499400,-1.486999935041040
Pheasant and Hawaiian honeycreeper,CV7 7FX,52.391017565961700,-1.647508000000000
Tree warbler and Ground sloth,CV7 9NE,52.459158603889700,-1.483413000000000
Tit-tyrant and Tahr,CV7 9FN,52.467686892930700,-1.477291605731830
Chickadee and Minke whale,CV2 5LZ,52.407876987416100,-1.467517248662810
Hawk and Shearwater,CV2 1LJ,52.441202070957500,-1.473235681623810
Eagle and Hawk,CV8 2ET,52.356755062954000,-1.558301374621410
Mole and Eagle,CV3 1DB,52.397805505400100,-1.479072603763280
Nukupuʻu and Logrunners,CV3 4LH,52.393531000000000,-1.477756000000000
Black cockatoo and B,CV12 0AX,52.481089520953600,-1.493477177988940
Fulmarine petrel and Wader,CV4 8HU,52.392520000000000,-1.558905000000000
Kākāriki and Myna,CV8 2GL,52.352348787753800,-1.575185241176620
Ibex and Peafowl,CV6 4BX,52.454778000000000,-1.523989216425100
Vulture and Quetzal,CV2 4PA,52.415554840921100,-1.481745332187860
Fox and Songlark,CV8 2NJ,52.347901065416200,-1.558668497887380
Thicketbird and Thrasher,CV5 8HY,52.418431438755700,-1.549775129303710
Fish eagle and Boto,CV3 2BF,52.394532197401200,-1.427558396511280
Peafowl and Bronzewing pigeon,CV6 1QG,52.419920012515100,-1.528041873926030
Scimitar babbler and Buzzard,CV4 9DZ,52.404241414136400,-1.573055696723840
Fish eagle and Diving bird,CV3 2UW,52.400321706892800,-1.433847464904240
Marmoset and New World blackbird,CV5 6NF,52.400200165695800,-1.529178141795590
B and Argus,CV3 9JD,52.381624000000000,-1.460987000000000
River dolphin and White ibis,CV3 3GJ,52.385438609327800,-1.461807165108210
Polecat and Buzzard,CV4 8DD,52.392708632640300,-1.571006736223840
Maya and Chickadee,CV7 8EZ,52.483486015581900,-1.587441799224290
Ice seal and Snipe,CV4 7BJ,52.386475922095400,-1.543899623301830
Mole and Booted eagles,CV12 0DU,52.471810957450800,-1.505184382281580
Mamo and Magpie,CV8 3PB,52.374164406291700,-1.403613896416890
Goose and American sparrow,CV6 1HJ,52.420316454215900,-1.523773385252630
Treepie and Hawk,CV6 6FN,52.438334033468800,-1.495894399083820
Kestrel and Hawk,CV23 9PX,52.336011203433300,-1.422017590763690
Boto and Greenbul,CV2 5JL,52.408876354682400,-1.463859479546290
Kangaroo and Parakeet,CV3 6HL,52.399348148100700,-1.514122402181610
Kangaroo and Nukupuʻu,CV5 9JQ,52.415052503979500,-1.559689648905050
Piping shrike and Coati,CV2 1GP,52.442655992178400,-1.464670789092930
Tree warbler and Chickadee,CV4 9GQ,52.412406515446000,-1.603571280143210
Jay and Tit-tyrant,CV2 1BD,52.429298523592300,-1.463097083974430
White ibis and Warbler,CV3 6HE,52.400404592880000,-1.515242528775640
White ibis and Dolphin,CV3 4DL,52.381040495178800,-1.471351209375890
Logrunners and Siskin,CV4 9NY,52.412140391062200,-1.587313525002760
Kestrel and White ibis,CV8 2PW,52.350973853999700,-1.558168111671910
Quetzal and Eagle,CV4 9QD,52.409890185135800,-1.583982721436220
Tahr and Coati,CV12 0HZ,52.467616391491800,-1.509117327305410
Night heron and Eagle,CV8 2DE,52.347287065594500,-1.557955284770600
River dolphin and Condor,CV6 4JN,52.448671692437600,-1.508489165182590
Perching duck and Diving bird,CV6 5JY,52.430266368500900,-1.497177720500400
Civet and Marmoset,CV5 7AH,52.406025026025000,-1.554517035280720
Badger and Zebra,CV8 3PA,52.374078359630300,-1.404378885594250
New World blackbird and Gull,CV3 3GX,52.384697109921000,-1.466811639891310
Nukupuʻu and Polecat,CV2 1NT,52.464609000000000,-1.444696000000000
Old World vulture and Badger,CV4 9BG,52.399988368468200,-1.565453993140700
Tahr and Zebra,CV2 3AW,52.422207768543900,-1.453816093234520
Pitohui and Polecat,CV6 4PX,52.451851789975100,-1.514442724897930
Armadillo and Skunk,CV8 2DN,52.341358331076800,-1.571474202357150
Greenbul and Armadillo,CV3 5EG,52.386400075712900,-1.498513515249950
Francolin and Chipmunk,CV6 9NU,52.433882000000000,-1.493290000000000
Hawaiian honeycreeper and Marmoset,CV2 1DW,52.433532538392300,-1.461045262802010
Masked owl and Pratincole,CV8 3HW,52.384030338904400,-1.400777627368600
Tit-tyrant and Flameback,CV32 7XJ,52.315357100492200,-1.498025528635600
Fish eagle and Dolphin,CV6 2DA,52.425852272044500,-1.529993303882210
New World blackbird and Jackal,CV4 9HF,52.399125571408500,-1.577940445308310
Scimitar babbler and Rabbit,CV12 8TP,52.479684992797800,-1.470405834922230
Marsh harrier and Asiatic leopard,CV12 9PG,52.479922248325300,-1.424919782799920
Diving bird and Marsh harrier,CV2 1HA,52.440736000000000,-1.465253000000000
Bunting and Francolin,CV3 6DY,52.381690418265200,-1.529433708730520
Stint and Solitaire,CV6 6EB,52.447325096661200,-1.487743614747780
Condor and Chickadee,CV6 6QW,52.458482329962400,-1.469497487212780
Wader and Egret,CV3 2DP,52.403096668993100,-1.452302876233400
Grosbeak and Asiatic leopard,CV2 3NU,52.422184454155000,-1.464448094958810
Fulmarine petrel and Francolin,CV3 4FZ,52.370380689714100,-1.469921512644090
Peafowl and Rabbit,CV2 2GX,52.426333492690500,-1.440191132364310
Meadowlark and Prion,CV7 9PL,52.469484098154900,-1.477108397351080
Rabbit and Mole,CV23 9QP,52.319687847358800,-1.366480238722990
Lemming and Guillemot,CV3 2JG,52.393004896196100,-1.421097344013340
Partridge and Diving bird,CV3 2GJ,52.395817991853400,-1.454979485691910
Guillemot and Quetzal,CV1 5FE,52.415232463464200,-1.498730689861790
Tit-tyrant and Buzzard,CV6 2BG,52.428825607572900,-1.538521266088540
Shearwater and Parrotbill,CV4 8DQ,52.393638471691300,-1.572070493636840
Recurvebill and Bunting,CV2 2FG,52.437133268724800,-1.450336620902240
Prion and Mockingbird,CV6 1AN,52.414964564192700,-1.532093842847920
Siskin and Chickadee,CV12 0QD,52.478852831512300,-1.504531022412150
Kākāriki and Old World warbler,CV5 9ND,52.416442000000000,-1.563160000000000
Black cockatoo and B,CV3 2RR,52.389911661558200,-1.439637903978660
Coati and Ground sloth,CV6 5AY,52.424049712003600,-1.502498312736400
Zebra and Prion,CV6 1DF,52.417267052533600,-1.536921581208770
Marmoset and Recurvebill,CV8 9EY,52.341815000000000,-1.578724000000000
Wader and Eagle,CV6 7EH,52.437789546682700,-1.480175432095220
Lemming and Greenbul,CV6 5DZ,52.421869339106700,-1.495008654015260
Stilt and Grouse,CV5 8GA,52.408717037340300,-1.541435915402870
Black cockatoo and B,CV6 4QH,52.457474304698300,-1.524211680124900
Mockingbird and Darwin's finches,CV3 1DR,52.397557017072900,-1.473711196533190
Francolin and Polecat,CV3 6EQ,52.374917328001700,-1.517416401760820
Skunk and Duck,CV3 5PU,52.390378530174100,-1.501774691537320
Greenbul and Kangaroo,CV3 1HU,52.406358715287700,-1.477840029562150
Stilt and Ground sloth,CV2 2JG,52.417531249606100,-1.443816684127170
River dolphin and Myna,CV6 2JX,52.428314022003300,-1.527349289153890
Snipe and Viscacha,CV2 4LG,52.412616692350700,-1.482117896880350
Armadillo and Mamo,CV4 9JS,52.400501485060700,-1.583130318694380
Tattler and New World blackbird,CV1 3GN,52.405485777399100,-1.522301379705090
Crow and Jerboa,CV3 5ET,52.391824747683300,-1.507930264860160
Shearwater and Magpie,CV12 8AB,52.483104590515300,-1.473177322584250
Jerboa and Old World quail,CV5 9GG,52.425997702564200,-1.568154389163880
Chicken and Songlark,CV32 7LA,52.310590531135400,-1.495512525126540
Tree warbler and Nukupuʻu,CV5 7HX,52.411588428641800,-1.563767015017680
Magpie and Parrotbill,CV1 2UB,52.400280769549200,-1.504882016924490
Ground sloth and Polecat,CV35 7AQ,52.336408579867800,-1.638784396348050
Stint and Eagle,CV5 6JE,52.407454736048500,-1.529056850479300
Piping shrike and Grosbeak,CV8 2GN,52.352546615772100,-1.572702119321900
Maya and Masked owl,CV32 6QR,52.317388094789700,-1.532917649845430
Civet and Hawk,CV5 9HE,52.414086183266500,-1.563360126578050
Booted eagles and Darwin's finches,CV1 2BY,52.405439986895000,-1.493990827767140
Linsang and Solitaire,CV6 7GH,52.433822623303400,-1.485826160119170
Thicketbird and Jay,CV2 2TX,52.435565078102900,-1.434249262332660
Kangaroo and Black jay,CV7 8LS,52.461212934033300,-1.526143607265380
Tattler and Stint,CV3 5HE,52.394435278471100,-1.504433050449270
Old World quail and Masked owl,CV2 1GL,52.441958563778100,-1.461545672040950
Quetzal and Jackal,CV8 2BY,52.343699958045700,-1.565227730535070
Parakeet and Herring gull,CV4 9DA,52.400527660147400,-1.572826962003200
B and Francolin,CV11 6QT,52.495413000000000,-1.402977000000000
Chickadee and Fox,CV2 3BL,52.424255346460400,-1.449467327082080
Jackal and Logrunners,CV2 5GG,52.413242866387600,-1.465247354554710
Viscacha and Armadillo,CV6 5BB,52.427780157675500,-1.498132527197360
Viscacha and Minke whale,CV5 6LU,52.405297598880200,-1.531446402738340
Parakeet and New World blackbird,CV8 1LE,52.350101000000000,-1.582268000000000
Wallaby and Chipmunk,CV3 3GT,52.383541854497000,-1.469808056698410
Logrunners and Hawaiian honeycreeper,CV3 2AT,52.405871499794300,-1.438215727893140
Eagle and Stint,CV3 5LN,52.391700101270100,-1.497527704406960
Marsh harrier and Bronzewing pigeon,CV5 8EH,52.408069000000000,-1.534107000000000
Zebra and Triller,CV12 8HA,52.484749361505500,-1.481227444625930
Viscacha and New World blackbird,CV3 3FS,52.385524121064200,-1.454959274308690
Songlark and Civet,CV5 7BP,52.414276427216700,-1.576119850802860
Fox and Warbler,CV7 7BW,52.395419458466700,-1.633967624313800
Armadillo and Francolin,CV5 9PP,52.436426797640500,-1.557579396908310
Armadillo and Diving bird,CV8 1HY,52.338447525247600,-1.574394000000000
Parrotlet and Myna,CV12 0BA,52.475931499647900,-1.494007509406570
Darwin's finches and Maya,CV4 8GB,52.394927218312100,-1.560228000000000
Stint and Marmoset,CV5 8AB,52.410882221803900,-1.557584780439640
Cuscus and Moluccan boobook,CV1 4HA,52.418307964011300,-1.509664779988960
Argus and Condor,CV3 2FX,52.398789862684500,-1.456089271223250
Mockingbird and Peafowl,CV1 3GA,52.403088595630500,-1.518652603785330
Parrotlet and Triller,CV8 2BN,52.345385090121600,-1.568763635816330
Lemming and Dolphin,CV5 6EF,52.398066030141500,-1.530567658750330
Hawaiian honeycreeper and Parrotbill,CV2 5EB,52.406739630843700,-1.454668558837630
Quetzal and Ice seal,CV8 3AB,52.371865473747700,-1.494390000000000
Old World quail and Francolin,CV5 9GN,52.424534074652000,-1.561301110562190
Jay and Ice seal,LE10 3LE,52.485841490359900,-1.367498569343410
Pheasant and Stilt,CV2 4DP,52.407505325516300,-1.480987019884220
Goose and Tit-tyrant,CV12 9BH,52.482812626014700,-1.466201063781520
Tattler and Warbler,CV8 3DW,52.366789427351200,-1.439768827760620
Triller and Fox,CV3 6NN,52.381229400103800,-1.519859846679620
Logrunners and Asiatic leopard,CV1 2DY,52.405078109392000,-1.512721853081340
Kākāriki and Cloud rat,CV6 6HB,52.448898038182300,-1.483531921174760
White ibis and Solitaire,CV12 0GR,52.477560655696600,-1.500820502397800
Thrasher and Minke whale,CV7 7LB,52.430055000000000,-1.641149717812020
Triller and Cuscus,CV3 1JP,52.399786765837200,-1.461764971321760
Grouse and Solitaire,CV3 2UR,52.400018651737300,-1.436276453114880
Stint and Ice seal,CV1 2JD,52.406512078178700,-1.492420392006600
Parrotlet and Elephant,CV6 6HJ,52.453150322942700,-1.487661346534740
Bronzewing pigeon and Booted eagles,CV1 2LY,52.403485000000000,-1.507551000000000
Mink and Jerboa,CV4 7AJ,52.374425745648900,-1.552440540563480
Mole and Condor,CV5 6QQ,52.395721124859300,-1.524199696754220
Darwin's finches and Hawk,CV6 4HJ,52.450876069275800,-1.513276287857620
Kākāriki and Tit-tyrant,CV7 9BX,52.470676000000000,-1.486315895749680
Triller and Masked owl,CV8 2DR,52.341543231105300,-1.570400909605180
Triller and Pratincole,CV23 9RZ,52.316293603929000,-1.398391000000000
Chicken and Shearwater,CV2 3FG,52.415610934281000,-1.466056784609390
Kestrel and Chipmunk,CV3 2LQ,52.394344940241400,-1.447517487848610
Darwin's finches and Fish eagle,CV3 2QL,52.392810828875000,-1.457926168132110
Wallaby and Polecat,CV23 9QW,52.334828000000000,-1.411866000000000
Logrunners and White ibis,CV1 4GT,52.416220462433200,-1.507070790305080
Viscacha and Cloud rat,CV3 2AJ,52.390870610469000,-1.420361135061160
Goose and Jackal,CV2 3NB,52.425847951397900,-1.471447996437600
Parrotlet and Booted eagles,CV8 2SX,52.354160404083900,-1.553467547736730
Lemming and Grackle,CV12 8QR,52.479305861350800,-1.482646000000000
Solitaire and Magpie,CV1 5ED,52.407514095730500,-1.493865000000000
Quetzal and Treepie,CV1 2XX,52.403521000000000,-1.501588000000000
Fish eagle and Hawk,CV6 5PR,52.428994784578200,-1.506913667966910
Grosbeak and Rat,CV12 8HF,52.484537109482600,-1.479978249909170
Dorcopsis and Cuscus,CV3 5BW,52.388701390813300,-1.511359254881970
Viscacha and Mockingbird,CV6 5HT,52.435536000000000,-1.497280000000000
Bronzewing pigeon and Warbler,CV12 9RU,52.481664149391400,-1.435395000000000
Polecat and Black jay,CV2 2EF,52.426549135206100,-1.445894508675360
Dorcopsis and Parrotbill,CV4 7DT,52.383297660290700,-1.552071738316780
Mouse and American sparrow,CV2 4DZ,52.410409127191000,-1.480982355452580
Thicketbird and Petrel,CV6 5FZ,52.428645000000000,-1.496196000000000
Pitohui and Coati,CV12 9AR,52.484208265680600,-1.462708920594880
Triller and Treepie,CV3 5EA,52.387487336410000,-1.506935235364050
Logrunners and Buzzard,CV8 1QP,52.349782717223300,-1.589362206751120
Darwin's finches and Piping shrike,CV1 4ER,52.418756292043700,-1.509380436795370
Chicken and Old World warbler,CV2 5LJ,52.407825676982600,-1.470105104383160
Siskin and Condor,CV2 4GJ,52.414907821059200,-1.488001502089990
Myna and Vole,CV8 2FW,52.348210367214400,-1.574373426072510
Jackal and Peafowl,CV2 2GS,52.439144223299700,-1.453606794010980
Francolin and Wader,CV6 5NH,52.424337770436100,-1.504730336405480
Zebra and Rat,CV3 1FB,52.398913871657700,-1.467536912167670
Darwin's finches and Grosbeak,CV6 5PU,52.426226703257800,-1.494341222935040
Bunting and Fox,CV5 8JU,52.414310394230400,-1.534908908628100
Night heron and River dolphin,CV12 0JE,52.469200060272400,-1.505139867400780
Myna and Grouse,CV8 1AN,52.352957525092600,-1.584575854189690
Civet and Grouse,CV8 1NJ,52.344292370077200,-1.582425803199680
Masked owl and Badger,CV5 9EF,52.437202000000000,-1.558822000000000
Kākāriki and Towhee,CV6 1PY,52.414342588931300,-1.524910972886970
Chickadee and Solitaire,CV12 9JH,52.475775176164600,-1.422529826177980
Parakeet and Dorcopsis,CV1 2BW,52.404775124611800,-1.494086625964170
Booted eagles and Hawk,CV6 7NH,52.427019544285200,-1.480213828746200
Boto and Dorcopsis,CV12 8LJ,52.478573225325300,-1.475116063902430
Hawk and Maya,CV6 4EX,52.440555610718700,-1.515508357819740
Capuchin and Zebra,CV4 9GN,52.396436552473600,-1.598320553463710
Thicketbird and Egret,CV2 1NJ,52.451323076756100,-1.471012000000000
Thicketbird and Mouse,CV8 2RT,52.344296152271600,-1.556311680593820
Masked owl and Armadillo,CV2 1QS,52.431923870580700,-1.467124670150890
Mink and Macaw,CV12 8ZS,52.479684992797800,-1.470405834922230
Asiatic leopard and Fox,CV1 4PT,52.412346503585400,-1.522609542913670
Zebra and Piping shrike,CV6 4EZ,52.440442641246800,-1.512081923005750
Herring gull and Crow,CV1 4GD,52.415774384001400,-1.505737803238360
Petrel and Marsh harrier,CV2 3DB,52.418726394392200,-1.461181606614370
Towhee and B,CV32 6QT,52.319546857077800,-1.544719684748440
Jerboa and Vole,CV23 0JX,52.394789000000000,-1.365582000000000
Jay and Diving bird,CV3 4EW,52.379865404431400,-1.467927558779190
New World blackbird and Kākāriki,CV8 1EP,52.342977246355700,-1.581704252861900
Dolphin and Stint,CV2 1QN,52.448377906838100,-1.477681946368340
Chicken and Boto,CV8 2RZ,52.349327532744700,-1.562706188202570
Scimitar babbler and Logrunners,CV12 8TT,52.480917304337500,-1.472570280769430
Greenbul and Stilt,CV1 4LY,52.413614362842000,-1.511657487946220
Old World quail and Perching duck,CV1 3EW,52.403614440098200,-1.524188326631730
Badger and Philippine hawk-owl,CV4 9PP,52.406701428384300,-1.577147901913030
Marsh harrier and Minke whale,CV3 4DF,52.385352555314500,-1.482818841870330
Linsang and Jackal,CV3 3BE,52.389803628068000,-1.464839891387710
Snipe and Gull,CV6 1GP,52.423996537857500,-1.545130340202620
Parrotlet and Philippine hawk-owl,CV5 9JA,52.414292142391300,-1.560711676913870
Duck and Coati,CV3 3HW,52.388505810847600,-1.452351151668540
Stilt and River dolphin,CV4 9JF,52.398869839043500,-1.579339115951390
Philippine hawk-owl and Boto,CV6 5GH,52.427009728946500,-1.486199526029970
Crow and Chickadee,CV2 3BZ,52.418660507604500,-1.458565128419920
Parakeet and Puffleg,CV5 6GP,52.402668594493800,-1.532738306591500
Marmoset and Triller,CV2 5JA,52.409874878970800,-1.467978331309520
Rabbit and Darwin's finches,CV23 0LR,52.413296549716000,-1.358509656838170
Goose and Grackle,CV3 4DZ,52.381677733634200,-1.475148708243020
Mamo and Badger,CV2 5JU,52.408635884846500,-1.462377644233290
Songlark and Logrunners,CV3 2GQ,52.394699362416500,-1.452201045451870
Tit-tyrant and Fox,CV6 1DY,52.416828005877000,-1.525942906243110
Myna and Jay,CV7 8NG,52.462679487212000,-1.528688879889470
Maya and Shearwater,CV7 8EP,52.478709600905000,-1.627284762939890
Warbler and Dolphin,CV33 9DN,52.320591042643800,-1.434659708475040
Goose and Bunting,CV3 5JQ,52.387259764621000,-1.501971412739590
Thicketbird and Polecat,CV6 1HE,52.420512178222200,-1.521036258315280
Stint and Vulture,CV3 2QJ,52.391331868503500,-1.454975939988210
Shearwater and Fulmarine petrel,CV6 6EZ,52.443044503409300,-1.493707433860510
Mouse and Triller,CV8 2GR,52.350474238538100,-1.573911261748130
Mouse and Rat,CV4 9ER,52.405969636458200,-1.563778309334520
Kite and Cloud rat,CV6 2EP,52.437270555059300,-1.532475558386810
Guillemot and Viscacha,CV7 8AP,52.463768000000000,-1.594191000000000
Perching duck and Solitaire,CV2 4EF,52.410650778629500,-1.482787761610630
Philippine hawk-owl and Wallaby,CV1 1GG,52.409674000000000,-1.513148000000000
Gull and Capuchin,CV6 2LX,52.431360541322800,-1.527066681796380
Lemming and Grouse,CV6 7LP,52.443109264808100,-1.477582396108310
Pitohui and Capuchin,CV2 1RL,52.429611382196300,-1.460725381933190
Herring gull and Tit-tyrant,CV2 1DS,52.432788881465800,-1.459627603034570
Badger and Duck,CV2 3PL,52.422973165299000,-1.475718000000000
Jerboa and Maya,CV3 1JD,52.407878641381300,-1.492434114964570
Minke whale and Kākāriki,CV4 9WG,52.410414305006300,-1.600413524249080
Scimitar babbler and Chipmunk,CV3 4EP,52.381953964215800,-1.470561648909930
Coati and Goose,CV3 4FD,52.378351000000000,-1.472760267166310
Viscacha and Old World quail,CV8 1JW,52.338537465240300,-1.582098370989170
Stint and Greenbul,CV5 7HW,52.410812375870800,-1.562980804321590
Kākāriki and Egret,CV8 2QN,52.346600561052600,-1.576722971510290
Jackal and Warbler,CV4 8NJ,52.396987000000000,-1.558640000000000
Guillemot and Stilt,CV6 7GE,52.434717151086200,-1.480682259246020
Bronzewing pigeon and Kākāriki,CV6 2DB,52.425266185719700,-1.529558354103800
Mink and Skunk,CV5 7AU,52.407635604582500,-1.562100774106680
Ibex and Myna,CV4 8EF,52.391432417847100,-1.556486026319580
Badger and Polecat,CV2 4FF,52.408833400184200,-1.486601747976660
Kangaroo and Wader,CV2 4BB,52.411214621552900,-1.482207817350720
Petrel and Puffleg,CV8 2BD,52.342016694645000,-1.567108378459300
White ibis and Lemming,CV2 1GY,52.437062000000000,-1.465915000000000
Thicketbird and New World blackbird,CV2 2EJ,52.428427001046100,-1.445665072968940
Meadowlark and Nukupuʻu,CV5 8FW,52.409444632849500,-1.543706000000000
Mockingbird and Grouse,CV8 3LP,52.375826631799600,-1.392824012597900
Snipe and Mamo,CV8 3HY,52.373844332592000,-1.395465824292350
Treepie and Egret,CV1 9FF,52.381624000000000,-1.460987000000000
Marmoset and Vulture,CV3 5JL,52.388211311181300,-1.499506864742020
Dorcopsis and Skunk,CV6 2HF,52.439775507674500,-1.527123745327610
Lemming and Asiatic leopard,CV3 1NN,52.399159259108000,-1.487684175687840
Asiatic leopard and Dorcopsis,CV2 1AY,52.430017561402800,-1.463058935961520
Tree warbler and Condor,CV6 1AU,52.417439246082600,-1.532699909453930
Pitohui and New World blackbird,CV23 0NZ,52.409129165485500,-1.364259270877350
Kestrel and Chicken,CV8 1NE,52.349278222040300,-1.591657071231470
Partridge and Tree warbler,CV5 7QW,52.419985916988800,-1.573830096203480
Coati and Fish eagle,CV5 8ED,52.406105321337000,-1.538097000000000
Shearwater and Chicken,CV6 3AN,52.425160762582600,-1.521206496004690
Pitohui and Skunk,CV3 2TL,52.405541652530800,-1.436911662533650
River dolphin and Badger,CV6 3GJ,52.426857641482200,-1.516232024385610
Nukupuʻu and Black jay,CV2 1HE,52.438524211187200,-1.466839000000000
Grouse and White ibis,CV7 7LE,52.421112039668000,-1.613800967400200
Elephant and Hawk,CV4 7AL,52.385810000000000,-1.564814000000000
Grouse and Parakeet,CV4 8LF,52.381624000000000,-1.460987000000000
Crow and Tit-tyrant,CV12 8BS,52.487401224498500,-1.479134519560020
Bronzewing pigeon and Badger,CV35 7QD,52.318633863301000,-1.579791765708730
Nukupuʻu and Puffleg,CV1 4JQ,52.423056853337000,-1.505847577487470
Puffleg and Vole,CV4 8EL,52.390729350561000,-1.560417000000000
Vulture and Maya,CV7 9JL,52.439618088462300,-1.392242083327120
Duck and Cloud rat,CV4 9JZ,52.398860738925500,-1.584395031086340
Ground sloth and Solitaire,CV3 6JT,52.379618380137700,-1.521640209518810
Kākāriki and Booted eagles,CV4 9NR,52.402962835626100,-1.582577987592380
Pitohui and Capuchin,CV32 7JH,52.313434235938200,-1.506819275578670
Chicken and Black jay,CV3 4AN,52.396025386381200,-1.491453130622810
American sparrow and Mink,CV6 7LX,52.436123140036300,-1.477400202424660
Asiatic leopard and Ground sloth,CV7 9BD,52.469039130148300,-1.483473139677000
Magpie and Ice seal,CV2 1HB,52.441108245597700,-1.464351179590420
Fox and Rat,CV5 8BD,52.410011142352800,-1.550684069666660
Mink and Crow,CV8 2JZ,52.358052000000000,-1.539831000000000
Logrunners and Civet,CV2 2RY,52.427776648439900,-1.435510779811820
Stint and Fish eagle,CV8 2AS,52.338892205484000,-1.563337451225490
Meadowlark and Lemming,CV8 2GS,52.348964856395300,-1.576685723003200
Bronzewing pigeon and Diving bird,CV12 0PW,52.478228100230800,-1.497087868908150
Lemming and Marmoset,CV2 1NP,52.453196412899800,-1.463675000000000
Kestrel and Ibex,CV2 3NR,52.421415666405600,-1.465413213699640
Songlark and Peafowl,CV12 8DR,52.486609464081200,-1.470882320720600
Black jay and Chickadee,CV5 6LD,52.403370609782400,-1.532936675984160
River dolphin and Linsang,CV3 2QB,52.394254761537400,-1.461097455097900
Herring gull and Hawk,CV2 4QP,52.417961759938000,-1.485541000000000
Guillemot and Badger,CV12 8QJ,52.481070717523800,-1.482890401154660
Perching duck and Duck,CV1 5RU,52.406679784140000,-1.506559692986320
Rat and Thicketbird,CV1 5PZ,52.409414000000000,-1.497989417947360
Stint and Tree warbler,CV3 5DR,52.391084893602700,-1.511626840493700
Puffleg and Ice seal,CV2 2SP,52.436969445412300,-1.438423615945230
Linsang and Pheasant,CV3 1GJ,52.403397538235000,-1.475038115620580
Treepie and Flameback,CV12 0AN,52.477946028507300,-1.492085072760060
Songlark and Old World quail,CV32 6RN,52.312870117127900,-1.540856941950970
Viscacha and Triller,CV6 3BQ,52.420820319819700,-1.519430129617080
Ground sloth and Quetzal,CV1 2FL,52.401927000000000,-1.513550000000000
Fox and Tahr,CV2 2AW,52.424046930044100,-1.443352381682320
Mink and Dolphin,CV3 3DN,52.387337000000000,-1.461946000000000
Mouse and Guillemot,CV1 5AD,52.410054000000000,-1.507019999249020
Badger and Fulmarine petrel,CV6 2AY,52.433045788723100,-1.537197566376620
Scimitar babbler and Eagle,CV2 3JZ,52.424510309944600,-1.463875810730510
Hawaiian honeycreeper and Maya,CV6 6RB,52.458190742532000,-1.476271000000000
Bunting and Boto,CV3 5JG,52.386103000000000,-1.496063000000000
Wallaby and Booted eagles,CV5 6GN,52.402308713052700,-1.532668614636160
Stint and Bunting,CV23 9QH,52.334974000000000,-1.410098036910990
Tahr and Stilt,CV6 6PL,52.452731534509700,-1.482324602569860
Shearwater and Marsh harrier,CV7 9AT,52.462333353195900,-1.512046135610880
Bunting and Lemming,CV8 3BN,52.339091000000000,-1.474860000000000
Buzzard and Chicken,CV1 4BD,52.418176535470000,-1.514724000000000
Old World quail and Vole,CV3 1HR,52.399297000000000,-1.472471000000000
Quetzal and Flameback,CV1 5RQ,52.409718000000000,-1.504385000000000
Dolphin and Meadowlark,CV2 2LP,52.431236750563800,-1.444776773431760
American sparrow and Stint,CV8 2QD,52.343552755825400,-1.561882398330550
Minke whale and Puffleg,CV2 3JR,52.425203384573400,-1.476691000000000
Siskin and Boto,CV7 9JH,52.473352819040800,-1.475752305749870
Parrotbill and Tattler,CV8 3FD,52.365081000000000,-1.437717876796550
Logrunners and Francolin,CV4 8HR,52.390718087424100,-1.592847313231400
Flameback and Darwin's finches,CV8 2TL,52.339932000000000,-1.527117000000000
Kite and White ibis,CV3 2BT,52.392027592375200,-1.423476019542060
Black jay and Old World warbler,CV2 4AP,52.407999772772000,-1.472851970320180
Old World quail and Guillemot,CV12 9LL,52.477327031960800,-1.432977853209340
Puffleg and Macaw,CV23 0JU,52.391529407297200,-1.364835359826090
Night heron and Pheasant,CV3 5HX,52.392432000000000,-1.506658048661220
Piping shrike and Crow,CV3 5LD,52.392021100286100,-1.499022945680140
Philippine hawk-owl and Parrotbill,CV6 6AL,52.450799906913700,-1.497208893148190
Magpie and Piping shrike,CV12 8JE,52.478820552745400,-1.468089838043700
Marsh harrier and Petrel,CV1 4EX,52.416868014050400,-1.513650607009700
Philippine hawk-owl and Shearwater,CV2 3BF,52.425079000000000,-1.466287000000000
American sparrow and Dorcopsis,CV6 9JY,52.433882000000000,-1.493290000000000
Triller and Pheasant,CV5 6HN,52.405880419733700,-1.531058043387100
Coati and Marsh harrier,CV3 2GF,52.397473826038900,-1.453386539276780
Masked owl and Capuchin,CV6 5GD,52.424131338849400,-1.489997614015350
Thrasher and Kangaroo,CV3 4GE,52.382788675658000,-1.474283411335420
Mouse and Fish eagle,CV6 2DL,52.425934384654100,-1.532566016841740
Eagle and Chickadee,CV4 8EZ,52.392741974531300,-1.567817565662890
Elephant and Masked owl,CV5 6JR,52.402679067471800,-1.526329662398240
Triller and Piping shrike,CV3 2NG,52.390305448657200,-1.452696249485140
Philippine hawk-owl and Cuscus,CV2 2GE,52.440832435791200,-1.451246837330120
Gull and Songlark,CV6 5DL,52.421197056379300,-1.495472175128130
Songlark and Egret,CV2 4AF,52.412580315329100,-1.471856471353800
Partridge and Egret,CV5 7LD,52.411756531736000,-1.572880268383410
Piping shrike and Eagle,CV5 8AD,52.411111000000000,-1.558259000000000
Macaw and Recurvebill,CV1 5EH,52.408902663315200,-1.494333439890950
Asiatic leopard and Mole,CV1 2XY,52.403521000000000,-1.501588000000000
Partridge and Chicken,CV3 6QE,52.375686088876200,-1.514146954242460
Petrel and Crow,CV8 3ZU,52.381624000000000,-1.460987000000000
Skunk and Recurvebill,CV3 6PT,52.395563227621600,-1.520718415641840
Boto and Goose,CV3 3BZ,52.389985593118500,-1.461355144379750
Prion and Parrotbill,CV8 1JF,52.342863011670100,-1.577244000000000
Polecat and Marsh harrier,CV12 8RP,52.474831126773800,-1.478679252739140
Peafowl and Vulture,CV4 9QN,52.409630384023100,-1.581691846338280
Meadowlark and Lemming,CV33 9DX,52.318840370764700,-1.418485512838300
Recurvebill and Magpie,CV12 8RT,52.478303442546100,-1.479168287461600
Fulmarine petrel and Thicketbird,CV3 4EH,52.380260210039700,-1.469759198083210
Civet and Mole,CV5 8NW,52.409875029824300,-1.529545618200450
Bronzewing pigeon and Peafowl,CV3 4DU,52.382656500381000,-1.476914821945700
Peafowl and Ibex,CV6 1NB,52.418495014825800,-1.521955000000000
Darwin's finches and Mockingbird,CV4 9FP,52.406354462995900,-1.563304126096500
Grouse and Wader,CV3 2JF,52.399844193924700,-1.443098353586450
Magpie and Songlark,CV6 1FP,52.420712637815000,-1.542149701682230
Kestrel and Badger,CV12 0NX,52.478561654048800,-1.497304924236860
Partridge and Francolin,CV6 7DU,52.436515641051600,-1.486971611650530
Logrunners and Mockingbird,CV6 6GT,52.443816000000000,-1.501481000000000
Petrel and Masked owl,CV4 9EP,52.404880092022800,-1.560878610737560
Fish eagle and Viscacha,CV23 0JL,52.409528000000000,-1.362960000000000
Rat and Kākāriki,CV8 9DW,52.341801918273000,-1.578794550040550
Cloud rat and Wallaby,CV4 0EH,52.381624000000000,-1.460987000000000
Tree warbler and Triller,CV12 9SR,52.481504342606200,-1.430465133278940
Songlark and Macaw,CV4 8GW,52.388001883832200,-1.589904187860280
Vole and Cloud rat,CV1 4DD,52.412832519620300,-1.516106079297720
Prion and Linsang,CV4 9AY,52.400233320782500,-1.563614383114810
Hawk and Grackle,CV1 2GN,52.400978000000000,-1.512655000000000
Herring gull and Marmoset,CV2 2HW,52.432406811467700,-1.446983046226850
Petrel and Booted eagles,CV1 3LB,52.404288376863700,-1.524107585127000
Thrasher and Francolin,CV4 9NG,52.404833810414200,-1.582869022444880
White ibis and Stint,CV4 9UG,52.402383291297600,-1.596929036482170
Ibex and Goose,CV1 3BF,52.403239413840600,-1.521693764932090
Myna and Linsang,CV12 9EL,52.476373205963000,-1.461670637666760
Stilt and Jay,CV6 5PX,52.427681674706100,-1.506781244612430
River dolphin and Polecat,CV3 5NJ,52.378937353408900,-1.504709307760060
Pitohui and Herring gull,CV4 7PS,52.383089570067600,-1.547005118637710
Booted eagles and Kestrel,CV5 8JB,52.416674175061700,-1.548675579120510
Linsang and Kestrel,CV6 6LX,52.454847244714400,-1.489230975787460
Civet and Herring gull,CV8 2JR,52.354868466730800,-1.580901986483230
Parakeet and Mole,CV1 4FY,52.415319000000000,-1.504323000000000
Ground sloth and Philippine hawk-owl,CV6 7NE,52.444084161875100,-1.475643734332050
White ibis and Old World warbler,CV7 9AE,52.463075834386200,-1.504663916805360
Elephant and Grackle,CV12 8QU,52.479878277863200,-1.477485863960830
Parrotbill and Egret,CV3 2HD,52.402083489486800,-1.450948472754750
Tree warbler and Quetzal,CV6 7DB,52.438508532292000,-1.476048057440790
Parakeet and Tit-tyrant,CV3 1PZ,52.401827086911200,-1.485095801838200
Bunting and Herring gull,CV3 3AH,52.387908926516600,-1.465332988755830
Gull and Moluccan boobook,CV3 6LJ,52.385428934729900,-1.522356157763230
Grouse and Zebra,CV4 9XT,52.401307880829100,-1.574788962739650
Goose and Marsh harrier,CV23 9JN,52.350101700345100,-1.399122251624140
Vole and Darwin's finches,CV4 9DL,52.403664454733100,-1.567666811261090
Petrel and Black cockatoo,CV3 1NJ,52.398710597125500,-1.485808130377200
Magpie and Pitohui,CV2 3HB,52.420275995713800,-1.479999006564470
Macaw and Linsang,CV8 2DA,52.346080657777200,-1.559905027767870
Towhee and Jerboa,CV6 4AH,52.434037763678200,-1.508960789717670
Fulmarine petrel and Tattler,CV8 2FX,52.348064043039700,-1.573684855108250
Black jay and Dolphin,CV6 4ES,52.440226456692500,-1.520778493548980
Armadillo and Fox,CV2 2PW,52.424652256164200,-1.445903575041390
Grackle and Gull,CV3 4DW,52.382409202120300,-1.477916783320250
Vole and Lemming,CV4 9NE,52.405220269679700,-1.582835981136660
Herring gull and Triller,CV1 5BU,52.413682675761400,-1.493690713245420
Greenbul and Philippine hawk-owl,CV6 4FG,52.441958507413600,-1.517817401542760
Coati and Mouse,CV6 9NL,52.433882000000000,-1.493290000000000
Gull and Fulmarine petrel,CV6 5ND,52.430908049129200,-1.502229931743120
Thrasher and Egret,LE10 3AZ,52.485363247271600,-1.369905945413850
Hawaiian honeycreeper and Minke whale,CV1 2TG,52.403684032135700,-1.512575517168600
Herring gull and Scimitar babbler,CV1 1NE,52.407577084503700,-1.510474615643250
Fox and Jackal,CV4 9TA,52.402308000000000,-1.582731000000000
Marmoset and Tahr,CV6 5BL,52.428142675682600,-1.496701837155340
Scimitar babbler and Flameback,CV2 1TF,52.446615000000000,-1.461334000000000
Mink and Parakeet,CV8 3PD,52.374484252603300,-1.402860441418490
Elephant and Parakeet,CV6 7BT,52.439593672465800,-1.475446760578200
Fish eagle and Tree warbler,CV7 9BW,52.470136859296200,-1.484505309315590
Asiatic leopard and Nukupuʻu,CV3 6NB,52.381339147921600,-1.515906672855140
Ibex and Quetzal,CV3 2PB,52.404359075315400,-1.443482502892290
Treepie and Fulmarine petrel,CV4 8AW,52.394514000000000,-1.590461000000000
Lemming and Cloud rat,CV6 5LJ,52.432354162450800,-1.497668765203720
Greenbul and Scimitar babbler,CV3 2GA,52.397128528398700,-1.456491801245870
Flameback and Grackle,CV8 1LT,52.344447478008600,-1.582836000000000
Egret and Mockingbird,CV7 7RA,52.394442550665800,-1.646790336008120
Jay and Jerboa,CV2 4PJ,52.416136933750100,-1.483282323800560
Grosbeak and Jerboa,CV8 2BH,52.344886901832900,-1.562852730417120
Ground sloth and Marmoset,CV12 9AJ,52.486300583938500,-1.464170802287650
Mouse and Guillemot,CV12 8EJ,52.484060838695100,-1.482074899957850
Moluccan boobook and Songlark,CV12 8EF,52.481984244111800,-1.482099274838810
Dolphin and Logrunners,CV12 0ZA,52.479684992797800,-1.470405834922230
Black jay and Vole,CV6 4AG,52.433734431975900,-1.509523094219650
Magpie and Elephant,CV35 7PN,52.317940000000000,-1.566652648152280
Logrunners and Wader,CV2 3LX,52.428110123530100,-1.470700310601190
Flameback and Parrotlet,CV2 3NA,52.426948825065000,-1.472361350036160
Civet and Recurvebill,CV3 1FY,52.401744745496100,-1.479423085167030
Prion and Herring gull,CV12 0LH,52.475205629117700,-1.505190316978050
Perching duck and New World blackbird,CV3 6DQ,52.380225941425700,-1.531932049741970
Philippine hawk-owl and Night heron,CV23 0NR,52.409064024668500,-1.367200346457190
Darwin's finches and Herring gull,CV12 0LG,52.475940401534100,-1.511100678426950
Kākāriki and Condor,CV3 1JQ,52.402340305450000,-1.469009791199000
Stilt and Old World quail,CV1 5TB,52.409718000000000,-1.504385000000000
Cuscus and Marsh harrier,CV2 1AH,52.430055607987900,-1.455645834555600
Nukupuʻu and Greenbul,CV3 1PS,52.399600667520400,-1.483754840201960
Viscacha and Mole,CV12 0GB,52.476688755295500,-1.498724955391710
Armadillo and Fish eagle,CV8 3GU,52.375076200225000,-1.399033221232550
Philippine hawk-owl and White ibis,CV3 1DW,52.398063275478100,-1.472323661371260
Armadillo and Egret,CV6 4JX,52.449766638727200,-1.505887291964270
Pitohui and Lemming,CV12 8BP,52.487844929399800,-1.477818588881460
Francolin and Tattler,CV3 2AY,52.395098354340100,-1.424523527441290
Ground sloth and Black cockatoo,CV6 1BP,52.415997461468900,-1.534126619482970
Philippine hawk-owl and Grackle,CV2 4EY,52.408036620943700,-1.485302669183920
Old World warbler and Hawaiian honeycreeper,CV4 9XD,52.409428333118500,-1.575445963231830
Marsh harrier and Parakeet,CV3 4BN,52.388558252686300,-1.488144635054390
Bunting and Dorcopsis,CV6 5LX,52.435177038387200,-1.501917090160320
Marsh harrier and Magpie,CV32 7TW,52.315233852060200,-1.515894370191480
Snipe and Snipe,CV6 4JB,52.444485395628200,-1.504916484276300
Ice seal and Pratincole,CV1 4DT,52.422201809283300,-1.507768779051110
Eagle and Stilt,CV4 9BN,52.394932000000000,-1.610591000000000
Quetzal and Puffleg,CV6 3LH,52.423798993824500,-1.511368554410780
Thicketbird and Puffleg,CV6 5BX,52.429429168437900,-1.494804645798410
Recurvebill and Linsang,CV6 3GE,52.422209714039300,-1.516224052035710
Jay and New World blackbird,CV6 1JU,52.421217240661900,-1.530968957339830
Flameback and Jerboa,CV12 0QB,52.478767606677300,-1.503501311204430
Thicketbird and Magpie,CV12 8PS,52.480732949204000,-1.469539236322510
Old World warbler and Tree warbler,CV5 6FE,52.396734167276600,-1.534784981169310
Coati and Tahr,CV1 2JH,52.404877984463000,-1.499244876375740
Grosbeak and Triller,CV2 2PS,52.433179463277000,-1.439236620111630
Maya and Quetzal,CV3 5HN,52.393468775802300,-1.501210876548470
Solitaire and Kākāriki,CV5 6GZ,52.407714971060400,-1.528936479451220
Pratincole and Armadillo,CV2 2NY,52.437176387239500,-1.448011905445460
Buzzard and Logrunners,CV3 2AN,52.396997531569300,-1.438078530436010
Parakeet and Solitaire,CV7 7RR,52.396205013196500,-1.646923238013690
Argus and Skunk,CV12 0BQ,52.477156477288700,-1.494552950250050
Siskin and Tit-tyrant,LE10 3LS,52.485599391352400,-1.372685661972740
Vole and Ibex,CV3 2LD,52.395703348604400,-1.443870569905510
Greenbul and Old World warbler,CV5 7PD,52.424955685499400,-1.573341027398650
Fox and Ice seal,CV3 5FW,52.398005477490900,-1.506847464809550
Kestrel and Pitohui,CV3 9HZ,52.381624000000000,-1.460987000000000
Night heron and Macaw,CV7 7RP,52.394329878670300,-1.645189409755220
Dolphin and Maya,CV12 8BB,52.488535724514500,-1.479533483321860
Towhee and Mole,CV4 7HH,52.373438555170700,-1.550526287209310
Crow and Stilt,CV2 3DU,52.416297464574600,-1.466783648488350
Maya and Bunting,CV6 7PW,52.440995000000000,-1.487515000000000
Piping shrike and Vulture,CV2 1LG,52.441997888094600,-1.472269941725880
Badger and Badger,CV5 6DS,52.398301332531600,-1.529036000000000
Asiatic leopard and Dorcopsis,CV7 8LZ,52.460938051482900,-1.524851384416040
