name,postcode,lat,lon
Perching duck and River dolphin,W8 4RT,51.508915452258700,-0.193605203262892
Marsh harrier and Night heron,W9 1NS,51.531083936502500,-0.187912360285082
Parrotlet and Eagle,SW15 2NQ,51.462880439091400,-0.208969000000000
Grosbeak and Badger,N6 6QB,51.562873226663300,-0.149382196323334
Solitaire and Rabbit,EC1M 3JY,51.521204257922700,-0.106689441400928
Scimitar babbler and Shearwater,HA8 9JD,51.610567912669100,-0.267144524359813
Grackle and Stint,W1J 5DA,51.508647880105900,-0.145916927403080
Capuchin and Cuscus,SW11 1RJ,51.461123000000000,-0.173396000000000
Goose and American sparrow,NW1 4RL,51.534404000000000,-0.168863000000000
Booted eagles and Petrel,NW1 6PA,51.524805724493400,-0.165255188619847
Tahr and Jackal,SW1Y 4BE,51.507926817803900,-0.132775131410391
Armadillo and Parakeet,SW13 8DL,51.485210281537800,-0.231889280977412
Towhee and Vulture,HA8 7NJ,51.612065490354200,-0.279089706971283
Mockingbird and Peafowl,N22 6DF,51.595308799412200,-0.108618000000000
River dolphin and Goose,N1 1GD,51.538645000000000,-0.103543000000000
Flameback and Grackle,HA3 5XH,51.585235265947700,-0.329686206463401
Peafowl and Goose,N1P 1DE,51.538645000000000,-0.103543000000000
Piping shrike and Grouse,W12 0SF,51.515340094466100,-0.237612029569591
Pratincole and Wader,TW8 9PA,51.492567688212600,-0.308197518375277
Nukupuʻu and Goose,SW1P 4ES,51.494358970403200,-0.130635677007122
Philippine hawk-owl and Tattler,W14 8QA,51.496110561517000,-0.206414712188472
Grackle and Grosbeak,W1D 4AE,51.514080242626200,-0.131240816471521
Old World quail and Black cockatoo,W11 4DG,51.510540752966800,-0.215777191988118
Capuchin and Solitaire,W4 1PE,51.493532608199000,-0.256200923103771
Tahr and Ground sloth,W5 2SB,51.520982604127900,-0.300672780348904
New World blackbird and Badger,W1T 4EY,51.521790080993000,-0.136532548186024
Nukupuʻu and Philippine hawk-owl,NW10 4QD,51.534291414573500,-0.239100622641973
Grackle and Hawaiian honeycreeper,TW7 7PQ,51.464212800481200,-0.347151660055604
Kestrel and Magpie,NW1W 8QQ,51.530784525000000,-0.135430053900000
Meadowlark and Perching duck,W5 9SR,51.513326610090300,-0.307270046579881
Zebra and Myna,SW1P 9GR,51.481087000000000,-0.133947000000000
Stint and Cuscus,HA3 9PT,51.590628340151900,-0.287103632475026
Chicken and Solitaire,SE11 4TE,51.493419008165600,-0.104570783295912
Badger and Francolin,HA8 5EH,51.603243695892100,-0.271105644503182
Treepie and Maya,TW3 3RX,51.465372294168800,-0.368301512251487
Elephant and Gull,NW7 2QG,51.603040499455600,-0.238088483121495
Kite and Kangaroo,TW10 6PR,51.456522751293000,-0.296777518755474
Flameback and Perching duck,W4 1ED,51.500051978778900,-0.253171421736624
Booted eagles and Kestrel,W1D 2JA,51.515709823876800,-0.136449215317817
Rat and Grackle,SW1P 3JQ,51.496814834232300,-0.126184323851416
Grackle and Booted eagles,NW10 6AU,51.530505333722700,-0.235037000000000
Elephant and Tree warbler,W2 4LW,51.509969149185500,-0.192540351799452
Triller and Jay,NW1W 7FF,51.530784525000000,-0.135430053900000
Buzzard and Wallaby,W1U 2PA,51.517810210863300,-0.150978744756724
Tree warbler and Meadowlark,NW5 2JT,51.548234533688100,-0.141481073532048
Petrel and Viscacha,SW4 0NF,51.466466000000000,-0.147656000000000
Logrunners and Greenbul,W1C 1JU,51.514361000000000,-0.151147000000000
Snipe and Solitaire,SW1E 6AB,51.498094983497600,-0.137110160657476
Tit-tyrant and Logrunners,N5 1SB,51.553709786877300,-0.099310395883496
Guillemot and Towhee,EC1R 4SX,51.523550080448500,-0.111075315689194
Songlark and Grosbeak,SW1P 4EX,51.493682938236700,-0.129971851026399
Perching duck and Hawk,NW5 4NS,51.552484043549000,-0.150337571709181
Elephant and Chipmunk,HA5 3ES,51.600847287430700,-0.385715858057474
Nukupuʻu and Black cockatoo,NW7 2FW,51.615470777800000,-0.241174955300000
Hawk and Maya,SW2 1AS,51.459045687465700,-0.111033425140626
Pratincole and Quetzal,NW10 5DN,51.530091240688100,-0.220577999746111
Polecat and Shearwater,UB6 7QW,51.551083165172900,-0.327187196987788
Chipmunk and Diving bird,SW2 2TS,51.453863587729100,-0.113679827686874
Siskin and Night heron,TW1 1QW,51.459456724747500,-0.320635618768225
Shearwater and Francolin,SW1H 0PX,51.498281374903500,-0.135258423642993
White ibis and Bronzewing pigeon,N11 2TA,51.611417492615700,-0.125223879026440
Bunting and Wader,NW11 9PT,51.580505681672800,-0.209559831081912
Quetzal and Triller,SW3 5NY,51.485250131837900,-0.167565000000000
Jerboa and Chicken,SE1 6SL,51.492246467724600,-0.099908826926287
Perching duck and Hawk,UB1 3FA,51.518404000000000,-0.356858000000000
Magpie and Hawk,W6 9AR,51.492163052030700,-0.239168624648887
Old World quail and Minke whale,EC1N 7AA,51.520690000000000,-0.111384000000000
Parakeet and Night heron,SE24 0BF,51.455492000000000,-0.105279000000000
Mouse and Peafowl,W11 1UF,51.516342223729600,-0.212912942269434
Argus and Cuscus,N7 0QT,51.552666811455800,-0.132357232747173
Cuscus and Francolin,W1K 5DU,51.512917951640800,-0.148107110461973
Kite and Parakeet,WC1H 8ND,51.529431000742100,-0.124513823638083
Chickadee and Triller,TW9 2ND,51.463582261386600,-0.301607000000000
Solitaire and Grackle,W2 1RB,51.517185226743100,-0.171341141286179
Gull and Partridge,NW9 7DG,51.579170000000000,-0.241884000000000
Siskin and Treepie,TW5 0SA,51.486964345737900,-0.368409483610988
Ice seal and Bunting,NW4 4DQ,51.588636580814700,-0.222102446255068
Boto and Marsh harrier,NW11 8RY,51.570807660157600,-0.196362136139054
Shearwater and B,UB6 9LQ,51.529322167357900,-0.355189336813670
New World blackbird and Mole,UB2 4SB,51.507809000000000,-0.360619000000000
Masked owl and Dolphin,W8 5RN,51.498024080063600,-0.184772050177587
Peafowl and Thicketbird,N1 0GJ,51.540270159646400,-0.120780334382715
Chipmunk and Hawk,NW6 9WD,51.535966000000000,-0.194644000000000
Ice seal and Dorcopsis,SW7 4EF,51.494870145622800,-0.188040000000000
Jackal and Francolin,HA7 1NE,51.597369954188800,-0.298675053246003
Perching duck and Coati,WD19 7PP,51.629688804243000,-0.405079112260047
Vulture and Elephant,N8 8SW,51.581453733085000,-0.125836000000000
Thicketbird and Lemming,SE11 4TA,51.495219066910400,-0.102997845836878
Dorcopsis and Lemming,UB5 5HR,51.546678342240100,-0.368798274701158
Capuchin and Vole,W3 6DB,51.522519000000000,-0.261206000000000
Nukupuʻu and Wader,SE17 3DJ,51.491175724705700,-0.102647109265112
Old World quail and Thrasher,HA3 7EP,51.601253184899000,-0.336335000000000
Kangaroo and Greenbul,EC1N 8BA,51.519125042487600,-0.107683750891801
Armadillo and Kangaroo,NW1 6NT,51.524170082116000,-0.164286072988388
Chicken and River dolphin,W10 6LT,51.517401109094000,-0.219270963411903
Meadowlark and Marmoset,W1T 4DZ,51.520436816061600,-0.136256259180757
Old World warbler and Jay,HA4 0TA,51.563643447501600,-0.402557703115823
Pitohui and Vulture,UB5 5QB,51.541400608920200,-0.377278793671025
Fulmarine petrel and Old World warbler,HA3 0TB,51.585237491545200,-0.288028097828315
Old World quail and Cloud rat,SW1W 0LH,51.496347861868600,-0.147165237195137
Night heron and Masked owl,SW4 4BW,51.463240711020400,-0.138901000000000
Black cockatoo and Old World vulture,W9 2BJ,51.523579701510600,-0.201167000000000
Old World vulture and Shearwater,N1 0EG,51.535303946551600,-0.108324954429037
Argus and Kestrel,W14 0EU,51.499447271397300,-0.220129309007255
Parakeet and Ice seal,NW3 3HX,51.544660427732900,-0.173282857756879
Darwin's finches and Thrasher,NW10 8LB,51.541113595809200,-0.259720000000000
Marmoset and Ice seal,HA2 8PL,51.558788157733800,-0.367311952724180
Rat and Zebra,NW11 9SJ,51.575648331754700,-0.206518023733452
Scimitar babbler and Mockingbird,W1A 4US,51.524565000000000,-0.112042000000000
Guillemot and Jay,SW1P 3JS,51.499110691922300,-0.129343000000000
Cloud rat and Darwin's finches,HA7 2RS,51.609065910572800,-0.305935481812965
Greenbul and Eagle,N19 5AZ,51.554140491149600,-0.133984593051260
Siskin and Zebra,HA8 7JX,51.615239920148100,-0.276037491182355
Duck and Hawk,W5 4YD,51.503894444575300,-0.293671854234623
Logrunners and Shearwater,SW4 6AU,51.466976419036000,-0.138536225166704
Wallaby and Greenbul,W4 5YS,51.493879800439900,-0.273951000000000
Kangaroo and Chicken,W5 4BJ,51.494059785561400,-0.310648868910837
Macaw and Peafowl,W3 7DP,51.520291812576400,-0.250018786547307
Tit-tyrant and Peafowl,W1K 5RZ,51.513915025400800,-0.148037848627204
Perching duck and Moluccan boobook,WC1B 3LN,51.517273408636100,-0.128472481004573
Booted eagles and Chickadee,W8 5ED,51.502124000000000,-0.189321000000000
Vulture and Jerboa,TW3 9SD,51.475228019650700,-0.368957850614989
Night heron and Mole,EC1A 1XY,51.524501611318500,-0.112088280168721
Ice seal and Parrotbill,N12 0JA,51.606028000000000,-0.179201511111042
Marsh harrier and Shearwater,N11 1PP,51.613917919024200,-0.140169000000000
Armadillo and Parakeet,N8 7JQ,51.586028177387600,-0.119369223606386
Parrotlet and Dorcopsis,W11 4EW,51.511442271491700,-0.211793264353103
Fox and Viscacha,UB5 4RT,51.557721260217800,-0.356588573732082
Fulmarine petrel and Chicken,W1U 3AH,51.517138625491500,-0.155792000000000
Skunk and Crow,N12 8NX,51.611477394554400,-0.181621807045462
Mink and Peafowl,W1F 8WH,51.514472813124300,-0.135000808472402
Rat and Meadowlark,N7 0PX,51.557011757408200,-0.134718204008182
Moluccan boobook and Puffleg,N3 2JX,51.599387468337300,-0.195331097323649
Logrunners and Vulture,HA0 3AP,51.556209797503300,-0.306572880728995
Herring gull and Marsh harrier,N3 1LF,51.605049694077300,-0.189301306860769
Grackle and Buzzard,SW11 2SA,51.467580509700000,-0.171784510482617
Siskin and Mockingbird,N19 4QX,51.570291662327000,-0.119946587235461
Kestrel and Parrotbill,W1K 2LJ,51.510648796901600,-0.153617739871546
Darwin's finches and Booted eagles,W11 4XU,51.504613000000000,-0.214986000000000
Shearwater and Meadowlark,SW6 3EW,51.467820316699500,-0.193054628187765
Peafowl and Mouse,SW7 4TF,51.493262782155800,-0.181014041783462
Pitohui and Warbler,HA9 9QR,51.570631000000000,-0.279805347051912
B and Peafowl,N11 1TE,51.622061047952500,-0.141976569141093
Grackle and Myna,UB5 6QT,51.543591520420500,-0.396669485287795
Duck and New World blackbird,SW18 4TS,51.454689000000000,-0.193386000000000
River dolphin and Bronzewing pigeon,SW15 2EZ,51.455629229419300,-0.213618000000000
Tattler and Songlark,NW1 8QT,51.544655146309400,-0.145434322145622
Argus and Quetzal,SW3 2RA,51.492828205723600,-0.160476000000000
Parakeet and Jackal,TW1 9QB,51.456007000000000,-0.336573000000000
Jackal and Moluccan boobook,HA0 1JW,51.538648000000000,-0.287268000000000
Cloud rat and Zebra,SW9 9JA,51.467332626305900,-0.121403011529916
Hawk and Jerboa,W4 5HU,51.500604889345600,-0.265584242721723
Asiatic leopard and Badger,W13 0NZ,51.512272677752300,-0.327830973362630
Gull and Capuchin,W1G 6JP,51.521865861588700,-0.150410862711917
Armadillo and Macaw,EN5 2AY,51.637720947852000,-0.235516359124669
Kangaroo and Condor,SW15 2AL,51.458685958108300,-0.213136159524825
Wader and Nukupuʻu,SW15 6JR,51.464674167817800,-0.233259011011025
Tattler and Dorcopsis,N22 5AA,51.606470622742600,-0.110018484158530
Jerboa and Macaw,N3 1NH,51.608440000000000,-0.185152000000000
Logrunners and Greenbul,NW9 9AU,51.588268129014800,-0.270259522035585
Jerboa and Treepie,NW11 0LX,51.579433899067500,-0.201216462353596
Mouse and New World blackbird,W12 9AE,51.502872799315900,-0.241551111512332
Parakeet and Macaw,W1U 7BR,51.518593190892400,-0.155588246138753
Eagle and Triller,HA0 1YU,51.537649000000000,-0.302671176631904
Triller and Elephant,WC1N 1LX,51.523483710354400,-0.122624729021260
Kite and Cloud rat,W1K 6ZG,51.512715528315200,-0.153519763432686
Philippine hawk-owl and Marsh harrier,N6 5XG,51.569577872397600,-0.141750714641669
Perching duck and Armadillo,W12 2FJ,51.513921437702200,-0.321631194869861
River dolphin and Bunting,N12 9RT,51.621295882660700,-0.176332071518961
Stint and Thrasher,W4 1JD,51.497538143616300,-0.259491299081010
Tattler and Cloud rat,NW5 2SR,51.547949530777900,-0.132593688471898
Ibex and Thrasher,HA0 4YQ,51.551110186060400,-0.296564679189891
Parrotlet and Parrotbill,EC4A 1DR,51.516883000000000,-0.109509000000000
New World blackbird and Warbler,W3 9SP,51.511421491436200,-0.284455695069311
Old World vulture and Shearwater,HA3 9TW,51.579046152919200,-0.285244351216216
Cloud rat and Logrunners,TW4 5EY,51.459568113696400,-0.380326561680277
Wallaby and Maya,N3 9EW,51.601392000000000,-0.194981000000000
Bunting and Kangaroo,N13 6HL,51.611841959246500,-0.100724971442789
Gull and Crow,N19 4PF,51.564435298508400,-0.126551024828399
Petrel and Egret,SW7 5RR,51.495946526641300,-0.180938000000000
Grosbeak and Rabbit,W12 0UZ,51.513922000000000,-0.321609000000000
Thrasher and Stilt,WC1X 9QW,51.528901377112800,-0.115034771983218
Macaw and Marmoset,SW15 2PP,51.464172942714200,-0.213238561302067
Tattler and Tit-tyrant,W10 5DT,51.524332094196600,-0.206733078159110
River dolphin and Linsang,SW3 6AX,51.486175355304700,-0.176874251410947
Puffleg and Minke whale,W10 6HR,51.518169642882900,-0.211861299053731
Shearwater and Linsang,UB4 9LD,51.532195050528600,-0.404999566570068
Polecat and Jerboa,UB6 8SP,51.528186140866700,-0.349852962429116
Ground sloth and Kite,NW1 4HZ,51.530783041088500,-0.135430048905449
Capuchin and Vulture,HA5 2SJ,51.583847653367900,-0.398515044048960
American sparrow and Wader,SW2 5RH,51.460946524001500,-0.124688329448798
Cloud rat and Fox,WC1B 4BJ,51.520488174975900,-0.122560535112123
Mouse and New World blackbird,W5 3LG,51.509769349885000,-0.285238288419339
Philippine hawk-owl and Siskin,HA3 8JS,51.587511274512200,-0.311529840107901
Jay and Pheasant,W1K 2DY,51.511038028888300,-0.154351391092238
Argus and Tattler,NW7 2PX,51.605022524851000,-0.238935977254902
Francolin and Ice seal,NW4 1RR,51.590072476187500,-0.223100230461941
Meadowlark and Ibex,W1H 5JQ,51.517501865242400,-0.164554193838737
Duck and Chicken,W3 7NG,51.515633859295300,-0.256063232987256
Goose and Stint,W10 6SU,51.515537110921200,-0.217325891362227
Recurvebill and Old World warbler,NW9 6DP,51.591099460110600,-0.247746583446888
Buzzard and Guillemot,TW9 2EE,51.470573950923500,-0.288479216538310
Asiatic leopard and Kangaroo,N1 1BJ,51.541311557303500,-0.114507583268280
Kangaroo and Prion,NW5 4DS,51.550737670069900,-0.150220897074341
Snipe and Mockingbird,HA4 0HP,51.559456831148700,-0.392952279297418
Fish eagle and Mink,W6 6JA,51.492366227822100,-0.238815140762069
Lemming and American sparrow,NW5 3LJ,51.546358869050700,-0.145696763044635
Marsh harrier and Fox,NW8 6JJ,51.534089474381000,-0.170663764631631
Gull and Warbler,HA9 8PJ,51.568382659316700,-0.294591698757633
Hawk and Mockingbird,N7 9BN,51.543838556848200,-0.122525000000000
Tahr and Thicketbird,NW10 1LS,51.553333582228800,-0.241856112084794
Black cockatoo and Elephant,UB4 9BY,51.526483648131000,-0.392383518319121
Meadowlark and Skunk,HA2 7LH,51.582399090772900,-0.364546207527124
Masked owl and Dorcopsis,SW4 6DQ,51.464644778691800,-0.131420000000000
Capuchin and Lemming,NW1 5NF,51.524024539463900,-0.159015888763976
Triller and Booted eagles,NW1W 8GU,51.530783041088500,-0.135430048905449
Chicken and Parrotbill,N1P 2GL,51.538645000000000,-0.103543000000000
Elephant and Solitaire,NW11 6SL,51.582758003967400,-0.185828526231113
Myna and Rat,N1 8JF,51.533963522543500,-0.098659000000000
Meadowlark and Zebra,NW10 3PJ,51.537333663871000,-0.224967472284715
Solitaire and Wallaby,N3 1SD,51.597605000000000,-0.200349306961196
Tit-tyrant and Wallaby,W4 3DL,51.488847863372500,-0.278129875929509
Peafowl and Marmoset,N1 0BA,51.538786184134000,-0.119644590998476
Greenbul and Greenbul,SW9 8BS,51.462960597879900,-0.116817412278310
Towhee and Flameback,W1F 9AA,51.512246454869700,-0.136936438237737
Quetzal and Triller,W1C 2AQ,51.514024574724400,-0.147572212921938
Kestrel and Parakeet,W10 4BA,51.532321959528500,-0.209389211091126
Shearwater and Wallaby,N14 6RB,51.632098751808900,-0.123059000000000
Towhee and Jackal,N1P 1YE,51.538645000000000,-0.103543000000000
Grosbeak and Old World vulture,NW10 9EH,51.543354591080000,-0.254671965267921
B and Ice seal,W4 3EA,51.487335131111400,-0.265180385611171
Elephant and Polecat,N1 9DH,51.532778399960500,-0.116792247291768
Polecat and Ground sloth,WC1X 0HT,51.527288366274300,-0.112030672457479
New World blackbird and Pitohui,TW9 4HB,51.468349530225300,-0.287021907166675
Peafowl and Dorcopsis,SW1H 0DJ,51.499095019000100,-0.132703887247839
Herring gull and Civet,N21 9EX,51.632959000000000,-0.099528000000000
Vulture and Civet,HA2 0AX,51.572904934751900,-0.354367110755120
Masked owl and Macaw,N22 8PP,51.603045082403100,-0.118449587668975
Goose and Herring gull,W1F 7QR,51.513280633957900,-0.138638102129263
Jerboa and Condor,SW9 9UR,51.465369800188100,-0.119007346126680
Diving bird and Guillemot,W8 4PF,51.502378000000000,-0.189455983824666
Jay and Myna,UB1 1NX,51.513589287256500,-0.384565145725077
Magpie and Treepie,NW10 0ET,51.562091690557400,-0.255685945652174
Diving bird and Booted eagles,SW11 5PS,51.465399206293300,-0.153098126428762
Crow and Darwin's finches,SW2 1JS,51.460766766893500,-0.114043008080415
Herring gull and Rat,SW9 9TB,51.465448515908000,-0.116628603488770
Stint and Argus,SW9 9JW,51.468792000000000,-0.121473000000000
Towhee and Goose,TW14 0BA,51.455409379048100,-0.403618302401939
Siskin and Moluccan boobook,WC1N 2NB,51.521457075414400,-0.115688133538593
Kite and Flameback,SW11 3AB,51.473833000000000,-0.166125771457995
Stilt and Grouse,SW5 0ST,51.494991000000000,-0.192658000000000
Quetzal and Civet,NW1W 9PY,51.530783041088500,-0.135430048905449
Kākāriki and Jackal,W6 7BL,51.495298591917300,-0.218144383530464
Hawaiian honeycreeper and Myna,TW2 7BG,51.451938952212500,-0.361296461338725
Triller and Ice seal,NW8 8PW,51.523107775490000,-0.171468000000000
Ibex and Mole,NW8 8LP,51.525071634512300,-0.171342350213117
Buzzard and White ibis,W4 1RT,51.494149738723200,-0.256580735939297
Perching duck and Gull,W1D 4QH,51.513291171720800,-0.132512547175598
Minke whale and Bronzewing pigeon,W7 3DL,51.524534704577700,-0.345213592014042
Snipe and Prion,N14 5AP,51.632556189544200,-0.134106046657087
Tattler and Puffleg,N2 8JR,51.596348793352600,-0.179656094748935
Rabbit and Treepie,N20 0UQ,51.629860249051700,-0.173676793855769
Tattler and Boto,W13 8AJ,51.521161159504700,-0.321192008835101
Triller and Herring gull,TW3 9WP,51.470271000000000,-0.360964000000000
Duck and Zebra,SW9 6QH,51.472470594211300,-0.108736622920152
Capuchin and Elephant,NW1 5TE,51.523084137803400,-0.157540229166498
Jerboa and Chipmunk,N5 1GE,51.556876246679400,-0.108281132085466
Kestrel and Mamo,NW10 5SE,51.532519627369200,-0.222502000000000
Snipe and Old World vulture,HA9 6SB,51.552606269595200,-0.277699610397529
Condor and New World blackbird,N3 9FP,51.601392000000000,-0.194981000000000
Philippine hawk-owl and Nukupuʻu,WC2B 5NT,51.515562817234400,-0.122157728803466
Tit-tyrant and Asiatic leopard,W9 2HT,51.523159229997400,-0.194756994620766
Badger and Guillemot,N1 8LR,51.537761764315900,-0.099599973917899
Eagle and Capuchin,N13 6HU,51.610731260381100,-0.109350460624134
Chickadee and Booted eagles,NW10 3SE,51.544084385033700,-0.236126712473800
Old World vulture and Vulture,W7 3FA,51.510016000000000,-0.329621000000000
Kākāriki and Stilt,WC1E 6EQ,51.522465630769200,-0.132079577825635
Asiatic leopard and Duck,HA8 0EL,51.602774947565000,-0.263109161938723
Thrasher and B,W6 9PN,51.490059234960400,-0.223692759496242
Magpie and Dorcopsis,NW3 1SJ,51.555256784815400,-0.172339047133162
Jay and Kestrel,NW10 1BJ,51.553879000000000,-0.243379000000000
Kestrel and Herring gull,W1W 7LA,51.517196302633500,-0.141721458957758
Hawaiian honeycreeper and Black cockatoo,HA2 0HS,51.571684321300000,-0.341755938509474
Goose and Logrunners,NW9 5HW,51.595116353200000,-0.251677955300000
Mockingbird and Grackle,N19 5LF,51.561220000000000,-0.138620758209301
Asiatic leopard and Lemming,W11 9FL,51.513921437702200,-0.321631194869861
B and Fish eagle,HA9 9AL,51.564056735999200,-0.277310282797189
Herring gull and Maya,W1F 8DD,51.514735541897100,-0.134557701864829
Booted eagles and American sparrow,SW8 3PL,51.470394134098400,-0.151643750348827
Tree warbler and Stilt,SW2 2TR,51.454425620674800,-0.113958923615616
Flameback and Chickadee,NW9 5ET,51.593493487590000,-0.253794000000000
Wader and Polecat,TW3 1XZ,51.466501668540900,-0.354526570256922
Ice seal and Argus,HA8 7TJ,51.619107170209600,-0.290220695646369
Night heron and Nukupuʻu,W4 1ND,51.495976736380800,-0.250042562030630
Stint and Old World warbler,N1P 1LB,51.538645000000000,-0.103543000000000
Mole and Booted eagles,HA7 2SA,51.610533734319100,-0.306704066030996
Black cockatoo and Parakeet,NW6 6TA,51.538870784711900,-0.197798055806717
Linsang and Armadillo,SW15 6NX,51.461134508698000,-0.225147113632907
Moluccan boobook and Night heron,W14 0HB,51.497451597358400,-0.216029046659234
Jackal and Pitohui,NW9 0DA,51.582746422415700,-0.246595672173971
Kangaroo and Scimitar babbler,NW9 6ER,51.585315425316300,-0.242801504551760
Jackal and Vulture,UB4 0NB,51.517337595514600,-0.388381675966458
Mink and Thicketbird,SW6 5PU,51.479300000000000,-0.199154000000000
Grosbeak and Kangaroo,WC2H 0JN,51.514375981754700,-0.129484811021151
Tree warbler and Scimitar babbler,SW4 4ER,51.463324000000000,-0.138875000000000
Peafowl and Fox,HA0 3HS,51.561748975149800,-0.319077374198177
Petrel and Bunting,W9 3DS,51.528004752536400,-0.202278219886515
Bronzewing pigeon and Mamo,N2 0HN,51.585203189956600,-0.173605953762554
Black cockatoo and Towhee,N1P 2SQ,51.538645000000000,-0.103543000000000
Fish eagle and Jerboa,SE5 9PE,51.466067033164200,-0.099787186940823
Kangaroo and Grosbeak,TW1 9QL,51.456007000000000,-0.336573000000000
Petrel and Argus,SW9 6JX,51.476161143476700,-0.111190445477287
Viscacha and Black cockatoo,N22 7BX,51.601027258201400,-0.118229759659277
Diving bird and Fulmarine petrel,W1J 7HN,51.506114191346400,-0.146624989636349
Jay and Treepie,W1G 9BL,51.516857769665100,-0.149316563843317
Jerboa and Crow,W1F 0LA,51.512011000000000,-0.134995420080604
Ice seal and Kākāriki,N5 1HL,51.548525303606600,-0.098459159461338
Goose and Tree warbler,NW2 6BF,51.562925163556500,-0.226106394319744
Fulmarine petrel and Duck,HA2 8DP,51.564388592839000,-0.361383523092823
Linsang and Prion,NW1W 7ZJ,51.530786000000000,-0.135404000000000
Wader and Kite,HA8 8QW,51.626636541382800,-0.279954289662019
Dorcopsis and Condor,N12 7NL,51.613721796637500,-0.178326000000000
Rat and Pheasant,HA3 8EP,51.585382158654800,-0.312922312269082
Herring gull and Triller,SW15 2NN,51.464209076310800,-0.210890529530924
Skunk and Myna,W1J 5EN,51.508384532572900,-0.145754692449067
Hawk and Chipmunk,W1W 7EQ,51.519360592860600,-0.139269473727419
Stint and Parrotbill,NW2 9RX,51.562153000000000,-0.213473000000000
Cuscus and American sparrow,W13 0AS,51.513515834761200,-0.325465153815186
Solitaire and Flameback,HA1 3PB,51.561633458199300,-0.343838372153341
Tit-tyrant and New World blackbird,WC2E 8JF,51.511333347272200,-0.124781604040971
Kākāriki and Petrel,N14 4LR,51.636723371886400,-0.125871248719848
Macaw and Warbler,W1J 0BB,51.509098000000000,-0.139601000000000
Night heron and Siskin,W1D 3BL,51.514765810734600,-0.133634063438732
Asiatic leopard and Mole,W1G 9QN,51.517588780754100,-0.146634867759967
Guillemot and Parrotlet,HA9 9AX,51.564105210558700,-0.269603960480956
Wallaby and Towhee,SW11 3DF,51.473081877421100,-0.168771114932743
Lemming and Chickadee,W3 0HE,51.516800870026100,-0.283359988981330
Meadowlark and Duck,UB6 9LJ,51.532624863637200,-0.352806710294662
Peafowl and Skunk,SW1P 3XQ,51.481026000000000,-0.135804000000000
Mole and Diving bird,W1H 2NW,51.519011774577300,-0.162346000000000
Black cockatoo and Lemming,SW18 1TY,51.464712993852000,-0.184006711579940
Pitohui and Tattler,N11 3DX,51.614225688338000,-0.151468510246745
Chicken and Parrotlet,NW11 8PT,51.572374054649200,-0.204875000000000
Rabbit and Perching duck,NW10 3TA,51.539861514048600,-0.236362088485031
Mockingbird and Stint,HA3 6ED,51.606046000000000,-0.340542159267705
Black jay and Wader,SW1W 9AQ,51.496587089027600,-0.152068241751510
Buzzard and Quetzal,NW4 1HD,51.594676350954500,-0.219527714560179
Guillemot and Buzzard,NW3 4NX,51.546154054211300,-0.171030835345720
Mamo and Elephant,W1G 0EJ,51.515893588924600,-0.147481973399179
Mink and Kangaroo,SW6 3BQ,51.468591975376300,-0.209250582230853
Flameback and Goose,W1W 7LU,51.518618851979700,-0.142398657529402
Philippine hawk-owl and Dolphin,NW1W 7AL,51.530784525000000,-0.135430053900000
Linsang and Songlark,HA8 9PD,51.615414979746600,-0.261805000000000
Grackle and Ground sloth,W11 3ND,51.510725492388900,-0.200205966005601
Chipmunk and Nukupuʻu,WC1N 1EA,51.523220014522800,-0.119075014268597
Skunk and Crow,NW11 6TE,51.572991173686400,-0.181108885937425
Old World quail and Thrasher,WC2H 8JB,51.514768496025100,-0.127033012184540
Masked owl and Civet,UB1 1NZ,51.512765711093800,-0.385487788916522
Darwin's finches and Dorcopsis,W1D 5LF,51.512823982669200,-0.130845459082449
Pheasant and Zebra,UB2 4UJ,51.507991090329800,-0.351245516633306
Pheasant and Grouse,W4 5DP,51.500991638682600,-0.264373700590866
Elephant and Rat,UB1 3QU,51.511764000000000,-0.364987000000000
Skunk and Nukupuʻu,WC2H 7BD,51.511593565137600,-0.129814957063315
Macaw and Coati,W6 9SP,51.484499151452300,-0.222324514895057
Logrunners and Shearwater,W1T 6HE,51.522129863830600,-0.139243083773136
Mamo and Mink,WC1E 7DQ,51.520307762728800,-0.130971487178816
Nukupuʻu and Peafowl,N20 0ER,51.628825000000000,-0.175236000000000
Black jay and Wallaby,N19 3LX,51.571670374094700,-0.127436880927749
Macaw and Condor,NW3 6DX,51.549375212109100,-0.183305770371022
Masked owl and Jay,NW8 8DR,51.522272682911700,-0.171195008892728
Maya and Elephant,SE1 9NY,51.506995290087600,-0.104972896225904
Grosbeak and Boto,W1W 5DB,51.522607661181100,-0.144427419082159
Crow and Dolphin,HA0 2BP,51.553007389441700,-0.299032491900207
Marsh harrier and Meadowlark,HA8 6ET,51.604729789972600,-0.280450132354132
Tree warbler and Dolphin,EC4Y 1BD,51.513507758037900,-0.111779013319119
Partridge and Perching duck,HA7 4TN,51.613885963062100,-0.302217346048911
Egret and Shearwater,TW10 5EE,51.465063481025200,-0.280004250290460
Condor and Elephant,W1G 6LQ,51.520877570635500,-0.149326579026634
Asiatic leopard and Perching duck,N1 9DE,51.532752000000000,-0.116188000000000
Marmoset and Shearwater,UB3 3EX,51.516683000000000,-0.405498000000000
Grosbeak and Siskin,SE24 0QH,51.463354986655700,-0.102793518637239
Maya and Macaw,NW2 2EG,51.560144804995600,-0.205295823849896
Badger and B,SW3 4TW,51.489772195972400,-0.157875178104218
Mole and Scimitar babbler,HA3 5EY,51.601626877070900,-0.344203166534192
Diving bird and Towhee,HA3 6TR,51.610642060776500,-0.342012083921539
Condor and Towhee,NW10 7FR,51.531368069500000,-0.283215854500000
Eagle and Old World warbler,NW3 7NB,51.560468605408700,-0.185171000000000
Darwin's finches and Fox,NW2 7FG,51.561761527500000,-0.240088434300000
Peafowl and Marsh harrier,W8 7AJ,51.505062337300200,-0.198584717627256
White ibis and Diving bird,W3 8SF,51.504632181541300,-0.272808788822438
Condor and Cuscus,W2 3BG,51.514133887998500,-0.181566330298567
Recurvebill and Nukupuʻu,W1U 3BD,51.517065993682400,-0.151686305686973
Linsang and Lemming,W6 8QS,51.484953606064900,-0.214356402375027
Night heron and Eagle,HA4 0QL,51.558717166353300,-0.379706438872517
Chicken and Polecat,HA5 2AR,51.595896440893800,-0.395174872173869
Skunk and Egret,W10 5QY,51.522461692481400,-0.206734480816473
Petrel and Duck,W7 3SJ,51.508321696960100,-0.337716882607038
Old World warbler and Elephant,SW6 3SR,51.473265658358200,-0.194538593274705
Eagle and Argus,TW8 9GW,51.492181000000000,-0.291321000000000
Skunk and Kākāriki,W2 6QA,51.515493000000000,-0.179812000000000
Tahr and Marmoset,UB2 4RS,51.502452489241200,-0.373187454071508
Quetzal and Vulture,N2 0HD,51.587926935478500,-0.178173859447507
Hawk and Mink,EC1R 0AA,51.523376000000000,-0.106888000000000
Bronzewing pigeon and River dolphin,W1K 5JD,51.513046722225300,-0.148289243640212
Wader and Mamo,WC2B 5HZ,51.512306889024900,-0.121556624025538
Jackal and Old World quail,N2 9NL,51.591706568481600,-0.155443000000000
Peafowl and Crow,WC2H 7AD,51.511427516910300,-0.127861795567925
Magpie and Quetzal,N8 0BF,51.592462231191700,-0.106516000000000
Goose and Badger,N11 2PD,51.607415050822700,-0.126861841086449
Partridge and Kākāriki,SW13 9PJ,51.479966807753000,-0.240200037837955
Fish eagle and Ibex,N20 8EJ,51.629097490823300,-0.191204765526401
Stilt and Jay,NW4 4DT,51.589702509646600,-0.222235000000000
Badger and Badger,NW1 7NU,51.534574653626400,-0.141460767321956
Petrel and Booted eagles,NW1W 8JG,51.530783041088500,-0.135430048905449
Partridge and Tahr,UB2 4JZ,51.497007256795600,-0.373482167641086
Kākāriki and Kestrel,EC4Y 0AA,51.512595525896300,-0.104841379890670
Prion and Darwin's finches,SW10 0UB,51.481281581903800,-0.183708683211669
Bronzewing pigeon and Siskin,NW10 0UA,51.550019554434900,-0.265090258776031
Peafowl and Pheasant,W1K 4EF,51.512627530806500,-0.146230938756249
Ground sloth and Petrel,N4 4PB,51.574252856396600,-0.106246498775948
Mink and Chicken,W8 7JD,51.506290917283600,-0.200121334649918
Greenbul and Snipe,N4 2DL,51.564354916366800,-0.104190544632979
Pratincole and Chicken,NW10 0RH,51.543862817701200,-0.270775752144386
Badger and Parrotbill,SW8 4HN,51.473369554565900,-0.135669690113887
Chickadee and Gull,N22 9HT,51.598606128900000,-0.119687183400000
Scimitar babbler and Black jay,HA2 8RS,51.561664841356300,-0.372431486254223
Mole and Guillemot,N22 5SA,51.599677334866300,-0.103080816176295
Warbler and Kangaroo,NW7 2JE,51.613756795059300,-0.245126490436972
Flameback and Grouse,WD19 5ET,51.625593513226300,-0.380489125560802
Viscacha and Treepie,SW6 3RY,51.467274749400200,-0.205544357151158
Fish eagle and Masked owl,SE1 7RE,51.500681000000000,-0.109817000000000
Peafowl and Grackle,HA2 0AH,51.571711486490600,-0.353905152080664
Tattler and Maya,HA9 8PE,51.571482907216400,-0.295067317477645
Tree warbler and Ground sloth,N20 8EG,51.628493600763500,-0.185694000000000
Myna and Old World quail,NW1W 7DH,51.530784525000000,-0.135430053900000
Mockingbird and Diving bird,TW4 5AA,51.463736207850100,-0.383921965348383
Old World warbler and Thrasher,N1P 2UW,51.538645000000000,-0.103543000000000
Perching duck and Mink,HA5 5AY,51.578312912462200,-0.377883939864811
Rabbit and Philippine hawk-owl,HA4 8SU,51.581174233927200,-0.401611106897676
Grouse and Wader,N7 6AN,51.558623614600600,-0.118523526441179
Nukupuʻu and Rabbit,NW1 3JS,51.528353358093100,-0.141555544149654
Tree warbler and Nukupuʻu,NW3 5PH,51.553979086881800,-0.172289287432578
Dorcopsis and Night heron,SE1 0RB,51.501329009953200,-0.101577057519908
Grosbeak and White ibis,W12 0BQ,51.516295418850100,-0.249163060257289
Grosbeak and Night heron,NW7 1JR,51.604177974174300,-0.204556510919581
Argus and Tit-tyrant,NW8 0NA,51.536830655561600,-0.178657577487021
Fulmarine petrel and Goose,SW3 6JZ,51.489285913088500,-0.172198377855153
Old World quail and Myna,NW10 5AG,51.534516454109700,-0.230152413084083
Tattler and Parakeet,SW1W 9SP,51.491725013467700,-0.148260204459676
Marsh harrier and Fulmarine petrel,HA3 0TN,51.581517569671500,-0.293782481296983
Armadillo and Jay,W4 3AH,51.490242139646900,-0.280612545332002
Tattler and White ibis,HA9 0EY,51.557138000000000,-0.285578000000000
Jerboa and Polecat,NW5 4NU,51.550050693610800,-0.150566083183313
Argus and Argus,SE1 7PD,51.500961000000000,-0.117715000000000
Rat and Armadillo,NW4 1LW,51.599052584964400,-0.209743000000000
Puffleg and Treepie,UB1 2AW,51.514125347882100,-0.379098484728487
Jay and Tahr,N4 3NX,51.562386268556400,-0.109249960445337
Moluccan boobook and Night heron,NW1 4UG,51.530783041088500,-0.135430048905449
Jackal and Warbler,SE1 7HY,51.498244952859100,-0.108836857772118
New World blackbird and Grackle,NW5 1UB,51.554117116013700,-0.142712652389341
Badger and Logrunners,N7 6RA,51.561060901725900,-0.116302131432351
Bunting and Quetzal,NW1W 9FL,51.530783041088500,-0.135430048905449
Kangaroo and Thicketbird,W1H 5QQ,51.515337483635600,-0.162436062530274
Rabbit and Old World quail,W12 7HW,51.507820815310900,-0.228549992765639
Badger and Grouse,W8 6LA,51.497067281204300,-0.192690605486306
Solitaire and Towhee,NW10 9ED,51.543640000000000,-0.255584762223869
Viscacha and Pratincole,HA7 9JP,51.604469000000000,-0.295599000000000
Ground sloth and Herring gull,EC4Y 1DG,51.513998675196900,-0.105417285996821
Crow and Argus,SW1X 7AX,51.498372936397700,-0.148984880112693
Ibex and Macaw,W1U 5LH,51.521625494724900,-0.153418851483823
Mockingbird and Black cockatoo,NW10 1LP,51.551178109704000,-0.231265560356397
Lemming and Chipmunk,SW15 1ER,51.466936558847100,-0.216974687406497
Scimitar babbler and Greenbul,SW4 6BY,51.466745655975900,-0.137595389784409
Peafowl and Pheasant,W1U 3AB,51.516690365650400,-0.151816816698980
Chipmunk and Mole,HA4 0NR,51.563778295995200,-0.393333757383382
Grosbeak and Parakeet,NW7 0JU,51.615437000000000,-0.241094000000000
Flameback and Solitaire,SW1Y 6DT,51.508433809725000,-0.136947866908012
Jerboa and Quetzal,N11 1RA,51.615564086405200,-0.134775000000000
Philippine hawk-owl and Bunting,TW3 1HH,51.468632071379800,-0.364110715602350
Peafowl and Armadillo,N3 2UD,51.607572575556900,-0.182644342420706
Tattler and Ice seal,W2 1SP,51.522383381043600,-0.178888109279620
Dorcopsis and Marsh harrier,HA8 8LL,51.616596420869900,-0.278398326974161
Warbler and Badger,UB4 9NG,51.530098947481900,-0.391102824060894
Condor and Magpie,WC2A 3TS,51.517011052798100,-0.113219590953780
Wader and Ice seal,W5 2ST,51.512156000000000,-0.313415557613295
Elephant and Rabbit,SW6 2JB,51.479859466649700,-0.189439340049781
Zebra and Old World quail,SW1P 2PA,51.494413993358600,-0.136352649759676
Tattler and Night heron,NW1 4NY,51.528601985905600,-0.152170657657926
Old World vulture and Songlark,WC1H 0PW,51.525322079272800,-0.130751748765937
Bunting and Recurvebill,SW4 0EG,51.464222339984300,-0.140290000000000
New World blackbird and Mamo,W7 1AQ,51.521244095358900,-0.338385138755389
Tahr and Jackal,W2 5LX,51.517094040650500,-0.193310473496332
Eagle and Greenbul,N6 5JX,51.570888424101000,-0.148998984509734
Marsh harrier and American sparrow,NW6 5QH,51.532562672431900,-0.195754729349257
Chickadee and Tahr,EC1P 1WH,51.524501611318500,-0.112088280168721
Viscacha and Kite,NW1 7BU,51.540144809348100,-0.143973747265217
Shearwater and Dolphin,NW4 1EE,51.593033928193100,-0.214408999469602
Black cockatoo and Bronzewing pigeon,UB6 0LQ,51.552970194175600,-0.337214958094784
Vole and Kite,TW1 2ET,51.455205865860100,-0.311290000000000
Old World warbler and B,NW1 2JA,51.534360728445300,-0.138744344831716
Warbler and Bronzewing pigeon,HA5 1HY,51.581386364765100,-0.381657032249904
Vulture and Thicketbird,NW1W 9JQ,51.530783041088500,-0.135430048905449
Stilt and Vulture,NW2 2SE,51.558020771194000,-0.207528923432288
Pheasant and Kestrel,N22 8AA,51.605008950300000,-0.112418713800000
Peafowl and Black jay,N7 8JX,51.547222958668300,-0.105782576305221
Kangaroo and Kestrel,NW8 7HN,51.529405000000000,-0.169313000000000
Masked owl and Towhee,HA1 4DU,51.577574439923600,-0.350705912045163
Polecat and Civet,SW6 5QH,51.479078099261800,-0.198845438210946
Macaw and Logrunners,N4 4QJ,51.575607425580700,-0.107157127925107
B and Parrotlet,UB6 0FS,51.548349000000000,-0.342193000000000
Tree warbler and Warbler,HA5 4EB,51.608214082583900,-0.369612036771559
Mamo and Wader,WD23 1HF,51.632049097373500,-0.346245588665439
Logrunners and American sparrow,NW9 9DX,51.585740000000000,-0.275499845136770
Coati and Kākāriki,NW4 9DG,51.588020000873000,-0.221765627820132
Prion and Tit-tyrant,N7 7PA,51.559718607832100,-0.112794182576601
Bronzewing pigeon and Piping shrike,HA1 4PW,51.585602345532800,-0.359537884415888
Quetzal and Rabbit,HA0 2JN,51.559214207207800,-0.304628000000000
Myna and Marsh harrier,SW7 5NS,51.497223000000000,-0.181738570629281
Kestrel and Stilt,SW15 5DN,51.451129150383900,-0.240877332449801
Kestrel and Philippine hawk-owl,TW4 7LG,51.471617505711800,-0.393376873754157
Pitohui and Gull,SW4 6JS,51.469647635743300,-0.131213959209385
Philippine hawk-owl and Civet,NW11 6LR,51.587144688695300,-0.185725967781714
Stilt and Kestrel,SE11 5ES,51.488934964864800,-0.122099671955586
Kākāriki and Recurvebill,SW1P 4AA,51.492559629952400,-0.132841302578650
Maya and Chipmunk,N14 7BT,51.622884341070500,-0.114652943197000
Boto and Perching duck,W14 8RD,51.496518000000000,-0.204266000000000
Treepie and Duck,HA3 5EG,51.602897000000000,-0.339190000000000
Towhee and Wader,UB1 1BJ,51.516980207338500,-0.383320985961942
Flameback and Booted eagles,NW3 1TY,51.557314484090300,-0.175127316074958
Eagle and Thicketbird,SE1 8RT,51.503540556253700,-0.110447565969037
Asiatic leopard and Recurvebill,N6 4AE,51.575239012880200,-0.153107000000000
Goose and Asiatic leopard,NW10 5EL,51.531861562636400,-0.225843545066946
Marsh harrier and Solitaire,W1S 4AN,51.510039139940400,-0.142344156452622
Siskin and Jay,HA2 8NX,51.559339341338900,-0.357193855732430
Masked owl and Chickadee,N21 3AL,51.628371673153000,-0.099716794550765
Tit-tyrant and Stilt,W11 9HW,51.513922000000000,-0.321609000000000
Recurvebill and Mole,SW18 4LS,51.456917000000000,-0.197386000000000
Night heron and Argus,N14 5ED,51.633289638799600,-0.133727000000000
Rat and Grosbeak,NW10 3AS,51.537724468627600,-0.227619897378580
Old World quail and Mockingbird,NW1 6DR,51.525233220354800,-0.160970933191438
Peafowl and Minke whale,HA2 0YE,51.567607477262200,-0.347892250910079
Recurvebill and Mamo,W1J 9EE,51.507834539431500,-0.139984071719175
Black cockatoo and Minke whale,W4 1TE,51.493575196370700,-0.246994099991611
Old World quail and Diving bird,W12 7EL,51.509058136943500,-0.230205000000000
Darwin's finches and Mouse,SE11 4PT,51.485950975413300,-0.110440235344043
Condor and Mamo,W13 9QB,51.504328791224600,-0.313756094563399
Herring gull and Buzzard,W9 2NF,51.527643173287400,-0.192792000497687
Jerboa and Scimitar babbler,SW6 7QW,51.480688521048100,-0.208287082569505
Night heron and Puffleg,HA5 5LU,51.593593000000000,-0.381194000000000
Grouse and Puffleg,WC1H 9WS,51.524565000000000,-0.112042000000000
Cuscus and Flameback,NW10 7UG,51.538028306001700,-0.283285000000000
Bronzewing pigeon and Boto,SW15 1HY,51.471126291733200,-0.227005560326594
Greenbul and Magpie,W12 8QP,51.502355851232400,-0.225736143377434
Parrotlet and Mole,HA8 0JF,51.606240695866800,-0.250644056160730
Vole and Stilt,NW2 7QD,51.561086541896300,-0.253401665522931
Lemming and Puffleg,SE11 6UL,51.491946460434600,-0.113073410235536
Bunting and Fulmarine petrel,SW6 6PN,51.476365915923500,-0.220279087920913
Badger and Scimitar babbler,HA5 5LX,51.593554337655500,-0.381773232033902
Booted eagles and Boto,HA0 2FQ,51.552503753019300,-0.298907110389959
Treepie and Egret,NW1 0AS,51.539210324471700,-0.141747788642100
Cloud rat and Vole,EC2R 7WD,51.524501611318500,-0.112088280168721
Dorcopsis and Black jay,W2 2AS,51.513629983797200,-0.167102240479544
Elephant and Parrotbill,W1D 2EQ,51.516125410372500,-0.132612819595426
Puffleg and Parrotbill,SW11 2AG,51.461208000000000,-0.176435309922841
Nukupuʻu and Kite,HA2 0TR,51.568201912549600,-0.359916000000000
Boto and Treepie,N19 3DF,51.565825172575400,-0.128557196768403
Jerboa and Puffleg,NW1W 7WA,51.530784000000000,-0.135430000000000
Duck and Chickadee,HA0 2LW,51.555050472925400,-0.315992156023059
Parrotbill and Duck,HA0 3TJ,51.569423148244600,-0.313700732062633
Thicketbird and Diving bird,HA2 9LA,51.562742169922500,-0.372306459256500
Mouse and Dorcopsis,NW7 2RJ,51.610518372095900,-0.230072136839268
Shearwater and Greenbul,HA0 4YD,51.550865665511100,-0.298304650873669
Armadillo and Parrotlet,HA5 3HN,51.599408595229600,-0.386373304784633
Duck and Asiatic leopard,NW4 1QW,51.591270179920200,-0.222620397700465
Recurvebill and Francolin,EC1A 9LA,51.517965450469800,-0.103174000000000
Kangaroo and Boto,NW6 1PN,51.548922344522700,-0.194747005789029
Cuscus and Tahr,W1U 4NG,51.518373292790400,-0.151330694646081
Fox and Fulmarine petrel,SW11 3LE,51.473819982309400,-0.175739734685408
Night heron and Egret,HA2 8TB,51.559914669478700,-0.368137195015590
Prion and Minke whale,W1D 2JU,51.515336000042200,-0.138957869966643
Old World warbler and Ice seal,SW18 1LU,51.452243424085800,-0.200535046699342
Marsh harrier and Piping shrike,NW8 7BX,51.533743188815000,-0.166914428906941
Treepie and Wader,N7 8LH,51.546651485467700,-0.107452000000000
Songlark and Viscacha,TW2 7BU,51.453132599469600,-0.359843236700513
Skunk and Moluccan boobook,W1G 7ER,51.522540356079300,-0.148134800207233
Treepie and Moluccan boobook,N6 5FJ,51.578063408866000,-0.147798227355583
Gull and Night heron,HA0 3AF,51.554786835968400,-0.309539551810525
Eagle and Puffleg,UB4 0LY,51.517965207021000,-0.392178995329158
Duck and Thrasher,HA3 7QS,51.594187976444400,-0.331335732236762
Vole and Jackal,HA9 7EN,51.551356877115300,-0.292502373211449
Bronzewing pigeon and River dolphin,SW6 4QJ,51.477407039175900,-0.192517386251800
Duck and Mamo,NW4 4JE,51.592402764942200,-0.233909181871404
Marsh harrier and Tree warbler,NW6 4AY,51.541057389401800,-0.181574868798266
Masked owl and White ibis,W1G 8YR,51.518954302815600,-0.148827990524485
Fish eagle and Kangaroo,N1 1UY,51.538645000000000,-0.103543000000000
Capuchin and Dorcopsis,NW1 8QU,51.542070000000000,-0.145092000000000
Linsang and Quetzal,WC1N 3JL,51.521960528334800,-0.119602600673253
Tattler and Mamo,TW8 0QS,51.488671048129300,-0.310487946971704
Black cockatoo and Duck,W1J 8AL,51.507587496116700,-0.143121156375219
Pratincole and Ibex,W1U 5NR,51.521896145695900,-0.152903387164140
Ground sloth and Duck,TW3 3RE,51.466285136237800,-0.371868160312523
Polecat and Zebra,W3 6TS,51.518076677849200,-0.264949445209160
White ibis and Ice seal,W5 2AA,51.514115599507100,-0.304617812427536
White ibis and Philippine hawk-owl,W6 8DB,51.492854511356000,-0.218859118971712
Crow and Stilt,N20 8DN,51.630462540877700,-0.184099309501122
Vulture and Asiatic leopard,N1 0HW,51.538425439541700,-0.107835023730070
Buzzard and Goose,W2 5EA,51.518651308362100,-0.190495842216174
Mouse and Lemming,W1K 7AN,51.509407184066900,-0.156537000000000
Shearwater and Quetzal,W3 6PL,51.516372789288000,-0.267089635177476
White ibis and Mockingbird,HA4 0FY,51.559071000000000,-0.400057000000000
Jay and Vole,HA7 4NP,51.620825414007500,-0.303287380640490
Hawaiian honeycreeper and Bunting,NW11 6SP,51.582022644954000,-0.185958849514764
Dorcopsis and White ibis,TW9 3DZ,51.480787469946900,-0.287736860013727
Pitohui and Asiatic leopard,SW15 6FF,51.462240032227200,-0.226414000000000
Bronzewing pigeon and Vulture,SW4 0LT,51.466705114827300,-0.144680540179152
Fulmarine petrel and Night heron,W5 3AP,51.519489411859000,-0.287655097439275
Old World quail and Herring gull,SW95 9DD,51.480624000000000,-0.136555000000000
Ground sloth and Marmoset,UB6 0AJ,51.551056000000000,-0.339775490309042
Recurvebill and Skunk,SE11 6DU,51.495005145932000,-0.113148789633972
Shearwater and Warbler,W4 2PH,51.486171856967700,-0.251037299681094
Ground sloth and Gull,SW1P 4NP,51.491514000000000,-0.133705000000000
Wader and Old World vulture,W2 4JN,51.511150325711100,-0.193329457206497
Chipmunk and Logrunners,SW3 9DT,51.463240711020400,-0.138901000000000
Mole and Fox,W3 8FX,51.501309000000000,-0.271658000000000
Chipmunk and Goose,N10 2EY,51.607344262375000,-0.142779668117127
Elephant and Wallaby,HA5 4TZ,51.609440352252000,-0.385468843204901
Mamo and B,W1K 3NE,51.510462523124100,-0.148076982690575
Black cockatoo and Bunting,W10 5JG,51.522735957274900,-0.223144000000000
Old World vulture and American sparrow,W6 8NH,51.485300967337800,-0.218420000000000
Darwin's finches and Nukupuʻu,NW3 1HL,51.557111052258400,-0.177659980910964
Jackal and Songlark,NW6 1ED,51.553859414463200,-0.198273141676700
Wader and Piping shrike,W1U 6BG,51.520083846436700,-0.157171237404501
Pitohui and Polecat,N14 9EQ,51.630588000000000,-0.128266000000000
Mole and Old World warbler,N2 0SH,51.593916658708800,-0.177067956871283
Grackle and Mole,TW1 1DB,51.454765439985100,-0.335330595666198
Old World quail and Old World warbler,W1T 2LY,51.518676743176300,-0.134713770413989
Maya and Songlark,SW6 6SP,51.478749857882900,-0.213391000000000
Grackle and Black cockatoo,N20 0QL,51.623479917207400,-0.173947446669145
Viscacha and Diving bird,W13 9RP,51.506554846251000,-0.319740366855225
Triller and Siskin,SE11 9BW,51.489148836100000,-0.098453184100000
Stilt and Solitaire,W9 3UE,51.521785848143500,-0.196670793390841
Mockingbird and Viscacha,SE11 6TP,51.490450978689700,-0.112904680123080
Chickadee and Minke whale,W1K 4PX,51.512246096636900,-0.145224000000000
Chicken and Condor,NW1W 8QT,51.530784525000000,-0.135430053900000
Asiatic leopard and Viscacha,SW1V 2JA,51.489551376896100,-0.133108253497157
Old World warbler and American sparrow,NW5 4NE,51.549215939424300,-0.151234564992692
Black jay and Condor,SW8 2SP,51.480295929959000,-0.127336722448560
Booted eagles and Moluccan boobook,NW9 6FD,51.591830464000000,-0.255658716700000
Herring gull and Boto,SW1P 3LN,51.496853044929300,-0.127450562823219
Prion and River dolphin,SW14 8JU,51.463475434569500,-0.264991230782918
Bunting and Coati,WC1H 9DQ,51.528527034046600,-0.125343901548623
Ibex and Crow,UB1 1EJ,51.509659054412000,-0.387788000535300
Towhee and Dorcopsis,SW18 2EB,51.453158436352000,-0.182320705960714
Cuscus and Pitohui,WC1N 1AL,51.525810077467200,-0.125830313618850
Capuchin and Solitaire,W14 9UU,51.487758083662500,-0.202507685325771
Eagle and Night heron,N13 4PY,51.621076273544900,-0.115175720365287
Linsang and Ibex,NW5 1XG,51.556677939953100,-0.142016877172428
Francolin and Badger,UB6 8RW,51.531076730000100,-0.349503354795792
Solitaire and Tree warbler,W1H 1SG,51.521000214201300,-0.161127048908149
Mamo and Parrotbill,W1U 3JY,51.517162805101100,-0.151552667232650
Linsang and Snipe,W4 2PX,51.488923019278500,-0.247388600479735
Chipmunk and Perching duck,W2 4RA,51.512109716171600,-0.187901567987604
Scimitar babbler and Macaw,N2 0BY,51.581606559225900,-0.160384632714416
Bronzewing pigeon and Cloud rat,WD19 5EA,51.632893989584300,-0.385633251784741
Pheasant and Black cockatoo,NW1W 7TW,51.530784000000000,-0.135430000000000
Piping shrike and Eagle,N20 0XU,51.619528622864900,-0.159891539222239
Chicken and Maya,WC1X 8NL,51.520614318874000,-0.118086882921967
Black cockatoo and Piping shrike,HA1 4DD,51.578464951756300,-0.349446929698303
Egret and Zebra,NW7 3HA,51.624537748880300,-0.257149508854120
Tree warbler and Warbler,SW15 6HZ,51.463666622115400,-0.227870539947106
Fulmarine petrel and Scimitar babbler,WC2A 3QB,51.515752796237800,-0.114381378860792
Wallaby and Chicken,EC1V 4RU,51.523342639380100,-0.102679786913548
Chickadee and Mole,HA8 4RR,51.613334000000000,-0.277800000000000
Nukupuʻu and Warbler,W8 4BY,51.505428724915700,-0.193757505866290
Magpie and Guillemot,TW1 1PR,51.461715184774100,-0.323244674002035
Minke whale and Viscacha,SW1V 3JU,51.487568318161600,-0.129991578600457
Darwin's finches and Towhee,N22 7BP,51.598173926152700,-0.123792000000000
Old World vulture and Logrunners,SW6 6TQ,51.477044486164000,-0.215817329162399
Shearwater and Siskin,UB4 9TG,51.522684343832200,-0.391392972767135
Piping shrike and Parakeet,HA7 1BY,51.600085076564500,-0.294920455039847
Old World vulture and American sparrow,SW10 9SR,51.487625900506100,-0.181684904390511
Egret and Cloud rat,SW8 1BJ,51.477423283620700,-0.122255000000000
Eagle and Armadillo,W2 7TB,51.500496000000000,-0.276962000000000
Polecat and Condor,NW8 0SR,51.539242541819500,-0.183420889472447
Minke whale and Cuscus,WC1X 9DS,51.530281027508300,-0.116390696909306
Chipmunk and Boto,W1T 4QJ,51.520641159851800,-0.136665933678905
Myna and Cloud rat,SE11 5TP,51.482510198227300,-0.112325153615560
Lemming and Marmoset,SW6 7HW,51.481522855902900,-0.205806059438304
Vole and Capuchin,N13 4TB,51.609676985848300,-0.110333035780937
Mamo and Thicketbird,N14 5NS,51.637326186245800,-0.144575376473532
Solitaire and Black jay,NW9 7DJ,51.579670573825300,-0.242355334216970
Zebra and Goose,NW3 6NS,51.554194422103700,-0.176882205752925
Argus and Diving bird,TW7 4HJ,51.474898758853100,-0.345455100438695
Darwin's finches and Asiatic leopard,W13 9PA,51.509286986053900,-0.316498373264661
Stilt and Moluccan boobook,NW2 7UG,51.566635135957400,-0.238385164468800
Mouse and Philippine hawk-owl,NW11 7DT,51.572875964992000,-0.189193000000000
Vulture and Partridge,NW5 1QP,51.557489523773300,-0.149557461370053
Night heron and Booted eagles,W1W 8BA,51.517159382172000,-0.140526660139219
Argus and Egret,SW8 3LT,51.468504401585200,-0.144161217265306
Guillemot and Greenbul,N1 8BP,51.533843908377800,-0.104780833211042
Tattler and Fish eagle,UB6 9TE,51.536998013206800,-0.362006883072674
Nukupuʻu and Marsh harrier,UB5 6JY,51.532262000000000,-0.388129000000000
River dolphin and Argus,N1P 1DZ,51.538645000000000,-0.103543000000000
Grackle and Magpie,N11 1JF,51.626867420064300,-0.147949513501348
Rabbit and Mouse,N22 8DF,51.603434416254900,-0.121422703719914
Fox and Nukupuʻu,NW3 4EY,51.546805351319900,-0.168971132281949
Bunting and Cuscus,SW8 1SR,51.484991208122400,-0.122909842252515
Parrotlet and Bunting,W4 1HF,51.498217134641100,-0.258171000000000
Ice seal and Towhee,HA4 0HR,51.560299800452700,-0.390816298978702
Fulmarine petrel and Badger,W7 9DX,51.504550000000000,-0.332832000000000
Old World vulture and Chicken,NW11 8HL,51.573584376729400,-0.202299000000000
Mink and Philippine hawk-owl,NW10 9TU,51.547168313144100,-0.249305064674265
Partridge and Old World vulture,HA9 0GS,51.559581000000000,-0.282736000000000
Cloud rat and Lemming,NW1W 8ER,51.530783041088500,-0.135430048905449
Skunk and Parakeet,NW10 8DU,51.542531420631400,-0.261005473386165
Elephant and Goose,UB4 9RU,51.526345943085000,-0.383018130175379
Crow and Eagle,HA8 7PJ,51.614157196499500,-0.280079433621593
Mole and Nukupuʻu,NW2 1RW,51.561526006229500,-0.214925000000000
Argus and Old World vulture,W1U 6BR,51.521478959718700,-0.158397819033582
Boto and Viscacha,TW7 4BW,51.479128700366100,-0.352732911769895
Stilt and Wallaby,NW9 6QF,51.585294453825200,-0.246208890930885
Eagle and Wallaby,UB5 4DD,51.555109570671000,-0.367256145504975
Coati and Towhee,NW1W 7GB,51.530784525000000,-0.135430053900000
Kite and Snipe,NW3 6WD,51.554291356224900,-0.173863515328332
Herring gull and Jerboa,HA9 0AA,51.558064805158100,-0.282843000000000
Siskin and Chicken,N6 4DA,51.577535834422200,-0.153693646430486
Kākāriki and Masked owl,W1F 0HB,51.512467234617000,-0.134419777554625
Fish eagle and Armadillo,N21 3DA,51.629929025039200,-0.112526000000000
Mink and Marmoset,SW1W 8NF,51.490316657578200,-0.153042037919173
Elephant and Badger,SW11 6RW,51.456924907054500,-0.160896425664888
Chickadee and Marmoset,W1H 4QQ,51.519480512546600,-0.163998984885813
Chicken and Tit-tyrant,N14 7DH,51.623761508422800,-0.120005348129314
Tahr and Solitaire,EC1N 8HN,51.521413968667800,-0.108540236997572
Pitohui and Old World warbler,WC2A 3TH,51.517730535491400,-0.114342937455903
Thrasher and Petrel,N2 0TP,51.582015807895300,-0.170457297393323
Eagle and Pitohui,SE5 0YY,51.480843457057300,-0.101549364978604
Scimitar babbler and Towhee,HA7 9JQ,51.604469000000000,-0.295599000000000
Civet and Parakeet,HA0 1UL,51.541463876294800,-0.293636977546162
Tit-tyrant and Eagle,NW9 7JH,51.574243473366200,-0.256505167510312
River dolphin and Philippine hawk-owl,SW8 2HA,51.476282118900400,-0.127141107357622
Petrel and Myna,HA4 0TR,51.563244220570100,-0.395704248696938
Rabbit and Flameback,NW2 6EH,51.565393141513400,-0.229949290822091
Old World warbler and Parrotlet,W1W 6BF,51.520982528123700,-0.141178147641180
Puffleg and Tree warbler,WD19 6LD,51.623597754405900,-0.387711236164790
Buzzard and Myna,NW9 6PG,51.587402461686800,-0.247066012757823
Philippine hawk-owl and Bunting,NW1 2DT,51.527870150592700,-0.130387888421477
Flameback and Rabbit,N3 1AB,51.607204558937200,-0.193172598178494
Jackal and Jerboa,NW9 5FJ,51.600536726104200,-0.245029710536098
Towhee and Black cockatoo,SW6 2UP,51.468382066108600,-0.184595325007082
Fulmarine petrel and Guillemot,SE1 7QU,51.500145852962100,-0.107936914296370
Moluccan boobook and Tattler,SW6 6DD,51.476873010289100,-0.209876641704062
Jay and Viscacha,SW9 0HA,51.476899587342600,-0.112931216689043
Zebra and Maya,N1 8BQ,51.531962019500000,-0.099538808400000
Kangaroo and Rat,N4 4JX,51.577598711351700,-0.108517639152414
Siskin and Triller,W1F 7RP,51.513681305310800,-0.138953249468641
Jerboa and Diving bird,SW7 1JT,51.500255473559500,-0.165780262491529
Puffleg and Perching duck,W11 1EA,51.517726514631600,-0.201111894525340
Partridge and Prion,SW6 5SS,51.472869182464700,-0.211502090526204
Macaw and Gull,UB1 1QH,51.515092108517000,-0.381384534759804
Thicketbird and Chickadee,W1W 7AS,51.518858842955000,-0.141653788497260
Ice seal and Meadowlark,HA5 4ER,51.611741617985400,-0.369153471320291
Puffleg and Skunk,SW4 6BX,51.463801538121000,-0.135109499462033
Jay and Thrasher,W1G 8QY,51.519184098774400,-0.147434938508747
Shearwater and Treepie,WC1N 2PA,51.522356000802400,-0.116227625027800
Fox and Asiatic leopard,W1T 3JL,51.518447452456700,-0.138960762166976
Meadowlark and Macaw,SW11 4DD,51.476357436033100,-0.150581877026233
Mink and Herring gull,SW15 6BX,51.456475866428800,-0.225111907578797
Parrotbill and Prion,HA0 1SP,51.543686207819100,-0.283242550211859
Crow and Parakeet,W2 1XS,51.522335950186900,-0.175257461463316
Towhee and Chicken,SW11 4PR,51.473032572854400,-0.164467697364141
Grackle and Herring gull,W4 5BW,51.497067495049300,-0.265818000000000
Magpie and Diving bird,HA1 3JQ,51.567218162062800,-0.339422256257776
Hawaiian honeycreeper and Fox,SW13 9WT,51.477204891446500,-0.235744000000000
Duck and Bunting,W3 8QG,51.505219191501700,-0.275423488907769
Cloud rat and Chicken,WC2E 9AB,51.512722793647900,-0.126194559518565
Parrotlet and Thrasher,NW5 3ND,51.546083666177200,-0.151621136448284
Bronzewing pigeon and New World blackbird,N6 4DX,51.580352782162800,-0.157274386340022
Kestrel and Grackle,HA3 6HW,51.605917898795900,-0.341779827961709
Mink and Ground sloth,UB1 3LA,51.519519318908100,-0.363455598584062
Songlark and B,UB5 4RH,51.547327854270800,-0.361203275492847
B and Shearwater,W1F 9DZ,51.510893124653200,-0.137222231017786
Linsang and Greenbul,SW15 6RG,51.455788639264000,-0.223080254045153
Civet and Rabbit,SW1P 4EZ,51.493682938236700,-0.129971851026399
Night heron and Old World vulture,HA7 4FF,51.617249987718700,-0.314138677696672
Thicketbird and Goose,NW10 0PN,51.547292885080700,-0.266780461190950
Fulmarine petrel and Snipe,SW3 2QE,51.494677884969200,-0.163339027991680
Rabbit and Darwin's finches,WD23 1HJ,51.633646300022400,-0.350479096785511
Stilt and Badger,W1F 9RS,51.512213117418900,-0.138234852767784
Thrasher and Cloud rat,W5 2BY,51.513326610090300,-0.307270046579881
Ibex and Flameback,NW9 6JH,51.590252303045100,-0.250031229953426
Wader and Grackle,W4 2DA,51.488991663124800,-0.256820708942096
Old World quail and Guillemot,EC4Y 7AH,51.512776774089400,-0.110856000000000
River dolphin and Condor,W6 9LR,51.492736000000000,-0.237087000000000
Macaw and Cuscus,W9 1JD,51.528999722401400,-0.187461689721632
Parakeet and Gull,SW1X 7ET,51.501486563384000,-0.152547248037388
Hawk and Herring gull,WD19 7BZ,51.628791573428900,-0.397958721328336
Zebra and Black cockatoo,NW9 9NG,51.585490534798700,-0.273381852852229
Mamo and Partridge,NW8 9XT,51.532578520768300,-0.181638824299230
Capuchin and Piping shrike,TW5 0PP,51.479283563128200,-0.369605237370927
Songlark and Zebra,WC1H 0XG,51.522348740379500,-0.129259034697599
Perching duck and B,TW3 1BT,51.469955000000000,-0.366029000000000
Treepie and Wader,W6 8ZB,51.492364569747800,-0.238815133557647
Parakeet and Parakeet,SW6 1TX,51.486948062954300,-0.196736000000000
Elephant and Kestrel,W1U 4PW,51.520166650819900,-0.151575186391678
Kākāriki and B,SW15 3DB,51.453225000000000,-0.228338886349877
Philippine hawk-owl and Moluccan boobook,HA4 8PD,51.576761689403600,-0.400481483428421
Skunk and Philippine hawk-owl,TW3 3FG,51.467476171385600,-0.375914652848240
Darwin's finches and Fish eagle,UB4 0XE,51.519197667940500,-0.400769269410034
Flameback and Cuscus,N2 0QH,51.581575770694200,-0.178009308335238
Armadillo and Cuscus,TW1 2PT,51.455471000000000,-0.311628000000000
Chickadee and Jerboa,NW1W 9SF,51.530783041088500,-0.135430048905449
Skunk and Maya,HA8 7YB,51.614936212563900,-0.274951254444088
Egret and Masked owl,NW7 2EH,51.605164658055800,-0.235825669984278
Buzzard and Philippine hawk-owl,NW9 0EY,51.593484701997400,-0.268502145840229
Mouse and Black cockatoo,N1P 2BW,51.538645000000000,-0.103543000000000
Fish eagle and River dolphin,N4 2AG,51.565282180205900,-0.103141975260088
Fish eagle and Vole,SE11 6DP,51.493927000000000,-0.112574000000000
Grouse and Stint,UB4 0HP,51.517872559699400,-0.401190419968341
Capuchin and Jackal,SW13 0HS,51.469971000000000,-0.240397000000000
Solitaire and Asiatic leopard,SW7 4HH,51.495761966057500,-0.185611052818295
Towhee and Skunk,W1S 1PY,51.512821966437400,-0.142605659750011
Triller and Ice seal,HA1 4UU,51.591113610758100,-0.340918624243666
Darwin's finches and Vulture,W1D 6DP,51.511434829725900,-0.132833457466537
Condor and Puffleg,N19 3AW,51.572982000000000,-0.121668000000000
Siskin and Grouse,EC1P 1NW,51.524567000000000,-0.112017000000000
Dorcopsis and Jackal,N1 1QF,51.538645000000000,-0.103543000000000
Booted eagles and Minke whale,W12 0TB,51.510397492281900,-0.243221290293594
Dorcopsis and Stilt,W8 7BU,51.501312237339300,-0.197983371293640
Duck and Peafowl,N1 1HZ,51.540431414508400,-0.110664798666584
Dorcopsis and Myna,N7 8JB,51.549452004453300,-0.114647007505336
Tit-tyrant and Asiatic leopard,SE5 9HN,51.470527000000000,-0.100844662354747
Vulture and Prion,NW3 5AL,51.549797979554100,-0.171552000000000
Mamo and Grosbeak,EC1P 1AA,51.524567000000000,-0.112017000000000
Meadowlark and Tattler,HA9 7QQ,51.559364618718000,-0.297771047343406
Ice seal and Tit-tyrant,N11 2QE,51.604763796582900,-0.124140514254693
Crow and Snipe,SW2 2JU,51.454715544401800,-0.114652261772582
Bunting and Dolphin,W7 3BJ,51.514837807711600,-0.342815000000000
Cuscus and Cloud rat,HA1 9LQ,51.585237061215500,-0.329686216676317
Francolin and Magpie,SW4 4BQ,51.463240711020400,-0.138901000000000
Parakeet and Kestrel,NW1 1EZ,51.529861076339700,-0.129484538518289
Eagle and Coati,N12 8EX,51.611706601072300,-0.185974475787842
Parrotlet and Ground sloth,EC1N 8JH,51.521535973579800,-0.109414479263979
Old World warbler and Dorcopsis,NW3 7DD,51.555191152708100,-0.184329044056398
Tahr and Wallaby,N12 8LA,51.617657917570900,-0.185289382040979
Minke whale and Chicken,HA9 6RQ,51.551174422512700,-0.280624019410238
Flameback and Badger,WD19 5BZ,51.629139918488200,-0.374886915960525
Fish eagle and Pitohui,N1P 2LL,51.538645000000000,-0.103543000000000
Piping shrike and Quetzal,N1P 1UF,51.538645000000000,-0.103543000000000
Guillemot and Thicketbird,SW1V 1AN,51.495929646333200,-0.142802667308322
Greenbul and Bunting,SW7 5JT,51.494882369154200,-0.179336079409954
Moluccan boobook and Grosbeak,NW5 3LG,51.546797038224000,-0.144972239327294
Ice seal and Gull,TW1 2AT,51.455097282406500,-0.316376831884549
Kite and Grosbeak,W5 3JG,51.507741771952100,-0.296049885394555
Chicken and Old World warbler,N22 9LG,51.598609000000000,-0.119662000000000
Triller and Black cockatoo,W1G 9HU,51.517879202440000,-0.147372579668293
Minke whale and Boto,WC2N 5AP,51.507270000000000,-0.124790000000000
Grouse and Pitohui,W1D 2HW,51.515664321433000,-0.135283634965277
Asiatic leopard and Civet,N1 1HJ,51.538645000000000,-0.103543000000000
Jackal and Triller,N8 1AN,51.535964000000000,-0.194669000000000
Jay and Parrotlet,N8 7RD,51.587091959453100,-0.124031249657918
Triller and Guillemot,W4 4JR,51.490565865100800,-0.267780234367850
Marmoset and Mink,W12 7QW,51.512138697074400,-0.231034224922817
Magpie and Prion,NW1 0QS,51.540080616958500,-0.136520951084837
Wader and Vulture,TW4 7ET,51.469386248620800,-0.385435684302742
Dolphin and Marsh harrier,WC1H 0ND,51.523414103929100,-0.126144919772679
Macaw and Meadowlark,SW1X 8BA,51.498057138128300,-0.149487520066376
Towhee and Kestrel,W11 4EG,51.511859884181700,-0.215005080435042
Siskin and Magpie,W1U 4PA,51.519417799280300,-0.151418124737752
Old World quail and Badger,HA8 7PZ,51.616467867341900,-0.280670975174148
Towhee and B,W3 6HY,51.514360528165900,-0.266618337718500
Francolin and Recurvebill,SW6 7EE,51.480674626766800,-0.206789856568713
Polecat and Ice seal,SW6 2FG,51.474122000000000,-0.182971000000000
Black cockatoo and River dolphin,HA5 4LH,51.607471545021700,-0.370534007572574
Greenbul and Bronzewing pigeon,W1H 4LG,51.518499027871200,-0.166214916460069
Minke whale and Gull,NW11 9EU,51.577518087787100,-0.210009185229328
Condor and Snipe,N19 5BJ,51.556464503567600,-0.137063132965700
Parrotbill and Pratincole,SW11 3PD,51.475168079611100,-0.174533955800513
Prion and Parrotbill,N20 0LE,51.629033641760100,-0.169678813708242
Hawk and Parrotlet,TW3 3GF,51.467780000000000,-0.368065000000000
Asiatic leopard and Rat,NW6 1TU,51.550158193399200,-0.196169292181912
Peafowl and Ground sloth,WC1X 8PQ,51.521678136883800,-0.113776261779009
Myna and Civet,WC1X 0HR,51.526747374782900,-0.112499958264901
Mamo and Bronzewing pigeon,W1W 5BL,51.521860296551700,-0.144933485304919
Kite and Condor,SW9 7PS,51.464087061209500,-0.111933786569789
Perching duck and Dorcopsis,W1B 1QB,51.519830561406500,-0.145664598642170
Skunk and Parrotbill,W1S 1PL,51.513361487582900,-0.142036055571408
Scimitar babbler and Argus,NW11 7GZ,51.577653309979300,-0.197693121190216
Guillemot and Tit-tyrant,WC2B 4JN,51.513411972544500,-0.115328360347256
Crow and Polecat,SW11 6JP,51.452560468195700,-0.161849040895729
Snipe and Grouse,UB5 9SQ,51.546773000000000,-0.370894000000000
Treepie and Cloud rat,N20 0UB,51.626972845551100,-0.163245697253206
Flameback and B,SW2 1NZ,51.455322644536000,-0.117736312538808
River dolphin and Masked owl,UB5 4RY,51.551763154575400,-0.351726098278076
Meadowlark and Asiatic leopard,UB1 2AA,51.512147719779800,-0.376545821877087
Maya and Mink,TW3 2RF,51.459464010690700,-0.353484147070767
Asiatic leopard and Boto,TW3 1QB,51.472657187443600,-0.356148164655291
Parrotbill and Stilt,TW10 6DY,51.461696634379200,-0.294526354145090
Badger and Polecat,NW3 2AF,51.551449335965300,-0.164616112361059
Kestrel and Lemming,HA8 9AR,51.608710908729300,-0.274768417927282
Grackle and Petrel,SE11 6TX,51.491054748808900,-0.113542381976799
Macaw and Fulmarine petrel,N13 5JY,51.617714337250100,-0.104640024712081
Kestrel and Towhee,TW9 3PG,51.476465168963300,-0.288561124414903
Elephant and Parakeet,W12 0LW,51.508162405244100,-0.242889364237538
Chickadee and Francolin,SW9 8NL,51.459152010657000,-0.105749000000000
Prion and Argus,HA5 1RJ,51.578656000000000,-0.400184000000000
Crow and Old World quail,WC1H 8AA,51.529820878438300,-0.123027235847290
Masked owl and Diving bird,TW3 1BF,51.472264000000000,-0.354298000000000
Mole and Civet,N11 3JH,51.613740854366300,-0.155320000000000
Triller and Warbler,N19 4TA,51.565413115023300,-0.119657262034408
Fox and Dolphin,SW10 0TL,51.481880587649300,-0.183483255795906
Chicken and Armadillo,NW5 2PG,51.552616134625600,-0.139355187327675
Minke whale and Hawaiian honeycreeper,W3 0DA,51.520341227884600,-0.265454360295137
Scimitar babbler and Warbler,W1U 2EH,51.517249300530600,-0.150194316913874
Hawk and Snipe,SW1P 3ER,51.495162402348000,-0.127447816882695
Scimitar babbler and Maya,W2 5UH,51.519076077964000,-0.197642655826020
Jerboa and Vulture,W11 2BJ,51.515722608705900,-0.202963606818428
Badger and Skunk,W3 7LU,51.515506539040400,-0.258993841744700
Diving bird and Zebra,SW1Y 6HA,51.508633073301600,-0.135555000000000
Mockingbird and Tattler,N1 0GP,51.537081319479700,-0.105900860559973
Greenbul and Cloud rat,SW15 6HW,51.457442805268000,-0.230184372391779
Kestrel and Tahr,EC4M 8AP,51.513533781081100,-0.100493255564967
Crow and Bunting,SW1P 4JA,51.493465022099900,-0.128713057396010
Kākāriki and Ground sloth,W14 0BJ,51.500332567902300,-0.220988103785083
Meadowlark and Rabbit,W1T 6NQ,51.522535400097500,-0.140999594356844
Old World vulture and Old World quail,N7 8QF,51.549830328260400,-0.111890872400719
Polecat and Marsh harrier,EC4P 4WB,51.524501611318500,-0.112088280168721
Macaw and Magpie,NW6 4JH,51.541732529334000,-0.197353318443113
Fox and Duck,SW1V 4JF,51.491033496412100,-0.147179038624340
Parrotlet and Snipe,N21 3PY,51.630641344818200,-0.105502810538157
Peafowl and Duck,N21 1HZ,51.634689858942900,-0.105623122430217
Puffleg and Armadillo,HA9 7FP,51.567077000000000,-0.299812000000000
Eagle and Fish eagle,N20 8HX,51.624352580325200,-0.189067483266800
Cuscus and Chicken,N10 3BN,51.589770387681600,-0.150007239053077
Bronzewing pigeon and Recurvebill,W5 4JT,51.501856523838100,-0.303199726732398
Viscacha and Viscacha,N19 4PA,51.565068744325900,-0.125673708797810
Dorcopsis and Thicketbird,W3 3GH,51.500496000000000,-0.276962000000000
Guillemot and Triller,HA2 8JR,51.558285749046800,-0.358371464602218
Gull and Parrotlet,SW1E 6SQ,51.497326000000000,-0.138476997198180
Egret and Tahr,N4 4SP,51.576028880180000,-0.114904009779817
Skunk and Flameback,W1B 1NN,51.520931703045500,-0.144783832072692
Treepie and Black jay,HA5 1NS,51.578194342446300,-0.383950000000000
Grosbeak and Moluccan boobook,SW11 5NR,51.464366550374300,-0.154334737793278
Tattler and Eagle,N6 5PG,51.571688219878600,-0.137032456404703
Black cockatoo and Parrotbill,SW1W 8TN,51.492958097255100,-0.152892062134417
Grackle and Peafowl,W3 9AN,51.502161987018900,-0.285250088688341
Kite and Pitohui,N11 3AY,51.621025282964000,-0.154413688573739
Jackal and Mink,NW11 7JD,51.570081000000000,-0.182996654371823
Booted eagles and Tattler,W9 1ES,51.525856095916100,-0.185957527603049
Dolphin and Ice seal,HA7 4TU,51.616567085264100,-0.303561745843403
Grosbeak and Tree warbler,SW5 0EA,51.489380598347000,-0.189897637361866
Kangaroo and Puffleg,HA9 0FX,51.559198000000000,-0.283178000000000
Petrel and Dolphin,WC2E 8RD,51.512059656672000,-0.122964728536056
Partridge and Buzzard,W6 7NJ,51.495182000000000,-0.224569268548034
Polecat and Wallaby,UB1 2RQ,51.515172652307700,-0.374852936654698
Mockingbird and Treepie,W5 5JE,51.505153209485300,-0.307313575086396
Armadillo and Diving bird,TW10 6NN,51.457491511225200,-0.294755061646877
Badger and Tree warbler,TW14 0XQ,51.459725275148100,-0.408217986024296
River dolphin and Hawk,W7 1BP,51.526407094977000,-0.337216921503821
Jackal and Jackal,HA8 6EU,51.606178851477800,-0.280539798144530
Maya and Grouse,NW11 6LP,51.586435999634000,-0.186418214258972
Perching duck and Parrotbill,W12 7JG,51.506335020732000,-0.227224285440215
Fox and Tit-tyrant,WD6 3BL,51.637634595640400,-0.304105235656426
Ground sloth and Asiatic leopard,TW7 4JE,51.475912035299100,-0.340162471386600
Partridge and Grouse,HA7 4NJ,51.620673655694300,-0.303986438264417
Zebra and B,W7 2JN,51.503264737989100,-0.329889742716345
Warbler and Moluccan boobook,W3 8GJ,51.500496000000000,-0.276962000000000
Songlark and Minke whale,HA9 0GR,51.559806000000000,-0.282742000000000
Old World vulture and Parrotlet,W10 5NT,51.522233617736000,-0.203126000000000
Boto and New World blackbird,HA9 7ND,51.563443000000000,-0.300403376725427
Kākāriki and Solitaire,HA7 4LW,51.634134943801800,-0.305232823652141
Magpie and Parrotlet,UB5 4GZ,51.558448224711700,-0.346247807334615
Treepie and Perching duck,SW9 8AN,51.462052000000000,-0.120722147149986
Old World quail and Kite,W1D 4UA,51.513074615979200,-0.131901687752252
Cuscus and Macaw,NW3 3EJ,51.545610345937700,-0.163855951314958
Parrotlet and Magpie,HA8 5EP,51.600753222227500,-0.268081297704623
Mamo and Cuscus,W2 6QH,51.516299063221500,-0.181436861732926
Scimitar babbler and Francolin,WC2H 9PX,51.514559309006600,-0.125196795730281
Vole and Armadillo,NW6 7TW,51.540920945070200,-0.203067134597153
White ibis and Stint,N13 4LA,51.615468040187700,-0.122659190316151
Fish eagle and Old World quail,HA8 9LE,51.613394397915900,-0.266733570274431
Philippine hawk-owl and Solitaire,NW7 2HE,51.612131883976800,-0.217256028294528
Magpie and Civet,TW3 1RH,51.470388842035500,-0.354703487918976
Mouse and Scimitar babbler,EC1A 9DT,51.524501611318500,-0.112088280168721
Buzzard and Bronzewing pigeon,W12 7JY,51.507071704483500,-0.225394451222526
Bunting and Grouse,TW9 1EZ,51.463093000000000,-0.302032000000000
Eagle and Puffleg,N11 3NJ,51.608549124893300,-0.149604986328272
Coati and Skunk,HA3 0LR,51.580577897144500,-0.304831000000000
Grouse and Darwin's finches,SW11 2JN,51.466611372588900,-0.163285659634199
Hawaiian honeycreeper and Maya,NW7 3EE,51.613215219980600,-0.263736152972359
Mockingbird and Asiatic leopard,UB5 6TP,51.537750897953200,-0.368930001801502
Jay and Triller,N19 5EZ,51.556086183794800,-0.134193472956866
Chicken and Marmoset,UB2 4FX,51.507671000000000,-0.350068000000000
Capuchin and Solitaire,SW4 6PA,51.471537715339100,-0.129624839031587
Triller and Eagle,NW6 6TE,51.535830681854300,-0.204204849123376
Egret and Partridge,NW6 5YR,51.530672000000000,-0.197190507120752
New World blackbird and Peafowl,N1C 4DS,51.534230000000000,-0.125762000000000
Kangaroo and Egret,W1U 7NH,51.519569954818400,-0.154799256224176
Tahr and Chicken,SE5 0XX,51.480165773506500,-0.099129222395209
Kākāriki and Tattler,NW11 9WY,51.580291968203800,-0.199118641135270
Wader and Mole,NW2 6QF,51.560080011307700,-0.222898965269419
Towhee and Recurvebill,W1G 6EW,51.520331723408700,-0.151208146300614
Siskin and Puffleg,SW18 1EN,51.462968000000000,-0.190871000000000
Grosbeak and Duck,SE1 1DR,51.499300421480100,-0.099586645524747
Grackle and Badger,W3 0TG,51.525896466530700,-0.272018693599318
Snipe and Ground sloth,HA0 4BU,51.544664117016700,-0.296661194528286
Triller and Duck,SW1V 2QF,51.490394766546600,-0.135248931052254
Zebra and Tattler,W4 4AH,51.492219337711700,-0.273191526932353
American sparrow and Greenbul,HA2 8TX,51.557277251251200,-0.362778724853250
Piping shrike and Meadowlark,HA4 0RU,51.559528574938900,-0.396224505710695
Ice seal and Masked owl,N10 3FA,51.588013000000000,-0.150053000000000
Mink and Parakeet,W9 2AT,51.524698252445600,-0.197914000000000
Chipmunk and Black jay,N1P 1QN,51.538645000000000,-0.103543000000000
Snipe and Fulmarine petrel,W11 2JA,51.514898617088400,-0.204941715437020
Duck and Towhee,SW1X 8DL,51.496835573329000,-0.155285322345388
Linsang and Linsang,HA1 3BX,51.576611961936200,-0.341749787649779
Cloud rat and Argus,SW10 9PE,51.488141511007000,-0.176090026424489
Masked owl and Cloud rat,WC1E 6DH,51.524048599024000,-0.135158000000000
Tree warbler and Booted eagles,SW3 5DR,51.484273686429300,-0.172557233359653
American sparrow and Jerboa,W1T 4TF,51.521570339957600,-0.135719881885443
Bronzewing pigeon and Mamo,NW8 9DT,51.533174259430100,-0.180043494479057
Stint and Chipmunk,NW9 9RY,51.583981143313100,-0.281435602041268
Magpie and Black jay,NW6 4NS,51.540732768910800,-0.190240193299483
Parrotlet and Parrotbill,W3 8FS,51.501123000000000,-0.270771342912430
Ground sloth and Grosbeak,SW9 8HL,51.461753983596400,-0.115038810697927
Diving bird and Piping shrike,UB6 0SB,51.554115908372900,-0.344472032458906
Thrasher and Flameback,NW10 6FF,51.529003000000000,-0.250391000000000
Polecat and Francolin,SW15 5NU,51.459317447830700,-0.242419466678709
Booted eagles and Marsh harrier,NW1W 8ZR,51.530786000000000,-0.135404000000000
Maya and Rabbit,N11 1RX,51.613262022349100,-0.136819000000000
B and Jay,HA7 1PD,51.600865413015800,-0.300363796699816
Tattler and Perching duck,W1F 9RA,51.511875280567600,-0.138479212035387
Civet and Parrotbill,W5 4NL,51.501840922267200,-0.294065533706249
Buzzard and Coati,SE1 8BZ,51.499688000000000,-0.103911000000000
Marsh harrier and Duck,UB18 7YN,51.500717740213000,-0.402684069553087
Cloud rat and Wallaby,W1S 4HZ,51.509569001857000,-0.142752373520025
Stint and Mockingbird,W8 5RH,51.498263013408300,-0.185684619742370
Crow and Tit-tyrant,NW9 8TZ,51.581311000000000,-0.257687307279830
Darwin's finches and Booted eagles,N7 7LN,51.559048153640000,-0.113600972655037
Myna and Pratincole,HA2 9BB,51.563393300214400,-0.375817945260067
Myna and Grosbeak,NW1W 8LP,51.530784525000000,-0.135430053900000
Mockingbird and Marsh harrier,NW10 5SR,51.531602742888200,-0.229544533356044
Shearwater and Petrel,N20 8LR,51.632840306010600,-0.213655396892050
Wader and Marsh harrier,N7 0PL,51.557646774147500,-0.123786093276113
Bronzewing pigeon and Fox,SW9 0DJ,51.470816568043900,-0.113239828148855
Flameback and Night heron,SW7 2PN,51.499111016376100,-0.173692716624828
Black jay and Mink,W7 1NT,51.520491530922700,-0.332993000000000
Mouse and Moluccan boobook,SW3 1AJ,51.500981000000000,-0.160924000000000
Triller and Quetzal,TW5 9BB,51.479480363308800,-0.394295886060143
Grosbeak and Condor,W1H 7QU,51.515507493163600,-0.158941343831101
Prion and Petrel,NW1 8XX,51.541706598615700,-0.155764276727497
Darwin's finches and Prion,W13 9DA,51.510220752962300,-0.322529000000000
Old World vulture and Linsang,N15 3HU,51.584620341612900,-0.098410456908777
Warbler and Old World vulture,EC1M 4BG,51.520989473624700,-0.102301912000255
Badger and Solitaire,N2 8LD,51.596884955885800,-0.177699905435293
Condor and Snipe,SW1V 1JF,51.492483301882200,-0.141055550515563
Logrunners and Quetzal,SW8 1LT,51.483152078248400,-0.118131695185110
Pratincole and Warbler,HA8 0EJ,51.602970297420200,-0.263549354781155
Hawaiian honeycreeper and Parrotbill,NW10 6TU,51.530719533205200,-0.249186434843188
Condor and Quetzal,W1D 5AF,51.512807579017100,-0.131509078631010
Prion and Grosbeak,NW3 9TZ,51.554292900200000,-0.173863521000000
Bronzewing pigeon and Jay,SW4 7RZ,51.463255668990300,-0.121757595947175
Piping shrike and Mamo,SW5 9QH,51.494114739684700,-0.195414852002885
Wallaby and Quetzal,W11 1JF,51.516849354277300,-0.203726391969345
Vole and Buzzard,NW10 1AB,51.556898853018000,-0.244546062996409
Pitohui and Bronzewing pigeon,W1F 7QE,51.513629822862800,-0.139675955708452
Stint and Marsh harrier,SW11 2UB,51.462969946327000,-0.182362769224494
Grosbeak and Parrotbill,NW6 1TY,51.551433423424200,-0.197229497917126
Black jay and Black cockatoo,UB4 0BT,51.523431873089800,-0.408621160609351
Argus and Old World warbler,W1F 8BH,51.515154197209800,-0.134530000000000
Armadillo and Snipe,NW1W 7QP,51.530784525000000,-0.135430053900000
Old World vulture and Grackle,W1D 6BR,51.510225384551100,-0.131989418835242
Zebra and Lemming,W8 7AN,51.505381826986000,-0.199479912876380
Siskin and Treepie,SE1 6BX,51.496050000000000,-0.099242735518399
American sparrow and Gull,NW6 1HW,51.551759957598600,-0.190985371062663
Parakeet and Coati,W1G 9DD,51.517064016522200,-0.145863441944929
Fox and Fox,HA7 3AB,51.620271713557600,-0.316670248163239
Buzzard and Warbler,NW11 8AP,51.580291968203800,-0.199118641135270
Flameback and Fulmarine petrel,NW26 9BR,51.534059000000000,-0.248150000000000
Hawk and Black cockatoo,HA8 5PS,51.595616876026600,-0.283263191720859
Mole and Kestrel,UB1 2EU,51.517460476961000,-0.369294582509861
Mamo and Chicken,NW2 1NP,51.565959876813400,-0.213940435136614
Viscacha and Dorcopsis,SW7 4LJ,51.493379371211000,-0.183314311383258
Guillemot and Jerboa,SW4 0AA,51.461798983046200,-0.148334509688002
Crow and Hawaiian honeycreeper,W4 2ED,51.492662497130100,-0.253324246932076
New World blackbird and Capuchin,SW13 0JQ,51.467810375897600,-0.252315378292049
Duck and River dolphin,W1J 5PN,51.507232075274800,-0.147372184220804
Triller and Vole,N8 9ND,51.583272676373100,-0.112410219143601
Logrunners and Piping shrike,N10 3HN,51.590193059346800,-0.146020063923947
Masked owl and Crow,NW11 9NB,51.579162101103300,-0.207548750373163
Armadillo and Treepie,W7 1QG,51.520697757539300,-0.330938543823736
Dolphin and Flameback,W14 9DR,51.490119866154300,-0.206995467127891
Guillemot and Maya,SW6 1JX,51.483881304491700,-0.198339331470014
Grouse and Darwin's finches,SW2 2HU,51.451534337996800,-0.112552463541222
B and Coati,NW10 6BR,51.531018620629700,-0.232551614943986
Minke whale and Francolin,SE1 8QF,51.501630959718900,-0.106348110297083
Diving bird and Armadillo,SW5 0RH,51.494248577423700,-0.193594417755045
Flameback and Rat,WC1X 8TX,51.523262408289700,-0.114993753299272
Egret and Kestrel,SW10 9QX,51.487995645544600,-0.180013735322007
Thrasher and Thrasher,TW3 3BU,51.469974893812200,-0.376617740779910
Mouse and Ibex,HA5 5HJ,51.591475298489300,-0.379032016240118
Hawk and Boto,W2 5EB,51.518958779448700,-0.193524956535733
Marsh harrier and Pitohui,W1U 7LS,51.518281141375700,-0.154044183692891
Jay and Parrotlet,W1K 2JU,51.511149949394500,-0.154606272060438
Diving bird and Armadillo,UB6 7QT,51.551980515822900,-0.330212158808112
Herring gull and Dolphin,NW1 1RL,51.534099000000000,-0.131834000000000
Grouse and Stilt,NW1W 9GB,51.530783041088500,-0.135430048905449
Peafowl and Grackle,W1C 2BU,51.514443000000000,-0.147195000000000
Badger and Mole,HA0 4YG,51.550670430829200,-0.296624375740134
Linsang and Dolphin,HA2 6NT,51.598893633956900,-0.349977019345365
Mamo and Black cockatoo,W13 0EQ,51.519994000000000,-0.327494552744658
Vulture and Marsh harrier,HA8 9BN,51.609361886596800,-0.267681484018909
Bronzewing pigeon and Philippine hawk-owl,NW3 4PA,51.545452618163400,-0.169299458741770
Tahr and Jay,NW7 4DE,51.618105140239200,-0.236465060287219
Treepie and Perching duck,UB4 9TJ,51.522323149107400,-0.391939035100291
Thrasher and Egret,TW3 9WX,51.470271000000000,-0.360964000000000
Jackal and Night heron,SW14 8DX,51.464231507398400,-0.259578315067945
Greenbul and Magpie,W11 9EQ,51.513921437702200,-0.321631194869861
Black cockatoo and Shearwater,SW18 1UY,51.463716000000000,-0.183964000000000
Partridge and Parrotlet,SW7 2RP,51.497468047182800,-0.169825279231845
Capuchin and Ice seal,SW9 6FH,51.473086612515300,-0.108927201252268
Philippine hawk-owl and Mink,SW3 3ST,51.488986396822800,-0.166418000000000
Francolin and Songlark,W1U 4RN,51.519248000000000,-0.151944000000000
Skunk and Tit-tyrant,N11 1GN,51.625913000000000,-0.152380000000000
Badger and Nukupuʻu,W6 9LS,51.492127895853500,-0.237426950379014
Pratincole and Badger,UB4 9JL,51.532357487325400,-0.407689984585386
Capuchin and Snipe,HA1 3EX,51.577979000000000,-0.341657000000000
Perching duck and Cuscus,N8 0RX,51.582741000000000,-0.099470000000000
Shearwater and Old World quail,HA2 8SU,51.557722028958500,-0.367595366637103
Nukupuʻu and New World blackbird,W1G 6AB,51.520470356292900,-0.149069281752472
Treepie and Fish eagle,EC1V 4LW,51.524035165456100,-0.103242036806053
Grouse and Linsang,NW10 1PU,51.556456003840800,-0.247404938892931
Chickadee and Puffleg,N19 3PG,51.561245543444700,-0.123897664308003
Zebra and Asiatic leopard,NW4 1BY,51.590088202712600,-0.216760000000000
Elephant and Buzzard,HA3 6TT,51.611120339716000,-0.344680996143206
Meadowlark and Jay,W6 8QE,51.484278822246100,-0.209615445167314
Tit-tyrant and Eagle,N8 0EE,51.589392227216300,-0.107118335810574
Nukupuʻu and Booted eagles,W10 5PY,51.523664979650200,-0.205447501926364
Cloud rat and Old World quail,W1D 4EB,51.513306278088600,-0.130482000000000
Hawk and Viscacha,NW3 7SS,51.557439357106200,-0.191322640418482
Snipe and Logrunners,SW8 5DZ,51.479319000000000,-0.132561000000000
Puffleg and Tattler,SE1 8JU,51.499181038103800,-0.105988000000000
Old World warbler and Lemming,EC4A 1HP,51.515912616943400,-0.110710000000000
Meadowlark and Piping shrike,NW11 7AS,51.578725371504400,-0.187894231594320
Lemming and Viscacha,UB1 2QN,51.531889371333500,-0.372916893545026
Marsh harrier and Chipmunk,HA3 0XX,51.586660787795600,-0.299723000000000
Petrel and Dorcopsis,UB6 9SJ,51.536684591458600,-0.358240339829271
Bunting and Kangaroo,SW10 0DN,51.481978939567500,-0.176494329428508
Nukupuʻu and River dolphin,NW10 7GL,51.529287000000000,-0.281642000000000
Towhee and Petrel,WC1X 0LR,51.527031520571600,-0.115630991162373
Asiatic leopard and Asiatic leopard,W10 5EH,51.524917906743900,-0.208584091810791
Francolin and Polecat,NW1 0SR,51.541590000000000,-0.137498000000000
Old World vulture and Civet,SW3 2EH,51.497186503449400,-0.167344160354209
Marsh harrier and Flameback,W3 6NA,51.506581433400400,-0.268397761895469
Songlark and Mouse,NW9 5RQ,51.593268000000000,-0.256787000000000
Capuchin and Grosbeak,NW9 9BJ,51.590455461547600,-0.267361373128922
White ibis and Tree warbler,NW6 1UU,51.550529863357600,-0.191106286394059
Capuchin and Fish eagle,WD19 6YA,51.616114843646900,-0.390879690434933
American sparrow and Chickadee,WC1B 5AN,51.521436382427600,-0.123372002779867
Fish eagle and Eagle,WC1N 1LT,51.523373339785900,-0.123032895952701
Pitohui and Goose,NW10 1AQ,51.549584000000000,-0.239996000000000
Kangaroo and Cuscus,NW9 5RA,51.603150468695500,-0.241073000000000
Wallaby and Flameback,HA0 1DJ,51.534665637483800,-0.306666019493990
Magpie and Warbler,SW11 5JZ,51.466963260117800,-0.160492830983994
Darwin's finches and Lemming,W12 9SR,51.499518484119300,-0.242141257395360
Fish eagle and Masked owl,SW11 2NY,51.463989582863300,-0.168141761363926
Asiatic leopard and Booted eagles,W1D 7HS,51.510641052758800,-0.134941128784380
Vole and Diving bird,NW4 1TJ,51.593202732282600,-0.217823998185873
Marsh harrier and Moluccan boobook,W1T 2PN,51.519550282440300,-0.134793391727849
Lemming and Booted eagles,UB1 2TX,51.523933557530200,-0.366612810094334
Fulmarine petrel and Moluccan boobook,TW3 3QZ,51.465592071859000,-0.372468691488307
Night heron and Coati,SW11 2NN,51.466802697067600,-0.171498858218513
Grackle and Stint,W2 7YU,51.500496000000000,-0.276962000000000
Herring gull and Old World quail,NW1 6BU,51.524879620541700,-0.161359987373229
Buzzard and Cloud rat,W1J 7SD,51.505406000000000,-0.150083000000000
Hawk and Pheasant,NW5 9RN,51.550839000000000,-0.146700000000000
Logrunners and Pitohui,TW5 0JD,51.479971591407700,-0.380972002722885
Tahr and Herring gull,W1K 2XE,51.508674668405000,-0.151031595213408
Solitaire and Black cockatoo,N22 6RR,51.593680031056500,-0.099230419571494
Shearwater and Guillemot,SW6 4QT,51.476184000000000,-0.201235000000000
Jackal and Ice seal,W1D 4SA,51.513283413101200,-0.131460783814498
Fish eagle and Logrunners,W1U 6AE,51.519941958659800,-0.156153562252476
White ibis and Lemming,W1T 3HF,51.518093000000000,-0.137927000000000
Old World quail and Snipe,NW9 4BF,51.593583000000000,-0.250528000000000
Boto and Thrasher,EC1R 4PL,51.521983346814600,-0.112624877370132
Crow and Vulture,NW11 7BA,51.579170318454200,-0.185264193945898
Parrotbill and Bronzewing pigeon,W11 3DY,51.512446720603300,-0.199431000000000
Quetzal and Zebra,HA7 3WB,51.604508123353600,-0.295623000000000
Masked owl and Guillemot,SW6 3SW,51.474415112808500,-0.194435611474968
Bunting and Tattler,N2 8EF,51.594575473745900,-0.171439744589588
Vole and Viscacha,N14 9DJ,51.630603898100000,-0.128305383300000
Fox and Thicketbird,HA8 8XE,51.627418237726700,-0.265852399374710
Booted eagles and Mink,NW2 3SD,51.551525346240200,-0.207337106533194
Towhee and Wader,NW10 0PH,51.550325875689900,-0.262698721769754
Petrel and Jerboa,HA4 6NR,51.556934974439500,-0.407827202820151
Fish eagle and Prion,N1 1HW,51.539602894900100,-0.109473376247740
Marmoset and Kestrel,W12 9UA,51.500894374629000,-0.251770458180243
Minke whale and Bunting,W6 9EF,51.490078332017400,-0.227926961555734
Black jay and Vulture,N6 4EG,51.580674642443400,-0.156582999270203
Jerboa and Fish eagle,W1D 1BH,51.516343567420400,-0.133324548525093
Chickadee and Stint,HA9 9PX,51.567902134489100,-0.281378229241782
Parrotlet and Solitaire,SW9 7JF,51.463420711396400,-0.107973492559746
Lemming and Cloud rat,HA1 3JU,51.565394841983700,-0.348491862830587
Diving bird and Wallaby,SW10 9AH,51.487371748008700,-0.191417572194120
Piping shrike and Thicketbird,TW14 0XJ,51.460463655938300,-0.406306561137799
Jackal and B,W11 3BP,51.511165337860500,-0.199568946806063
Viscacha and Condor,W3 7BN,51.507595000000000,-0.249987000000000
Pheasant and Prion,EC1R 5AB,51.522228301054900,-0.110524584923847
Tattler and Treepie,NW3 6ST,51.559008000000000,-0.178729628207139
River dolphin and Quetzal,W10 4HP,51.531090546352600,-0.210014230934571
Eagle and Stint,N22 6BQ,51.591657490432200,-0.104281153475169
Prion and Vulture,SW8 3LH,51.469982917794600,-0.140991170051157
Marmoset and Moluccan boobook,HA3 0UU,51.585235265947700,-0.329686206463401
Chickadee and Stilt,W12 7GP,51.510468000000000,-0.226795000000000
Eagle and Towhee,SW11 5JE,51.473490079542000,-0.152944162776814
Kestrel and Magpie,EC1P 1RS,51.524501611318500,-0.112088280168721
Flameback and Quetzal,EC1V 3QY,51.526521795144300,-0.099087716480208
Zebra and Zebra,SW1W 9HH,51.496022718781300,-0.149353816507828
Meadowlark and Treepie,SW8 2AE,51.470595100758100,-0.136721000000000
Magpie and Pratincole,N1 1DU,51.541241218399300,-0.116846681410258
Grouse and Philippine hawk-owl,HA9 8PP,51.570598623045000,-0.296096063532656
Maya and Marmoset,W1U 1NS,51.515554438897200,-0.150493585561609
Triller and Kite,NW1 4DP,51.530783041088500,-0.135430048905449
Lemming and Perching duck,WC1H 0AR,51.523932328143000,-0.131572679443662
Peafowl and Warbler,N1 0JL,51.536423531585100,-0.114190495046581
Myna and Boto,HA8 8NQ,51.616717665266200,-0.274407038525145
B and Philippine hawk-owl,N13 6DP,51.611358331091900,-0.100846260874918
Petrel and Solitaire,SW1A 1BS,51.504507469581600,-0.137727614626396
Petrel and Crow,NW3 4XL,51.547426407589000,-0.161532881357527
Mamo and New World blackbird,NW8 7DD,51.534460801275800,-0.167375835373128
Peafowl and New World blackbird,SW1W 8BX,51.489914051982600,-0.156601851714505
Ground sloth and Thicketbird,UB6 7AR,51.537463031726800,-0.306720816100586
Masked owl and Parrotbill,NW7 3EG,51.612952863226500,-0.264237239288287
Songlark and Tahr,NW7 3DZ,51.613557202780700,-0.257685682596624
Mamo and Cloud rat,HA1 1SD,51.586756925318300,-0.338695558585960
Tree warbler and Rat,W2 4BY,51.513494953235300,-0.188509550761173
Meadowlark and Fish eagle,SW11 6BT,51.458294121254900,-0.158754161987385
Ice seal and Elephant,N19 5QN,51.559830800162500,-0.138959744788530
Cloud rat and Fulmarine petrel,UB2 4DP,51.498797437082800,-0.380031287422243
Songlark and Polecat,N20 0QA,51.623273168381000,-0.176845113169205
Goose and Tree warbler,UB1 3AX,51.509396776772700,-0.364942338809678
Crow and Linsang,HA7 1LY,51.598536404715600,-0.297259781447046
Crow and Tree warbler,W1K 2AA,51.509880213819800,-0.152207718518162
Pratincole and Crow,UB6 9HN,51.526419780627200,-0.361766627511397
Capuchin and Mink,WD19 7SY,51.626129591516900,-0.393519000000000
Stilt and Old World warbler,HA1 4LB,51.585503969273100,-0.360219849916535
Nukupuʻu and River dolphin,W12 7HP,51.507352613309100,-0.228510511537134
Wader and Parrotbill,EC1M 5PY,51.522627849978500,-0.098905000000000
American sparrow and Dolphin,N19 3SL,51.572785350299500,-0.129122767270641
Argus and Booted eagles,HA0 2JB,51.556543092534600,-0.304122603448858
Greenbul and Diving bird,NW4 2HL,51.585823530987600,-0.219238675726537
Black cockatoo and Armadillo,W5 1PL,51.524690186047300,-0.302725897652016
Triller and Mink,SW6 4ED,51.475360444957600,-0.204463869652701
Ibex and Vole,N2 0HB,51.587883456686500,-0.175375093949381
Buzzard and Towhee,W8 5DU,51.501234000000000,-0.188146000000000
Vulture and Parrotbill,HA1 2JJ,51.581216773769500,-0.329000000000000
Black cockatoo and Bunting,SW1X 0BH,51.496812503063300,-0.163555765380791
Perching duck and Partridge,W11 1LJ,51.517223268994800,-0.205830418436762
Jerboa and Stilt,N7 6EY,51.561333440005300,-0.119453000000000
Parakeet and Minke whale,EN4 8DU,51.636729045185300,-0.163790872026207
Mole and Stilt,EC1P 1TB,51.524501611318500,-0.112088280168721
Snipe and Meadowlark,TW3 2EH,51.460549084506200,-0.362902645539122
Capuchin and Partridge,NW11 8TD,51.571050774952700,-0.199310708303970
Coati and Greenbul,NW6 5NJ,51.536073766562500,-0.190179870352285
Puffleg and Parrotbill,SW7 2HE,51.494886277116000,-0.173803952110828
Marmoset and Hawk,SW11 5GX,51.471502043580200,-0.163204436045778
Cuscus and Towhee,W1J 7RF,51.506012834087100,-0.147608964797092
Crow and Pratincole,SE11 6UE,51.490648170952500,-0.112305934207429
Mockingbird and Philippine hawk-owl,N1P 2BF,51.538645000000000,-0.103543000000000
Skunk and Kangaroo,N11 3AT,51.620510485624400,-0.152355000000000
Greenbul and Grackle,NW1W 7GJ,51.530784525000000,-0.135430053900000
Darwin's finches and Buzzard,SW1Y 6PF,51.507436689346900,-0.139279763979009
Jay and Marmoset,W1T 6BB,51.522082113214300,-0.139634230612256
Kākāriki and Philippine hawk-owl,N11 2BH,51.609052180917700,-0.123516027286470
River dolphin and Kangaroo,NW7 3ET,51.622147000000000,-0.255211498176980
Marsh harrier and Diving bird,N19 5RN,51.563936491471800,-0.131361653033186
Dolphin and Solitaire,N2 0EB,51.584867873546800,-0.177487882744732
Mockingbird and Prion,SE11 6AH,51.492075363106700,-0.118297247949656
Rat and Lemming,N1 2FW,51.539647000000000,-0.101447163541815
Polecat and Gull,SW9 0YF,51.468672930096600,-0.113587426429468
Kite and Viscacha,N19 3QJ,51.569744713640000,-0.122292373468754
Gull and Marsh harrier,W3 6RG,51.506910000000000,-0.267429185926568
Flameback and Prion,W4 3XQ,51.488077292832600,-0.272815074160166
Marsh harrier and Coati,HA4 0EF,51.561556795947100,-0.401202560643341
Civet and Fulmarine petrel,W1H 2PQ,51.519470151773000,-0.160467980682797
Elephant and Fox,HA8 8RS,51.627240461090900,-0.275149191395564
Black jay and Mockingbird,HA0 4SL,51.545845000000000,-0.301820757517451
Moluccan boobook and Grackle,NW5 4QF,51.553223000000000,-0.154938000000000
Kestrel and Buzzard,SW6 3DW,51.469218410729000,-0.199176156795065
Mockingbird and Pheasant,HA4 0HX,51.561836493462100,-0.389434775910083
Egret and Perching duck,N11 1QG,51.615043157568400,-0.142869846014129
Treepie and Zebra,HA1 4UX,51.592230886724800,-0.342350460465926
Flameback and Mouse,W1J 0AH,51.509567000000000,-0.137429767390511
Capuchin and Parakeet,NW1 8BN,51.545464520935700,-0.150564562470752
Towhee and Darwin's finches,TW3 1SS,51.468925849349100,-0.354900089753004
Wader and Magpie,W4 4AB,51.491273371825300,-0.280415295591102
Civet and Lemming,NW3 4SB,51.545058322036900,-0.160763010487708
Darwin's finches and Towhee,NW6 4LY,51.542252828323700,-0.194491000000000
Old World vulture and Ground sloth,EC1R 0BE,51.523988654537800,-0.104815258824387
Towhee and Argus,N21 1QT,51.635976345280900,-0.116277698279334
Thrasher and Parrotlet,SW1P 4EB,51.490841998130600,-0.130016079343145
Goose and Snipe,SW7 4XB,51.495380000000000,-0.186995000000000
Kestrel and Ibex,N14 6NH,51.627564550392300,-0.124457136736388
Cuscus and Flameback,EC1M 6HW,51.520276298365600,-0.101019854764463
Triller and Vulture,HA0 3NS,51.562309431697500,-0.310515778915701
Eagle and Old World vulture,W4 1DS,51.498467678538900,-0.254269310256108
Minke whale and Maya,UB4 9LP,51.531589198649900,-0.395519681880909
Condor and Fulmarine petrel,HA7 1AD,51.605512281541300,-0.301461083210866
Pratincole and Hawaiian honeycreeper,EC1M 6HL,51.520020353938200,-0.101318786433332
Jerboa and Prion,NW8 7LQ,51.536053854044400,-0.161717199954449
Tit-tyrant and Civet,NW11 1NS,51.580368000000000,-0.199120000000000
Coati and Stilt,W12 7QA,51.514036859536900,-0.231681299252960
Armadillo and Treepie,W12 7FS,51.510847000000000,-0.235197000000000
Night heron and Kangaroo,NW8 9TU,51.534677125161300,-0.175484904498123
Chipmunk and Gull,N7 7DL,51.564327052530600,-0.112347000000000
Grosbeak and Old World vulture,N10 1AJ,51.602518540523300,-0.149243664878257
Wallaby and Jay,UB5 5HQ,51.545359683252500,-0.367734952472417
Macaw and Wader,NW1W 9NS,51.530784525000000,-0.135430053900000
Snipe and Armadillo,W1K 2DW,51.510907680947200,-0.154068433661923
River dolphin and Ground sloth,NW8 8BP,51.523970066538300,-0.169325083175172
Thicketbird and Stint,W1B 4JA,51.511169142422900,-0.139315034199127
Mamo and Hawaiian honeycreeper,NW8 6AN,51.536291467681900,-0.170013127579065
Kākāriki and Piping shrike,N5 1PL,51.551082020551900,-0.105304947724863
Coati and Warbler,NW5 4PJ,51.551429166931900,-0.151303501758880
Masked owl and Kākāriki,NW1 5SY,51.523084137803400,-0.157540229166498
Bunting and Skunk,NW10 0PF,51.551113529059700,-0.263058158025017
Guillemot and Parrotlet,W1D 3AN,51.514251907026900,-0.131291440340040
Capuchin and Dolphin,HA8 4DY,51.613332458522800,-0.277799649928712
American sparrow and Jay,W2 4PR,51.514307413151300,-0.191932000000000
Capuchin and Philippine hawk-owl,SW2 9NS,51.454192000000000,-0.122262000000000
Old World quail and Hawaiian honeycreeper,W9 2NR,51.527257285663600,-0.192259458102063
Parrotlet and Black jay,N5 1RE,51.546481495805800,-0.103303837296687
Kangaroo and Jackal,SW1X 0LL,51.499410903674600,-0.161232545104579
Chicken and Wallaby,N15 3EA,51.589838422229800,-0.102451285060319
Cloud rat and Wader,N3 3ES,51.592926613912000,-0.210904985950263
Badger and American sparrow,NW2 1AX,51.571790046187500,-0.215328138854864
Treepie and Duck,W4 2HD,51.491834644189100,-0.255703915086973
Lemming and Zebra,HA3 9HJ,51.594201911991500,-0.294765396697195
Ibex and Linsang,SE1 7JU,51.495434000000000,-0.120152272191407
Skunk and Old World vulture,N1P 2AN,51.538647000000000,-0.103517000000000
Rabbit and Grouse,NW10 9AA,51.536111087548400,-0.250133085669333
Flameback and Tahr,HA5 1PN,51.579187338148400,-0.390452360636553
Fox and Chickadee,SW6 4BD,51.475592033996500,-0.196117146525264
Duck and Myna,N1 1JD,51.541016698120800,-0.110712662214418
Prion and Goose,SW8 9DS,51.475660814143600,-0.130377866144404
Piping shrike and Mouse,TW4 6BU,51.462005000000000,-0.397904000000000
Masked owl and Tahr,WD23 1AU,51.637107172272300,-0.353604990937684
Viscacha and Mamo,EC4V 6DY,51.513393000000000,-0.102920000000000
Tattler and Kite,W5 5EG,51.509354636302900,-0.306379000000000
Duck and Dolphin,N4 2LA,51.564738000000000,-0.102761000000000
Old World quail and Pratincole,NW7 4QP,51.622737782174800,-0.252812289700164
New World blackbird and Hawk,EN4 8EL,51.635892622570900,-0.161483614532405
Solitaire and Mink,NW1W 9XX,51.530783041088500,-0.135430048905449
Ground sloth and Kite,SE24 0HP,51.457521192500000,-0.103409751500000
Polecat and Skunk,HA9 7BS,51.552686749611900,-0.296765423958129
Recurvebill and Booted eagles,W1F 8RQ,51.514207334897000,-0.135271073990991
Philippine hawk-owl and Vulture,HA1 4JG,51.581894000000000,-0.348880961274686
Rabbit and Partridge,N13 4JJ,51.617560665689200,-0.112403467393931
Quetzal and Boto,TW7 5LD,51.478833722159200,-0.337565067339474
Solitaire and Shearwater,SE11 4AU,51.484623192126100,-0.106174205132687
Petrel and Ground sloth,SW7 4AU,51.496381391879500,-0.183800033459098
Mockingbird and Armadillo,N22 7BT,51.598769882500000,-0.113081724100000
Rabbit and Pratincole,WC1X 9ET,51.529166712615300,-0.113639769562836
Elephant and Booted eagles,W4 5HT,51.498010108658400,-0.268290409674921
Quetzal and Jay,W14 8TH,51.494653109512500,-0.214135864744689
Polecat and River dolphin,W7 3AF,51.521776346524700,-0.344866652799267
Fulmarine petrel and Logrunners,NW2 9TE,51.562153000000000,-0.213473000000000
Old World vulture and Armadillo,WC1X 8AJ,51.521195311728100,-0.112830433948582
Chickadee and Moluccan boobook,HA8 8AS,51.628156230558600,-0.269422000000000
Thrasher and Mockingbird,SW10 9DZ,51.487810661391300,-0.190723220313645
Dolphin and Masked owl,N12 8DZ,51.613335641328000,-0.181417551379861
Parrotbill and Dorcopsis,W1D 2JE,51.515654925656900,-0.136955904105339
Parakeet and Triller,UB2 5EH,51.499242509354900,-0.392117552115950
Polecat and Boto,NW11 0QX,51.583193000000000,-0.200001575424069
Dorcopsis and Duck,N2 0SS,51.592778870296000,-0.178499474218497
Francolin and Wallaby,W8 4JQ,51.504103751132700,-0.194141306461366
Old World vulture and Nukupuʻu,SE1 8DR,51.505450940048900,-0.107904488707710
Mink and Parrotbill,NW11 6QB,51.579247068391200,-0.181508597844651
Chicken and Nukupuʻu,SW6 7AD,51.479326562779300,-0.203774000000000
Parrotlet and Tattler,EC2A 1ZH,51.524501611318500,-0.112088280168721
Duck and Piping shrike,N10 2DF,51.598997162202600,-0.139236090309743
Marmoset and Bunting,NW9 5PH,51.599304306727800,-0.242593696661999
Viscacha and Prion,W6 9AZ,51.492799407717900,-0.242025186163134
Booted eagles and Myna,SE11 5TS,51.483194056130200,-0.111792822612271
Prion and Snipe,NW10 9RU,51.543780000000000,-0.248728000000000
Night heron and Mamo,SW15 5LS,51.464146132114900,-0.243601607845981
Stint and Black cockatoo,HA8 6QU,51.607648834873100,-0.294391587611740
Jackal and Grackle,W5 3RH,51.514397301025900,-0.290569945103912
Rat and Wader,W7 1EU,51.515910139600300,-0.335856000000000
Old World vulture and Buzzard,HA4 6TA,51.552009746969400,-0.399416974622749
Magpie and Vole,NW8 0JT,51.536176323996300,-0.184595572872895
Macaw and Ibex,W14 8EQ,51.501977585217200,-0.207365789593564
Jackal and Old World quail,W9 2JP,51.523833962611400,-0.186614502045707
Puffleg and Boto,HA7 4PQ,51.618492992843000,-0.306162271326766
Logrunners and Songlark,TW4 7EZ,51.468483146372300,-0.386460989274637
Triller and Hawaiian honeycreeper,W1G 8AW,51.518328988652500,-0.148521831804387
Masked owl and Maya,W3 0EA,51.520369365368100,-0.283874445764198
Civet and Thicketbird,TW7 6TH,51.471725839438400,-0.325282255694199
Grouse and Logrunners,W13 9BL,51.509137000000000,-0.320963000000000
Grosbeak and Vulture,SW9 7LX,51.465007015135800,-0.110427332779634
Hawaiian honeycreeper and Goose,NW10 1PP,51.556183881866000,-0.250863073847129
Lemming and Night heron,EC4Y 7DN,51.512790770939100,-0.108580385023280
Triller and Tahr,W2 4HZ,51.511597230373500,-0.191985926112479
Jay and Jackal,SW1E 5HL,51.498488660566900,-0.140065000000000
Chipmunk and Crow,HA0 2TN,51.556793206460800,-0.330973571633216
Gull and Stint,SW1V 2RD,51.490815015319500,-0.133402352164245
Thrasher and Ice seal,SW11 9LD,51.464480000000000,-0.164296000000000
Linsang and Bunting,WD19 6EX,51.620453331272600,-0.384644654145204
Parakeet and Solitaire,NW2 4PY,51.550357540571400,-0.226350087699557
Cuscus and Pitohui,HA5 2LN,51.591555127111100,-0.407858635250820
Mink and Macaw,SW6 7UG,51.482119763437700,-0.201332383234138
Wallaby and Egret,NW8 8RT,51.524464795956700,-0.171640556588617
Thrasher and Capuchin,W12 9ST,51.501298242086400,-0.244493334581786
Coati and Macaw,NW2 2HD,51.561702951773300,-0.194904566720808
Vole and Kangaroo,W1T 4PH,51.519883761877900,-0.136538292147736
Darwin's finches and Dorcopsis,N19 5SS,51.564248464044500,-0.131338000000000
Black cockatoo and Zebra,W1U 1BU,51.514701928938500,-0.151176678303996
Marmoset and Marsh harrier,HA5 5AA,51.577363359570800,-0.379447528208109
Kangaroo and Wallaby,NW11 9AY,51.576420380951800,-0.204669212524447
Old World vulture and Stilt,SE11 4DW,51.487464245848000,-0.108922873762063
White ibis and Mink,SE1 6FG,51.493624000000000,-0.101595000000000
Hawaiian honeycreeper and Mouse,N12 7NX,51.614518295369300,-0.188115643057794
Piping shrike and B,W5 4XP,51.494187524625000,-0.308281607636285
Condor and Warbler,W4 1AP,51.502516059720600,-0.256203834783451
Rabbit and Dorcopsis,SW11 5SR,51.463272676717300,-0.158914000000000
Kangaroo and Moluccan boobook,HA2 0EF,51.571412140238200,-0.362718299251353
Partridge and Bunting,HA7 1PN,51.600691265168100,-0.303243746185910
Perching duck and Pitohui,HA8 6DW,51.600335390774400,-0.286175278146249
Fulmarine petrel and Zebra,W1W 8ER,51.515691124599000,-0.140370263529602
Elephant and Macaw,UB1 2XD,51.524649207959100,-0.366990830187821
Macaw and Jackal,HA5 2HH,51.590797526388900,-0.397779830714402
Black jay and Partridge,N1 8DP,51.532076676099400,-0.102821287030857
Chicken and Jackal,W4 5BP,51.499349546167500,-0.267043825957688
Solitaire and Parrotbill,W5 1QG,51.527016771007400,-0.308160749925601
Wallaby and Capuchin,NW8 6AL,51.535683000000000,-0.171854000000000
Minke whale and Black cockatoo,SW15 9GR,51.460497000000000,-0.218541000000000
Cuscus and Fish eagle,SW1P 9QE,51.481035000000000,-0.135804000000000
American sparrow and Ibex,TW2 7QY,51.454082283589500,-0.339788503322537
Diving bird and Macaw,N20 8NX,51.629995929634400,-0.196413991046395
Night heron and Greenbul,N2 0AJ,51.584657380401500,-0.167435405577839
Tahr and Asiatic leopard,SW6 3HA,51.466894324716300,-0.191320338180306
Viscacha and Grackle,N7 0ED,51.558156000000000,-0.133085000000000
Skunk and Condor,NW8 9XR,51.531935091213900,-0.181318434459140
Civet and Buzzard,W6 7AN,51.493817827554300,-0.223676312667242
Myna and Perching duck,N12 9AL,51.617033339432100,-0.160758047944633
Civet and Booted eagles,N2 8LB,51.599088830611900,-0.174160000000000
Stint and Parakeet,SW7 1JP,51.500446722905300,-0.167660025138962
Mink and Rat,NW4 3EG,51.582828597601400,-0.233342000000000
Tit-tyrant and Philippine hawk-owl,SW11 2EE,51.466130666616300,-0.172807066395738
Peafowl and Logrunners,NW3 6QU,51.556965511117700,-0.180449975793408
Tit-tyrant and Francolin,UB5 4DU,51.551254399888400,-0.364206540951770
Jackal and Meadowlark,TW3 3RJ,51.466262757394600,-0.370904369552231
Fish eagle and Goose,WC1B 4AD,51.519204467888600,-0.122137666461805
Francolin and Cuscus,EC4Y 1DH,51.513998675196900,-0.105417285996821
Lemming and Kite,W1S 1FH,51.512892760019600,-0.143669262277661
