name,postcode,lat,lon
Parrotbill and Boto,TN23 3HW,51.153477191016300,0.860172316196277
Skunk and Puffleg,TN23 5HF,51.137142645815200,0.834357492419895
White ibis and Kite,TN27 0QY,51.167998000000000,0.752158000000000
Marsh harrier and Rabbit,TN24 9QY,51.165322152178700,0.896726332594685
Armadillo and Puffleg,TN27 0DA,51.222177000000000,0.765187000000000
Nukupuʻu and Wader,TN24 9HL,51.168658288320400,0.897121461201273
Duck and New World blackbird,TN25 7HL,51.097136807156700,0.906073650561146
Ice seal and Mockingbird,CT21 4LL,51.076108863563800,1.023677994226270
Dorcopsis and Siskin,TN24 8UL,51.151216785335400,0.871659274700440
Minke whale and Bronzewing pigeon,TN23 4YS,51.141283828335600,0.843089937519539
Mink and Kite,TN25 6RE,51.122976109948200,0.986419343679944
Magpie and Asiatic leopard,CT4 8HQ,51.225995731772400,0.901911395995103
Hawk and Hawaiian honeycreeper,TN25 6TG,51.122747534347400,0.977400255816468
Duck and Jerboa,TN24 8XU,51.162455630692900,0.866811000000000
Cloud rat and Grosbeak,TN23 3LD,51.149437027892400,0.846608623026662
Fulmarine petrel and Pitohui,TN27 0PY,51.171530337433200,0.782213463918519
Jerboa and Zebra,TN23 3GE,51.129672236981900,0.841604533157403
Grackle and Parrotlet,TN23 3LL,51.118969450855900,0.875046027076740
Treepie and Francolin,TN24 0HG,51.140619763172100,0.891061191563368
Zebra and Ground sloth,TN23 5UT,51.129825430431800,0.843071971010919
Darwin's finches and Dorcopsis,TN24 0RZ,51.142317981407300,0.893312107172402
Siskin and Songlark,TN23 9WR,51.146560000000000,0.875648000000000
Parakeet and Rabbit,TN27 0DP,51.212176823702800,0.807360787406876
Hawk and Parakeet,TN25 5HF,51.165221589396400,0.982983006224136
Thicketbird and Kestrel,TN23 9RW,51.146561000000000,0.875617000000000
Goose and Herring gull,TN24 8QZ,51.156374694431200,0.874053569898581
Moluccan boobook and Siskin,TN25 4HL,51.195624010959100,0.895649926947562
Black jay and Parrotbill,TN26 2HE,51.064602686921200,0.855044929732040
Elephant and Grouse,TN23 9UX,51.146560000000000,0.875648000000000
Bronzewing pigeon and Badger,TN25 4BG,51.231960000000000,0.870955000000000
Magpie and Solitaire,TN24 9HS,51.168838938062000,0.892368679209324
Macaw and Thicketbird,TN24 0TG,51.135391713862800,0.916853793001166
Guillemot and Minke whale,TN25 4DY,51.168623850333100,0.900323975220966
Shearwater and Kite,TN24 9LN,51.160459420346500,0.883862626190021
Stilt and Perching duck,TN27 0AG,51.206825370265100,0.788937046987793
Jackal and Vole,CT4 7EJ,51.198230243713800,0.980921285702204
Minke whale and Tahr,TN23 4AB,51.146665000000000,0.854872017970433
Asiatic leopard and Hawaiian honeycreeper,TN25 6AS,51.128158920217900,1.022032264771360
Solitaire and Jackal,TN25 4AP,51.210219550045500,0.907706443415913
Linsang and Warbler,TN23 1PH,51.146784838773900,0.874858881813055
Asiatic leopard and Jackal,TN25 7DG,51.094799793788800,0.933723317768742
Polecat and Fish eagle,TN27 0AN,51.210379000000000,0.778770000000000
B and Dorcopsis,TN24 0UX,51.137641019613700,0.907802645111881
Dorcopsis and Grouse,TN25 6NZ,51.121707263220800,0.931383901028548
Peafowl and Francolin,TN23 4YX,51.140868017629100,0.845023181782475
Parrotbill and Myna,TN24 9JA,51.159151948179000,0.881077670302117
Prion and Eagle,TN25 4PB,51.160964703042300,0.854112968382024
Darwin's finches and Minke whale,TN25 6JR,51.096757000000000,1.009241000000000
Elephant and Goose,TN23 4UL,51.142644680253400,0.846304936692176
Songlark and Grackle,TN23 1BX,51.148934773232800,0.871188640414637
Towhee and Mamo,TN24 0HR,51.136381130756400,0.892969362891125
Diving bird and Boto,TN25 5AD,51.185770000000000,0.933490000000000
New World blackbird and Thicketbird,CT21 4LG,51.074676925281400,1.023398983625090
Rat and Chickadee,TN23 9FW,51.146559317068800,0.875617044109976
Zebra and Jerboa,TN24 9HX,51.171597931900700,0.886274725649145
Old World quail and Kite,TN25 4JL,51.181482000000000,0.839696000000000
Marsh harrier and Scimitar babbler,TN27 0BE,51.210791045501900,0.762442545935211
Linsang and Kākāriki,TN25 5ED,51.183665578112200,0.933010993860297
Cloud rat and Elephant,TN23 5FR,51.137407319257900,0.841607863008998
Ice seal and Treepie,TN25 5PB,51.154066418939300,0.944748343530303
Philippine hawk-owl and Black jay,TN26 3SS,51.059620535811100,0.755386391943744
New World blackbird and White ibis,TN23 5SU,51.131659203584100,0.848287960199833
Shearwater and Black jay,TN25 6DT,51.122455081741900,1.027291081185160
Piping shrike and Snipe,TN24 0BW,51.132842231106900,0.893134048279692
Grosbeak and Coati,TN26 2PS,51.064793554460200,0.895524665684604
Mockingbird and Thicketbird,TN23 3TQ,51.127243000000000,0.837956000000000
Darwin's finches and River dolphin,TN23 5GB,51.140625969488900,0.838331243233310
Nukupuʻu and Cuscus,TN26 3PD,51.080179102555900,0.775627663085627
Linsang and Thrasher,TN29 0UQ,51.046243665233900,1.031063624860990
Kangaroo and Kangaroo,TN25 7HW,51.103783279931400,0.915119758921960
Parrotbill and Elephant,TN25 5EY,51.182282837271800,0.918898506322318
Buzzard and Gull,TN24 0FE,51.131099000000000,0.901816000000000
New World blackbird and Warbler,TN25 4PP,51.159741730501000,0.856311741066364
Warbler and Solitaire,TN23 1PL,51.146205446024800,0.876839101657292
Grosbeak and Skunk,TN25 7JZ,51.068528263770000,0.912089201278909
Towhee and Rabbit,TN25 7GW,51.099649000000000,0.903164000000000
Zebra and Linsang,TN23 7XB,51.140327222927800,0.869353200839114
Mouse and Vulture,TN25 5AX,51.181763371554200,0.937126168790189
Francolin and Kite,TN23 3NP,51.120012749427700,0.868093724515728
Badger and Skunk,TN29 0TZ,51.047580926850600,1.032563659464750
Duck and Recurvebill,TN23 6JZ,51.127626375453200,0.863148240975939
Warbler and Thicketbird,TN25 5DT,51.181884718640300,0.934801227192012
Piping shrike and Hawk,TN24 0GU,51.129893956625400,0.881771357489377
Chipmunk and Recurvebill,TN25 5EJ,51.184522427949500,0.940793686678812
Black cockatoo and Snipe,TN25 6AT,51.129029514771400,1.025233953057230
Tree warbler and Cloud rat,TN25 7BG,51.086134506846400,0.938872901037880
Armadillo and Kangaroo,TN23 7UL,51.139562186477500,0.862771790811139
Scimitar babbler and Petrel,TN27 0SN,51.171937607948300,0.748644559041084
Crow and Quetzal,TN26 1JE,51.185468533287700,0.871613342687961
Asiatic leopard and Dolphin,TN24 9BF,51.171653851272600,0.880354883665450
Duck and Linsang,TN24 0QB,51.144585110322600,0.893654132358146
Snipe and Pheasant,TN23 6JJ,51.133618675685200,0.864534054826094
Egret and Peafowl,TN23 5TB,51.130411986557500,0.849640645632690
American sparrow and Kestrel,TN24 9QL,51.160729175781800,0.889329318754012
Fulmarine petrel and Fox,TN24 8AB,51.153458110925900,0.882797000000000
Warbler and Vole,TN25 7FH,51.114674082198100,0.882181358347280
Nukupuʻu and Gull,TN26 3PQ,51.086496590636700,0.791714963392075
Dolphin and Piping shrike,TN26 2HB,51.065936592057000,0.855669484900293
Jay and Pitohui,TN24 0JN,51.139107753055600,0.905607257676316
Magpie and Snipe,TN29 0JD,51.048391668975500,0.967033086572704
River dolphin and Diving bird,TN25 6SA,51.119455678940000,0.961110504378121
Lemming and Night heron,TN23 3NA,51.125814878557900,0.850786883175109
Recurvebill and Polecat,TN25 7JY,51.072367000000000,0.911416466667004
Pratincole and Parrotlet,TN23 9QY,51.146559187780700,0.875616995186591
Vole and Perching duck,CT4 5BQ,51.207423997729700,1.025331050550450
Mouse and Tattler,TN24 8BX,51.148211276108400,0.884500100079996
Fox and Fish eagle,TN23 7SP,51.136635864001200,0.865836016255304
Minke whale and Partridge,TN24 0XP,51.136892000000000,0.886568000000000
Diving bird and Grosbeak,TN26 3AG,51.128959139449700,0.755696498671844
Petrel and Condor,TN27 0JJ,51.209294609686900,0.795515485688124
Ice seal and Shearwater,TN27 0YF,51.210547000000000,0.794732000000000
Booted eagles and Ground sloth,TN23 3HY,51.152816455999500,0.859974122949479
Bunting and Songlark,TN23 3LG,51.152434562045100,0.844662263715820
Marsh harrier and Mink,TN24 9BY,51.165063447903200,0.879529276680457
Ibex and Black cockatoo,TN23 5UG,51.131038457913200,0.843861245025113
Crow and Ice seal,TN24 9AJ,51.170709937973000,0.885446664398887
Cuscus and Duck,TN25 6FA,51.122111000000000,0.976048000000000
Grackle and B,TN24 9AY,51.167564834707600,0.883504907431618
Magpie and Nukupuʻu,TN23 5GH,51.141111321478500,0.837974983650801
Puffleg and Cuscus,TN25 6PY,51.123668532799400,0.976201737179388
Fox and Grouse,TN24 8HS,51.155679490195900,0.871965090999300
Chipmunk and Pratincole,TN26 2HT,51.062813432840100,0.859431028185529
B and Linsang,TN23 3QT,51.154913695213900,0.843931000000000
Pheasant and Fulmarine petrel,CT21 4LP,51.077700000000000,1.010545000000000
Chipmunk and Meadowlark,TN26 1EJ,51.168686850711600,0.816077020433129
Triller and Skunk,TN25 5BU,51.183304701690100,0.942004152709923
Parakeet and Francolin,TN24 0HL,51.142496183274600,0.895196355016977
Marmoset and Chickadee,TN24 8DQ,51.149288850855600,0.888571436397310
Pitohui and Black jay,TN25 6EF,51.095055000000000,0.989347000000000
Wallaby and Jerboa,TN23 9UH,51.146559187800000,0.875616995200000
Thrasher and Polecat,TN24 0BJ,51.132179435984400,0.890476567413745
Stilt and Philippine hawk-owl,TN23 1LZ,51.151220749006900,0.863064559414644
Duck and Badger,TN23 7SG,51.138101050953200,0.869172217574070
Coati and Mole,TN23 1JZ,51.148994633105000,0.868017664741912
Herring gull and Jackal,TN24 9PW,51.159181344299100,0.889361295279826
Duck and Jay,TN24 8TE,51.149410804216600,0.873777998657948
Masked owl and Grosbeak,TN24 9RY,51.158956534247800,0.891178097774259
Tree warbler and Tattler,TN24 8JR,51.150282077387200,0.873460329230322
Quetzal and Old World warbler,TN25 5JX,51.180251000000000,1.030537552445330
Minke whale and Mockingbird,TN25 6RX,51.122932460129300,0.966592632450869
Tattler and Macaw,TN25 4LT,51.182025000000000,0.799274000000000
Siskin and Pheasant,TN25 4EJ,51.174508000000000,0.892970597631019
Towhee and Masked owl,TN25 6JZ,51.096314107529400,1.003684196906790
Parakeet and Masked owl,TN24 0HF,51.139540375368100,0.890336038296281
Solitaire and Old World quail,TN23 7RX,51.140742532183700,0.873682623098312
Tit-tyrant and Tit-tyrant,TN23 5AS,51.135062916103600,0.856975076360217
Pratincole and Polecat,CT4 7BU,51.241470362113900,1.006787916562250
Cuscus and Marmoset,TN24 8HQ,51.152884573580600,0.874065427472676
Grosbeak and Mamo,TN24 0DR,51.131578435145700,0.881304470955585
Jackal and Partridge,TN24 9JD,51.162706671057800,0.880269324907783
Warbler and American sparrow,TN24 9RE,51.161179796958700,0.875797082364302
Mole and Hawk,TN23 4RR,51.145807000000000,0.845744000000000
Pheasant and Kestrel,TN23 5DA,51.135254000000000,0.849581000000000
Pratincole and Badger,TN24 8UX,51.157837930518900,0.865376712061095
Tattler and Mole,TN25 6BT,51.102369000000000,1.005866000000000
Prion and Armadillo,TN23 1AY,51.148251110953300,0.870459780738139
Macaw and Zebra,TN25 4QQ,51.173485033244400,0.876491460216568
Maya and Wader,TN24 9HE,51.169699359028000,0.895398375536403
Triller and Asiatic leopard,TN23 5YD,51.126606929645300,0.848920354874479
Wallaby and Recurvebill,TN24 9QS,51.165534316915200,0.895423515713887
Mockingbird and Kestrel,TN24 0QU,51.145804000000000,0.904041209607363
Linsang and Cloud rat,TN23 1DR,51.149506000000000,0.858225000000000
Polecat and Tahr,TN26 3PJ,51.084367295295400,0.802511101846021
Bronzewing pigeon and Flameback,TN23 4YU,51.140894666616600,0.844667374847536
Warbler and Eagle,TN24 0AG,51.145064806324600,0.896801388514331
Tit-tyrant and Asiatic leopard,TN26 1AW,51.183267000000000,0.819456000000000
Diving bird and Jackal,TN27 0HW,51.226781022622200,0.781864344796224
Cuscus and Vulture,TN24 0RS,51.143043552027800,0.892342295549988
Treepie and Quetzal,TN23 4GJ,51.141454195543700,0.839411523791912
Pheasant and Jay,TN25 4DX,51.167602800036800,0.900875055606475
Ice seal and Towhee,TN23 4XY,51.142060392588200,0.847398538177559
Treepie and Asiatic leopard,TN23 3BT,51.157925554626100,0.823702820202527
Pratincole and Snipe,TN27 0AJ,51.197599692553000,0.782796663917986
Booted eagles and Duck,CT4 8DU,51.244004126505700,0.972761274427333
Towhee and Nukupuʻu,TN23 4FB,51.146915024279800,0.859652023164735
Eagle and Moluccan boobook,TN23 5RL,51.133858053016300,0.852540485811532
Coati and Condor,TN25 6RP,51.124674374357800,0.969058000000000
Thrasher and Myna,TN23 7TU,51.138529975688600,0.870385488317264
Minke whale and Hawk,TN24 8HL,51.153403865903000,0.871966742881449
Philippine hawk-owl and Chicken,TN23 3QJ,51.114924532234600,0.879324720162686
Civet and Songlark,TN24 0SG,51.129877000000000,0.905399000000000
Lemming and Boto,TN24 0PZ,51.129153840930200,0.881510848807128
Hawaiian honeycreeper and Scimitar babbler,TN25 6NT,51.117331465879300,0.928691646094075
Vole and Mink,TN23 3JW,51.152446732651400,0.846379183215727
Puffleg and Asiatic leopard,TN23 5HP,51.138863170529500,0.834991910613724
Fulmarine petrel and Thicketbird,TN23 1BB,51.150823000000000,0.857677000000000
Greenbul and Badger,TN23 9SR,51.146269786104900,0.878244464569494
Chicken and Triller,TN26 1ER,51.160041980413200,0.789875230250711
Hawk and Meadowlark,TN24 0TT,51.131500864537700,0.897538823678245
Viscacha and Prion,TN23 4YR,51.142067648567100,0.842666278180859
Prion and Stint,TN24 0RF,51.147791787517100,0.892739387582982
Minke whale and Parakeet,TN23 9SN,51.146269786104900,0.878244464569494
Grouse and Ice seal,TN23 3BX,51.152312717852500,0.813649466928183
Mole and Vulture,TN25 7DH,51.093890239902800,0.940207591691942
Partridge and Solitaire,TN26 3AS,51.126015206551200,0.758865768853524
Booted eagles and Snipe,TN25 5BQ,51.181502246329200,0.938569251145112
Cloud rat and Pheasant,TN24 9NL,51.164627957804200,0.885882303015566
Dorcopsis and Nukupuʻu,TN24 8JN,51.149636520758700,0.873377309140856
Treepie and Thicketbird,TN27 0HP,51.221578102000800,0.777124800089293
Stint and Jay,TN23 5YG,51.126975711014800,0.849657735648770
Wallaby and Maya,TN23 7UX,51.141307840763400,0.866411448423066
Scimitar babbler and Hawk,TN23 4PY,51.140681110951100,0.842724041265710
Jay and Polecat,TN26 3DX,51.139518014872700,0.760285788338794
Condor and Pheasant,TN29 0HL,51.048625528761000,0.998027620187377
Nukupuʻu and Jay,TN25 5PN,51.154973481033000,0.970750873822193
New World blackbird and Condor,TN23 4QH,51.143172000000000,0.861251000000000
Vole and Eagle,TN24 8QU,51.156513766460900,0.866925144961226
Mamo and Tahr,TN24 0GB,51.125555632653100,0.905142194814959
Kākāriki and Mink,TN23 9SL,51.146269786104900,0.878244464569494
Chickadee and Shearwater,TN23 5UF,51.130346230025700,0.843847288891625
Pitohui and Stint,TN25 7FB,51.119166021661600,0.892950811367502
Stilt and Nukupuʻu,TN25 7JL,51.089765180019000,0.887172000000000
Vulture and Petrel,TN24 8YE,51.155676393309900,0.878545000000000
Rat and Snipe,TN23 3RF,51.116329024475800,0.875982395414762
Eagle and Bunting,TN24 8XW,51.162207000000000,0.867335000000000
Argus and Thrasher,TN24 9AZ,51.167146627149400,0.882591833744718
Jerboa and Marsh harrier,TN24 9DN,51.163788886106900,0.885987261797570
Triller and Kākāriki,TN23 6JF,51.135319540590000,0.865597214134101
Cloud rat and Parrotbill,TN24 0TQ,51.147164334876300,0.907652000000000
Pratincole and Myna,TN23 9JJ,51.146559317068800,0.875617044109976
Old World quail and Stilt,TN25 6NS,51.118731000000000,0.931738000000000
Prion and Buzzard,TN26 1LX,51.102793052052300,0.817997519165632
Mockingbird and Jay,TN25 6DQ,51.107734351618700,1.032701029326770
Chicken and Wader,TN23 3AE,51.147309229989500,0.841644296379280
Old World warbler and Flameback,TN23 9SY,51.146269786104900,0.878244464569494
Puffleg and Treepie,TN23 1NB,51.150454235719700,0.863145803210419
Siskin and Solitaire,TN23 5EF,51.138753486518500,0.843949512178637
Booted eagles and Asiatic leopard,TN23 3JN,51.152277520620800,0.848156437652252
Mamo and Stint,TN27 0PL,51.176101000000000,0.765161000000000
Skunk and Maya,TN25 7EU,51.085881648348600,0.939628044599877
Old World warbler and Grosbeak,TN27 0JR,51.212153282436000,0.791435711743150
Flameback and Tattler,TN23 5AH,51.134508578571400,0.859414034788266
Recurvebill and Marsh harrier,TN23 3AY,51.141996039197200,0.828192138993677
Civet and Parrotbill,TN24 9DS,51.165658321827600,0.888593189623314
Mole and Puffleg,TN23 7XJ,51.141893892810300,0.867820397198322
Perching duck and Siskin,TN23 4RB,51.138413838100200,0.859712622815765
Logrunners and Capuchin,TN23 5DY,51.136782229552600,0.849918664853797
Thicketbird and Black cockatoo,TN24 0QQ,51.141626467940200,0.902131000000000
Masked owl and Philippine hawk-owl,TN23 7RS,51.140804000000000,0.873787000000000
Snipe and Grouse,TN26 3AP,51.126279000000000,0.753836000000000
Badger and Philippine hawk-owl,TN25 6NH,51.124637344594800,0.943800000000000
Treepie and Cloud rat,TN27 0LU,51.213205049875500,0.797857490133575
Puffleg and Skunk,TN27 0DE,51.216196611255000,0.779521809249394
Fish eagle and Parakeet,TN27 0LG,51.213448025740300,0.795595310800041
Rat and River dolphin,TN25 7AJ,51.088397400012000,0.936160044359907
Logrunners and Tree warbler,TN24 9JP,51.162130654373500,0.879189197756805
Guillemot and Capuchin,TN23 9XN,51.146560000000000,0.875648000000000
Booted eagles and Hawk,TN23 4HF,51.143989355695600,0.850395000000000
Grouse and Wader,TN23 1JW,51.149893407137000,0.868044811723654
Cuscus and Piping shrike,TN25 7GT,51.093575000000000,0.941021000000000
Kangaroo and Jackal,TN25 6JW,51.095474202110600,1.009757675814860
Fulmarine petrel and Chicken,TN26 3BG,51.121375310768200,0.781584417124899
Skunk and Snipe,TN23 3EU,51.111414626895400,0.873562386765084
Fox and Black cockatoo,TN24 9SE,51.160553753521300,0.894238948216039
White ibis and Parrotbill,TN25 7FP,51.119801224421100,0.892361687899588
Philippine hawk-owl and Meadowlark,TN27 0AT,51.207076000000000,0.768993000000000
Shearwater and Towhee,TN25 4PY,51.159789511280700,0.852881800691531
Puffleg and Badger,TN23 3GR,51.125689263533300,0.848192084629274
Solitaire and Ice seal,TN23 1RF,51.147163680798800,0.871521967154039
Snipe and Vole,TN25 4QG,51.174274495156300,0.877670969591687
Perching duck and Bunting,TN23 7SZ,51.140066953661500,0.872625516246290
Grosbeak and Dolphin,TN23 7UG,51.137999890724600,0.865963413133400
Stint and Masked owl,TN24 0FJ,51.130703383433600,0.893668000000000
Civet and Diving bird,TN25 4EY,51.197969324611800,0.923211644041307
Linsang and Linsang,TN26 1HU,51.105055818730700,0.829491000000000
Bunting and Marsh harrier,TN25 5PE,51.159207639914700,0.951312339463615
Skunk and Parakeet,TN24 9LF,51.171184306909100,0.874588418940080
Grosbeak and Chickadee,TN24 0TL,51.131102484782600,0.896431000000000
Duck and New World blackbird,TN23 5GD,51.140650343020400,0.835844930746021
Vulture and Diving bird,TN23 5HU,51.139047400155200,0.832586967591825
Quetzal and White ibis,TN23 5DN,51.136898107196400,0.847009293861471
Thicketbird and Towhee,TN23 1EW,51.150196000000000,0.854649000000000
Cuscus and Chipmunk,CT21 4LA,51.076569763630500,1.025788000000000
Francolin and Shearwater,TN23 9AA,51.146559317068800,0.875617044109976
Gull and Gull,TN27 0BD,51.210643000000000,0.761932000000000
Rat and Buzzard,TN26 2LU,51.061596043542200,0.821089141845736
Vole and Pitohui,TN23 4RL,51.140838268081900,0.862450431133729
Herring gull and Tree warbler,TN26 1EW,51.158437884297300,0.800162500578060
Gull and Vulture,TN25 6TD,51.126768071809900,0.972455994799234
Moluccan boobook and Kākāriki,TN24 9QG,51.162368545488100,0.885955786490480
Maya and Cuscus,TN23 7UH,51.138291825033300,0.863593886295999
Francolin and Philippine hawk-owl,TN27 0LY,51.215401417683500,0.798534888898862
White ibis and Tahr,TN23 5LG,51.132137008602700,0.843071059112894
Towhee and Shearwater,TN25 4JX,51.191601747819200,0.847747562359364
Old World vulture and New World blackbird,CT4 8HP,51.241681613607200,0.888841997106006
Towhee and Maya,TN24 0HZ,51.136747297273700,0.898882501347537
Fish eagle and Bronzewing pigeon,TN24 0PT,51.135715714349100,0.883863859606602
Coati and Mole,TN24 8PU,51.148358142010100,0.882192620128764
Grackle and Argus,TN26 1AD,51.107751122797200,0.813427130616959
Quetzal and Wallaby,TN25 7EL,51.101484870018200,0.972075934752121
American sparrow and Old World warbler,TN23 3RW,51.154512206838700,0.850568097325520
Peafowl and Towhee,TN25 4EZ,51.204415519184400,0.937680025085967
Fox and Quetzal,TN24 0QF,51.142280956494800,0.899887059975628
Hawaiian honeycreeper and Vole,TN23 5LE,51.135679666207400,0.840157897623956
Hawaiian honeycreeper and Nukupuʻu,TN24 0GN,51.127641891039200,0.898640804264940
Chipmunk and Chipmunk,TN27 0QX,51.170338000334900,0.754701295288595
Mamo and Meadowlark,TN24 9NG,51.167999922390700,0.885191594388767
Tree warbler and Macaw,CT21 4PQ,51.080020663814400,0.983836447739154
Gull and Linsang,CT4 8JZ,51.245975607774900,0.954946319536519
Partridge and Buzzard,TN23 7TJ,51.139177504797200,0.870754510295005
Badger and Gull,TN23 3RQ,51.155892000000000,0.846420000000000
American sparrow and Towhee,TN24 8DJ,51.146577505848900,0.881452449770519
Mole and Fox,ME13 0HX,51.246136173973700,0.799971137558708
Gull and Shearwater,CT4 8DR,51.243724748861800,0.967469770961022
Peafowl and Mole,TN26 2LY,51.066730667798600,0.804328737575064
Tit-tyrant and Darwin's finches,CT4 8BF,51.243239885726900,0.909789443065238
Polecat and White ibis,TN23 4WS,51.142482195002600,0.858491434305849
Wallaby and Siskin,TN25 4DN,51.217695016713000,0.856934390945008
Thicketbird and Quetzal,TN23 3UB,51.127049000000000,0.838573000000000
Ground sloth and Recurvebill,TN25 6SX,51.113444000000000,0.953838000000000
Goose and Warbler,TN26 3SL,51.072224339132200,0.776921751147612
Triller and Diving bird,TN25 5DU,51.181131397773900,0.933279369803579
Bunting and Kestrel,TN27 0QZ,51.166875711591200,0.750861271491308
Rat and Black jay,TN23 3RB,51.115928856170900,0.872870851755218
Buzzard and Greenbul,TN26 1DW,51.168897612637900,0.816662122741997
Stint and Coati,TN24 0AH,51.145406015090400,0.898638783584022
Condor and Skunk,TN24 0GT,51.130018287754400,0.882565302743718
Viscacha and American sparrow,TN24 8DG,51.150935404139800,0.883454457009273
Chickadee and Francolin,TN26 3QF,51.080730962726300,0.772462194500735
Minke whale and Grosbeak,TN23 3QD,51.117093939514100,0.875601200098106
Jay and Vulture,TN25 4EB,51.171201440622200,0.895034672138300
Capuchin and Rabbit,TN25 4FB,51.192357854859800,0.915956926552586
Skunk and Petrel,TN24 0RB,51.145418886413600,0.893763501353603
Maya and Capuchin,TN23 5EA,51.133161166522200,0.847922970050679
Hawk and Dorcopsis,TN25 6PG,51.131885723231100,0.920020727465070
Dolphin and Pratincole,TN26 1DY,51.170752093473800,0.819951330357333
Tit-tyrant and Viscacha,CT4 5SR,51.191543395867300,1.019280343918590
Vulture and Chicken,TN26 1JN,51.134958476516900,0.801843379328969
Moluccan boobook and Old World warbler,TN25 7AU,51.085872792735400,0.913050434355700
Tit-tyrant and Tree warbler,TN23 5JQ,51.137939357187800,0.829316613534749
Eagle and Vulture,TN23 5YQ,51.126931078443700,0.851856192320107
Herring gull and Siskin,TN23 3PQ,51.156177531284000,0.842389632367328
Rat and Thrasher,TN25 5JY,51.174235010107500,1.023214155318240
Capuchin and Jerboa,TN24 0HQ,51.140182000000000,0.891794704685160
Parakeet and Grouse,TN24 0TB,51.140176641955900,0.908920002795476
Vulture and Boto,TN25 6NF,51.120587654624200,0.931913246643213
Puffleg and Kestrel,TN26 1NE,51.110557883536000,0.857148864897289
Perching duck and Bronzewing pigeon,TN25 4JD,51.189813660034000,0.895285510649047
Kite and Mouse,TN25 6EN,51.109844713688300,0.992716600133999
Maya and Chickadee,TN26 2BE,51.048380786950700,0.798382504600735
Marsh harrier and Scimitar babbler,TN23 9QT,51.146559187780700,0.875616995186591
Rat and Partridge,TN24 9RS,51.170092628961500,0.873261486791587
Pratincole and Puffleg,TN23 7HJ,51.144090583309300,0.870301631815459
Macaw and Kite,TN23 4YY,51.140471971793100,0.843926493090598
Skunk and Pratincole,TN26 2HX,51.063179561620800,0.858069033347053
Argus and Lemming,TN23 7TZ,51.138970460954900,0.871127688192265
Piping shrike and Mole,TN26 1ZS,51.146559317068800,0.875617044109976
Ibex and Ice seal,TN23 7SW,51.137084637622000,0.867708095771024
Hawk and Chipmunk,TN24 9ED,51.161746448687300,0.889292782992698
Viscacha and Cloud rat,TN23 4QT,51.141950445975900,0.856328137824618
Dorcopsis and Quetzal,TN23 3JX,51.151070955423100,0.850055651598357
Quetzal and Black jay,TN23 1LR,51.150224823131500,0.864432968562325
Black cockatoo and Tit-tyrant,TN26 2JR,51.064067909950900,0.849687756840748
Wallaby and Recurvebill,TN23 5WE,51.139078242642100,0.836878032839918
Linsang and Gull,TN26 1NW,51.097063270583200,0.842889253303495
Chipmunk and Philippine hawk-owl,TN25 6EX,51.104659879575200,1.006182816845800
Old World warbler and Thrasher,TN25 5NB,51.148580000000000,0.979578000000000
Quetzal and Masked owl,TN23 3JE,51.123914755475000,0.850512621371583
Vole and Lemming,CT4 8DS,51.244899295093800,0.966198349088269
Parrotbill and Pitohui,TN25 4QF,51.159488077309200,0.852333961878607
Civet and Bronzewing pigeon,TN25 6RR,51.123908586425100,0.968058000000000
Old World quail and Chipmunk,TN23 5WN,51.137101000000000,0.842790000000000
Logrunners and Zebra,TN23 3GW,51.154792148695900,0.847939459231301
Night heron and Skunk,TN25 6QA,51.128241238168000,0.972178979773822
Badger and Zebra,TN23 7UA,51.138637196312800,0.871879052120930
Jay and Tit-tyrant,TN26 3AY,51.127022210500800,0.749720903273155
White ibis and Mockingbird,TN25 4GH,51.160602129526100,0.852016503972627
