name,postcode,lat,lon
Vulture and Bronzewing pigeon,CH62 4UY,53.349236881847800,-2.996196076138870
Greenbul and Goose,CH63 7LN,53.361358874085200,-3.006336453239800
Rabbit and Grackle,CH66 1PR,53.284974137110400,-2.941990512046870
Greenbul and New World blackbird,CH31 9AS,53.329736753735100,-3.098884753755990
Pratincole and Old World warbler,CH63 9JN,53.340020000000000,-3.003115000000000
Night heron and Gull,CH60 7TE,53.334880357829800,-3.099662754271320
Old World vulture and Fish eagle,CH66 1NH,53.299562571851100,-2.944367287059580
Mole and Eagle,CH64 9RT,53.285906760155000,-3.054963353898820
Mockingbird and Parrotbill,CH61 4UT,53.356153000000000,-3.114815000000000
Petrel and Quetzal,CH64 3RU,53.300317196070000,-3.057674000000000
Tit-tyrant and Lemming,CH61 9PF,53.347821038438600,-3.095173719174250
Grouse and Badger,CH64 0SZ,53.278508288732900,-3.064109732410060
Chicken and Viscacha,CH63 0PD,53.312948073067000,-2.984288512837110
Piping shrike and Magpie,CH64 9WW,53.292692053063100,-3.056150759858320
Siskin and Dolphin,CH62 4UR,53.349653932648200,-2.995770144507550
Thrasher and Wallaby,CH62 2DR,53.332197167355900,-2.983860757566310
Nukupuʻu and Wader,CH63 7QW,53.354328031667000,-3.008634773293860
Buzzard and American sparrow,CH6 5BP,53.248327423384100,-3.132826642042630
Fulmarine petrel and Wader,CH63 5RG,53.357217899524900,-3.028130826724710
Parakeet and Treepie,CH62 2DG,53.335252823104700,-2.981753545900590
Black jay and Grackle,CH64 6UP,53.292062000000000,-3.067492000000000
Fish eagle and Marsh harrier,CH64 6UB,53.290102236006400,-3.070368641171530
Greenbul and Black jay,CH61 6UZ,53.338461162566500,-3.107099132810590
Bronzewing pigeon and Hawaiian honeycreeper,CH64 3TF,53.296868534152700,-3.063620896837660
Snipe and Magpie,CH60 9HT,53.329588958606200,-3.116015000000000
Thicketbird and Ground sloth,CH62 4UZ,53.350400912052500,-2.994585722636520
Boto and Partridge,CH64 2TL,53.292651350964800,-3.007886020349820
Myna and Kākāriki,CH62 8AZ,53.316551575824800,-2.971266817905630
Shearwater and Minke whale,CH62 7EF,53.327021768375100,-2.984672563058620
Pitohui and Minke whale,CH61 4UB,53.353117860489000,-3.118191157008640
Polecat and Partridge,CH62 2EY,53.345026000000000,-2.986004000000000
Kite and Treepie,CH64 1SZ,53.296104927913400,-3.001275610439540
Black jay and Warbler,CH61 1AP,53.347235853249800,-3.079611000000000
Marsh harrier and Crow,CH63 2JF,53.352511024650400,-3.023555478501600
Snipe and Pheasant,CH66 4YD,53.282982335135600,-2.956195954867840
Tree warbler and Tahr,CH60 8QH,53.319533309023400,-3.098967824232800
Mink and Parrotlet,CH64 9QU,53.287062741824200,-3.049261537729030
Myna and Badger,CH63 9LE,53.335407975736300,-3.003082194849070
Condor and White ibis,CH60 9JR,53.325842228030500,-3.109925000000000
Bronzewing pigeon and Mockingbird,CH62 8DE,53.313271000000000,-2.970187000000000
Magpie and Herring gull,CH63 9YU,53.338027475572100,-3.005847027505180
Fish eagle and Greenbul,CH63 2NB,53.349972231130000,-3.027145190861670
Skunk and Flameback,CH60 4RY,53.322213591773900,-3.105612482787770
Capuchin and B,CH6 5BD,53.248163525079700,-3.136045000000000
Kākāriki and Treepie,CH62 8BZ,53.315628823728100,-2.965346661793330
Bunting and Magpie,CH6 5RP,53.250034427343700,-3.161873453118080
Macaw and Viscacha,CH6 6DW,53.259899588631000,-3.162395738629300
Fox and Pheasant,CH60 9LF,53.321447686646600,-3.106778700275690
Ice seal and Prion,CH60 8PD,53.321375637845900,-3.097063497286900
Grouse and Argus,CH61 1AW,53.347414778675000,-3.079585474953160
Triller and Chicken,CH63 7NS,53.353933880214700,-3.003141633731650
Armadillo and Solitaire,CH5 4DB,53.219799768399800,-3.058040612597990
Kite and Moluccan boobook,CH64 4BW,53.284447840485200,-3.053232423427150
Civet and Ice seal,CH60 8NB,53.322880909086800,-3.088769679149510
Logrunners and Francolin,CH62 8AU,53.317185139203100,-2.969629970119550
Masked owl and Shearwater,CH60 8NR,53.314141295735900,-3.088021837966210
Vole and Songlark,CH62 5DX,53.354186809594300,-2.997633664690760
Marsh harrier and Scimitar babbler,CH61 3XB,53.355777524997700,-3.094070570362840
Minke whale and Duck,CH60 1XT,53.325778000000000,-3.075766000000000
Boto and Asiatic leopard,CH62 7JF,53.325811818796200,-2.975485986064960
Prion and Jackal,CH61 3UY,53.357227831844100,-3.092755433054940
Treepie and Argus,CH6 5DZ,53.244172529807300,-3.122571433505800
Prion and Rabbit,CH61 7UA,53.355943056169000,-3.091700857467330
Logrunners and Grackle,CH64 6RS,53.297317167666400,-3.084668226622880
Partridge and Fox,CH63 2HT,53.351824118881900,-3.009221653513780
Solitaire and Maya,CH62 0BW,53.317082739021700,-2.957828849888390
Old World warbler and Civet,CH62 9AR,53.307089794974500,-2.977296000000000
Buzzard and Badger,CH60 7RZ,53.335621996551100,-3.099171228282080
Armadillo and Diving bird,CH62 8AW,53.315823429241100,-2.976774243709220
Flameback and Marsh harrier,CH64 6RX,53.294339630135000,-3.072980162773280
Bunting and Buzzard,CH60 0AE,53.326541206826400,-3.095319000000000
Dorcopsis and White ibis,CH5 4JG,53.219925623044900,-3.074114391147190
Marsh harrier and Asiatic leopard,CH63 9AL,53.340906875919000,-2.991541042639980
Old World quail and Chickadee,CH61 8AB,53.329754000000000,-3.098884000000000
Dorcopsis and Kākāriki,CH5 2NU,53.228909000000000,-3.001639000000000
Grouse and Goose,CH63 7SN,53.352238000000000,-3.006018915524830
Badger and Ice seal,CH62 8JA,53.316212006256500,-2.967701524066980
Piping shrike and White ibis,CH62 6BW,53.318178270956500,-2.983373084937260
Fox and Rat,CH60 4TG,53.326992534234200,-3.099159557949050
Prion and Asiatic leopard,CH62 6BF,53.321521203491800,-2.985671852409040
Fox and Goose,CH62 3LQ,53.341680370430800,-2.981705962200460
Ice seal and Kangaroo,CH61 8SQ,53.344364646789700,-3.110256293481000
Jackal and Perching duck,CH63 5LX,53.362042174211600,-3.024279841043510
Minke whale and Fish eagle,CH60 6SQ,53.330755000000000,-3.107515000000000
Bronzewing pigeon and Bunting,CH63 9HF,53.336932218070700,-3.009936242004850
Petrel and Thicketbird,CH63 0PW,53.316126404184100,-2.988009303075910
Jay and Tit-tyrant,CH63 9YR,53.333837648179900,-2.996317669861480
Greenbul and Nukupuʻu,CH6 5SJ,53.231981802934200,-3.088798517269250
Goose and Meadowlark,CH64 1TJ,53.293943145765000,-2.995358819615830
Capuchin and Viscacha,CH61 1DD,53.346499617129900,-3.081379972216280
Shearwater and Triller,CH60 2TW,53.328137198429400,-3.087056667116610
Solitaire and Kākāriki,CH6 5PZ,53.237134492618000,-3.127271823989820
Argus and Marsh harrier,CH61 7UL,53.351949206219100,-3.093957484543980
Marsh harrier and Rat,CH6 5PB,53.238930730824200,-3.129341881039280
Vulture and Night heron,CH48 2JP,53.356464730948200,-3.161175945467860
Badger and Vulture,CH62 6EG,53.316450336504400,-2.979250363758620
Nukupuʻu and Macaw,CH1 6DU,53.221630841631900,-2.960744702569740
Parrotlet and Jackal,CH6 5GE,53.250190000000000,-3.135408000000000
Old World vulture and Siskin,CH1 6DP,53.229393794200000,-2.951121284076270
Moluccan boobook and Pheasant,CH6 5WF,53.237734000000000,-3.113157000000000
Partridge and Towhee,CH1 6BF,53.224600000000000,-2.953786000000000
Kākāriki and Fulmarine petrel,CH60 8PH,53.319887781240500,-3.101468985935660
Grosbeak and Booted eagles,CH66 7NX,53.292852630945900,-2.970623979346910
Civet and Tit-tyrant,CH64 1TN,53.296007022743300,-2.997942465698380
Bunting and Bronzewing pigeon,CH60 1XL,53.324892370225000,-3.075128046948330
Kestrel and Viscacha,CH6 5FX,53.239510000000000,-3.120306000000000
Bunting and Warbler,CH62 4RZ,53.356618878343300,-2.985836047401750
Ice seal and Songlark,CH61 8RJ,53.347971492981500,-3.096409398537660
Partridge and Herring gull,CH66 3ST,53.283911533812700,-2.944502057585250
Polecat and White ibis,CH60 3RP,53.320316000000000,-3.083266642371990
Partridge and Mole,CH63 7RY,53.352969213100800,-3.003479549479020
Vole and Snipe,CH61 3XW,53.354763865438800,-3.097755682378640
Jerboa and Vulture,CH64 9QQ,53.288249580663200,-3.052290864368400
Hawaiian honeycreeper and Herring gull,CH6 5GB,53.250911000000000,-3.139160000000000
Hawaiian honeycreeper and Asiatic leopard,CH5 4AB,53.221049864328500,-3.061007062452650
Goose and Chicken,CH1 6HJ,53.256177000000000,-2.951850000000000
Tattler and Darwin's finches,CH61 1BS,53.349828079033500,-3.083086699621830
Dolphin and Pratincole,CH66 4PP,53.285387019745500,-2.948869622523690
Wallaby and Quetzal,CH63 0HU,53.316348023879600,-2.990551276494040
B and Jackal,CH60 7SS,53.333899120499600,-3.098841592663090
Snipe and Night heron,CH63 5JZ,53.358950024543700,-3.019021706155080
Piping shrike and Philippine hawk-owl,CH62 2AA,53.361944194070700,-2.997649610733870
Jerboa and Petrel,CH63 9FN,53.338686346884500,-2.994808678430950
Badger and Bronzewing pigeon,CH63 5PA,53.357415668336900,-3.029172344164070
Prion and Jackal,CH62 4SN,53.355520081501000,-2.991895309505120
Zebra and Ice seal,CH63 5QZ,53.360150047300500,-3.027930949549960
Zebra and Towhee,CH6 6FB,53.267143378096900,-3.171738576863730
Wallaby and American sparrow,CH66 3RY,53.282421089626200,-2.942009344203940
Crow and Asiatic leopard,CH66 1QE,53.298307415079200,-2.956358268503280
Old World vulture and Badger,CH60 3SJ,53.319218000000000,-3.084443000000000
Logrunners and Petrel,CH62 8AJ,53.315758050825700,-2.970468239040940
Pratincole and Skunk,CH60 0AG,53.325808005231100,-3.092087335002370
Pitohui and Recurvebill,CH62 5BY,53.359236000000000,-3.002380000000000
Peafowl and Bunting,CH64 0TT,53.279509108809200,-3.066789273432240
Rat and Grackle,CH64 0ST,53.280023326088000,-3.062557553458520
Triller and Chipmunk,CH64 2UX,53.294989033238300,-3.015742000000000
Guillemot and Scimitar babbler,CH62 0AG,53.312957847419100,-2.963275074488040
Macaw and Darwin's finches,CH62 8AY,53.316919325466200,-2.971365236447000
Wader and Meadowlark,CH60 4SX,53.326631545891900,-3.109990916896700
Songlark and Crow,CH64 9SJ,53.284685805327400,-3.062883250986830
Argus and Goose,CH63 3DZ,53.344271822682500,-3.003004889117090
Goose and Quetzal,CH61 3XG,53.354084417335900,-3.095394416460240
Stilt and Old World quail,CH63 2JN,53.352696694120300,-3.022868833864440
Solitaire and Buzzard,CH62 8EE,53.309193689256400,-2.980645126458270
Cuscus and Maya,CH64 3RW,53.296905045467100,-3.060530929301530
Duck and Tree warbler,CH62 7ED,53.327325163717800,-2.983853736104290
Chicken and Wallaby,CH62 8BH,53.316309148988400,-2.973437897814590
Bronzewing pigeon and Grosbeak,CH64 5SU,53.254271531319200,-3.007568000000000
Herring gull and Goose,CH66 4AG,53.280907000000000,-2.954844000000000
Mink and Myna,CH6 9EA,53.246462000000000,-3.141769000000000
Philippine hawk-owl and Snipe,CH60 9LA,53.326936865897700,-3.120599334751390
Chickadee and Tahr,CH61 6XZ,53.341128570324300,-3.103473363314810
Boto and Marsh harrier,CH6 5QT,53.221900990728400,-3.142958150968290
Maya and Vulture,CH62 2AS,53.338792696549200,-2.988503235611540
New World blackbird and Pitohui,CH63 3BH,53.342889070711900,-3.013456609234790
Asiatic leopard and Pratincole,CH63 9HW,53.335624203245900,-3.006225981028550
Cuscus and Elephant,CH61 3UD,53.355069450855700,-3.109422727569990
Chicken and Mockingbird,CH61 3UJ,53.353630414623800,-3.117212975815320
Triller and Ice seal,CH64 4DX,53.282977987592200,-3.046611555493900
Kākāriki and Civet,CH63 7LG,53.361346892924300,-3.009882497131250
Kestrel and Thrasher,CH60 4RA,53.327584837676100,-3.100240855904740
Diving bird and Partridge,CH6 6DG,53.261106612329500,-3.162143632152790
Eagle and Fox,CH64 6SN,53.297726490726700,-3.080177231412060
Francolin and Cuscus,CH6 5SB,53.241236297881200,-3.122224847419860
Civet and Maya,CH64 0TF,53.277808332871400,-3.062967524686010
Snipe and Ibex,CH6 6BN,53.267785271794100,-3.170451635645220
Crow and Mole,CH5 4UT,53.219717366023900,-3.067279546681300
Francolin and Egret,CH61 3XE,53.355837000000000,-3.096578456327640
Vulture and Perching duck,CH6 5LL,53.239166643639400,-3.136675339068030
Tit-tyrant and Ice seal,CH62 6AA,53.324566467134200,-2.973881120141110
Rat and Rabbit,CH6 6BX,53.262922618495600,-3.169479234689460
Linsang and Thrasher,CH62 9EF,53.306877527593800,-2.972715000000000
Old World quail and Siskin,CH60 2SG,53.328663000000000,-3.084728000000000
Booted eagles and Mamo,CH64 4BF,53.287334341112500,-3.052103359738200
Vole and Songlark,CH61 6UW,53.334743675567400,-3.093997611840320
Francolin and Marsh harrier,CH61 8RX,53.350144863728200,-3.103450874124390
Greenbul and Rat,CH66 4PG,53.282645909754700,-2.947668949878460
Coati and Perching duck,CH63 3AN,53.345642663672900,-3.014167843041000
Pitohui and Magpie,CH64 1SH,53.295686731584200,-2.993238830045700
Pratincole and Jerboa,CH60 4RG,53.326156318556600,-3.100159049654700
Black cockatoo and Argus,CH64 2UE,53.289245636224000,-3.003485410946470
Linsang and White ibis,CH62 2DY,53.332627441152900,-2.986183230114940
Chipmunk and Nukupuʻu,CH60 8QB,53.319149340683000,-3.100639312458020
Skunk and Flameback,CH61 4YN,53.359117776254000,-3.113900516817570
Fish eagle and Mockingbird,CH64 8TG,53.265480030980000,-3.019181345710920
Rat and Mockingbird,CH6 5AN,53.249546383359200,-3.136036257717170
Egret and Herring gull,CH64 9PS,53.290749225033300,-3.056282852135040
Treepie and Kākāriki,CH63 8QQ,53.355434295968600,-3.028568680517180
Bronzewing pigeon and Masked owl,CH6 5TE,53.232317709679700,-3.093346494879040
Dolphin and Partridge,CH63 0HL,53.327716829171200,-2.995153999765270
Logrunners and Bronzewing pigeon,CH66 1AD,53.297111000000000,-2.941672000000000
American sparrow and Prion,CH61 4YQ,53.358927785137200,-3.116915807901960
Siskin and White ibis,CH63 3EB,53.346231442294700,-3.004072356260860
Ground sloth and Siskin,CH64 9QX,53.287544738132000,-3.048628309416010
Thicketbird and Grackle,CH6 5DQ,53.247226589998900,-3.133262153136690
Fox and Boto,CH60 7SF,53.330989123358200,-3.104412900758610
Gull and Gull,CH63 7RX,53.350226000000000,-3.004812000000000
Logrunners and Mole,CH6 6BB,53.265889007376800,-3.168570623662680
American sparrow and Parakeet,CH60 9LQ,53.330324325297800,-3.117880131640210
Grackle and Egret,CH65 1AJ,53.312433000000000,-2.945912000000000
Flameback and Maya,CH6 5TD,53.234229268528300,-3.105381111454130
Cloud rat and Mockingbird,CH60 2SQ,53.328703882163500,-3.084052974097970
Petrel and Masked owl,CH5 4WQ,53.219743041508500,-3.076416322961880
Dorcopsis and New World blackbird,CH64 1TH,53.295484751996700,-2.998050317874700
Masked owl and Grouse,CH63 8QG,53.354295000000000,-3.028364183913140
Jackal and Egret,CH64 3RS,53.298001613809700,-3.060543097636470
Parrotbill and Grouse,CH62 9EU,53.306497821676200,-2.981633859166490
Kite and Goose,CH64 0TA,53.275294506704000,-3.064629757340370
Rat and Thicketbird,CH62 4UJ,53.350691440389000,-2.996395252305100
Vulture and Darwin's finches,CH60 1UB,53.332172033392200,-3.078284436206710
Masked owl and Songlark,CH61 6UQ,53.339768313785300,-3.096964899340150
Lemming and Treepie,CH1 6AW,53.221955031328500,-2.949458627556250
Dorcopsis and Tahr,CH60 5SS,53.330751406066500,-3.095096729484730
Nukupuʻu and Cloud rat,CH61 9NR,53.344821513961100,-3.092903747051260
Tree warbler and Armadillo,CH6 5PX,53.237770786052800,-3.128427304099230
Fulmarine petrel and Black jay,CH62 5EZ,53.356186799958800,-2.996208000000000
Tit-tyrant and Scimitar babbler,CH6 5XH,53.236972000000000,-3.126278000000000
Macaw and Herring gull,CH48 1LJ,53.360825000000000,-3.149138000000000
Grouse and Myna,CH63 2NE,53.347228267607100,-3.021130558441990
Parrotbill and Recurvebill,CH66 4PX,53.284961530264100,-2.950375184755860
Tree warbler and Ibex,CH64 4DJ,53.284345828963000,-3.049509955975460
Kākāriki and Viscacha,CH62 8HB,53.314706000000000,-2.971694910614830
Jackal and Quetzal,CH63 4JZ,53.333508122090900,-3.019361111523240
Kestrel and Civet,CH64 6SX,53.298553183064400,-3.081203421797170
Pitohui and Parrotlet,CH61 1BZ,53.346258464432400,-3.082200056183560
Dolphin and Ibex,CH6 5EQ,53.242984776028000,-3.123649265508190
Maya and Solitaire,CH5 4BY,53.223688713749000,-3.074493171681860
Snipe and Thicketbird,CH63 9JP,53.340959457537400,-3.003678000000000
Old World quail and Parrotlet,CH6 5BF,53.231441405536200,-3.099362073538240
Logrunners and Crow,CH61 7UW,53.354012907535400,-3.094370926908360
Ice seal and Crow,CH6 5HA,53.240618228995600,-3.120080856542970
Pheasant and River dolphin,CH61 7UH,53.351040311085100,-3.095045931055720
Tahr and Polecat,CH63 2PB,53.348283176009600,-3.023904842402830
Dolphin and Tree warbler,CH6 5PD,53.251296987169100,-3.132500422885600
Petrel and Lemming,CH61 8TB,53.348267000000000,-3.105400000000000
Old World vulture and Old World warbler,CH64 4DY,53.284012736027200,-3.047521829948010
Dolphin and Mink,CH60 2UE,53.325520165039700,-3.082245602099700
Masked owl and Towhee,CH6 5AL,53.249294896808900,-3.135070382075400
Magpie and Ibex,CH62 6DD,53.323518679496300,-2.986528626823540
Ground sloth and Cuscus,CH64 6QS,53.290798027504300,-3.074961685332090
Bunting and Elephant,CH62 6DA,53.314870000000000,-2.981391000000000
Towhee and Boto,CH63 7PR,53.352334046087100,-3.005373000000000
Black jay and Mouse,CH63 1JX,53.316182659451600,-3.053893673909820
Skunk and Quetzal,CH63 3EP,53.341965240969600,-3.008973759063500
Dorcopsis and Fish eagle,CH6 6BP,53.265896704108200,-3.172364200364810
Civet and Marmoset,CH63 8PG,53.361122803484000,-3.010991000000000
Solitaire and Mockingbird,CH66 1QQ,53.287203884106600,-2.947604827544610
Philippine hawk-owl and Quetzal,CH63 3HF,53.345791580546900,-3.006134962292740
Myna and Prion,CH63 3AW,53.345906278062800,-3.014880105870990
Mockingbird and Thicketbird,CH61 8SY,53.346911278340500,-3.107062729951840
Parakeet and Badger,CH61 6XQ,53.341326589777600,-3.109261139276730
Treepie and Ground sloth,CH62 2BE,53.341368147217800,-2.984687718729840
Shearwater and Marmoset,CH33 9EE,53.290566000000000,-3.062638000000000
Macaw and Old World vulture,CH63 3BQ,53.342607532242300,-3.011677545254710
Mole and Ibex,CH63 2HN,53.350661623671600,-3.011551000000000
Jerboa and Hawk,CH66 1QU,53.299224666142400,-2.961900578676560
Hawaiian honeycreeper and Peafowl,CH61 0HL,53.348985970399900,-3.134052045680810
Shearwater and Pratincole,CH6 5QU,53.222381511186500,-3.147209807418630
Viscacha and Pratincole,CH60 0AS,53.326777000000000,-3.096030000000000
Polecat and Pratincole,CH61 8SR,53.344724583053900,-3.111181934163580
Boto and Eagle,CH63 2LZ,53.349513108687600,-3.027224287086810
Parrotlet and Treepie,CH63 7NY,53.354818068264300,-3.004890219375210
Moluccan boobook and Francolin,CH6 5EE,53.243364719883500,-3.124348558480940
Parrotbill and Skunk,CH60 8QE,53.320217290848000,-3.098880314561200
Peafowl and Puffleg,CH64 1SG,53.294542153788700,-2.998612000000000
Mamo and Vole,CH60 6SD,53.331558000000000,-3.106199000000000
White ibis and Thicketbird,CH62 7DQ,53.328710163234800,-2.981588269865870
Ground sloth and Stint,CH6 5RU,53.259415049496600,-3.156760874111360
Francolin and Hawk,CH64 9TP,53.292911161244900,-3.058811668799780
Condor and American sparrow,CH64 9QL,53.289141428737300,-3.049012453256310
Hawk and Ibex,CH33 9BF,53.290548922400700,-3.062638764536590
Mamo and Duck,CH63 6HR,53.354662000000000,-3.048232000000000
Herring gull and Ice seal,CH62 8AD,53.314879831329800,-2.964594246132390
Maya and B,CH60 3RB,53.317134753920300,-3.086041432213620
Mole and Hawaiian honeycreeper,CH1 6FA,53.228428000000000,-2.956298000000000
American sparrow and Greenbul,CH6 5WB,53.237419000000000,-3.115307000000000
Petrel and Bunting,CH5 4XH,53.218667433275100,-3.070084072411490
Triller and Parakeet,CH60 5SB,53.329744141182800,-3.086301692733990
Old World vulture and Partridge,CH5 2NN,53.232099982717400,-3.006867388024510
Thrasher and Prion,CH48 2JW,53.357175677864400,-3.165010000000000
Black jay and Civet,CH66 4PR,53.285544899869100,-2.952743152469130
Flameback and Bunting,CH64 1TL,53.294508512146000,-2.993316512519900
Buzzard and Egret,CH61 6XW,53.343903553131300,-3.111506060044270
Jerboa and Minke whale,CH63 4JH,53.311487000000000,-3.034941000000000
Petrel and Hawk,CH62 7JJ,53.327331451096400,-2.977622733179780
Elephant and Armadillo,CH61 8TE,53.347100043865800,-3.104153367101770
Fulmarine petrel and B,CH60 3RF,53.318622464909900,-3.087520355161310
Grouse and Booted eagles,CH60 9HL,53.331859495011800,-3.122875756433070
Moluccan boobook and Argus,CH6 5SA,53.236400638814700,-3.128825770740390
Triller and Thrasher,CH6 5HS,53.244570771278900,-3.142589000000000
Fulmarine petrel and Magpie,CH63 8QZ,53.356564853593400,-3.024629270449030
Marmoset and Rat,CH64 3SG,53.297837133950200,-3.068896571408560
Jerboa and Mouse,CH63 3EF,53.342306295969400,-3.004776182265170
Cuscus and Thrasher,CH63 0JY,53.323505757264000,-2.988089730461160
Jay and Rabbit,CH63 2HA,53.349600125415500,-3.019174215421580
Tit-tyrant and Skunk,CH63 9NX,53.336682744477800,-2.998997148619220
Tahr and Greenbul,CH63 7RF,53.348285000000000,-2.999404000000000
Marsh harrier and Gull,CH64 3SD,53.293450087779600,-3.066926639677150
Philippine hawk-owl and Solitaire,CH6 5QD,53.240526975352300,-3.133534652716050
New World blackbird and Hawaiian honeycreeper,CH6 5LQ,53.243921878138200,-3.138569707679540
Booted eagles and Crow,CH62 6AS,53.324501239783300,-2.969750837107380
Badger and Towhee,CH66 4TR,53.280542788551100,-2.949887162388630
Solitaire and Jay,CH6 6BU,53.264459247416000,-3.171365316721610
Scimitar babbler and Mole,CH64 8TD,53.285568868294000,-3.022554503913980
Pratincole and New World blackbird,CH64 7TX,53.302817116289600,-3.043525243728880
Moluccan boobook and Magpie,CH63 7RU,53.355360541427200,-3.011827000000000
Skunk and Nukupuʻu,CH6 5SL,53.222850571546700,-3.137666088698610
Magpie and Dorcopsis,CH63 9AA,53.338725256992700,-3.009437937984630
Greenbul and Cuscus,CH60 5TY,53.330576337210300,-3.087704321764600
Perching duck and Francolin,CH6 5GG,53.240616000000000,-3.124006000000000
Nukupuʻu and Badger,CH33 9EW,53.290566000000000,-3.062638000000000
Kangaroo and Guillemot,CH32 9GJ,53.361980000000000,-2.997605000000000
Maya and Kite,CH60 3SL,53.317491928458500,-3.078379627908170
Kākāriki and Polecat,CH64 7TH,53.292188276571700,-3.039830531786860
Buzzard and Treepie,CH60 5RJ,53.328198095021900,-3.094160436758720
Lemming and Mamo,CH61 9NQ,53.345279203201400,-3.093966944136840
Asiatic leopard and American sparrow,CH62 7AU,53.331140280785300,-2.989917975837410
Cuscus and Philippine hawk-owl,CH63 3DA,53.346549525118500,-3.007925361361090
Darwin's finches and Triller,CH64 3SH,53.298938248630000,-3.069404232229750
Snipe and Greenbul,CH8 8DF,53.227753000000000,-3.170887000000000
Prion and Diving bird,CH62 9DG,53.310468000000000,-2.964555000000000
Greenbul and Old World vulture,CH48 1QT,53.352399711299200,-3.160449452532030
Snipe and Jerboa,CH62 6AE,53.324811492243000,-2.974697453002800
Moluccan boobook and Towhee,CH5 4EY,53.219512092478000,-3.057030050303120
Petrel and Treepie,CH63 2JG,53.353503189072800,-3.024210266226640
Pitohui and Argus,CH60 5SJ,53.332952878739900,-3.093230963005830
Chipmunk and Eagle,CH6 5WH,53.236593000000000,-3.114282000000000
White ibis and Mockingbird,CH6 5WQ,53.236719147289500,-3.114735306684080
Ibex and Boto,CH6 9EH,53.246462000000000,-3.141769000000000
Kite and Stint,CH63 6HA,53.338701782840800,-3.023795408495680
Jackal and Warbler,CH62 0BP,53.317439692632500,-2.960388767690950
Rat and Pratincole,CH62 9AW,53.310509043748900,-2.970394181296460
Triller and Parrotbill,CH63 2HF,53.349367637385200,-3.014812113321750
Partridge and Grackle,CH61 6XX,53.341647286705600,-3.106671001676100
Grouse and Hawk,CH6 6EX,53.266891154270900,-3.170877027188360
Fox and Skunk,CH60 0EE,53.325220870974700,-3.093378575338110
Tree warbler and Bronzewing pigeon,CH62 2AG,53.339596710366600,-2.983670655601340
Parrotlet and Grouse,CH64 3SF,53.294592000000000,-3.067999041751380
Myna and Songlark,CH61 1BG,53.352840465446900,-3.084950932391340
Vulture and Ice seal,CH63 0LU,53.323779041609000,-3.014429887726670
Jackal and Mamo,CH66 3SW,53.283438219529500,-2.941836728336560
Tit-tyrant and Zebra,CH63 2NW,53.349192870041800,-3.018443416731990
Peafowl and Triller,CH64 4BA,53.277958397526200,-3.048048636735610
Tattler and Towhee,CH6 6BJ,53.266159382062600,-3.170332252851620
Vole and Kākāriki,CH6 5QB,53.237806679963600,-3.127484277781250
Prion and Shearwater,CH62 5DB,53.357233905941600,-3.000875195137800
Lemming and Duck,CH63 0JL,53.325496000000000,-2.992042529725560
Snipe and Philippine hawk-owl,CH48 2HQ,53.362550385758300,-3.173122970514030
American sparrow and Mole,CH6 5PA,53.238783104223100,-3.129742561998030
Coati and Buzzard,CH66 4PF,53.283473064971000,-2.946517303474590
Pheasant and Wader,CH63 0PF,53.311332205244700,-2.984026193296030
Armadillo and Moluccan boobook,CH61 8RA,53.348582000000000,-3.096620000000000
Logrunners and Mouse,CH6 5NR,53.249025420254200,-3.133159823876160
Kākāriki and Ibex,CH60 4RN,53.326592902735400,-3.105788000000000
Triller and Flameback,CH42 4NL,53.361858465637400,-3.007850926499610
Goose and Grouse,CH61 8TF,53.347177497838700,-3.103554490762640
Grosbeak and Booted eagles,CH60 5RX,53.328941818227100,-3.089374000000000
Elephant and Guillemot,CH63 5RD,53.359798451702400,-3.027005882121390
Kangaroo and B,CH64 9UT,53.286919869265600,-3.063358731992650
Old World quail and Piping shrike,CH6 5SF,53.238324419869500,-3.110641080132130
Wader and Partridge,CH63 7QN,53.354288807916500,-3.007957752425850
Condor and Myna,CH6 5FQ,53.237363000000000,-3.118152000000000
Egret and Pheasant,CH1 6AU,53.220739622533100,-2.958672837887760
Lemming and Mouse,CH62 4RL,53.356973009518100,-2.993371479365060
Mamo and Herring gull,CH64 1RP,53.298317000000000,-3.011981000000000
Goose and Petrel,CH6 5YP,53.242573042880100,-3.148918743079750
Darwin's finches and Duck,CH32 9AX,53.361944194070700,-2.997649610733870
Siskin and Black jay,CH64 5ST,53.253013000000000,-3.007598000000000
Viscacha and Linsang,CH63 9FR,53.337927058554300,-2.994235316759160
Triller and Old World vulture,CH64 9SE,53.283441562337700,-3.063302352143330
Parrotlet and Diving bird,CH1 6FB,53.226926033610400,-2.956204594427980
Bronzewing pigeon and Duck,CH62 8BQ,53.319405016900400,-2.974093836691070
Nukupuʻu and Kite,CH62 3NB,53.342352565871600,-2.981946707646880
Shearwater and Cloud rat,CH61 1AZ,53.353980000000000,-3.082381000000000
Armadillo and Macaw,CH6 6DF,53.261685527939400,-3.165457584875930
Zebra and Jerboa,CH60 1UT,53.331075441011500,-3.077159000000000
Marsh harrier and Parakeet,CH63 1JH,53.323113750489400,-3.046692909881910
Scimitar babbler and Mamo,CH63 9LZ,53.333581627128800,-2.998984733419380
Old World vulture and Capuchin,CH64 1SX,53.294928971561100,-3.001083062814640
Crow and Coati,CH63 0PE,53.313524874180300,-2.984106656408480
Jerboa and Booted eagles,CH62 8HQ,53.317493953413900,-2.964803319278800
Ground sloth and Tahr,CH62 4SB,53.357408905985300,-2.990677047000340
Coati and Darwin's finches,CH60 5RZ,53.327435945522300,-3.092745000000000
Francolin and Rabbit,CH66 5PF,53.288045081908800,-2.960434300660360
Parrotbill and Bunting,CH6 5RN,53.241785280438800,-3.146709816817460
Songlark and Buzzard,CH64 4HS,53.275502218453700,-3.047268693948560
Perching duck and Guillemot,CH61 3XY,53.355167652301000,-3.110461987926150
Chickadee and Jackal,CH1 6EN,53.223826935932600,-2.958380000000000
Peafowl and Pheasant,CH64 0TX,53.278919889327300,-3.057250900781030
Fulmarine petrel and Linsang,CH63 9JB,53.339344000000000,-3.000236695125750
Ice seal and Kangaroo,CH61 5UY,53.343951129573100,-3.104447509159390
Tree warbler and Kestrel,CH6 5RS,53.259454384103300,-3.154558219300450
Cloud rat and Old World warbler,CH64 0UB,53.278615529003000,-3.058954000000000
Ground sloth and Ice seal,CH6 6EY,53.267736000000000,-3.177378000000000
Fulmarine petrel and Treepie,CH60 2TR,53.324393199345300,-3.088537937842260
Linsang and Gull,CH62 6BY,53.314169608116100,-2.981268000000000
Towhee and Warbler,CH66 5PQ,53.292479000000000,-2.960008000000000
Piping shrike and Moluccan boobook,CH60 7SP,53.330785138064600,-3.102170217656020
Jackal and Guillemot,CH64 2XE,53.292339000000000,-3.002383285529940
Rat and Thrasher,CH60 1UA,53.333868520988800,-3.077561355527650
Moluccan boobook and Mole,CH66 4JX,53.281608679447200,-2.962689739626960
Quetzal and Tree warbler,CH63 5JL,53.361438998409500,-3.014918668419180
Black jay and Tree warbler,CH5 4UR,53.222338025275300,-3.066745591885670
Quetzal and Fulmarine petrel,CH63 2HE,53.349667861021100,-3.011213796554760
Grosbeak and Magpie,CH66 1PL,53.286184779513800,-2.944627205623180
Parakeet and Mamo,CH61 6UY,53.337297377036400,-3.102698605414800
Minke whale and Mole,CH63 0PY,53.316558377315200,-2.986863432117870
Skunk and River dolphin,CH1 6AZ,53.223263310070500,-2.955598738317110
Perching duck and Towhee,CH64 1SE,53.293518938406500,-3.004140699506140
Chickadee and Thrasher,CH64 3TS,53.302230000000000,-3.061233000000000
Greenbul and Towhee,CH63 0NY,53.310124182945200,-2.984448668482640
Dolphin and Shearwater,CH66 4AF,53.280807000000000,-2.952682000000000
Triller and Ibex,CH60 5RN,53.326340765555500,-3.092806630764030
Bronzewing pigeon and Meadowlark,CH62 9BU,53.306196431684800,-2.970131283164370
Ice seal and Mouse,CH64 4BE,53.276581705496400,-3.046155308388690
Badger and Guillemot,CH66 4AD,53.280638000000000,-2.947055000000000
Jerboa and Viscacha,CH63 7NN,53.355011063318200,-3.002250435837330
Coati and Mink,CH64 9RY,53.284542922232900,-3.055694746601230
Asiatic leopard and B,CH66 5NU,53.298534709347100,-2.957158595795200
Egret and Cloud rat,CH64 9RA,53.283925168994900,-3.058454459173820
Mink and Philippine hawk-owl,CH63 3HN,53.344460708097200,-3.005127264914210
Fish eagle and Ground sloth,CH62 8DJ,53.312193838481900,-2.969922079441160
Towhee and Macaw,CH62 6HB,53.319810819757100,-2.984881819572670
Fox and Kangaroo,CH64 9SP,53.292927061098200,-3.060057298569500
Bunting and Linsang,CH63 2HQ,53.350058474280000,-3.020236750797900
Scimitar babbler and Fish eagle,CH63 5NU,53.360121884776300,-3.030154179265340
Herring gull and Jay,CH62 0BX,53.318040587457300,-2.957204807195050
Linsang and Prion,CH63 8PY,53.354464258169700,-3.025345119586940
Zebra and Grosbeak,CH64 3TT,53.293626153657800,-3.068011656200630
River dolphin and Cuscus,CH6 5HH,53.245033702397400,-3.141686386845370
Asiatic leopard and Black cockatoo,CH64 4AU,53.279360029400800,-3.049147800754360
Jackal and White ibis,CH63 3JH,53.344529650594900,-3.002274918532730
Logrunners and Masked owl,CH5 4WH,53.219457954492600,-3.075136112774160
Kestrel and Francolin,CH62 7AX,53.329287874999500,-2.988914086813930
Bronzewing pigeon and Lemming,CH48 2LA,53.358478711390700,-3.162057139582430
Tahr and Kākāriki,CH63 5QY,53.359982063780600,-3.028648170630320
Snipe and Jay,CH63 0PR,53.313142883474000,-2.985733940232930
Songlark and Bunting,CH60 9JG,53.325302810794600,-3.111575000000000
Mamo and Kākāriki,CH60 9JJ,53.320495810199300,-3.113434666313010
Nukupuʻu and Moluccan boobook,CH62 6BU,53.315137078424700,-2.983723456092130
Flameback and Badger,CH60 5SN,53.329623179389800,-3.091674262730740
Rabbit and Fox,CH62 8DG,53.313237391432700,-2.968714934769750
Rat and Mamo,CH66 4PY,53.284163462710900,-2.952382422449830
Partridge and American sparrow,CH63 2NR,53.348832099321400,-3.018585039738970
Tree warbler and Jackal,CH63 9AT,53.339886446196200,-3.006055996163990
Songlark and Booted eagles,CH48 1PD,53.354272000000000,-3.140717085504820
Philippine hawk-owl and Kite,CH62 8DB,53.314164031679600,-2.969726593140640
Ibex and Magpie,CH63 0LQ,53.319897322094400,-2.987465912029720
Grosbeak and Kākāriki,CH62 4TG,53.347337000000000,-2.984765000000000
Old World quail and Asiatic leopard,CH60 3SB,53.317017430070100,-3.076176010424150
Old World warbler and Mamo,CH63 0QE,53.321747363987400,-2.998468028842570
Dorcopsis and Old World quail,CH64 4DA,53.283571079424300,-3.049700960773270
Parrotlet and Jay,CH66 2HD,53.267598379000600,-2.943107825750650
Thrasher and Guillemot,CH63 9JQ,53.342069000000000,-3.001087716832550
Peafowl and Condor,CH63 8PB,53.362399561455600,-3.014009815698620
Polecat and Buzzard,CH62 6AY,53.324103779783800,-2.973300061818480
Tit-tyrant and Recurvebill,CH61 9PW,53.350427062257600,-3.093302555289790
Triller and White ibis,CH48 1ND,53.354820070898900,-3.162062762704280
Black jay and Old World quail,CH6 5US,53.237571000000000,-3.129681000000000
B and Grosbeak,CH60 4SE,53.324906000000000,-3.108114000000000
Kestrel and Songlark,CH63 2LP,53.353302596128400,-3.027676000032930
Jay and Jay,CH60 9HE,53.335238400581300,-3.121072286309900
Ground sloth and Civet,CH63 2JS,53.351515040574700,-3.025439579437630
Partridge and Puffleg,CH66 8PQ,53.269116391283400,-2.990898372124280
Marsh harrier and Darwin's finches,CH63 0HQ,53.325358299255700,-2.994483522287990
Chipmunk and Solitaire,CH5 4UW,53.221452294081300,-3.065270723443930
Prion and Recurvebill,CH60 8PA,53.312356000000000,-3.103406000000000
Kangaroo and Armadillo,CH64 5TT,53.262690000000000,-3.017631000000000
Booted eagles and Perching duck,CH63 9YH,53.340835663136700,-3.007550264545770
Vulture and Stint,CH64 9PB,53.288989029068700,-3.062165002901450
Minke whale and Towhee,CH62 3QA,53.329639000000000,-2.969315442763260
Macaw and Meadowlark,CH63 3ED,53.344689000000000,-3.003751000000000
Tahr and Linsang,CH64 7TP,53.315018274822600,-3.054435385144880
Marmoset and Diving bird,CH63 2JB,53.353608235325100,-3.023491628228170
Herring gull and Scimitar babbler,CH64 2TJ,53.291945741450700,-3.014770529350840
Parrotlet and Jerboa,CH63 9ND,53.335482470726000,-2.998488526274310
Meadowlark and Partridge,CH66 7NU,53.293243000000000,-2.970243000000000
Ibex and Hawk,CH65 1AP,53.306365555234600,-2.947984153619110
Prion and Capuchin,CH62 8JF,53.314171323264900,-2.972143397693970
Rat and Bunting,CH63 9JX,53.337656561940400,-3.002924714049510
Piping shrike and Nukupuʻu,CH5 2LR,53.224539000000000,-2.999605000000000
Condor and Vulture,CH6 6HR,53.271921359647300,-3.175543623093030
Snipe and Lemming,CH63 2JW,53.349728639158100,-3.020964987127780
Warbler and Jackal,CH63 2PR,53.352485970029800,-3.012797907118080
Jay and Greenbul,CH5 4AX,53.222008385241700,-3.063397291692790
Capuchin and Tree warbler,CH48 2JF,53.360827116223700,-3.160903875942450
Mole and Rabbit,CH63 3HR,53.344607010771300,-3.008029743720520
Asiatic leopard and Scimitar babbler,CH60 9JN,53.325805241968400,-3.111846271056900
