name,postcode,lat,lon
Pitohui and Triller,SY16 3GB,52.522460744893700,-3.318504029726560
Solitaire and Meadowlark,SY15 6BE,52.586587365795200,-3.096877778432110
Old World quail and Solitaire,SY16 3DR,52.561264000000000,-3.299224127321700
Nukupuʻu and Songlark,SY21 9AZ,52.632047000000000,-3.274262000000000
Old World quail and Wader,SY21 9NU,52.694370569540500,-3.164684441925810
Hawaiian honeycreeper and Snipe,SY21 0BY,52.638415128993000,-3.331150955763790
Jerboa and Fulmarine petrel,SY21 7HB,52.663362166573200,-3.137998227740700
Thrasher and Darwin's finches,SY21 7TT,52.660685691930500,-3.139599453724610
Ground sloth and Condor,SY9 5HY,52.503389000000000,-2.946375000000000
Black cockatoo and Jay,SY21 7DA,52.657971981122200,-3.144126867348220
Black jay and Jackal,SY17 5NG,52.555110806765000,-3.533171744463000
Stint and Dorcopsis,SY5 0JE,52.593177686376200,-2.996124913400970
Grouse and Treepie,SY21 9LD,52.724267995395400,-3.076624347529330
Skunk and Polecat,SY9 5DY,52.531833295279800,-2.921202879100670
Puffleg and Old World warbler,SY22 6DL,52.723021523952100,-3.263068375758000
Viscacha and Chipmunk,SY21 8SD,52.637501444278700,-3.164414344423410
Goose and Fox,SY16 2HP,52.518207136945500,-3.316401318891260
Rabbit and Dolphin,SY22 5AP,52.765519212540000,-3.272197847250670
Macaw and Thicketbird,SY5 0LJ,52.632002900742200,-2.928390000000000
Magpie and Puffleg,SY16 2PR,52.519221321966100,-3.310890075535540
Prion and Masked owl,SY22 6LQ,52.780259328900800,-3.069466299063200
Grouse and Recurvebill,SY22 6LB,52.781864260167500,-3.106201216697430
Goose and Thrasher,SY9 5LU,52.497521527956200,-3.076216517121040
Shearwater and Chipmunk,SY5 0FJ,52.651252000000000,-2.887597000000000
Marmoset and Snipe,SY5 0SS,52.556935355889300,-2.888068499357490
Peafowl and Ibex,SY10 8HN,52.793436683973900,-2.994228912198050
Towhee and Crow,SY15 6AU,52.544358153808800,-2.999664058881780
Boto and Magpie,SY16 1HW,52.505749907670800,-3.330541713840820
Cuscus and Siskin,SY21 7QL,52.665358314991600,-3.143565680580720
Kite and White ibis,SY16 3HW,52.523236370812100,-3.380623000000000
Hawk and Dolphin,SY10 9QB,52.801323552651200,-3.074344084183470
Rat and Fulmarine petrel,SY5 9HS,52.635390088996100,-2.998871717436770
Armadillo and Boto,SY4 2LE,52.764062000000000,-2.894516000000000
Parakeet and Perching duck,SY15 6LG,52.550493832225600,-3.189584000000000
Fulmarine petrel and Night heron,SY21 9LL,52.717109442948200,-3.121498220284780
Black jay and Lemming,SY22 6XL,52.775166569530100,-3.199631993566810
Kākāriki and Fulmarine petrel,SY16 2NA,52.516301289651300,-3.316388551779590
Old World quail and Chipmunk,SY17 5JU,52.578678579386600,-3.557032194752410
Pratincole and Philippine hawk-owl,SY22 6NS,52.759180668502800,-3.075129156765550
Condor and Old World quail,SY16 3BF,52.598902000000000,-3.388475893531550
Warbler and Stint,SY5 0LY,52.608169978943200,-2.932491948467050
Magpie and Mockingbird,SY5 0QB,52.649686228340100,-2.883191919618740
Kite and Armadillo,SY17 5JY,52.581562625277400,-3.525416259549960
Magpie and B,SY21 0LF,52.700367000000000,-3.359793000000000
Dorcopsis and White ibis,SY10 8EN,52.764143431285900,-2.966469808851310
Hawaiian honeycreeper and Warbler,SY22 5DR,52.764599000000000,-3.270926000000000
Egret and Pitohui,SY21 9DR,52.720216898806700,-3.164706794200010
Argus and Wader,SY22 6BB,52.776740694797100,-3.147758610214750
Greenbul and Prion,SY16 3PT,52.585485050968800,-3.355244203323800
Kite and Duck,SY21 7DF,52.654234252660400,-3.140849000000000
Eagle and Thicketbird,SY22 5LJ,52.754765210952700,-3.219311904055540
Vole and Dorcopsis,SY5 0HS,52.631392436820500,-2.930060197023710
Viscacha and Viscacha,SY16 2JX,52.517424597136900,-3.309141757592390
Coati and Greenbul,SY21 7UU,52.654278742470300,-3.147667125382430
Flameback and Egret,SY5 9BF,52.728119882626300,-2.979740531134560
Mockingbird and Night heron,SY22 6JR,52.708783120543100,-3.339849494855970
Old World warbler and Prion,SY21 7HP,52.664657134406500,-3.137957941569710
Solitaire and Marmoset,SY21 7PL,52.662911510873200,-3.148248000000000
Puffleg and Warbler,SY15 6JW,52.542951955601300,-3.215260967400510
Peafowl and Treepie,SY16 1BZ,52.513153734358900,-3.309987376376490
Boto and Recurvebill,SY21 0SF,52.650656410908900,-3.324249863844980
Capuchin and Herring gull,SY21 9BD,52.660420891008700,-3.226442482566890
Meadowlark and Guillemot,SY5 9EQ,52.677828427986900,-2.953484517488280
Flameback and Masked owl,SY5 0BN,52.641624314051000,-2.921853360090660
Treepie and Diving bird,SY22 6LA,52.780228888030800,-3.098673000000000
Siskin and Grosbeak,SY22 6XN,52.775345274482200,-3.198851213618270
Black jay and Tit-tyrant,SY17 5EX,52.517286635109100,-3.429057908136080
Cuscus and Gull,SY16 4EF,52.511923878843600,-3.280803000000000
Kite and Wader,SY21 9JU,52.701238233666400,-3.098862859080510
Grackle and Parakeet,SY10 9QL,52.794501000000000,-3.074413000000000
Grackle and Dolphin,SY5 0PS,52.648835900580600,-2.887505675222120
Cuscus and Puffleg,SY10 9LL,52.790820356247500,-3.231012305092840
Warbler and Crow,SY10 8EJ,52.772987401137200,-2.980955421400250
Marmoset and Tit-tyrant,SY21 7BE,52.659388428232200,-3.134257864615840
Puffleg and Hawaiian honeycreeper,SY22 6AP,52.775224000000000,-3.157820734731860
Parrotlet and Magpie,SY5 9RG,52.680378248541600,-2.979248459365230
Siskin and Hawk,SY5 9QZ,52.677691680813800,-2.955951639793390
Puffleg and Pheasant,SY4 1BE,52.764100468969300,-2.924497827770510
Old World warbler and Old World quail,SY21 7NY,52.664812710718900,-3.146996784504200
Snipe and Ice seal,SY4 1LL,52.795091233281700,-2.887633148038530
Kangaroo and Mink,SY16 1QD,52.511711317422600,-3.326477929225990
Booted eagles and Capuchin,SY21 7UL,52.669792562600500,-3.139614619949040
American sparrow and Greenbul,SY16 2RA,52.520383169975700,-3.313135459525410
Thicketbird and Gull,SY5 9BE,52.736873000000000,-3.051637000000000
Myna and Masked owl,SY16 2NJ,52.520053521572300,-3.315071559253310
Thrasher and Rabbit,SY21 8EZ,52.704869765042100,-3.036154000000000
White ibis and Peafowl,SY22 5LX,52.755099570620200,-3.236509651034520
Maya and Jerboa,SY5 0PQ,52.594998150726000,-2.944007926110100
Black cockatoo and Darwin's finches,SY21 8BY,52.704354242885100,-3.033287587831620
Chipmunk and Coati,SY17 5EN,52.516589460850500,-3.427974179814450
Thicketbird and Mouse,SY21 0PN,52.689810359780400,-3.466911383369250
Thrasher and Chicken,SY21 7UD,52.653508470730100,-3.148297405090550
Nukupuʻu and Jackal,SY16 3NR,52.600522225558000,-3.343748304161450
Jerboa and Ibex,SY22 6FA,52.779493000347900,-3.091419155042180
Treepie and Chickadee,SY16 2JP,52.521494414361000,-3.302070167256300
Peafowl and Dolphin,SY21 0EZ,52.663118929845600,-3.403735305137300
Maya and Myna,SY22 6XA,52.776983000000000,-3.207687000000000
Songlark and Dorcopsis,SY5 0DG,52.638863578843700,-2.924263209881570
Maya and Fish eagle,SY5 0NB,52.589649509181000,-2.952926893225190
Jackal and Scimitar babbler,SY21 8FB,52.600032000000000,-3.197351000000000
Kākāriki and B,SY21 0JD,52.665320806063900,-3.455946671391650
Piping shrike and Warbler,SY21 9AD,52.653410002093900,-3.179368876495270
Chipmunk and Diving bird,SY17 5QF,52.509256723653300,-3.514437925788150
Ibex and Argus,SY21 0AQ,52.607262554290300,-3.408180087433740
Kestrel and Parrotbill,SY16 2LP,52.514903207427800,-3.314372029408520
Mockingbird and Shearwater,SY5 9HW,52.635565116351800,-2.995166713777510
Thrasher and Eagle,SY21 0AX,52.611632504940600,-3.419426905508910
Herring gull and Black jay,SY21 0BB,52.645389425683700,-3.331347998291200
Old World quail and Viscacha,SY4 1DF,52.771140118825600,-2.917472839701770
Parakeet and Argus,SY10 8GZ,52.795258807097200,-2.990266123641720
Marsh harrier and Francolin,SY22 6NP,52.760121832630300,-3.076426782426550
Philippine hawk-owl and Parrotbill,SY21 7RH,52.665679587867600,-3.149385441514410
Thrasher and Polecat,SY15 6QU,52.565639208351700,-3.146310276360640
Solitaire and Siskin,SY21 9DL,52.717494016237500,-3.200639459614290
Jay and Duck,SY22 6PT,52.734067053725200,-3.100132750779970
Grouse and B,SY21 8NU,52.593206069039900,-3.132016054274750
Recurvebill and Peafowl,SY16 2AQ,52.515343433056200,-3.314399906721880
Bronzewing pigeon and Macaw,SY21 0AD,52.620612000000000,-3.406097000000000
Lemming and Jerboa,SY21 7PX,52.664255001270400,-3.147842000000000
New World blackbird and Old World vulture,SY5 0HJ,52.596653322120400,-3.000810062203640
Condor and Parrotlet,SY19 7DS,52.611630000000000,-3.660969000000000
Coati and Booted eagles,SY16 2PZ,52.513518168918300,-3.318607000000000
Bunting and Chipmunk,SY16 3HF,52.510533889278500,-3.338422290233470
Rat and Rat,SY22 5BX,52.765943209851700,-3.273736807330520
Argus and Chickadee,SY10 8NT,52.793171822924300,-3.081039270333490
Tit-tyrant and Herring gull,SY21 9FB,52.693213205494100,-3.170248000000000
Old World vulture and Philippine hawk-owl,SY21 8ED,52.702592340391600,-3.070748041506290
Masked owl and Treepie,SY22 6QQ,52.744957714001600,-3.149026661741430
Francolin and Kestrel,SY22 6EX,52.780840645239500,-3.090370000000000
Petrel and Myna,SY22 6RR,52.748918000000000,-3.074773000000000
Quetzal and Parrotlet,SY22 5BH,52.761553000000000,-3.266599000000000
Grosbeak and Viscacha,SY17 5JX,52.584627669045600,-3.565420437681340
Flameback and Argus,SY10 9RD,52.787448159163300,-3.085466000000000
Argus and Grosbeak,SY21 8LT,52.615886307272500,-3.122793610263670
Argus and Bronzewing pigeon,SY5 9DP,52.714384000000000,-2.971054000000000
Darwin's finches and Asiatic leopard,SY21 8NF,52.602714016118400,-3.144561299463950
Tree warbler and Myna,SY21 8TD,52.689866000000000,-3.059458000000000
Siskin and Maya,SY5 9HN,52.636805137926300,-2.995239193546350
Mockingbird and Booted eagles,SY10 8LJ,52.804990256218000,-3.068500754152110
Chicken and Pitohui,SY21 8DA,52.700582091381200,-3.036986980035430
Peafowl and Masked owl,SY9 5DS,52.513749860870400,-2.964590143580280
Civet and Crow,SY21 8EE,52.697834108296700,-3.074996968909040
Grackle and Fish eagle,SY17 5NL,52.542522023529200,-3.477478441080440
Tree warbler and Scimitar babbler,SY21 9HB,52.649609000000000,-3.292230000000000
Chickadee and Tit-tyrant,SY10 0HT,52.782879000000000,-3.435822000000000
Goose and Tattler,SY16 4EP,52.523367666225600,-3.161879440308810
Stint and Gull,SY21 8JF,52.668544779232000,-3.107938000000000
Solitaire and Grosbeak,SY16 1AR,52.512629016621300,-3.315144104263350
Viscacha and Kangaroo,SY5 0NL,52.570948589487400,-2.943004304018300
Asiatic leopard and Parrotlet,SY21 8SS,52.672385000000000,-3.110000000000000
Tattler and Kestrel,SY4 2LB,52.764177382566600,-2.889760762949060
Goose and Tattler,SY21 8LA,52.625594107597000,-3.085354583309560
Solitaire and Coati,SY15 6LB,52.553288000000000,-3.217420000000000
Eagle and Ibex,SY15 6HY,52.537641743224700,-3.116387353166610
Solitaire and Crow,SY21 7ND,52.661486890006300,-3.154346946688460
Chipmunk and Jay,SY22 5DG,52.767108457933800,-3.273059000000000
Puffleg and Darwin's finches,SY21 8DN,52.701879983144400,-3.015839974991310
Petrel and Pheasant,SY21 9LA,52.712282547031800,-3.091561342429260
Towhee and Capuchin,SY17 5PJ,52.504539437701100,-3.517723407562460
Mamo and Black cockatoo,SY5 0EG,52.613636670979400,-2.980269063072130
Diving bird and Argus,SY21 7DZ,52.660610570851200,-3.143663508520830
Goose and Kestrel,SY15 6RA,52.560842545550700,-3.148663520492440
Partridge and Fulmarine petrel,SY5 0HL,52.639638000000000,-2.929969000000000
Buzzard and Mink,SY16 1LF,52.504994251035300,-3.329782215190170
Goose and Kite,SY10 8QR,52.787055784354500,-3.043209118906580
Cloud rat and Logrunners,SY21 8LQ,52.616179905863100,-3.121220682031530
Asiatic leopard and Maya,SY22 6TY,52.736627086333800,-3.096479626936230
American sparrow and Viscacha,SY15 6BX,52.599014631495300,-3.033611726142200
Songlark and Ground sloth,SY16 1ES,52.509801834622900,-3.321970425983450
Capuchin and Mockingbird,SY5 0YU,52.649094516573400,-2.889758044282430
Dorcopsis and Hawk,SY16 3BZ,52.597926637061100,-3.381023534670220
Diving bird and Macaw,SY21 8RY,52.621416225138400,-3.141503884729060
Tahr and Philippine hawk-owl,SY22 6UD,52.776942832371000,-3.182098446056140
Francolin and Mink,SY22 6AA,52.774763873403200,-3.151251000000000
Bronzewing pigeon and Cuscus,SY5 0EU,52.613822000000000,-2.984025000000000
Kestrel and Thicketbird,SY10 8NG,52.795157647471200,-3.131276738597320
Tree warbler and Jackal,SY5 0WT,52.649144000000000,-2.889744000000000
Snipe and Meadowlark,SY9 5HS,52.511857759450900,-2.936006486462880
Linsang and Jackal,SY5 0JP,52.565961915761300,-2.998561965606600
Treepie and Badger,SY21 8LL,52.637475083926400,-3.128119635457290
Meadowlark and Grackle,SY22 6TZ,52.778786092318500,-3.155610663686840
Hawk and Grackle,SY21 0PT,52.684121050831600,-3.492698865129260
Fish eagle and Scimitar babbler,SY16 1NQ,52.511204366870700,-3.308102000000000
Goose and Hawaiian honeycreeper,SY16 1NJ,52.511849027891200,-3.308460256971750
Parrotlet and Puffleg,SY16 1EL,52.510998660936600,-3.319457114960040
Ibex and Chicken,SY16 4DD,52.501553000000000,-3.259892000000000
Eagle and Mockingbird,SY21 8BJ,52.617108403876800,-3.292971080193950
Flameback and Chicken,SY16 2HL,52.518957464198100,-3.317647017579310
Herring gull and Eagle,SY21 0HD,52.654778750985800,-3.381307002478850
Goose and Capuchin,SY16 3BA,52.524721806821700,-3.277343445594650
Maya and Tree warbler,SY22 5LZ,52.743352094164000,-3.271122392774410
Prion and Magpie,SY21 7PS,52.664590570590300,-3.150436300774020
Pheasant and Nukupuʻu,SY21 7LQ,52.661035640178300,-3.152679061977010
Parakeet and Rabbit,SY21 8RS,52.633281616444200,-3.143541591277320
Recurvebill and Old World warbler,SY15 6RE,52.560887935168100,-3.142114848136470
Dolphin and Perching duck,SY22 6DJ,52.719756612595800,-3.254742081371710
Zebra and Siskin,SY15 6NU,52.541215184277100,-3.237109979730570
Capuchin and Nukupuʻu,SY10 8BJ,52.804000636945300,-3.051476743643100
Magpie and White ibis,SY15 6BN,52.579815495499700,-3.089329580997600
Vole and Hawk,SY15 6EP,52.578782314416700,-3.090898222164730
Mamo and Crow,SY21 7ED,52.661009176709300,-3.143348632277180
Cloud rat and Mamo,SY5 9JN,52.642523000000000,-3.048500000000000
Rat and Herring gull,SY5 9AN,52.725756622961700,-2.966464622014390
Pratincole and Skunk,SY21 8RQ,52.642296252225700,-3.166847294478940
Old World vulture and Quetzal,SY10 8LY,52.806585174644600,-3.098610194484880
Petrel and Darwin's finches,SY15 6SP,52.533024697798800,-3.103503175630100
Black jay and American sparrow,SY16 2BQ,52.516352127128000,-3.315859530512440
Badger and Wader,SY17 5QQ,52.521197705129400,-3.533184264373760
Nukupuʻu and Guillemot,SY16 4EA,52.499534736503000,-3.261866817056880
Vulture and Chicken,SY5 0PE,52.594821203602400,-2.941391056212920
American sparrow and Mamo,SY22 6JX,52.781525993192300,-3.086384586183610
White ibis and Partridge,SY21 8JN,52.607092417281200,-3.064547546213160
Grosbeak and Condor,SY5 0BB,52.639177937188100,-2.925452077407260
Towhee and Stilt,SY17 5EG,52.516787446647000,-3.430191237626870
Moluccan boobook and Moluccan boobook,SY21 8TP,52.611774000000000,-3.120147000000000
Vulture and Chipmunk,SY16 2EH,52.515669951300200,-3.323016078218480
Perching duck and Ibex,SY21 7JP,52.660542011888200,-3.150551000000000
Pheasant and Stint,SY15 6PP,52.559255549572600,-3.147294431059220
Wallaby and Meadowlark,SY21 7AB,52.659309292931200,-3.146216918479760
Mink and Pheasant,SY5 9BW,52.723587622824900,-3.014108683111420
Guillemot and Argus,SY5 9HJ,52.647510195797800,-2.979312014683100
Chipmunk and Peafowl,SY5 9RN,52.675525242010800,-3.028924217240870
Siskin and Rat,SY16 4HW,52.505729544048100,-3.182645109648350
Buzzard and Coati,SY21 0NJ,52.691521000000000,-3.496325000000000
Marmoset and Mouse,SY16 2EF,52.516654622268200,-3.323399361289860
Zebra and Siskin,SY22 5BQ,52.763373428868000,-3.267733612773910
Chicken and Bunting,SY10 8HH,52.795100485637500,-2.989847262576650
Greenbul and Kangaroo,SY21 7NZ,52.661828631733800,-3.158939588196840
Triller and Parrotbill,SY17 5ND,52.546317573591800,-3.463610519830120
Quetzal and Buzzard,SY21 9QE,52.658256299320500,-3.172062621504000
Elephant and Puffleg,SY22 5DF,52.764264970299800,-3.277644968126270
River dolphin and Jackal,SY15 6JY,52.561746000000000,-3.216695000000000
Duck and Quetzal,SY21 7JN,52.659685204714700,-3.150100473245140
Moluccan boobook and Greenbul,SY9 5EP,52.532265690344200,-2.912971117141200
Polecat and Cloud rat,SY10 8DJ,52.777776826822500,-3.000587629937090
Linsang and Maya,SY22 6ST,52.759606000000000,-3.077911000000000
Mink and Prion,SY16 1PU,52.509878643996900,-3.330357004719330
Old World vulture and Shearwater,SY16 4DZ,52.499901586835000,-3.260345230452620
Parrotbill and Old World vulture,SY15 6SS,52.530900105479100,-3.078462535806340
Mockingbird and Peafowl,SY5 0DW,52.629330112768700,-2.954246955171130
Badger and Booted eagles,SY21 9EH,52.664265448354900,-3.282784654559760
Logrunners and Badger,SY16 1PS,52.508811286077700,-3.330133212904240
Armadillo and Black cockatoo,SY5 0RA,52.647574053803500,-2.891530055316900
Marsh harrier and Condor,SY15 6EF,52.530831698284400,-3.005577767870720
Parrotlet and Night heron,SY21 8PS,52.600335487834600,-3.233696130615860
Meadowlark and Songlark,SY5 9WH,52.678527000000000,-2.952893000000000
Jerboa and Masked owl,SY9 5HP,52.552700768109800,-2.952833959640340
Grosbeak and Crow,SY16 3ES,52.575454669952000,-3.296378686304670
Maya and Tit-tyrant,SY17 5LA,52.534259519646600,-3.441772406176950
Tree warbler and Old World quail,SY16 1QY,52.508778106141000,-3.341035924891870
Jerboa and Masked owl,SY16 4DR,52.507978618290700,-3.294156020392720
Wader and Goose,SY5 0RT,52.649787921138300,-2.891220340286930
Pratincole and Scimitar babbler,SY19 7DP,52.590626313156200,-3.651316813577770
Masked owl and Kangaroo,SY21 7AQ,52.658365000000000,-3.145482000000000
Armadillo and Philippine hawk-owl,SY21 9PB,52.692764484296200,-3.154254631151650
Buzzard and Black jay,SY21 7BP,52.660636794220000,-3.140943661612120
Nukupuʻu and Recurvebill,SY16 1RH,52.508482622209200,-3.342515128762690
Wader and Diving bird,SY5 9HQ,52.651867637983400,-2.973097347178250
Egret and Dorcopsis,SY4 1JG,52.799173000000000,-2.938058924772410
Eagle and Fish eagle,SY16 1QE,52.511246739994100,-3.327819607858380
Kite and Moluccan boobook,SY16 4NY,52.498271928492200,-3.255496269826760
Crow and Dolphin,SY5 9GN,52.733650363206600,-3.002835262847830
Parrotbill and Tree warbler,SY21 8SQ,52.631503404734800,-3.173681961764840
Cuscus and Cuscus,SY5 9PP,52.685878551471900,-2.888167963000100
Magpie and Eagle,SY5 9HR,52.635733660664700,-2.995436523967510
Grosbeak and Moluccan boobook,SY15 6AS,52.539171321770600,-3.074492563057290
Darwin's finches and Dorcopsis,SY10 0PG,52.799866000000000,-3.363389581614980
Kestrel and Treepie,SY10 8LX,52.806092490976800,-3.093553959797000
Linsang and Triller,SY22 6EE,52.781335995038800,-3.085534753692230
Treepie and Grouse,SY15 6JJ,52.549496488803000,-3.260010984363910
Perching duck and Ibex,SY9 5HJ,52.514924765706700,-2.979160626095610
Maya and Grouse,SY5 9PE,52.678279718218000,-2.944279420376860
Mockingbird and Ground sloth,SY9 5JQ,52.502939166828900,-3.021868448036710
Armadillo and Viscacha,SY15 6EU,52.566327125043200,-3.147685563476670
Rabbit and Polecat,SY21 8HG,52.656751300761300,-3.113728305313490
Peafowl and Francolin,SY5 0DX,52.613711621061400,-3.004581322648640
Prion and Piping shrike,SY5 9SB,52.671885000000000,-3.043362000000000
American sparrow and Tree warbler,SY16 2TB,52.523974946053700,-3.294773648953380
Mole and Ice seal,SY21 7PN,52.663385000000000,-3.149761778298230
Snipe and Meadowlark,SY9 5JL,52.508463978600300,-3.031677004621830
Greenbul and Tree warbler,SY15 6NG,52.543730679620100,-3.237283947041790
Rabbit and Argus,SY22 6JP,52.702892000000000,-3.333808000000000
Stilt and Cuscus,SY10 8ET,52.784646824033300,-2.982092503234730
Prion and Ground sloth,SY16 3LL,52.553680019720700,-3.321563451068420
Solitaire and Minke whale,SY10 8PG,52.756139342940300,-2.997246585439350
Jackal and Kite,SY5 9JJ,52.643540000000000,-3.022646000000000
Lemming and Night heron,SY5 9RB,52.678454452651200,-2.959459040421890
Herring gull and Scimitar babbler,SY10 9LP,52.795043708990400,-3.208469569685380
Fish eagle and Skunk,SY21 0LW,52.687209000000000,-3.382034000000000
Logrunners and Tattler,SY21 9QB,52.699035317341000,-3.150069344243960
Solitaire and Peafowl,SY16 1YY,52.515182995379700,-3.303710900616130
Capuchin and Old World vulture,SY21 8EQ,52.698461695319500,-3.046052370706950
Night heron and Black jay,SY21 7SU,52.656624774546400,-3.145850996564790
Jerboa and Eagle,SY22 6EJ,52.780287473616500,-3.088118022874240
Stilt and Jerboa,SY15 6QY,52.563928000000000,-3.147682000000000
Perching duck and Scimitar babbler,SY16 2BT,52.517492396193300,-3.315996771138280
Ibex and Capuchin,SY16 2HW,52.518407291577700,-3.316996820934470
Argus and Scimitar babbler,SY16 3DY,52.552801116336200,-3.296758400041670
Asiatic leopard and Viscacha,SY5 0FE,52.642505000000000,-2.917022000000000
Grosbeak and Kite,SY16 3AG,52.515686332793700,-3.302089995012870
Argus and Old World vulture,SY4 1AY,52.780800000000000,-2.933154000000000
Pratincole and Jerboa,SY20 9EE,52.718979143614900,-3.664675532566050
Recurvebill and Condor,SY22 5HB,52.796812898488400,-3.274787059074140
Diving bird and Ice seal,SY21 0QB,52.717971797699600,-3.449083090239710
Pitohui and Hawk,SY21 9NF,52.696091753082100,-3.155082294682410
Thrasher and Ice seal,SY21 7PA,52.661436425925700,-3.152142535146790
Darwin's finches and River dolphin,SY5 0LP,52.617471454109500,-2.927180175625830
Towhee and Rat,SY21 7UB,52.654298646804300,-3.149323383909850
River dolphin and Pheasant,SY21 0EW,52.618059167227900,-3.366043763919600
Warbler and Polecat,SY15 6JN,52.566751359938400,-3.241930241624770
Fish eagle and Songlark,SY16 4DU,52.512630000000000,-3.274871000000000
Skunk and Magpie,SY21 7NQ,52.662571844987000,-3.152793420945490
Jackal and Pheasant,SY16 4HL,52.498382952994000,-3.184583912189110
Quetzal and River dolphin,SY21 0LA,52.681804960101000,-3.325310436564140
Thicketbird and Magpie,SY5 0SN,52.574584691627900,-2.887834925389900
Ice seal and Dorcopsis,SY10 8BL,52.803291640407600,-3.051340965901960
Fish eagle and Chicken,SY16 3LU,52.521919383119200,-3.351562007402010
Mockingbird and Grouse,SY16 2TA,52.524371889615000,-3.293827230725820
Perching duck and Bunting,SY16 2LS,52.515113997554600,-3.314820426385540
Fox and Kangaroo,SY16 3LX,52.532977643823700,-3.340505385627480
Magpie and Partridge,SY21 7QB,52.665286823578600,-3.145382623481690
Petrel and Old World warbler,SY21 7TG,52.666408042031400,-3.143785328445460
Songlark and Buzzard,SY21 8PH,52.599342636888600,-3.201731638613200
Condor and Tree warbler,SY15 6AL,52.538305749256700,-3.062823457256190
Maya and Chickadee,SY21 0PJ,52.687204341474900,-3.449277196951430
Marsh harrier and Meadowlark,SY21 7JF,52.660422115200800,-3.149203124661810
Eagle and Chipmunk,SY21 8QP,52.586419076073300,-3.270855000000000
Hawaiian honeycreeper and Parakeet,SY22 6EW,52.779000856096300,-3.089212662766640
Old World warbler and Solitaire,SY5 9DA,52.691292000000000,-2.968409810895380
Kestrel and White ibis,SY21 8JH,52.646138689383300,-3.117996226357640
Stilt and Songlark,SY5 0AG,52.642561390020900,-2.927341348065230
American sparrow and Badger,SY22 5AY,52.768105149202500,-3.270820682675730
Perching duck and Asiatic leopard,SY15 6DA,52.578100258197300,-3.068405012611330
Nukupuʻu and Peafowl,SY21 8JL,52.603195772991500,-3.086749784040560
Greenbul and Partridge,SY15 6BU,52.587769641048000,-3.050779595773490
River dolphin and Boto,SY22 6YT,52.777679604382300,-3.205364346869080
White ibis and Thicketbird,SY22 5ET,52.775851000000000,-3.262048000000000
Francolin and Mockingbird,SY19 7DN,52.598197984891700,-3.638268565441100
Diving bird and Crow,SY17 5PR,52.506663995398700,-3.512595392363210
Piping shrike and Herring gull,SY21 9EE,52.657365162303800,-3.276565259896460
Chickadee and Hawaiian honeycreeper,SY21 8PG,52.598383184911100,-3.200598029658140
Petrel and Petrel,SY21 8NP,52.591489960006500,-3.151487450676320
Ground sloth and B,SY15 6LE,52.549232981967400,-3.197943262599900
Parakeet and Shearwater,SY21 9DD,52.678206637780500,-3.233937137267760
Puffleg and Herring gull,SY16 4DB,52.502398000000000,-3.262435000000000
Chicken and Chicken,SY19 7EB,52.618715051428400,-3.658918090348900
Parrotlet and Black cockatoo,SY21 0JZ,52.683389112979900,-3.300801309699240
Condor and Moluccan boobook,SY10 8DL,52.784242322806500,-2.981001010110400
Thrasher and Armadillo,SY16 1BE,52.512728565292100,-3.312656686911090
Partridge and Bunting,SY15 6DF,52.568714128773900,-3.042223753852330
Parrotbill and Goose,SY21 0HT,52.665047000000000,-3.354792000000000
Guillemot and Elephant,SY21 0AH,52.602861492467800,-3.414609952738990
Kestrel and Siskin,SY16 2AA,52.515073000430100,-3.313654993288410
Minke whale and Triller,SY5 0TF,52.646341465416800,-2.883257534941030
Rat and Triller,SY15 6NH,52.542457846505800,-3.235198469788540
Snipe and Greenbul,SY15 6UD,52.567677000000000,-3.093529000000000
Scimitar babbler and Asiatic leopard,SY17 5LZ,52.555152449608100,-3.531344120365610
B and Tit-tyrant,SY22 6TH,52.752527000000000,-3.173066000000000
Peafowl and Old World warbler,SY15 6HT,52.531421000000000,-3.132505000000000
Coati and Linsang,SY21 9DA,52.687529491315900,-3.198012205960770
Ibex and Myna,SY16 2NH,52.515815768590400,-3.317199312950580
Macaw and Kangaroo,SY17 5RL,52.507474318802300,-3.573845730737310
Mamo and Pheasant,SY15 6BJ,52.577716788604200,-3.090738537775630
Kite and Parakeet,SY17 5RW,52.508186545563700,-3.575049977823550
Fulmarine petrel and Magpie,SY21 0ET,52.669390561910500,-3.425128797872940
Old World warbler and Solitaire,SY22 6SN,52.769421918953600,-3.064976293908570
