name,postcode,lat,lon
Boto and Vole,CO10 8UD,52.057445363113300,0.502038431892348
Asiatic leopard and Ice seal,CB10 1EF,52.022181551021000,0.239546727640668
Scimitar babbler and Viscacha,CB9 7GA,52.090346090981400,0.419965367211510
Mockingbird and Badger,CB10 1BD,52.025248649559500,0.238562972509616
Rabbit and Kite,CB10 2RS,51.991802528291300,0.391627000000000
Siskin and Grouse,CB1 0JY,52.192267000000000,0.137208000000000
Towhee and Dolphin,CB3 9BL,52.202072912051800,0.101605629470237
Logrunners and Maya,CB4 2EG,52.224826409758800,0.126473307244946
Chipmunk and Maya,CO10 8UJ,52.058697904864300,0.504034137964533
Tahr and Coati,CB21 4RR,52.108949353944200,0.343538874220446
American sparrow and Dorcopsis,SG8 7TD,52.094268000000000,0.071286879109906
Siskin and Ground sloth,CB11 4JP,52.004917913067200,0.212822277542161
Minke whale and Siskin,CB5 8RU,52.210646289412600,0.164541289938285
Jackal and Gull,CB8 0BD,52.256866540798300,0.389121272631851
Goose and Old World warbler,CM7 4HG,52.009353000000000,0.455068000000000
Parrotbill and Herring gull,CB5 8LW,52.213491942162000,0.147581996064315
Parakeet and Rat,CB10 2HP,52.056735921027900,0.313234232480699
Prion and Argus,CB11 4HG,51.998008000000000,0.147027000000000
Magpie and Fish eagle,CB9 7DH,52.043785331149400,0.449853303058450
Thrasher and Rat,CB21 5PA,52.154292000000000,0.364151000000000
Jay and Linsang,CB3 9EF,52.201975409255000,0.108581680654178
Recurvebill and Philippine hawk-owl,CB9 7EQ,52.033636311311700,0.449677384658227
Moluccan boobook and Minke whale,CB4 2JA,52.222447026889400,0.132887000000000
Francolin and Lemming,CB5 8HW,52.213569268317300,0.148273731318115
Piping shrike and Ibex,CB1 1EX,52.206289295372100,0.129232350401332
Kākāriki and Flameback,CB1 8AZ,52.186474744318700,0.153301881880016
Treepie and Marsh harrier,CB1 0GS,52.192267000000000,0.137208000000000
B and Stint,CB9 0LL,52.083223540817500,0.458216624003223
Lemming and Thicketbird,CB25 9HX,52.262850000000000,0.196437000000000
Jay and Kangaroo,CB10 2BJ,52.024364350641000,0.255796000000000
Tit-tyrant and Peafowl,CB9 7XY,52.070693833522300,0.468534000000000
Coati and Petrel,CB22 5AW,52.152471727575300,0.140199676021938
Kite and Mamo,CB11 4AF,52.017699786428400,0.237369853772211
Elephant and Tree warbler,CB24 6DA,52.247123335270000,0.163738253560938
Grouse and Quetzal,CB5 8TF,52.215946375381300,0.188513000000000
Triller and Ground sloth,SG8 8DS,52.026600023233800,0.036765451905846
Fulmarine petrel and Gull,CB1 2PD,52.202438367108200,0.142278021739885
Solitaire and Moluccan boobook,CB24 9AH,52.246049898582600,0.105763589977053
Mink and Solitaire,CB3 0HU,52.220921497824700,0.101635000000000
Kākāriki and Hawk,CB24 9HS,52.254929330038400,0.114565098366485
Hawaiian honeycreeper and Duck,CB11 3UW,51.986069076337600,0.209767000000000
Pheasant and Tree warbler,CB22 4RZ,52.089395315143600,0.159762244079060
Philippine hawk-owl and Thrasher,CB9 0LR,52.080563292001500,0.460726806697182
Cuscus and Dorcopsis,CB11 3TT,51.999558536481100,0.212820154694666
Parakeet and Rabbit,CB3 9NU,52.181833760326000,0.090382428880375
Gull and Perching duck,CB3 9DR,52.205061000000000,0.107564705432456
Scimitar babbler and Gull,CB1 7EF,52.193711533561100,0.139954000000000
Bunting and Moluccan boobook,CB8 8BU,52.239420705587300,0.414344470835516
Diving bird and Jay,CB1 0NP,52.192267000000000,0.137208000000000
Fulmarine petrel and Marmoset,CB9 7RR,52.093688790000400,0.418773928275807
Black cockatoo and Solitaire,CB10 1DQ,52.024190946789100,0.236017540852674
Scimitar babbler and Asiatic leopard,CB3 0GX,52.222900418886600,0.095971060858670
Greenbul and Pratincole,CB22 6AE,52.114372000000000,0.066892000000000
Magpie and Greenbul,CB1 9GH,52.190325515663000,0.186421940760850
Dolphin and Herring gull,CB11 3NJ,52.023391000000000,0.261572000000000
Meadowlark and Peafowl,CB8 9PH,52.200002415060400,0.486858571701874
Quetzal and Piping shrike,CB8 7PP,52.272023906141100,0.493630165322105
Philippine hawk-owl and Ice seal,CB3 0UD,52.216392000000000,0.094111000000000
Kite and Songlark,CB9 8HF,52.082493000000000,0.434122000000000
Petrel and Rabbit,CB22 5DR,52.143884000000000,0.146204000000000
Tree warbler and Masked owl,CB24 9YY,52.246291000000000,0.106427770992171
Badger and Eagle,CB5 8UU,52.207350195696400,0.167264432919153
Skunk and American sparrow,CB1 3TY,52.193398890045800,0.157221321892695
Cuscus and Viscacha,CB8 9BN,52.238853719836800,0.407766301827702
Guillemot and Macaw,CB25 9BD,52.216138932497000,0.282933971245956
Mockingbird and Ibex,CO9 4NX,52.022574235187000,0.487482346071510
Lemming and New World blackbird,CB22 5LU,52.149190718764400,0.138653669947801
Jerboa and Jay,CB9 7ZH,52.069666000000000,0.470959901264114
Civet and Philippine hawk-owl,CB9 9DP,52.083582464479000,0.437042170867961
Scimitar babbler and Magpie,CM7 4JB,51.982185000000000,0.465944222581295
Mink and Mamo,CB22 5LN,52.148394000000000,0.135561000000000
Crow and Cuscus,CB4 3XW,52.231225425705500,0.116147483910594
Recurvebill and Mink,CB8 7NT,52.266843533661400,0.382666574081257
Argus and Myna,CB8 0RB,52.168868000000000,0.377603000000000
Francolin and Tahr,CB8 0EB,52.249101000000000,0.395634000000000
Thicketbird and Peafowl,CB22 5HJ,52.143991583220400,0.115823565404329
Marsh harrier and Pitohui,CB4 1GX,52.217740403981400,0.139427659666922
Chickadee and Puffleg,CB1 9GP,52.193110324365700,0.182198342662275
Parakeet and Wallaby,CB21 4SD,52.122201000000000,0.370311000000000
Puffleg and Shearwater,CB21 4AN,52.130553000000000,0.318591000000000
Mole and Warbler,CO9 4BX,52.039488298809900,0.484557252181236
Shearwater and Dorcopsis,CB5 8PH,52.213573320725800,0.163307589584641
Nukupuʻu and B,CB1 3UE,52.189902033569100,0.164528280303405
Maya and Maya,CB3 0NR,52.227990373159500,0.091320092515425
Puffleg and Tattler,CB4 0GH,52.233195176665800,0.149880000000000
Viscacha and Vole,CB21 4DP,52.130857879746300,0.317452459107094
Duck and Tit-tyrant,CB25 9LS,52.274042656460200,0.195524096299866
Parrotlet and Tattler,CB11 3UJ,51.976521312978600,0.175121832451100
Tahr and Towhee,CB10 2RF,51.993532000000000,0.390602000000000
Prion and Condor,CO9 4EJ,51.987060000000000,0.505875000000000
Buzzard and Polecat,CB10 1JF,52.024669903860400,0.240152093018948
Diving bird and Pitohui,SG8 7QZ,52.100571914350600,0.095515000000000
Herring gull and Duck,CB10 2GW,52.027082000000000,0.260446000000000
Pratincole and Skunk,SG8 8JE,52.025608135359400,0.035364753638599
Dolphin and Fox,CB22 5DS,52.145564000000000,0.147293000000000
Jackal and Treepie,CB22 5BA,52.152476000000000,0.142977000000000
Mink and Scimitar babbler,CB4 2SQ,52.229953945261700,0.125854381331817
Jay and Recurvebill,CB1 3HA,52.207355974427400,0.143817234716635
Scimitar babbler and Tree warbler,CB22 5AY,52.151521431117600,0.141528186322426
Kite and Old World warbler,CB1 9HZ,52.185736086401400,0.172986473071407
Scimitar babbler and Pitohui,CB24 9YW,52.254047955585300,0.113570815721871
Bronzewing pigeon and Piping shrike,CB10 2PJ,52.025331000000000,0.377590000000000
Skunk and Kite,CB9 0PB,52.080877895716700,0.456423791459728
Parrotbill and Treepie,CB10 1ER,52.022923482562800,0.239306847892331
Chipmunk and Myna,CB8 0EJ,52.250560659406000,0.395888190931896
Grosbeak and Nukupuʻu,CB2 9HD,52.178142644002900,0.116347167369409
Macaw and Warbler,CB8 9QH,52.158025039325800,0.507677029820810
Treepie and Guillemot,CB10 9DZ,52.022947398508700,0.238564606298810
Vole and Mouse,CB23 8DS,52.261128000000000,0.029926000000000
Songlark and Tahr,CB10 2LQ,52.018596941791100,0.279215371173326
River dolphin and Bunting,CB1 2PS,52.205993146487100,0.142610024290718
Moluccan boobook and Shearwater,CB9 9BB,52.085379000000000,0.421143450167855
Greenbul and Night heron,CB5 8RT,52.210841718404500,0.172498984466848
Buzzard and Pitohui,CB9 8NJ,52.076599335052300,0.424501000000000
Booted eagles and Hawk,CB23 1JB,52.152733343374800,0.059869986856583
Maya and Mamo,CB24 6ZE,52.244498482205200,0.153546000000000
Condor and Ibex,CB21 5EE,52.185832927971100,0.200890000000000
Macaw and Chicken,CB8 9QB,52.163499127569400,0.505674452598353
Wallaby and Magpie,CB4 3RF,52.225074111287300,0.117699865263463
Boto and Gull,CB5 8HP,52.210237928799000,0.142082422766822
Francolin and Kangaroo,CB9 9QZ,52.077410331297700,0.419747107458314
Coati and Black cockatoo,SG9 0AX,51.976139685749400,0.091975815529282
Duck and Armadillo,CB8 0HP,52.244546655269900,0.402874087435112
B and Tahr,CB3 9LS,52.199543221032900,0.099247317802792
Moluccan boobook and Diving bird,CB22 3LA,52.124780780108700,0.172400779480091
Treepie and Fulmarine petrel,CB4 2RD,52.226165065743500,0.135498493955125
Condor and Herring gull,CB11 3EA,52.017093946107600,0.243028000000000
Snipe and Quetzal,CB23 7PN,52.209436447497300,0.059842837021311
Jerboa and Petrel,CB4 3AT,52.214152848489000,0.123649000000000
Stilt and Gull,SG8 8JU,52.025759192702800,0.039628007981579
Tree warbler and Recurvebill,CB4 2XD,52.235740346910600,0.129089323791883
Ground sloth and Minke whale,CB21 5HN,52.181181000000000,0.216355000000000
Puffleg and Mamo,CB8 9RQ,52.213133522245400,0.462325052711887
Petrel and Pratincole,CB4 3PY,52.218376812213800,0.107060086078317
Thicketbird and Prion,SG8 6PP,52.110479916214600,0.032437127328872
Old World vulture and Moluccan boobook,CB1 3QA,52.196322189687300,0.149783121857334
Pheasant and Snipe,CB1 8SN,52.178866757794300,0.153343892462050
Linsang and Condor,CB22 3HP,52.120398264914900,0.170142529593697
Kite and Mouse,CB5 8SS,52.218996480268800,0.172062501130027
Thrasher and Maya,CB2 1QW,52.201287179024300,0.122890701609010
Chipmunk and Kākāriki,CB11 4JZ,52.004990000000000,0.202787000000000
Cloud rat and Grosbeak,CB22 7TN,52.143108000000000,0.087267000000000
Armadillo and Argus,CB22 4LU,52.110262706820500,0.147144660129234
Coati and Recurvebill,CB9 0JW,52.082791739187500,0.453478282024062
Goose and Cloud rat,CB9 7NT,52.089765549951500,0.482883000536214
Shearwater and American sparrow,CB4 1EN,52.214245723910000,0.126319193788533
Tahr and Tahr,CB8 0PX,52.246317385445900,0.394062691632560
Stilt and Stilt,CB8 9LU,52.155643776168900,0.463229210489078
Myna and Old World vulture,CB9 9EN,52.088639703651900,0.420734303772954
Old World quail and Petrel,CB10 1AA,52.021358918803900,0.239301568535609
Armadillo and Gull,CB22 3JL,52.124469433514600,0.180011653273936
Magpie and Stilt,CB2 8BG,52.192311005897100,0.129998129105519
Linsang and Siskin,CB11 3QR,51.980634945650700,0.212062027594594
Fish eagle and Songlark,CB22 5JR,52.164278083368800,0.120295163076794
Vole and Dolphin,SG8 6BX,52.080658369719800,0.020136066402131
Argus and Crow,CB3 0FZ,52.209965046960300,0.089609771972719
Masked owl and Quetzal,CB3 9ED,52.195904311885400,0.100100110671332
Piping shrike and Duck,CB22 7QX,52.128044207506500,0.035384064793104
Goose and Jackal,CB21 4XH,52.099333437999800,0.291564906598685
Pheasant and Elephant,CB4 3PX,52.217578778766800,0.106934472620286
Quetzal and Armadillo,CB1 9JB,52.185314180274500,0.169528045046362
Elephant and Nukupuʻu,CB5 8WL,52.212779246428800,0.163459299888032
Chipmunk and Crow,CB1 0AN,52.192254000000000,0.137179000000000
Kite and Grackle,CB22 3JD,52.123133112367400,0.166652432528564
Condor and Wader,CB8 7GH,52.272480000000000,0.502229000000000
Ground sloth and Petrel,CB10 2GB,52.032037377903500,0.243786137926928
River dolphin and Old World warbler,CB9 0DH,52.091121966773100,0.437730497012717
Bronzewing pigeon and Peafowl,CO9 4NG,52.015618000000000,0.503041000000000
Grosbeak and Solitaire,CB8 8HZ,52.241133000000000,0.407597000000000
B and Fulmarine petrel,CB9 0JB,52.085566000000000,0.442069000000000
River dolphin and Towhee,CB4 0GN,52.233104000000000,0.146702989910236
Rabbit and River dolphin,CB9 9AB,52.081890395948400,0.425346189981829
Vole and Guillemot,CB2 3BZ,52.204695614495700,0.122862915735670
Songlark and Dorcopsis,CO9 4BN,52.041114345296600,0.486339055401579
Booted eagles and Darwin's finches,CB1 2EW,52.200732088878000,0.133225212397692
Rat and Chickadee,CB9 7DG,52.042745592366200,0.446661036623393
Coati and Tree warbler,CB9 7EE,52.040316210788600,0.448890686229603
Boto and Crow,CB8 7SA,52.255252951564200,0.402163415009133
Eagle and Bronzewing pigeon,CB9 7ED,52.039924106776100,0.446988131968333
Towhee and Hawk,CB22 5BS,52.142588577863000,0.150830000000000
Fish eagle and Meadowlark,CB21 4RZ,52.117087041443200,0.353518875265176
Coati and Viscacha,CB10 2HU,52.059278187285500,0.313365605455227
Prion and Chickadee,CB8 7AB,52.247630560756400,0.405985468796528
Treepie and Black jay,CB4 2AX,52.222063529103300,0.132139141015053
Siskin and Darwin's finches,CB24 9HA,52.255867773544600,0.107342222762165
Petrel and Armadillo,CB23 8TJ,52.250263182793000,0.023745667874320
Kangaroo and Dorcopsis,CB9 7UG,52.100700318803900,0.465763344502380
Jay and Darwin's finches,CB1 0XR,52.192267000000000,0.137208000000000
Thrasher and Francolin,CB1 2EZ,52.198105542960600,0.130787365350972
Scimitar babbler and Parakeet,CB24 9YJ,52.246612000000000,0.111635000000000
Black jay and Bronzewing pigeon,CB2 1PA,52.195475830488300,0.131510261174036
Chicken and Vole,CB10 2AD,52.026147610061200,0.247077280952159
Boto and Quetzal,CB9 7TH,52.116242528607100,0.496799925194920
Scimitar babbler and Meadowlark,CB1 9YN,52.185197435108100,0.184136878511414
Jackal and Snipe,CB22 3JB,52.121842077821800,0.164486205133396
Eagle and Meadowlark,CB1 0SH,52.204823965955800,0.119224803438048
Solitaire and Boto,CB4 3EZ,52.218503317995100,0.116069639396738
Mouse and Bunting,CB1 3TE,52.189791497597300,0.160748210181045
Skunk and Nukupuʻu,CB5 8ST,52.220748576577500,0.170669284713030
Moluccan boobook and Nukupuʻu,SG8 6JL,52.083451636307800,0.026085804849959
Zebra and Perching duck,CB22 3BU,52.124390079854800,0.165778422744023
Goose and Grosbeak,CB23 8AJ,52.221216314332900,0.049480640175689
Marsh harrier and Kestrel,CB22 6AB,52.111686000000000,0.067076000000000
Old World warbler and Vulture,CB10 1AS,52.022946584712100,0.238564613561069
Crow and Booted eagles,CB5 8SG,52.208295239237300,0.167705622391238
Hawk and Greenbul,CB2 9DB,52.179854000000000,0.121020000000000
Francolin and Quetzal,CO9 4PG,52.029427609819300,0.506946718022410
Argus and Jerboa,CB8 7BQ,52.266210537904200,0.393670000000000
Puffleg and Tattler,CB10 1DG,52.021977194086300,0.234682734920676
Booted eagles and Argus,CB5 8NE,52.208601898844300,0.159319023852688
Ice seal and Thicketbird,CB22 3FA,52.121632858457000,0.168580942810127
Condor and Old World warbler,CB2 9PF,52.165147519998200,0.111987044622073
Boto and Mamo,CB8 7JZ,52.268183691549900,0.367905585534963
Parrotbill and Shearwater,CB21 5DS,52.182753055385700,0.213961412095551
Condor and Flameback,CB1 2LT,52.204864122361500,0.137930877733271
Buzzard and Chicken,CB4 2GW,52.233480000000000,0.116826000000000
Booted eagles and Marmoset,CB21 5RJ,52.182612000000000,0.223448000000000
Treepie and Wallaby,CB1 1JG,52.203245800897000,0.130462526065618
Fish eagle and Siskin,CB8 1DT,52.242903000000000,0.404162000000000
Buzzard and Ibex,CB21 4QQ,52.100123920350100,0.353662340973586
Kite and Songlark,CB2 3LP,52.205941424679800,0.119087716298517
Bunting and Triller,CB8 7JG,52.250891177570500,0.399979075725516
Guillemot and River dolphin,CB21 4HF,52.152056489708200,0.278759000000000
Coati and Cloud rat,CB4 2TH,52.232175750345000,0.128303662577466
Bronzewing pigeon and Solitaire,CB9 9AN,52.083122855126900,0.424011778736222
Jackal and Egret,CB1 2BP,52.192821000000000,0.134178000000000
Hawaiian honeycreeper and Gull,CB9 7FX,52.087900945568400,0.406753347958896
Parrotlet and Greenbul,CB1 3NA,52.196825673654200,0.144846868002131
Solitaire and Petrel,CB21 4DJ,52.131761931983900,0.317207145707881
American sparrow and Tattler,CB8 0RD,52.173176000000000,0.380699000000000
Wallaby and Herring gull,CB22 7RN,52.128038058674200,0.042672000000000
Moluccan boobook and Nukupuʻu,SG8 8LA,52.027457000000000,0.043947000000000
Eagle and Condor,CB8 8DL,52.244573186712500,0.410124000000000
Nukupuʻu and Piping shrike,CB8 7LW,52.266402385743900,0.411911848601792
Peafowl and Philippine hawk-owl,CB10 2DQ,52.028559487188300,0.244617891715119
Kite and Boto,CB25 9JH,52.242048000000000,0.184511000000000
Petrel and Pratincole,CB11 3GX,52.022946584712100,0.238564613561069
Black cockatoo and Solitaire,CB9 8LS,52.077760067420000,0.428099531454349
Condor and Stilt,SG8 8BW,51.992710000000000,0.059013000000000
Vole and Quetzal,CB21 4JR,52.098422340397700,0.278727745598813
River dolphin and Eagle,CB4 3PJ,52.220380827887400,0.107125674807310
Mole and Marmoset,CB22 5BN,52.144442892129500,0.151507199518119
Darwin's finches and Piping shrike,CB3 9NE,52.179158132114900,0.096239380635918
Guillemot and Linsang,CB4 2YE,52.234078000000000,0.123027642214141
Kestrel and Duck,CB22 4PP,52.096642000000000,0.158419000000000
Gull and Kākāriki,CB1 1BT,52.206898818816800,0.136799125448086
Partridge and Mink,CB4 1HN,52.214808407269600,0.131513554741741
Egret and Jackal,SG9 0BY,51.976168717880600,0.043213558720822
Macaw and Maya,CB8 7LN,52.268544048814500,0.410958148333786
Fox and Linsang,CB2 1UJ,52.209617319240600,0.117184197991939
Capuchin and Kākāriki,CB8 7JS,52.268385127168600,0.367725780806096
Black jay and White ibis,CB1 0ZA,52.209359000000000,0.148259000000000
Chipmunk and Chipmunk,CB10 2PH,52.014774301118100,0.375718228524229
Meadowlark and Pheasant,CB10 2PW,52.025476527326500,0.393428563378403
Booted eagles and Dolphin,CB5 8BL,52.209396000000000,0.125575000000000
Scimitar babbler and Mockingbird,SG8 8SW,52.027791477840100,0.072592521679156
Jay and Kangaroo,CB9 7FJ,52.089331218817000,0.406290196409648
Jerboa and Kākāriki,CB11 4NL,52.033644456394100,0.129110565221436
Tit-tyrant and Parakeet,CB3 9DW,52.203842764519500,0.109753090550740
Flameback and Songlark,CB24 3YX,52.252103471943800,0.052559737553211
Black cockatoo and Skunk,CB3 0BP,52.212332988732700,0.112160789765971
Songlark and Condor,CB22 5FF,52.146341160088800,0.133196724711808
Fish eagle and Old World warbler,CB2 8PF,52.186982351357900,0.133431000000000
B and Capuchin,CB1 9YA,52.189553801475200,0.180019764051016
Parrotbill and Minke whale,CB21 5AF,52.179865424122900,0.223150268979087
Solitaire and Linsang,CB8 9HH,52.173178172571800,0.467576611911343
Pheasant and Peafowl,CB1 7EB,52.191995382722500,0.138000980167036
Badger and Piping shrike,CB22 5FY,52.147166736551900,0.134230166187119
Shearwater and Old World warbler,CB1 9GJ,52.190363528557000,0.185341122097656
Macaw and Cloud rat,CB1 2BL,52.196444165002900,0.137131668921218
New World blackbird and Black jay,CB9 9NL,52.092692624677900,0.431348566847027
Warbler and Parrotbill,CB24 9ZT,52.241781685481000,0.110131544310946
Crow and Jay,CB22 5WG,52.150997329592700,0.136269796694015
Bronzewing pigeon and Rabbit,CB22 3DR,52.128643212766700,0.173114657432255
B and Cuscus,CB23 1LZ,52.151334303558100,0.057598119764777
Nukupuʻu and Prion,CB5 8HE,52.208452000000000,0.138981000000000
Black jay and Hawk,CB1 1EJ,52.205537528286100,0.129035412684031
Triller and Duck,CB22 4PL,52.103089181316600,0.164235052477870
Puffleg and Magpie,CB2 3QZ,52.203488258539900,0.120351000000000
Greenbul and Snipe,CB24 9JY,52.252318437961000,0.097108695416229
Shearwater and Hawk,CB2 3EL,52.202963542123400,0.122952000000000
Kākāriki and Eagle,CB3 9DY,52.196026000000000,0.104387218831410
Dolphin and Magpie,CB10 1LS,52.023002912462200,0.245053866550368
Marmoset and Flameback,CB9 7WN,52.085780245873500,0.407558831543216
American sparrow and Bronzewing pigeon,CB21 5JJ,52.193317020161700,0.263796091532517
Quetzal and Jay,SG8 6FY,52.079113000000000,0.022911000000000
White ibis and Francolin,CB2 9DT,52.169310000000000,0.124788000000000
Chickadee and Mamo,CB8 0FD,52.168926022343300,0.359881144861084
Parrotlet and Mockingbird,CB1 3BN,52.198272471551800,0.146379870202818
Chickadee and River dolphin,CB25 9NG,52.268258531478100,0.195164975455371
Capuchin and Diving bird,CB9 8NS,52.076925000000000,0.444181000000000
Old World quail and Ibex,CB25 0HE,52.273417000000000,0.325403668653192
Buzzard and Scimitar babbler,CB2 9FN,52.173760000000000,0.122324000000000
Mouse and Cloud rat,CB1 2FT,52.192120115261400,0.135139174960512
Wallaby and River dolphin,CB22 3DA,52.130697452419800,0.175333265463104
Hawaiian honeycreeper and Bronzewing pigeon,CB5 8RD,52.205166000000000,0.163865000000000
Warbler and Old World quail,CB8 8BN,52.237031063021600,0.411592967475437
Crow and Parakeet,CB22 3AQ,52.133046925763200,0.210487499738936
Fulmarine petrel and B,CB2 1PZ,52.198359728850300,0.120673246272328
Eagle and Egret,CB8 8YU,52.239396100659300,0.418180804270269
Stint and Mink,CB22 5HL,52.142882503209500,0.115493302240340
Rat and Rat,CB9 7FU,52.088107592704800,0.407202408033809
Pheasant and Grosbeak,CB2 9LT,52.169485072370500,0.111739196088548
Cuscus and Night heron,CB4 2QT,52.235278000000000,0.134340000000000
Wallaby and Fish eagle,CB11 3RN,51.980277000000000,0.214976533375808
Asiatic leopard and Towhee,CB4 3DQ,52.213689411126600,0.116250693302044
Meadowlark and Thicketbird,CB22 3LD,52.125593796135900,0.174149649126049
Jay and Gull,CB9 8SA,52.076892184762400,0.440821000000000
Myna and Snipe,CB1 3UR,52.203843128875300,0.146619073172094
B and Night heron,CB1 9LF,52.189719764931200,0.170532606409733
Condor and Asiatic leopard,CB2 9LU,52.170474830143900,0.112707392937316
Pratincole and Marsh harrier,CB1 9XJ,52.194252541523600,0.186556141982865
American sparrow and Moluccan boobook,CB4 0XB,52.229528717947000,0.150629000000000
Thrasher and Vulture,CB2 9LN,52.173019391583400,0.110707344229710
Parrotlet and Parakeet,CB4 1EP,52.214516343954200,0.127268994200455
Boto and Goose,CB10 2EZ,52.052869386279600,0.318256317000914
River dolphin and Fox,CB10 1PB,52.062990670774800,0.198374698160365
Meadowlark and Ground sloth,CB10 1HD,52.023269384689400,0.240504812928405
Bronzewing pigeon and Peafowl,CB24 6AT,52.238006579493600,0.158077000000000
Grackle and Tree warbler,CB8 7XA,52.260820995917900,0.389670929951968
Ice seal and Magpie,CB1 3QY,52.191394912314800,0.143341778106362
Wallaby and Marmoset,CB1 7UA,52.187041566006700,0.139943114771793
Rat and Herring gull,CB24 9AN,52.268319646594300,0.106994694166020
Ibex and Mockingbird,CB9 8JN,52.078947259053200,0.428091001926301
Crow and Ground sloth,CB9 7FP,52.088671663995300,0.406317000000000
Stint and Jerboa,CB1 3RJ,52.192752005971700,0.151776316681092
Herring gull and Jackal,CB8 7DQ,52.252062734895400,0.413521934115669
Zebra and Tahr,CB10 2XU,51.993268000000000,0.314227000000000
Dolphin and Wallaby,CB4 1PN,52.220907229435000,0.135861121657581
B and Scimitar babbler,CB2 8DZ,52.188801856998400,0.128630703628783
Towhee and Badger,CB4 1LJ,52.223849464781600,0.141214798263238
Marmoset and Vulture,CB9 9EH,52.088822297210800,0.423225881148994
Greenbul and Tattler,CB22 5EU,52.135395000000000,0.128889000000000
Thrasher and Quetzal,CB1 1LQ,52.207975673989700,0.123473019265837
Pitohui and Crow,CB22 6AD,52.114372000000000,0.066892000000000
Old World quail and Rat,CB21 5EF,52.185212506365700,0.188175269095824
Cuscus and Tit-tyrant,CB4 2TS,52.233038478317000,0.127832368533400
Ibex and Dorcopsis,CB4 3BJ,52.215381050581800,0.109714267221298
Hawk and Zebra,CB10 2UT,51.999025785338900,0.276152190344811
Argus and Old World vulture,CB2 8RG,52.188061918738000,0.137724466299053
Viscacha and Piping shrike,CB4 1AP,52.216803938984900,0.130555069156027
Piping shrike and Pratincole,CB24 9JJ,52.253418960629200,0.097922483520888
Vulture and Solitaire,CB10 2XS,51.973192860166500,0.333447447359653
Armadillo and Badger,SG8 8SR,52.031590779883900,0.077433406860112
Fish eagle and Linsang,CB24 6DY,52.247238323837200,0.158440720604627
New World blackbird and New World blackbird,CB2 3HW,52.206697827732200,0.120528774916078
Egret and Logrunners,CB10 1TT,52.053615216657000,0.209247793795001
Francolin and Pratincole,CB4 3AD,52.212233304552800,0.117220769499151
Thrasher and Kangaroo,CB1 3NR,52.195350272409300,0.153277265130344
Bronzewing pigeon and Grouse,CB9 7DF,52.044128783330400,0.449770004968352
Ground sloth and Shearwater,CB9 7BL,52.052333353257900,0.446149317001841
Snipe and Cuscus,CB22 5SY,52.148276375642700,0.146314000000000
Marsh harrier and Siskin,CB3 0PZ,52.236844955612300,0.078730782864673
Egret and Kite,CB9 7DX,52.042869415931900,0.445894888336253
Parrotlet and Armadillo,CB1 3SF,52.190964087844500,0.155142880818966
Hawk and Pratincole,CB5 8FR,52.214577946865600,0.147692941420386
Goose and Partridge,CB22 7PG,52.124315579352300,0.099814824664305
Rat and Marsh harrier,CB8 8GY,52.268730965221200,0.491497000000000
Peafowl and Magpie,CB4 1XY,52.223886072534000,0.132738972025467
Peafowl and Kestrel,CB8 8PR,52.257060770212000,0.480818475405159
Partridge and Songlark,CB1 8NN,52.180741714351600,0.164685000000000
Old World quail and Herring gull,CB23 7ED,52.180125000000000,0.022915000000000
Mockingbird and Lemming,CB9 0AP,52.085278723711900,0.446316175797317
Scimitar babbler and Myna,CB25 9ER,52.240374640672700,0.246284734977902
Solitaire and Asiatic leopard,CB10 2UB,52.023231998249000,0.342261249882837
Tahr and Polecat,CB21 5HW,52.181947399363400,0.214725939515968
Perching duck and Logrunners,CB9 7DY,52.034961928642500,0.433448682898402
Bunting and Fox,CB2 1JP,52.197720000000000,0.128272207644032
Goose and Kākāriki,CB4 1EU,52.213835656901200,0.127119360740584
Kestrel and Gull,CB1 8PT,52.180439673693500,0.160265568516227
Elephant and Meadowlark,CB10 9SJ,52.018954198350100,0.236703662159996
Jay and Dorcopsis,CB9 9QG,52.084739907518400,0.413137197700980
Songlark and Recurvebill,CB1 2RU,52.205998420250000,0.139346472792461
Bunting and Dorcopsis,CB1 3RD,52.194373143566100,0.140266004552897
Old World quail and Piping shrike,CB25 9JE,52.242939502568500,0.187777362736722
Logrunners and Piping shrike,CB4 3LG,52.215451390501400,0.112762551877573
Chicken and Linsang,CB2 9JQ,52.174497616270100,0.120035261680308
Snipe and Myna,CB22 4PY,52.097522933044900,0.156884390617557
Egret and Warbler,CB11 4FE,52.009875406505200,0.238844683960380
Armadillo and Lemming,CB4 1JY,52.215296321780300,0.125900929620700
Fish eagle and Mouse,CB11 3QS,51.981506465383700,0.211143832837194
Duck and Tattler,CB25 9EX,52.240723000000000,0.246909667019366
Tree warbler and Recurvebill,CB4 2LQ,52.228334008530100,0.129921015469258
Black jay and Treepie,CB10 1DX,52.020996169116900,0.241353184781466
Linsang and Magpie,CO10 8UH,52.059104560379000,0.505632468285929
Cloud rat and Moluccan boobook,CB22 6SB,52.117530176121800,0.055222882205906
River dolphin and Black cockatoo,CB24 3BJ,52.277562937763100,0.048194816862274
Jackal and Black jay,CB9 8NW,52.076990831269300,0.443148303012067
Lemming and Prion,CB3 9NH,52.180855500604800,0.091799301592395
Triller and Recurvebill,CB8 8GP,52.241326434356100,0.412177465073663
Pheasant and Civet,CB1 3JS,52.192777063038900,0.176387888459385
Songlark and Armadillo,CB9 0LH,52.081533206212500,0.458634572556211
Grosbeak and Guillemot,CB23 1JX,52.148359603894600,0.061393000000000
Asiatic leopard and Buzzard,CB1 0HN,52.192267000000000,0.137208000000000
Stint and Dolphin,CB4 3QG,52.217009052691300,0.108122579942272
Condor and Goose,CB22 5JX,52.155869989814300,0.137760441350742
Tit-tyrant and Triller,SG8 8JW,52.027052122984500,0.041815102335368
Night heron and Treepie,CB2 9NR,52.166376476796100,0.110085841472150
Capuchin and Eagle,CB10 2DT,52.027464986779400,0.242595081044297
Buzzard and Boto,CB2 1UW,52.209491739954700,0.116474000000000
Mamo and Mamo,CB4 3DL,52.214673978313700,0.118403000000000
Petrel and Gull,CB1 3AW,52.198567467612200,0.145486810197647
Chipmunk and Dolphin,CB9 8LX,52.078070660850800,0.426554759388214
Pitohui and Quetzal,CB8 0PA,52.241602369195900,0.391553005103721
Francolin and Jerboa,CB25 0FN,52.266709000000000,0.322595000000000
Parrotbill and Zebra,CB10 1PD,52.061229585022400,0.192992541764357
Triller and Skunk,CB5 8UG,52.215028000000000,0.171825000000000
Quetzal and Masked owl,CB8 7XG,52.255826123577800,0.407132448086494
Triller and Philippine hawk-owl,CB8 9UP,52.196269086962900,0.378362674311916
Stint and Pheasant,CB1 7BN,52.189420000000000,0.138267193274007
Parrotlet and Goose,CB8 0ER,52.248837366842000,0.393070295790668
Old World vulture and Marmoset,CB9 9AS,52.083672303263900,0.423530681980812
Grouse and Stilt,CB11 3HZ,51.991522000000000,0.213720000000000
Eagle and Philippine hawk-owl,CB9 7UJ,52.094672093944200,0.480483664470858
Ground sloth and Marsh harrier,CB23 1NA,52.152833193972000,0.055693777912444
Asiatic leopard and Nukupuʻu,CB1 7ST,52.180465409505800,0.146048851563925
River dolphin and Hawaiian honeycreeper,CB2 9NS,52.165768305316200,0.110963615322219
Chicken and Marsh harrier,CB25 0FD,52.273167597470600,0.331202382540625
Badger and Jay,CB1 3SN,52.188682212228300,0.148127043879822
Old World warbler and Thrasher,CB1 9NB,52.191015862082200,0.175833662617468
Goose and Black jay,CB4 3DN,52.213795000000000,0.119447000000000
Goose and Armadillo,CB2 7TY,52.191041518770700,0.120105446097721
Recurvebill and Gull,CB8 7HA,52.263338366285500,0.370519816812551
Nukupuʻu and Mouse,CB25 0JP,52.276557015218800,0.331233689042025
Parakeet and Night heron,CB11 3BP,52.017421190867900,0.256215308756049
Lemming and Gull,CB11 4AL,52.015483000000000,0.240516069206874
Partridge and Ibex,CB10 2YY,52.024203509312500,0.253757972116695
Kākāriki and Chickadee,CB4 3PS,52.219599297763100,0.107586446451890
Shearwater and Armadillo,CB2 8DS,52.189266888744600,0.132310460967595
Warbler and Macaw,CB22 5LY,52.145943000000000,0.137904232555075
Guillemot and Snipe,SG8 8HS,52.030897477678500,0.040444984868916
Chicken and Quetzal,CB4 3QE,52.217471007554500,0.108437249699344
Minke whale and Mamo,CB8 9UZ,52.200084372009900,0.376898083053817
Mockingbird and Kestrel,CB3 9LF,52.197238154003100,0.102957882088604
B and New World blackbird,CB8 0TN,52.215513297537400,0.317787624847260
Bronzewing pigeon and Songlark,CB3 9EP,52.201795000000000,0.116739000000000
Duck and Fish eagle,CB9 8BW,52.079852815895000,0.437802240648451
Stint and Kangaroo,CB8 8HB,52.240881168437100,0.410644560692963
Philippine hawk-owl and Macaw,CB10 1RN,52.085268207570100,0.219276994309809
Booted eagles and Jerboa,CB8 7HH,52.262792746943300,0.369479500723285
Ice seal and Tit-tyrant,CB4 3NJ,52.229610668385400,0.110916135221857
Civet and Ice seal,CB1 1JH,52.203506226440500,0.126494250922124
Stint and Elephant,CB23 1WX,52.153785645757300,0.049597816138724
Macaw and Linsang,CB1 7SP,52.184559793672100,0.151804981863783
Herring gull and Grackle,CB8 7BP,52.245869037475700,0.409904162185238
Snipe and Old World quail,CB25 0HD,52.272685791626500,0.327365926564553
Ground sloth and Mole,CB9 9HT,52.088007547750100,0.429166879787637
Vulture and Polecat,CB8 9FA,52.237877000000000,0.481768000000000
Marsh harrier and Old World quail,CB4 2LN,52.229312755798100,0.130992916169001
Condor and Marsh harrier,CB2 9BA,52.168440732702100,0.121385068903582
Duck and Magpie,CB25 9QJ,52.272971815464700,0.188303363286175
Mockingbird and Cloud rat,CB4 3FA,52.214157000000000,0.124103000000000
Scimitar babbler and Petrel,CB5 8AF,52.209383904001600,0.118666068867703
River dolphin and Mole,CB25 9LG,52.275244296329400,0.194733277397578
Goose and Mamo,CB2 9LL,52.174684438784700,0.109616130874888
Grackle and Tree warbler,CB23 7PS,52.208733343034700,0.057365998721473
Quetzal and Marmoset,CB9 7SP,52.102534849844900,0.407539000000000
Mockingbird and Diving bird,CB8 9RD,52.211259000000000,0.470770000000000
Kite and Marsh harrier,CB11 4SL,51.993725070308100,0.106284015066693
Myna and Mink,CB9 7SL,52.103762944916700,0.401941524034232
Songlark and Night heron,CB2 1RZ,52.201632817261000,0.117668056131403
Mockingbird and Herring gull,CB2 9EG,52.169463000000000,0.122266000000000
Nukupuʻu and Linsang,CB1 0FY,52.192254000000000,0.137179000000000
Scimitar babbler and Civet,CB9 7TG,52.123554856204500,0.503096487346498
Meadowlark and Philippine hawk-owl,CB8 9SG,52.198773041919200,0.428472121747382
Linsang and Chicken,CB2 8BY,52.187864071263000,0.128776094619914
Stilt and Cuscus,CB4 2LA,52.233487451739700,0.129362269484368
Old World vulture and Vole,CB21 4ED,52.129310285001700,0.325262168221177
Warbler and Linsang,CB8 0NW,52.243861268452600,0.389242766774552
Tree warbler and Treepie,CB1 9TS,52.192254000000000,0.137179000000000
Kite and Nukupuʻu,CB3 0HX,52.222024152607700,0.104729132824761
Jackal and Solitaire,CB22 3BW,52.125489240258100,0.160762217593161
Grouse and Ground sloth,CB1 9XP,52.191296392844500,0.182065603563980
Old World quail and Stint,CB2 9DJ,52.179222792736300,0.123492000000000
Snipe and Thrasher,CB2 0AX,52.173220000000000,0.136338000000000
Duck and Crow,CB8 9LD,52.148638000000000,0.401938617232411
Asiatic leopard and Songlark,CB4 2JF,52.224296000000000,0.130504000000000
American sparrow and Mole,CB11 3LN,51.975722790520200,0.267486338876707
Grosbeak and American sparrow,CB2 1HE,52.197856000000000,0.127746000000000
Black cockatoo and Kite,CB9 8WZ,52.082966561090800,0.438993707833729
Shearwater and Kangaroo,CB24 9YB,52.256987827857700,0.107058313558666
Jackal and Skunk,CB9 7AQ,52.049358109797300,0.409435957661853
Condor and Guillemot,CB2 7TT,52.190769287191100,0.122243226655662
Capuchin and Pheasant,CB25 0ND,52.244686000000000,0.278876593663018
Stilt and Fox,CB2 9HX,52.175575016209800,0.114616431247669
Fox and Grosbeak,CB2 1YG,52.191807000000000,0.137070000000000
Cuscus and Jerboa,CB4 2YF,52.233020000000000,0.114900000000000
Grackle and Booted eagles,CB3 0PP,52.237546217774100,0.086379550420279
Macaw and Elephant,CB1 9YH,52.183580283471800,0.183574878027087
Shearwater and Petrel,CB25 0LU,52.238284000000000,0.278881163198944
Hawk and Flameback,CB24 9LD,52.249197760440800,0.122789542008455
Songlark and Mole,CB1 0NX,52.192267000000000,0.137208000000000
Grackle and Hawaiian honeycreeper,CB1 1JF,52.202971000000000,0.130815000000000
Pitohui and Kestrel,CB9 7SJ,52.112572565877700,0.397230042962725
Ground sloth and Goose,CB3 9BH,52.200617577313500,0.102034517351868
Stint and Crow,CB1 1QE,52.206104263840000,0.136482916311282
Dolphin and Black cockatoo,CB1 3DF,52.197121883745700,0.150802126619824
Linsang and Vulture,CB10 1XN,52.037480062912700,0.254965307135118
Francolin and Darwin's finches,CB21 4NN,52.096558679414100,0.271858189209792
Treepie and Chickadee,CB1 9HX,52.186724588943100,0.173020046377714
Kākāriki and Siskin,CB4 3PW,52.218596553885600,0.105328332715048
Kite and Goose,CB2 9AZ,52.167637827339800,0.120030780612870
Siskin and Songlark,CB3 0PB,52.234072993733000,0.080402590681050
Perching duck and Buzzard,CB8 8QT,52.268770640533400,0.493110416114559
Lemming and Pheasant,CB2 1HF,52.196884032459900,0.125226976489768
Crow and Black cockatoo,CB10 2NU,52.005249024068600,0.373596274195754
Buzzard and Stint,CB10 2TN,52.025199109311300,0.256708861191421
Boto and Stilt,CB24 9NA,52.245422638142500,0.111681300495861
Eagle and Marmoset,CB1 3BY,52.198979753303100,0.149018734087279
Coati and Logrunners,CB2 9BN,52.168403877483600,0.123052000000000
Elephant and Ice seal,CB4 1PR,52.217679461571000,0.137828999361802
Shearwater and Stilt,CB4 2UX,52.232966749354400,0.124826766055464
Elephant and Darwin's finches,CB8 0SH,52.165724112129800,0.381383325236086
Bunting and Tit-tyrant,CB4 3SD,52.223141142208200,0.115177398737536
Stilt and Thrasher,CB3 9JT,52.196384496874600,0.109473012503035
Triller and Mink,CB4 3FE,52.224127030774900,0.117918297809371
Pitohui and Tit-tyrant,CB2 8AN,52.190086439437200,0.125402000000000
Pheasant and Herring gull,CB9 9QW,52.085875184883500,0.411271629700736
Kite and Fox,CB25 9FQ,52.262661822931500,0.153386544054011
Argus and Nukupuʻu,CB5 8UT,52.212996411202600,0.172194258733506
Triller and Quetzal,CB25 9JU,52.269497124057900,0.190448008753031
Jackal and Chicken,CB3 0JR,52.238131472376100,0.082262086843643
Pratincole and Cuscus,CB1 2EH,52.199621749142300,0.130479419045227
Parakeet and Nukupuʻu,SG8 8SD,52.030022662400600,0.059196340353927
Fulmarine petrel and Mouse,CB9 7XB,52.070048687171700,0.467284062662584
Meadowlark and Eagle,CB2 1HP,52.197206085539100,0.124320464295937
Mouse and Chipmunk,CB11 3DL,52.018743779055500,0.244884295133774
Booted eagles and Lemming,CB8 8LP,52.246835720134200,0.403510552026990
Petrel and Tit-tyrant,CB11 3EG,52.015441321430200,0.251597787558596
Darwin's finches and Cloud rat,CB9 0HT,52.083684266342800,0.444037000000000
Eagle and Capuchin,CB8 9HY,52.158094935816500,0.501847143083874
Pitohui and Vole,CB10 2JL,52.057869244342800,0.313219856138678
Grosbeak and Booted eagles,CB2 9DL,52.178978000000000,0.124437252124106
Zebra and Parakeet,CB25 0LD,52.251821708860100,0.295226000000000
Bunting and Kestrel,CB8 0GG,52.185177000000000,0.370602000000000
Nukupuʻu and Quetzal,CB9 7YA,52.087500113865400,0.417986624415857
Marmoset and Stint,CB23 1JH,52.149892581978800,0.047957327649970
Grouse and Nukupuʻu,CB9 9DD,52.082147973705200,0.423316716178430
Scimitar babbler and Pitohui,CB9 7WL,52.086333799378400,0.406873364639222
Black jay and Cuscus,CB10 2HB,52.054313065363700,0.311953000000000
Puffleg and Grouse,CB22 4QT,52.100522000000000,0.138953000000000
Fish eagle and Old World quail,CB4 1SU,52.226357055269500,0.144249337020526
Civet and Parrotbill,CB22 7NY,52.135459949893100,0.081371744406379
Recurvebill and Towhee,CB22 5LT,52.147452506688800,0.139086000000000
Civet and Darwin's finches,CB9 7XN,52.065336836575700,0.482680046941971
Francolin and Grackle,SG8 6QL,52.111449460084800,0.036176199469678
River dolphin and Mamo,CB9 8JT,52.079085727529100,0.433148399101307
Macaw and Guillemot,CB2 3QY,52.202199990714200,0.118631637970653
Ice seal and Eagle,CB22 3JQ,52.118598690561200,0.167761759936383
Chickadee and Songlark,CB11 3AU,52.019433295675600,0.254450956017141
Jay and Tree warbler,CB10 2JD,52.061531206178600,0.323169151213856
Prion and Tahr,CB5 8QD,52.215205737316200,0.155551000000000
Towhee and Bronzewing pigeon,CM7 4PA,51.981878947479300,0.497823871981118
Solitaire and Moluccan boobook,CB24 9HY,52.253201285432400,0.094483797969561
Kestrel and Cloud rat,CB2 9DF,52.177850000000000,0.122431000000000
Magpie and Lemming,CB4 1XW,52.221918232238400,0.135148301883967
River dolphin and Marsh harrier,CB22 4RF,52.094463534268000,0.150108688132989
Old World warbler and Prion,CB1 0WP,52.192267000000000,0.137208000000000
Ibex and Ibex,CB2 9DU,52.169617000000000,0.124686000000000
Towhee and Cloud rat,CB4 1UF,52.222921248640300,0.154171775174001
Argus and Vulture,CB21 4LL,52.101019047965200,0.286263248647372
Old World vulture and Bronzewing pigeon,CB1 2QZ,52.208682000000000,0.142681000000000
Grosbeak and Bunting,CB1 3DL,52.198344000000000,0.153142000000000
Scimitar babbler and Grosbeak,CB21 4TP,52.063577392781500,0.351477302575816
Coati and Jay,CB10 1AX,52.023436541250800,0.238807728821450
Minke whale and Piping shrike,CB4 0QA,52.236689403706300,0.138462000000000
Kākāriki and Tit-tyrant,CB4 2UT,52.233575800542100,0.124460442685498
Solitaire and Nukupuʻu,CB4 1RJ,52.219888246660000,0.146426562648064
Peafowl and Masked owl,CB1 8DW,52.186316880709500,0.165363568158872
Hawaiian honeycreeper and Stint,CB9 0HR,52.084430106454600,0.443875876102583
Partridge and Minke whale,CB22 7SF,52.131683931821800,0.019917000000000
Ibex and Prion,CB2 0SB,52.175853684898100,0.139055000845673
Tahr and Moluccan boobook,CB8 0QW,52.248499800683900,0.387983043126771
Treepie and Night heron,CB1 3BB,52.201606032972900,0.147008820945029
Recurvebill and White ibis,CB22 4RD,52.094416000000000,0.153289000000000
River dolphin and Shearwater,CB1 2PP,52.203208428744000,0.141466234622454
Kangaroo and Goose,CO9 4DD,52.053488299924700,0.501204624350331
Francolin and Old World quail,CB4 2QW,52.230637121600900,0.142273650038457
Solitaire and Condor,CB9 9QE,52.083931593141700,0.415720964227420
Masked owl and Piping shrike,CB11 3RX,51.979445142350900,0.216037090383019
Jackal and Scimitar babbler,CB9 7WR,52.086158794475200,0.408396659733984
Triller and Chipmunk,CB1 2AN,52.201623068652200,0.135170364549987
Petrel and Ibex,CB24 6ZL,52.241791000000000,0.157942000000000
Wader and Bunting,CB2 9JN,52.171260552807800,0.117029578829292
Grouse and Pheasant,CB25 9FE,52.266202171084200,0.159918719782135
Tit-tyrant and Boto,CB10 1EA,52.020151060160700,0.239926273508369
Dolphin and Goose,CB23 1EX,52.167563000000000,0.032888000000000
Night heron and Pheasant,CB8 9XE,52.193545319370500,0.384553076796289
Perching duck and Buzzard,CB22 3HX,52.114070843400800,0.168024058140339
Warbler and Parrotlet,CB11 4SG,51.975791000000000,0.106069000000000
Old World warbler and Minke whale,CB2 3EQ,52.202867225345800,0.121531803107596
Greenbul and Wader,CB5 8UB,52.214808196963300,0.172443692496881
B and Crow,CB10 2EY,52.053592393598700,0.314710000000000
Cuscus and Parrotlet,CB25 0LG,52.256096000000000,0.287828000000000
Marsh harrier and Crow,CB22 4SE,52.095272705684700,0.155038476018328
Kākāriki and Kestrel,CB22 5AB,52.153773240130400,0.145276341068352
Petrel and Asiatic leopard,CB1 7BY,52.188650000000000,0.144029000000000
Myna and Coati,CB1 9YZ,52.187350095651700,0.184504000000000
Jay and Duck,CB21 4YS,52.099251081933700,0.287472332657004
Old World warbler and Lemming,CB11 3JG,52.018416478901100,0.240349724423374
Jerboa and Petrel,CB4 3PZ,52.217938513597300,0.107434611732477
Perching duck and Armadillo,CB4 2UR,52.233228549879600,0.123770198252634
Shearwater and Petrel,CB3 0EX,52.213614055521100,0.086125000000000
Rat and Cuscus,CB11 4LN,52.006367486873600,0.205535549486836
Dolphin and Logrunners,CB9 9EF,52.084014460551000,0.437459821961820
Argus and Kite,CB25 9BQ,52.220110000000000,0.265920000000000
Towhee and Guillemot,CB4 2ED,52.218269027455700,0.126101464585192
Maya and Argus,CB25 0RA,52.270634149753100,0.331084088447109
Dorcopsis and Fish eagle,CB3 0PJ,52.238524000000000,0.083915530805401
Skunk and B,CB2 9NZ,52.165047000000000,0.110571726259531
Minke whale and Night heron,CB5 8UZ,52.206954141717900,0.165327804807878
Meadowlark and Petrel,CB9 0EF,52.091559622212300,0.438309126755294
Prion and B,CB1 9JA,52.185616139865000,0.169732926167327
Rat and Fish eagle,CB1 1JN,52.204944486791500,0.126519021987962
Thicketbird and Rabbit,CB21 6GP,52.118625000000000,0.223841000000000
Minke whale and Treepie,CB22 5AD,52.154127475744600,0.148538765144729
Macaw and Shearwater,CB10 2DL,52.030076487251700,0.242871553806134
Thrasher and Kestrel,CB1 9HD,52.184527043564800,0.174185606538987
Duck and Goose,CB1 2EU,52.198780358891200,0.128273417679076
Rabbit and Ground sloth,SG8 8QE,52.034332307864900,0.105349235744240
River dolphin and Peafowl,CB4 1AT,52.216745281390800,0.131811250949667
Wallaby and Crow,CB1 8RD,52.183111373002700,0.156767220815554
Skunk and Partridge,SG9 0BF,51.979812773800000,0.045738338800000
Thrasher and Scimitar babbler,CB10 2HW,52.055904420125400,0.313906039504060
Logrunners and Dorcopsis,CO9 4PE,52.011763801826100,0.470881159856269
Boto and Maya,CB22 5AX,52.150301174134100,0.141381915157813
Myna and Thrasher,CB9 0LF,52.077524152566700,0.456400154952614
Philippine hawk-owl and Moluccan boobook,CB23 1NB,52.150943429082700,0.056293744567021
Elephant and Booted eagles,CB9 8BE,52.082060156193500,0.435426636712119
Old World vulture and Tree warbler,CB3 9AY,52.199468353093700,0.102509000000000
Condor and Tattler,CB11 4RN,51.976235020867200,0.138720347822489
Thicketbird and Eagle,CB2 9DN,52.178059000000000,0.124066000000000
Tahr and Grosbeak,CB24 6UB,52.245093025235100,0.169074126901524
Fish eagle and Towhee,CB4 3JR,52.218387243829200,0.115522444418760
American sparrow and Quetzal,CB11 3NS,52.023114000000000,0.259634000000000
Pitohui and Darwin's finches,CB25 9PS,52.270529786246900,0.186644060134475
Buzzard and Prion,CB25 9WJ,52.241328000000000,0.244443000000000
Solitaire and Condor,CB25 9DE,52.222411240343700,0.261205447756891
Quetzal and Egret,CB9 7XW,52.064095882795000,0.485237452890897
Tit-tyrant and Booted eagles,CB10 1UY,52.040658827586700,0.246259440384906
Ice seal and Minke whale,CB8 9UW,52.192139000000000,0.384342581415049
Francolin and Polecat,CB9 9DS,52.082556064145100,0.415705049849786
Boto and Macaw,SG8 8JH,52.024665489631400,0.031109392155576
Pheasant and Cloud rat,CB23 7BB,52.183896169084200,0.053337469816181
Siskin and Vulture,CB8 0AF,52.252668127070300,0.395283839347483
Moluccan boobook and Moluccan boobook,CB21 4XN,52.093443000000000,0.272590000000000
Partridge and Ice seal,CB8 9XS,52.195457424137600,0.390933017679846
Booted eagles and Pheasant,CB5 8DL,52.209210227740800,0.132299412299938
Solitaire and Magpie,CB9 9BE,52.085930257846700,0.421873000000000
Fulmarine petrel and Black cockatoo,CB9 8QF,52.074244131141000,0.448514677963507
Macaw and Armadillo,CB2 8BT,52.188642000000000,0.127519764276576
Night heron and Duck,CB11 4GN,52.014235803974800,0.243186627125655
Tattler and Rabbit,CB11 3NT,51.989353000000000,0.290897000000000
American sparrow and Jerboa,CB2 9AG,52.170735930734900,0.110233590967154
Chicken and Prion,CB8 8HS,52.243954331281700,0.410752575301332
Pheasant and Stilt,CB2 1RT,52.200231936919700,0.116562441296492
Guillemot and Peafowl,CB1 3LS,52.196335321704700,0.144120887220067
Mole and Buzzard,CB11 4TF,52.032073973854500,0.206625634417285
Grouse and Treepie,CB2 9AT,52.169029285425800,0.119553000000000
Lemming and Booted eagles,CB23 8AL,52.226188006270900,0.042566000000000
Polecat and Moluccan boobook,CB11 3RQ,51.986856911924800,0.214014445254677
Crow and Egret,CB4 2LE,52.226970802659500,0.130221832885552
Macaw and Ice seal,CB4 1RS,52.223595523084300,0.148259878258040
Dorcopsis and Magpie,CB4 0DP,52.232282672745300,0.151168914882112
Mouse and Jay,CB10 1NN,52.063596094462100,0.196770421997228
Black jay and Mockingbird,CB1 3BS,52.201503401048200,0.149681975471119
Masked owl and Siskin,CB10 2XR,51.980980313383300,0.322536916125078
Coati and Dorcopsis,CB2 9FH,52.173758000000000,0.120481000000000
Meadowlark and Argus,CB8 9RS,52.207908818434400,0.454995517437276
Chipmunk and Prion,CO9 4BG,52.052285124418000,0.487528243865125
Thicketbird and Piping shrike,CB24 3DT,52.274028814267700,0.053909769292721
Chickadee and Viscacha,CB11 4XG,52.033197469416500,0.174154000000000
Rabbit and Shearwater,CB4 2TR,52.232873847589200,0.127487665960552
Duck and Hawaiian honeycreeper,CB4 2QR,52.229469200765500,0.144692189407778
Pheasant and Perching duck,CB4 2HB,52.225843498595100,0.119420352820262
Thicketbird and Pitohui,CB1 0AH,52.192254000000000,0.137179000000000
Macaw and Coati,CB22 3NP,52.123177090034500,0.167955000000000
Viscacha and Stilt,CB8 8BB,52.240670320092400,0.408909000000000
New World blackbird and Elephant,CB11 4TJ,52.035320846411800,0.209468294433084
Francolin and Capuchin,CB8 8EL,52.241264721695400,0.418267771056192
Mamo and Thicketbird,CB9 7FS,52.088013750524800,0.406073319071784
Stint and Scimitar babbler,CB4 2SL,52.230762275978100,0.126405544562893
Fish eagle and Dorcopsis,CB9 0AE,52.087699957616100,0.442740776008614
Puffleg and Kestrel,CB11 4JG,52.024066298739300,0.215968528541695
Vole and Prion,CB3 9DH,52.206486000000000,0.106293000000000
Grouse and Tattler,CB9 8NG,52.076203593502400,0.429445267045538
Mole and Asiatic leopard,CB10 1AR,52.022763310520000,0.238625000000000
Condor and Treepie,CB1 9BD,52.201190823551900,0.192077346356491
Polecat and Tahr,CB2 9NB,52.168234748609400,0.117280758095396
Guillemot and Meadowlark,CB10 2TE,52.009296179200000,0.339872079272720
Ibex and Badger,CB22 5FT,52.151487000000000,0.093637000000000
Magpie and Bunting,CB4 3RR,52.223253717695900,0.113411126147058
Viscacha and Moluccan boobook,CB22 3HY,52.122506079831800,0.163583435022225
Kākāriki and Armadillo,CB10 2RP,51.994331136052000,0.394957000439432
Old World vulture and Parrotbill,CB1 2SN,52.201786663908400,0.140300000000000
Hawk and Parakeet,CB1 0YY,52.192254000000000,0.137179000000000
Myna and Towhee,CB23 7AQ,52.178765882030200,0.060838698141251
Rabbit and Tahr,CB22 5EJ,52.148618480682300,0.132516319766901
Towhee and Tahr,CB4 3SF,52.224962183648200,0.116420677746115
Marmoset and Maya,CB5 8JB,52.213501663864700,0.143586188039519
B and Dorcopsis,CB11 3EW,52.014717688554100,0.246169220046370
Francolin and Greenbul,CB22 3HG,52.113504982510400,0.180177701541910
Kangaroo and Masked owl,CB1 3UD,52.190155329126700,0.163955355567518
Moluccan boobook and Masked owl,CB22 6RX,52.112603000000000,0.066578000000000
Skunk and Cuscus,SG8 6RB,52.099677017280600,0.037333646797571
Towhee and Civet,CB8 9EB,52.226045505526500,0.484682460957233
Warbler and Fox,CB4 2EX,52.234163000000000,0.121384000000000
Diving bird and Dorcopsis,CB2 9JZ,52.172569829730100,0.113216159970240
Kākāriki and Gull,CB21 5LE,52.203337000000000,0.260427000000000
Myna and Recurvebill,CB1 3TG,52.187874391590500,0.159865227306466
Night heron and Linsang,CB1 0SB,52.204823965955800,0.119224803438048
Mouse and Dorcopsis,CB25 0HX,52.257777326490100,0.303679000000000
Siskin and Mole,CB11 4TQ,52.035163320203200,0.207798389414748
Armadillo and Old World quail,CB1 1BN,52.205271435104600,0.134803767881679
Goose and Old World warbler,CB1 3TW,52.187311400810200,0.161637404590958
Armadillo and Buzzard,CB24 9AB,52.251215371782900,0.125596265279890
Pratincole and Armadillo,CB2 9DS,52.168489655600000,0.125160268100000
Meadowlark and American sparrow,CB1 2FJ,52.192973609587600,0.135180078040543
Grouse and Quetzal,CB3 1AE,52.217056000000000,0.086076000000000
Peafowl and Eagle,CB11 4TD,52.034078360652000,0.209071690551023
Buzzard and Songlark,CB21 4RX,52.120895791311700,0.346020940018095
Parrotbill and Black cockatoo,CB9 7FF,52.091020673292000,0.418206214784345
Skunk and Coati,CB2 9FT,52.169772000000000,0.107819000000000
Argus and Scimitar babbler,CB24 9PW,52.245013576900300,0.106048000000000
Viscacha and Maya,CB22 5BL,52.147264202965700,0.153104883612333
Prion and Chickadee,CB10 9SQ,52.018954198350100,0.236703662159996
Grouse and Cloud rat,CB4 3ER,52.219892118464300,0.117848593836986
Eagle and Grouse,CB8 0BH,52.255765811377500,0.395069803179348
Masked owl and Piping shrike,CB1 3DJ,52.198668040186500,0.154769299335443
Hawaiian honeycreeper and Prion,CB9 9DB,52.081650936371400,0.423435743830324
American sparrow and New World blackbird,CB8 8EF,52.244442708710700,0.405769016370282
Rat and Minke whale,CB22 3HJ,52.119809105645200,0.168930683900214
Stint and Chipmunk,CB25 9FL,52.220276315588600,0.257217095085299
Grackle and Duck,CB3 1BG,52.220224000000000,0.086957000000000
Armadillo and Snipe,CB10 9TN,52.018954198350100,0.236703662159996
Stint and Marsh harrier,CB4 1SL,52.226049561511900,0.145830553033172
Bronzewing pigeon and Capuchin,CB3 0QN,52.238968471394000,0.077116370777005
Shearwater and Siskin,SG8 8JB,52.025952346091600,0.038339465254427
Peafowl and Mamo,CB22 5EF,52.154250000000000,0.135446000000000
Hawaiian honeycreeper and Philippine hawk-owl,CO9 4BU,52.033045000000000,0.482684000000000
Crow and Warbler,CB1 3SX,52.188986868897200,0.156071371133341
Maya and Kestrel,CB3 9AF,52.205436303965000,0.102086335788193
Goose and Shearwater,CB2 1NZ,52.196254019298100,0.132235231875571
Cuscus and Nukupuʻu,CB8 8LY,52.244890498764900,0.408503380529919
Polecat and Linsang,CB9 7DQ,52.043599334332000,0.448851450583749
Mole and Rat,CB4 1PE,52.220977938610900,0.150285734365479
Black jay and Stilt,CB3 0AH,52.212429539602300,0.112794801981290
Pitohui and Flameback,CB4 1TL,52.222453902924200,0.150708438890044
Darwin's finches and Maya,CB9 8QP,52.072792683188400,0.428705509274815
Parrotbill and Skunk,CB23 7DJ,52.191877894052400,0.028042469270834
Moluccan boobook and Warbler,CB22 7SB,52.124862923124400,0.023785614734502
Meadowlark and Puffleg,CB4 1BS,52.219665137098100,0.152257328703594
Puffleg and Mink,CB4 3RN,52.224402987178700,0.114007454757711
Puffleg and Pitohui,CB8 9YL,52.138926000000000,0.507276000000000
Mouse and Rabbit,CB4 1EL,52.225649000000000,0.137275000000000
Linsang and Thicketbird,CB21 6GS,52.116581464032300,0.220101896271780
Zebra and Minke whale,CB10 2DA,52.027276770471000,0.248693706577201
Kestrel and Grosbeak,CB3 9AP,52.200475099010700,0.103974114282549
Parrotbill and Fox,SG8 6QH,52.112440000000000,0.035111000000000
Parrotbill and Ice seal,CB1 7AX,52.179688750747200,0.147766679112977
Mouse and Parakeet,CB11 3JH,52.023117000000000,0.260306000000000
Linsang and Prion,CB9 7HP,52.048840505216700,0.407482872648037
Ibex and Thrasher,CB23 7AW,52.177816000000000,0.062349291405111
White ibis and Cuscus,CB8 0FB,52.248912482041600,0.403974447268730
Vole and Night heron,CB1 1QH,52.205392620355000,0.137546450849909
Egret and Chickadee,CB3 9HX,52.195894651216900,0.111220349793645
Hawk and Warbler,CB2 3NB,52.205275118953400,0.120300000000000
Goose and American sparrow,CB11 4TB,52.034583546662300,0.210423374191954
Gull and Eagle,CB9 9BJ,52.085401744732600,0.423390854189945
Snipe and Marmoset,CB9 7JS,52.140383847973300,0.455020838539283
Rat and American sparrow,CB11 3QU,51.982360930573300,0.208258760902203
Quetzal and Civet,CB9 9PJ,52.079739797320800,0.418413605602772
Chicken and Kestrel,CB8 0JY,52.244470713097100,0.398651006860297
Wallaby and Dolphin,CB10 2EB,52.029109832827400,0.246409427116256
Parrotlet and Egret,CB23 1ES,52.152073189696200,0.028966362574963
Gull and Capuchin,CB25 9NF,52.267552357838700,0.195423212025520
Grouse and Philippine hawk-owl,CB1 0NA,52.192267000000000,0.137208000000000
Capuchin and Solitaire,CB11 3YY,52.022946584712100,0.238564613561069
Egret and Meadowlark,CB23 8SJ,52.250686000000000,0.020164059314393
Snipe and Grosbeak,CB2 7EG,52.190310480505500,0.118753899470335
Bunting and Parrotlet,CB21 4PS,52.083978772429500,0.311607003139324
Warbler and Pratincole,CB22 6SQ,52.112988994159200,0.062959230336415
Elephant and River dolphin,CB22 3JX,52.125039960688800,0.176387146791960
Macaw and Black jay,CB4 1JS,52.212279874477900,0.134100515210905
Flameback and Philippine hawk-owl,CB3 0BT,52.213240577326200,0.111691510789666
Polecat and River dolphin,CB11 3TH,51.988052557837100,0.214510371703891
Guillemot and Cloud rat,CB8 7QS,52.275444000000000,0.503747000000000
Armadillo and Puffleg,CB21 5GT,52.189899000000000,0.229430000000000
Greenbul and Perching duck,CB4 1JE,52.213375167614200,0.132703827004299
Guillemot and Towhee,CB25 0LX,52.236461331374700,0.276873460087862
Flameback and Mamo,CB21 6AW,52.119435018787100,0.217073851708040
Mamo and Badger,CB2 9AB,52.169188000000000,0.109327000000000
Chicken and Cuscus,CB9 0EP,52.079252000000000,0.447753000000000
Vole and Bunting,CB3 9JJ,52.194335000000000,0.112060059870894
Badger and Hawaiian honeycreeper,CB9 7HE,52.106105029650500,0.451530657051814
White ibis and Parrotbill,CB4 1EA,52.192254000000000,0.137179000000000
Parakeet and Lemming,SG8 8JR,52.026419000000000,0.041022503703656
Ibex and Petrel,CB4 1JW,52.211431901232900,0.135245520226764
Perching duck and Parrotbill,CB25 9BU,52.245376000000000,0.230935000000000
Minke whale and Pheasant,CB23 7PZ,52.196534000000000,0.070133000000000
Nukupuʻu and Fox,CB10 9EU,52.022986000000000,0.238535000000000
Old World vulture and Mink,SG8 7TH,52.097591267909200,0.065212487297148
Marmoset and Armadillo,CB21 4PQ,52.081337000000000,0.275551000000000
Goose and Logrunners,CB1 9JN,52.183135434729500,0.174556570778784
Jay and Puffleg,CB8 9EP,52.222881000000000,0.461107000000000
Mamo and Black cockatoo,CB1 1HZ,52.207809710377500,0.135159641217119
Treepie and Quetzal,CB22 4PG,52.116652000000000,0.137456591568800
Minke whale and Towhee,CB9 7JE,52.140399350379100,0.454276318418096
Logrunners and Tahr,CB21 5DB,52.177003505175600,0.225143059558022
Egret and Triller,CB3 9DQ,52.200977260734600,0.105563690588597
New World blackbird and Puffleg,SG8 8UA,52.034422926790900,0.107321748896228
Elephant and Myna,CB25 9DB,52.223008595752200,0.260064457718854
Civet and Shearwater,CB4 0WX,52.229349095455300,0.156708800949668
Chicken and Solitaire,CB4 3LH,52.216990152782900,0.111693708471865
Coati and Fox,CB3 0LU,52.225896585201900,0.089215692901649
Booted eagles and Booted eagles,CB24 9JG,52.254469636104900,0.104565363803903
Gull and Crow,CB8 7PT,52.272810567472000,0.500226832815919
Philippine hawk-owl and Maya,CB4 2QL,52.237834000000000,0.132705000000000
Grouse and Herring gull,CB22 7SH,52.124174093224900,0.023579098396509
Black jay and Siskin,CB4 1SB,52.222143801036600,0.144031695296543
Stint and Wallaby,CB1 2AL,52.201944933650100,0.134278452865565
Dorcopsis and Peafowl,CB24 9WZ,52.251936504244800,0.106437975593036
Peafowl and Snipe,CO10 8UB,52.058969842540700,0.503509570762617
Tit-tyrant and Civet,CB8 9EG,52.227888995514000,0.493205719620574
Petrel and Vulture,CB8 9DZ,52.224235927250200,0.485635687066116
Fulmarine petrel and Crow,CB10 2BE,52.024632840905600,0.254348056613364
Kestrel and Black cockatoo,CB11 4HE,51.992981621103200,0.159736401813977
Badger and Siskin,SG8 8QU,52.026837403189500,0.114950000000000
Jerboa and Fulmarine petrel,CB10 2HN,52.054956011377400,0.308620343384318
B and Grouse,CB8 8WF,52.246747829918900,0.486308135672103
Minke whale and Masked owl,CB10 1XG,52.056866423318200,0.261120151785279
Chickadee and Boto,CB23 8SF,52.251678893197200,0.027179762985805
Hawaiian honeycreeper and Ground sloth,CB9 9DZ,52.083640817868800,0.437264298793631
Dolphin and Scimitar babbler,CB8 7DH,52.257531765436900,0.415196367425974
Ground sloth and Black cockatoo,CB4 3RS,52.222469741427200,0.117517373221978
Macaw and Rabbit,CB25 9JJ,52.239804484229800,0.184693718839989
Philippine hawk-owl and Piping shrike,CB3 0RZ,52.224464000000000,0.098313000000000
Chickadee and Night heron,CO9 4DB,52.051095649637000,0.500385411461151
Partridge and Macaw,CB22 3UN,52.116928188056900,0.172048116874305
Bronzewing pigeon and Booted eagles,CB21 5DN,52.185082316592100,0.217295556077048
Night heron and Towhee,CB4 1BL,52.212856172628600,0.140012674475590
Herring gull and Magpie,CB8 7RP,52.264147380080400,0.385262600462497
Bunting and Stint,CB23 7BL,52.181038000000000,0.059496000000000
Macaw and Guillemot,CB3 0JG,52.228412463101200,0.083725493209008
Ground sloth and Thicketbird,CB22 3EQ,52.108456220920700,0.171930000000000
Ibex and Grouse,CB9 9DX,52.083022562999600,0.423641435363687
Black jay and Peafowl,CB5 8EL,52.215140000000000,0.157836000000000
Old World warbler and Zebra,CB4 2GN,52.233519662348500,0.122583212635001
Cloud rat and Dorcopsis,CB4 2EF,52.234413000000000,0.119477000000000
Logrunners and Philippine hawk-owl,CB22 4RS,52.089962000000000,0.156359000000000
Herring gull and Greenbul,CB25 9GJ,52.270797000000000,0.200697000000000
Eagle and Thicketbird,CB2 3NR,52.205663646571900,0.118532975795208
Chickadee and Francolin,CB21 4NW,52.096039638618000,0.270327995658643
Mamo and Ice seal,CB9 9HN,52.089391000000000,0.425811000000000
Towhee and Old World vulture,CB5 8JD,52.213191472665900,0.143337040130847
Bronzewing pigeon and Logrunners,CB4 1FZ,52.224346351371200,0.134137371076860
Fox and Dorcopsis,CB3 0PY,52.238495000000000,0.079650181251909
Badger and Flameback,CB9 9SE,52.094473157841100,0.429167795586065
Marsh harrier and Ibex,CB1 7XD,52.183976671122100,0.149363000000000
Vole and Jay,CB3 9LP,52.201774114034300,0.096162164260661
White ibis and Marsh harrier,CB25 9EF,52.226741772662400,0.261396230229702
Francolin and Kangaroo,CB1 3LW,52.194721000000000,0.148892033510269
Capuchin and Partridge,CB4 1YF,52.225260000000000,0.136392000000000
Boto and Rabbit,CB24 9EH,52.253986612528600,0.103414322050688
Tree warbler and Badger,CB9 7SF,52.107140623300900,0.423634999480298
Vole and Mouse,CB11 4RX,51.992783639796600,0.106633113671717
White ibis and Guillemot,CB21 4QY,52.091856055894600,0.363738364738331
Viscacha and Nukupuʻu,CB3 9BB,52.198657692775500,0.101005491323521
Jay and Darwin's finches,CB9 7GH,52.089328071182600,0.419618302079016
Petrel and Flameback,CB2 3NZ,52.205808078566700,0.119711000000000
Civet and Peafowl,CB9 7FB,52.092838000000000,0.404540943431914
Grouse and Lemming,CB10 2PF,52.014392401781600,0.377709177162655
Crow and Peafowl,CB9 0PH,52.080509065999500,0.454272582839893
Chickadee and Zebra,CB23 7PL,52.210092310917000,0.062961597526990
Triller and Ground sloth,CB3 1AG,52.219281000000000,0.086371000000000
Asiatic leopard and Tree warbler,CB8 8FT,52.242748000000000,0.404286000000000
Wallaby and Mole,CB8 7HW,52.260056952839800,0.365552821969868
Parrotlet and Argus,CB22 3SN,52.125538391198800,0.177638641334160
Vulture and Flameback,CB11 3RJ,51.986009573546800,0.212210383376741
White ibis and Solitaire,CB11 3AG,52.019545893798000,0.250914852000411
Recurvebill and Mink,CB4 1LQ,52.222074348073100,0.136458856186503
Nukupuʻu and Coati,CB25 9AE,52.218530805086300,0.217878090715659
Towhee and Moluccan boobook,CB1 2NN,52.203170224263000,0.133649329082939
Black jay and White ibis,CB5 8QF,52.215611621860500,0.158063369626629
Kākāriki and Civet,CB1 3SE,52.191284671586400,0.151866392407228
Kestrel and Piping shrike,CB8 7BG,52.263999270335100,0.391248803593173
Old World vulture and Rat,CB25 9LH,52.269263040281800,0.197237256578287
Partridge and Pratincole,CB1 3RQ,52.195353208283300,0.140269193138336
Parakeet and Cloud rat,CB8 0NP,52.244935000000000,0.390472000000000
Asiatic leopard and Black jay,CB24 6BS,52.241888248171500,0.164687000000000
Pheasant and Crow,CB10 9TE,52.018954198350100,0.236703662159996
Piping shrike and Magpie,CB22 3SP,52.121346089589700,0.175798128310446
Hawk and Chicken,CB10 1LN,52.022327815004500,0.244145490947787
Recurvebill and Partridge,CB11 4LX,52.037022799108100,0.133732757851644
Fox and Macaw,CB4 2JN,52.227491321777800,0.122793496994648
Philippine hawk-owl and Chicken,CB1 7SX,52.180880805682300,0.145951831017270
