name,postcode,lat,lon
New World blackbird and Kite,TS10 4HT,54.597043902938100,-1.075344003312910
Greenbul and Tahr,TS12 2NZ,54.567460355279400,-0.945873766759981
Thicketbird and Bronzewing pigeon,YO21 3HA,54.490028000000000,-0.616949000000000
Fish eagle and Hawk,TS12 2EH,54.557274461687200,-0.960037920523351
Cloud rat and Grackle,TS6 6SZ,54.570856303723900,-1.169704728033420
Hawk and Condor,TS9 7LD,54.350875452828400,-1.122741702565810
Tahr and New World blackbird,TS6 9GF,54.561549000000000,-1.139938000000000
Kākāriki and Condor,TS7 8NR,54.529636186428900,-1.192854604900660
Petrel and Hawk,YO22 5EW,54.449332153449400,-0.667535952800739
Boto and Hawk,TS7 0HN,54.531205506667100,-1.169767635523980
Old World warbler and Fox,TS9 5JT,54.489043457070100,-1.193206476019940
Puffleg and Stint,TS6 0DB,54.564210880467700,-1.166514622051420
Mamo and Stilt,YO22 4RX,54.431920079176400,-0.533081686509802
Tattler and Diving bird,YO13 0DT,54.349886534113200,-0.516172139815567
Francolin and Diving bird,TS9 5FH,54.469219051528000,-1.201110856612820
Gull and B,TS13 5BZ,54.559262478313200,-0.793670304386486
Fulmarine petrel and Parrotbill,TS7 9DE,54.544766000000000,-1.174704222152390
Prion and Condor,YO22 5PR,54.438769879557300,-0.715523695131301
Parrotbill and Guillemot,TS7 0HR,54.530795970131000,-1.170332250061160
Armadillo and American sparrow,YO22 4UP,54.427379029165200,-0.546886339656003
Hawk and Mamo,TS13 4NL,54.553053028758100,-0.853861171854870
Kākāriki and Kākāriki,YO21 3LY,54.486104213585700,-0.641178452329033
Solitaire and Coati,TS3 9JF,54.565415000000000,-1.184786000000000
Grosbeak and Parrotbill,TS12 2RP,54.571493099704500,-0.942490368551645
Fox and Mole,TS3 7RU,54.554755736654700,-1.198342614733500
Fulmarine petrel and Black jay,TS7 8LR,54.523981168826600,-1.200660383881610
Recurvebill and Pitohui,YO21 2DG,54.443865138663200,-0.985704374698233
Kite and Booted eagles,TS7 9RB,54.547760360276300,-1.168534973189510
Quetzal and Hawaiian honeycreeper,YO22 4UN,54.429836000000000,-0.547971000000000
Piping shrike and American sparrow,TS10 4FQ,54.599354000000000,-1.076050000000000
Lemming and Peafowl,TS12 2YQ,54.560424726046300,-0.967937431099372
Cloud rat and Wader,TS6 7HY,54.573958000000000,-1.146515000000000
Mole and Mouse,TS9 6DX,54.492126504311800,-1.132256834675150
Elephant and Maya,TS12 2EJ,54.560450302271900,-0.987994164920253
Greenbul and Greenbul,TS6 6HJ,54.577000250526300,-1.177129438833940
Grackle and Elephant,TS6 0HZ,54.557110512397200,-1.167741780533520
Songlark and Kite,TS3 8JY,54.565609535052400,-1.199305171574690
Triller and Tree warbler,TS12 2DD,54.555035885972200,-0.985207000000000
Guillemot and Egret,TS7 8QG,54.532616309392400,-1.193661229557070
Black jay and Linsang,TS11 6EX,54.592685837921100,-1.028378543740200
Duck and Ice seal,TS7 9AY,54.541719036353700,-1.177452845724500
Fish eagle and Treepie,TS13 5LD,54.545677194345500,-0.772598267137788
Philippine hawk-owl and Moluccan boobook,TS6 6DT,54.571501315434100,-1.182607688219650
Kite and Puffleg,TS14 6QQ,54.533224778071800,-1.054070000000000
Black jay and Logrunners,TS13 5HE,54.535919827436100,-0.773787452750331
Puffleg and Old World vulture,TS14 8LD,54.523829608316900,-1.063234000000000
New World blackbird and Goose,TS6 7LN,54.571288861829000,-1.141528185641150
Recurvebill and Vole,TS10 4GN,54.599195824643400,-1.077880377465250
Wallaby and Darwin's finches,TS6 9LB,54.559668036621600,-1.141462956529370
Old World vulture and Bronzewing pigeon,TS6 6AB,54.582228000000000,-1.176480020585900
Meadowlark and Civet,TS13 5DQ,54.558699324555400,-0.791274525365228
Hawk and Piping shrike,TS6 6TR,54.576848000000000,-1.157454000000000
Rat and Eagle,TS13 4TS,54.512384000000000,-0.848945000000000
Mink and Diving bird,YO21 2DS,54.456735164548000,-0.960198000000000
Meadowlark and Buzzard,TS14 8PH,54.531965892556100,-1.077464156087680
Ground sloth and Nukupuʻu,YO22 5BF,54.430009337223000,-0.734296656172267
Myna and Parrotbill,YO18 8RQ,54.368209097606000,-0.904513157182030
Vulture and New World blackbird,YO21 3QR,54.485464067806300,-0.658704916970547
Chipmunk and Tattler,TS3 9GW,54.563976849466900,-1.184521371632730
Mink and Tit-tyrant,YO62 7LE,54.368119479098900,-0.964637269570422
Linsang and Warbler,TS6 9DZ,54.559347106256400,-1.152031457801320
Hawaiian honeycreeper and Pratincole,TS6 0ND,54.556520760410900,-1.155259931019130
Gull and Grackle,TS10 4JD,54.595043056235100,-1.076952538107440
Night heron and Thrasher,TS11 7NE,54.595265527746800,-1.018396031561750
Herring gull and Cloud rat,YO21 2PA,54.468297792542200,-0.907859123369104
Old World vulture and Jerboa,TS11 7AN,54.593477156841800,-1.013981684604490
Warbler and Old World quail,TS14 8BJ,54.527813133256300,-1.073849295335730
Puffleg and Partridge,TS3 9NT,54.558795439218100,-1.178903080765210
American sparrow and Mamo,TS9 6EF,54.495875171621600,-1.129892359100680
Marmoset and Nukupuʻu,TS9 5EZ,54.474789899579100,-1.183857458204770
Greenbul and Grouse,TS7 0BU,54.529632432177400,-1.174976138634480
Lemming and Ice seal,TS3 9LG,54.561376625854600,-1.181835884994360
Nukupuʻu and Parrotlet,TS3 9DT,54.568475657156500,-1.189736707793690
Black cockatoo and Argus,YO21 2AR,54.424549000000000,-0.890264000000000
Asiatic leopard and Triller,TS13 4RX,54.556160606870900,-0.897163189311627
Polecat and Maya,YO21 2BH,54.488932812136300,-0.770238263365378
Diving bird and Cuscus,TS3 9EW,54.564683709716900,-1.189827344561740
Siskin and Bronzewing pigeon,YO22 4UJ,54.428064927057900,-0.548018137368272
River dolphin and Kangaroo,TS6 7QN,54.568368399878800,-1.137784602630070
Jackal and Stint,TS3 8NR,54.560791167817200,-1.191002453218180
Diving bird and Buzzard,YO21 3EZ,54.489574552631200,-0.617489075831835
Minke whale and Francolin,TS6 9RD,54.569893748821400,-1.151425932260820
Booted eagles and Mouse,TS13 4AF,54.551617401562200,-0.900609896501846
Viscacha and Stint,TS11 6BZ,54.589126070242700,-1.022690988236310
Badger and Diving bird,TS7 0PQ,54.535786882898900,-1.147496962711780
Mockingbird and Argus,TS12 1QN,54.581527055213900,-0.987116148488344
Fox and Stilt,YO21 3JZ,54.490310776900800,-0.626094416494912
Fish eagle and B,TS13 4TY,54.511729203340400,-0.878836197178208
Prion and Coati,YO21 1PJ,54.480724798798300,-0.616197766541439
Rat and Fulmarine petrel,TS6 0AW,54.565585711740800,-1.169100359267110
Parrotbill and Francolin,TS6 8AR,54.567589561325700,-1.136950353939470
Partridge and Puffleg,TS12 3BW,54.539540696406500,-0.986408000000000
Logrunners and Old World warbler,TS9 5AR,54.468506465047500,-1.190339413380500
Recurvebill and Bronzewing pigeon,TS14 6DT,54.533374764513400,-1.056213956292800
Tit-tyrant and Mink,YO21 2AN,54.452300331752600,-0.831952398906917
Tit-tyrant and Pratincole,TS3 7HX,54.554501895063700,-1.202089365973240
Kangaroo and Meadowlark,TS7 0QJ,54.524870794155100,-1.183152831112080
Thrasher and Chicken,TS13 4XH,54.556692000000000,-0.890345000000000
Kākāriki and Tattler,TS7 8PP,54.525628463496100,-1.186227908405130
Minke whale and Tattler,TS9 5JW,54.471371693202600,-1.168896129360190
Thrasher and Egret,TS3 9NP,54.559688625340700,-1.176766591350280
Cuscus and Guillemot,TS12 3BZ,54.533960000000000,-0.991617000000000
Fulmarine petrel and Crow,TS7 0BN,54.528199792744600,-1.171806459354060
Cuscus and Pitohui,TS9 7ET,54.451782088400200,-1.139726565768930
Black cockatoo and Stint,TS12 2TH,54.565920189903100,-0.940345529886685
Jackal and Tahr,TS3 0EX,54.551113115558300,-1.196558750238360
Quetzal and Guillemot,YO22 4EP,54.482718397502800,-0.605881111399067
Partridge and Wader,TS12 2QJ,54.569290000000000,-0.929941000000000
Stint and Dolphin,TS6 9AZ,54.564407731097700,-1.154725762253040
Boto and Shearwater,YO21 3JL,54.493402179796100,-0.636381706455951
Pitohui and Snipe,YO13 0NE,54.400766626917600,-0.492262000000000
Condor and Parrotlet,TS12 1PH,54.580694727625200,-0.991840303594524
Chicken and Viscacha,TS7 9LW,54.547395187348200,-1.176905837661390
Ice seal and Kestrel,YO22 4JW,54.471813172344400,-0.607177809831007
New World blackbird and Wader,TS6 9LT,54.560956681332600,-1.145656000000000
Mink and Piping shrike,YO22 4ND,54.471855251613400,-0.613966318180598
Marmoset and Myna,TS6 7AR,54.580652000000000,-1.150042000000000
Moluccan boobook and Ibex,YO21 3DX,54.487180056548300,-0.625041570862187
Pheasant and Vole,TS12 2PX,54.568742089945400,-0.932151839337415
Maya and B,TS6 9RJ,54.565395680240600,-1.148225050469870
Zebra and Kākāriki,YO21 2JF,54.467613306576900,-0.908695113959604
Fulmarine petrel and Peafowl,YO21 3DE,54.487040410179400,-0.615953642038316
Prion and Condor,TS7 0JL,54.524086234580000,-1.177607000000000
River dolphin and Booted eagles,YO21 2DP,54.463672103157800,-0.953911427451694
Piping shrike and Parakeet,TS12 3LQ,54.518234285419900,-0.967471898164582
Triller and Darwin's finches,TS6 0EH,54.559843071709600,-1.162598514421450
Crow and Dolphin,TS3 0DP,54.551784129212300,-1.194752107578610
Black cockatoo and New World blackbird,TS11 6JS,54.593347970798400,-1.021320827852940
Linsang and Pheasant,TS3 0DT,54.551095950044100,-1.193977167906300
Capuchin and Shearwater,TS9 7AG,54.452939528109000,-1.175826000000000
Hawaiian honeycreeper and Pratincole,YO21 1LH,54.480712004091100,-0.630861433912523
Lemming and Stint,TS6 0LU,54.556541996123100,-1.154439968763650
Ibex and Civet,TS9 6DW,54.493820362585000,-1.134104532490540
Night heron and Cuscus,TS14 7AY,54.531005947160900,-1.041835300386820
Elephant and Darwin's finches,TS6 9TE,54.557320657693700,-1.141218453057940
Goose and Boto,TS6 6XG,54.578753060661300,-1.175856446193100
Viscacha and American sparrow,TS13 4DX,54.563612110514500,-0.910169884783328
Thrasher and Eagle,TS6 9SJ,54.569725712941000,-1.150394000000000
Lemming and Ice seal,TS12 2UQ,54.571274034649300,-0.935952820308864
Dorcopsis and Francolin,TS7 0DR,54.531608515903500,-1.166946965502760
Warbler and Buzzard,TS14 6AH,54.534215729617700,-1.056874552677340
Booted eagles and New World blackbird,YO21 1NT,54.478863629699500,-0.627172638664547
Maya and Chickadee,TS12 1QG,54.581051082614800,-0.983940672310995
River dolphin and Capuchin,TS14 8DF,54.530934000000000,-1.088258000000000
Kestrel and Asiatic leopard,TS9 5EB,54.471125299221300,-1.196259293628450
Zebra and Pitohui,TS3 7EQ,54.549544007900800,-1.201181197703500
Magpie and Thicketbird,TS13 4LB,54.554588201646600,-0.879593966574198
Hawk and Buzzard,TS14 8HN,54.531642837008100,-1.085816271524120
Dorcopsis and Grouse,YO22 5JF,54.426620165590600,-0.612456558694585
Condor and Pitohui,TS3 9DB,54.566688193847900,-1.192571581123410
Marmoset and Fulmarine petrel,TS6 9PL,54.561415285037300,-1.145802732754660
Elephant and Meadowlark,YO21 1LQ,54.480525003503600,-0.631809208651516
White ibis and Tahr,TS3 7RT,54.555020116345600,-1.199344000000000
Skunk and Flameback,TS3 8PX,54.562255000000000,-1.198737000000000
Civet and Songlark,TS3 8NB,54.563818000000000,-1.193355000000000
Flameback and Flameback,TS8 9XS,54.520987584336500,-1.197814380488010
Mouse and Capuchin,YO21 1RZ,54.467647000000000,-0.656680000000000
Fulmarine petrel and Myna,TS7 9PA,54.549439534182100,-1.185506826481320
Masked owl and Capuchin,TS3 0JQ,54.552128873955500,-1.187169432850360
Pitohui and Mink,TS11 8AP,54.581673111377500,-1.036949208250020
New World blackbird and Moluccan boobook,YO21 3LE,54.486368461880400,-0.636708373743132
Linsang and Fox,YO21 1LP,54.483800417040900,-0.627393190310634
Nukupuʻu and Ibex,TS12 2YA,54.560955279176500,-0.965867236798140
Crow and Rabbit,TS10 4QP,54.594070443621500,-1.081416434090460
Maya and B,TS7 0PF,54.524778000000000,-1.159005000000000
Cuscus and Jay,TS6 0BQ,54.567203416076100,-1.165185322635050
Dorcopsis and Diving bird,TS10 4GB,54.599097000000000,-1.082789000000000
Old World warbler and Skunk,TS3 7HQ,54.552612807045500,-1.201817003637990
Nukupuʻu and Booted eagles,TS3 8LT,54.563404432104700,-1.196100663763090
Marsh harrier and Bunting,TS12 2SX,54.565860495403800,-0.938661223736543
Capuchin and Kestrel,TS6 9JS,54.560486432874500,-1.137749820283060
Shearwater and Rat,TS12 2SU,54.566292330250400,-0.938711875525562
Kestrel and Treepie,TS10 4HZ,54.595403080500300,-1.073492907348820
Herring gull and Mole,YO21 1DN,54.484421852318400,-0.614112520939072
Zebra and Kākāriki,TS9 5PN,54.475619174265500,-1.189566273636380
Towhee and Prion,TS9 5HS,54.477099014106900,-1.186266000000000
Pratincole and Francolin,TS14 8BT,54.527906162731100,-1.071915690854920
Chipmunk and Grouse,TS14 7PL,54.525321000000000,-1.060587000000000
Francolin and Treepie,TS14 8DP,54.527827021814500,-1.078021010310490
Shearwater and River dolphin,TS12 3DB,54.530977280940100,-1.001611215642040
B and Recurvebill,TS7 0ET,54.529846796184700,-1.168219033520860
Stilt and B,TS6 7LY,54.568683312495200,-1.142897642134080
Grackle and Marsh harrier,TS6 7BL,54.580583000000000,-1.154345000000000
Rabbit and Black cockatoo,TS3 8AL,54.570691000000000,-1.202516000000000
Rat and Coati,TS14 6GF,54.542568681834100,-1.047036451518980
Chicken and Hawk,TS12 2QH,54.570251416052500,-0.929697000000000
Tahr and Argus,TS13 5DT,54.550500000000000,-0.800809000000000
Maya and Towhee,TS7 8JB,54.529112090479600,-1.204639580432620
Capuchin and Bronzewing pigeon,YO21 1AG,54.468265493400000,-0.671087116600000
Darwin's finches and Maya,TS12 3LN,54.503849738679700,-0.924640153073373
Capuchin and Ground sloth,TS7 9NN,54.545282000000000,-1.168755000000000
Wader and Pheasant,TS7 9BP,54.546004413435000,-1.178556987898750
Minke whale and Jackal,TS6 0TG,54.554821283676200,-1.147440315013470
Kestrel and Elephant,TS9 5PJ,54.474612807206100,-1.193629277573550
Flameback and Nukupuʻu,YO22 4AX,54.486229749708700,-0.610315609287384
B and Bronzewing pigeon,TS12 1PA,54.577318047967800,-0.993223186099573
Old World vulture and Marsh harrier,YO21 3AH,54.487370575379200,-0.617316429529500
Eagle and Rat,TS3 8HL,54.566991886493800,-1.204505802160110
Rabbit and Armadillo,TS3 7ED,54.551897408763300,-1.200996079009410
Armadillo and Shearwater,YO18 8SF,54.357868030860600,-0.910882045399691
Moluccan boobook and Solitaire,TS6 8ER,54.565138186201600,-1.134728617541690
Magpie and Greenbul,YO21 1YF,54.483043943345600,-0.632018406985119
Zebra and Marmoset,TS6 8JH,54.576219651722200,-1.129760063836350
Goose and Siskin,TS3 8PY,54.561682764943800,-1.198036667168830
Duck and Maya,YO22 4PS,54.441663000000000,-0.569758000000000
Kākāriki and Chickadee,TS9 6AT,54.491866631680000,-1.134871412196500
Perching duck and River dolphin,TS7 8LY,54.526928230508700,-1.203275934370560
Zebra and Condor,YO21 2PH,54.438830977988600,-0.805599331903214
Parakeet and Vole,TS3 7EJ,54.549649379290200,-1.202168582193300
Wader and Egret,TS9 7LF,54.347943000000000,-1.128512000000000
Diving bird and Vulture,YO21 1HF,54.484950759288300,-0.623436000000000
Macaw and Vulture,TS9 5QG,54.477601787894400,-1.190375898165750
Egret and Pitohui,TS11 8DX,54.579136276223800,-1.045719426639740
Skunk and Badger,YO21 3PD,54.487869843423500,-0.631178058393770
Solitaire and Duck,YO22 5FA,54.447324000000000,-0.672845000000000
Thrasher and Argus,TS11 8BP,54.577978023412700,-1.043580547050580
Triller and Fish eagle,TS14 6EW,54.537573463430200,-1.056426214630760
Scimitar babbler and Linsang,TS9 6AR,54.491074942979300,-1.136015098800760
Flameback and Puffleg,YO22 5HU,54.453138335542900,-0.643689415808985
Mink and Rabbit,YO21 2AB,54.471146562286200,-0.804303396543057
Grosbeak and Perching duck,TS7 0HD,54.530394577362900,-1.172086553967090
Capuchin and Marsh harrier,TS6 7QR,54.567433758770600,-1.135267756980630
Piping shrike and Partridge,TS7 0NS,54.502849610491100,-1.163053571414530
Maya and Thicketbird,TS3 0LR,54.550135089911400,-1.186034082295240
Quetzal and White ibis,TS3 0TQ,54.556683798301900,-1.174987028948080
Stilt and Darwin's finches,YO21 2EQ,54.462958191875800,-0.939165000000000
Egret and Jackal,TS6 7QX,54.570924774600400,-1.145959730008940
Solitaire and Chipmunk,TS7 8BH,54.530983375317900,-1.198128412235580
Thrasher and Jerboa,YO21 3LT,54.487295592591500,-0.636831906018474
Grosbeak and Cloud rat,TS11 7JN,54.588649728921400,-1.006128593278870
Duck and Kestrel,TS11 7AW,54.592936173394900,-1.015975766145390
Songlark and Darwin's finches,TS14 7PA,54.527476570285800,-1.059347632508000
Snipe and Vole,TS3 8NA,54.564109340611900,-1.192637989045990
Condor and Pheasant,TS7 9BZ,54.544431672101500,-1.175914320827490
Elephant and Grouse,TS6 7DN,54.575465172863200,-1.152625160517170
Diving bird and Peafowl,TS12 2JB,54.562543776952800,-0.976173294462980
Siskin and Kite,TS12 2RT,54.566684288855300,-0.943450022301003
Chickadee and Pratincole,TS14 6FA,54.534442000000000,-1.072787000000000
Puffleg and Fox,TS11 6BT,54.590913801788600,-1.022601770687200
Moluccan boobook and Quetzal,TS14 6GE,54.541921733170900,-1.050483049480100
Polecat and Pitohui,TS10 5RS,54.592863000000000,-1.085607000000000
Capuchin and Warbler,TS3 8HD,54.566961002786900,-1.199820026213490
Vole and Ground sloth,TS6 6HX,54.575105058111900,-1.183927867662060
Jerboa and Jay,TS12 2PJ,54.570669000000000,-0.938583000000000
Mockingbird and Polecat,TS7 8BX,54.531053060660500,-1.193738389239740
Kangaroo and Booted eagles,TS8 9QS,54.521355000000000,-1.188107136797550
Meadowlark and Fulmarine petrel,YO22 4HQ,54.485849394452400,-0.610066078647750
Night heron and Peafowl,YO21 2DE,54.445330000000000,-0.953932000000000
Jay and Quetzal,TS7 8QS,54.533554047995200,-1.196826268793960
Triller and Civet,YO22 4RA,54.435092340045700,-0.536005701035700
Myna and Wader,TS7 9LQ,54.548120573868700,-1.177849727855910
Boto and Treepie,YO22 4QA,54.473455000000000,-0.612587000000000
Stilt and Ground sloth,TS7 0RS,54.517373000000000,-1.178187000000000
Marmoset and White ibis,TS9 5QJ,54.470519109850500,-1.192953679599680
Pitohui and Chickadee,TS12 3DN,54.536576725900700,-0.961089599647893
Philippine hawk-owl and New World blackbird,TS6 7HS,54.576931137594200,-1.145107064764730
Fox and Perching duck,TS7 0RJ,54.518845000000000,-1.180965598834700
Parrotlet and Rabbit,TS14 7HB,54.529666444669000,-1.063593142506200
Kangaroo and Jerboa,YO21 3EN,54.490858097261400,-0.620487216317778
Grosbeak and Fulmarine petrel,TS6 9SN,54.568668292796600,-1.149688105523510
Warbler and Grosbeak,TS14 6DD,54.540556648774300,-1.050483000000000
Eagle and Egret,TS6 0QT,54.558717978259900,-1.150467000000000
Petrel and Stilt,YO22 5NH,54.394822802816900,-0.704867382334523
Mouse and Tattler,TS3 8EZ,54.566885433992700,-1.199264709353700
Siskin and Dolphin,TS9 5AW,54.468391636716100,-1.183953905645340
Chickadee and Stint,TS14 7LF,54.528702475233100,-1.056352611334830
Marmoset and Darwin's finches,TS11 8BN,54.578637328977400,-1.042853434288900
Old World warbler and Peafowl,YO21 3BL,54.486738300141500,-0.616257153189656
Philippine hawk-owl and Songlark,TS12 2JL,54.564576596787600,-0.977436981564158
Wallaby and Stint,TS7 0PH,54.521511513258600,-1.172853285405900
Marmoset and Elephant,YO22 4ET,54.482485000000000,-0.608127000000000
Tahr and Prion,YO22 4HW,54.473298076057800,-0.605784764569073
Macaw and Eagle,TS13 4DJ,54.563369085317700,-0.908134898392634
Solitaire and Perching duck,TS12 2JN,54.563780163814500,-0.977843550322532
Coati and Elephant,TS9 6HB,54.487699652433500,-1.127796712061490
Meadowlark and Stint,TS9 7EE,54.448545000000000,-1.158532000000000
Polecat and Ground sloth,YO21 3DL,54.488455712603700,-0.629738203090537
Kestrel and Minke whale,TS3 8LL,54.564502424687500,-1.199048477015820
Hawaiian honeycreeper and Rat,TS3 9LY,54.558764446977600,-1.182290213122180
Rat and Egret,YO21 1HZ,54.485261021163700,-0.629381916107633
White ibis and Parakeet,YO22 5BE,54.432656353814400,-0.735049000000000
Hawk and Treepie,TS12 3AJ,54.544737652637400,-0.982292343181765
Perching duck and Rabbit,TS14 8AJ,54.527890873010500,-1.067589479495640
Logrunners and Wallaby,YO21 1RY,54.460237414682000,-0.671933000000000
Parrotbill and Thrasher,TS12 2SG,54.568348641613900,-0.944675323767192
Jackal and Wader,TS7 0PN,54.516750000000000,-1.169088000000000
Marmoset and Eagle,TS12 2SZ,54.565569983523500,-0.938328506655593
Puffleg and Pheasant,TS11 6DR,54.588576188482600,-1.025830103499840
Maya and Partridge,TS12 1HF,54.584971867478200,-0.965119909629132
Bronzewing pigeon and Herring gull,TS6 0BY,54.560439879568000,-1.161828544730570
River dolphin and Towhee,TS6 0RR,54.555954011456800,-1.150045319471160
Piping shrike and Jay,TS12 2FP,54.566345682595700,-0.983672184023869
Elephant and Ice seal,TS6 9SA,54.571534982265800,-1.149659390642420
Black cockatoo and Tahr,TS6 6BL,54.581378000000000,-1.179764000000000
Mink and Magpie,TS3 0EP,54.548536193133800,-1.194213131442370
Buzzard and Bunting,TS3 0LX,54.549522126431700,-1.187097562854910
Diving bird and Siskin,TS14 8BG,54.525821593839800,-1.076675575913360
Petrel and Jerboa,TS9 6PH,54.486565613034600,-1.145186694927390
Fox and Moluccan boobook,YO21 3QW,54.484871903042800,-0.645896571556775
Scimitar babbler and Peafowl,YO13 0EW,54.381958028363100,-0.492395708539233
Stint and Rat,TS3 8AR,54.577002000000000,-1.201433000000000
Mink and Bunting,TS10 2QD,54.598410045808300,-1.052110495875630
Jerboa and Black jay,YO21 1JA,54.485355000000000,-0.632852000000000
Zebra and Black jay,TS9 5JG,54.460120559233100,-1.158634135818520
Guillemot and Kestrel,TS11 6JT,54.595332977730200,-1.020065989762130
Ibex and Quetzal,TS7 9PW,54.548646881943900,-1.168068618670210
Logrunners and American sparrow,TS6 0LX,54.555760000000000,-1.154286000000000
Thrasher and Lemming,YO21 3BG,54.486262000000000,-0.615424000000000
Petrel and Bunting,TS14 7AG,54.532836075729000,-1.049395763476890
Siskin and Old World quail,TS12 2UH,54.571626343779000,-0.937181144472846
Grouse and Dorcopsis,TS12 2LT,54.564798022903800,-0.972807080299642
Old World quail and Civet,TS10 4RD,54.597790584786300,-1.078544000000000
Hawaiian honeycreeper and Night heron,TS12 2SS,54.566502380371200,-0.939093090435324
Dolphin and Thrasher,TS13 4EY,54.561379315749000,-0.907739570061889
Parakeet and Fox,TS11 8BU,54.577177231114200,-1.040056510090840
Tree warbler and Marmoset,YO21 2QU,54.446124538831200,-0.805155784111980
Partridge and Quetzal,TS9 6JL,54.470474000000000,-1.096299000000000
Kite and Grosbeak,TS3 8PH,54.562093568942200,-1.203085581307340
Siskin and Lemming,TS6 6RL,54.578333761809100,-1.168423384886100
Argus and Maya,YO21 3UR,54.491915493400200,-0.630487097455954
Diving bird and Chipmunk,TS14 8HD,54.528859922719200,-1.099414674029930
Snipe and Grouse,YO21 1SW,54.466724379117300,-0.674978932260231
Kestrel and Nukupuʻu,TS6 7PR,54.571896603826700,-1.141051361520470
Civet and Nukupuʻu,TS9 6JT,54.487389295867400,-1.139674082569500
Grouse and Diving bird,TS6 9LZ,54.561115189365800,-1.141494421244250
Meadowlark and Condor,TS3 7EU,54.551531384471900,-1.204095380901810
Mole and Dorcopsis,TS6 6LP,54.573747564930200,-1.183862165017220
Maya and Logrunners,TS6 0JX,54.557667139355200,-1.155978475186200
Petrel and Logrunners,YO22 4PP,54.435169071165200,-0.558081565425791
Old World quail and Kangaroo,TS6 9BB,54.565114092294700,-1.156783591659090
Cuscus and Kākāriki,TS12 3DX,54.536963055027000,-0.960028809361139
Old World warbler and Parakeet,TS10 4SA,54.595964896126900,-1.066731984777930
Logrunners and Grosbeak,TS12 1FB,54.585239147777700,-0.977244748712987
Perching duck and Bronzewing pigeon,TS9 5JD,54.478143522638100,-1.185395751505580
Magpie and Wallaby,TS11 8AA,54.587138000000000,-1.020170000000000
Black cockatoo and Kite,TS9 5BX,54.467756981980400,-1.201972361299810
Parrotbill and Logrunners,YO21 1TQ,54.451989226535100,-0.684462421615331
Gull and Kākāriki,YO21 1SS,54.465747652901900,-0.682647958970900
Old World warbler and Mockingbird,YO21 3QA,54.489081000000000,-0.615113000000000
Mamo and River dolphin,TS14 7BX,54.527864702182400,-1.054950343483940
Snipe and Treepie,TS6 0RG,54.556962783168200,-1.149081112999480
Parrotbill and Lemming,TS13 5BH,54.558946664818200,-0.792643524223719
Tahr and Jerboa,YO21 1YG,54.483347217677200,-0.631020383434805
Chipmunk and Wader,TS3 7JA,54.553943039919900,-1.200476796200990
Snipe and Warbler,TS6 0QW,54.549152559084500,-1.160606660257470
B and Black cockatoo,TS6 0SP,54.545914771464000,-1.162852781639260
Partridge and Elephant,TS12 3BS,54.534466000000000,-0.989750000000000
Crow and Armadillo,TS3 9LU,54.558062366387600,-1.184793837950220
Recurvebill and Bunting,YO21 1SR,54.466570669434300,-0.680646542499674
River dolphin and Egret,TS6 8EX,54.564392658978200,-1.136043519265350
Francolin and Puffleg,TS6 9NP,54.559405698712200,-1.134911809127510
Stint and Darwin's finches,YO21 2PQ,54.438845290875200,-0.805228862424594
Eagle and Mole,TS6 0AF,54.566636769098400,-1.170347245177370
Fulmarine petrel and Warbler,TS13 4AJ,54.562371658026300,-0.901202164788753
Parrotlet and Shearwater,TS12 1DY,54.585476055192900,-0.972735000000000
Dolphin and River dolphin,TS12 2PE,54.566807879218800,-0.939085159475678
Partridge and Asiatic leopard,TS10 2UG,54.592192000000000,-1.046374000000000
Parakeet and Shearwater,TS3 0BD,54.547534184525200,-1.197602988608660
Flameback and Parrotbill,TS14 7EZ,54.529163606627400,-1.063651005382420
Parrotbill and Myna,TS12 3DG,54.524691354804200,-0.993560125257671
Marmoset and Jackal,TS11 8JQ,54.577388856414100,-1.038411636618290
Macaw and Towhee,TS11 8AT,54.580767849726300,-1.040652897935820
Crow and Chickadee,TS3 0BJ,54.546363756063200,-1.197285855995410
Tattler and Skunk,YO22 5HR,54.457415139405800,-0.624481256366360
Rat and Perching duck,YO21 2NT,54.480376945130000,-0.898940437018866
Logrunners and Shearwater,TS7 0EX,54.529512655715400,-1.169292045026660
Cloud rat and Warbler,TS11 8JB,54.578268699975000,-1.038144000000000
Night heron and Thrasher,TS14 6HH,54.537837901161300,-1.050021424940680
Tit-tyrant and Fox,TS3 7LP,54.555933237366400,-1.205184841978930
Pitohui and Recurvebill,TS3 0QJ,54.556433315491500,-1.176353000000000
Egret and Grackle,TS7 8BD,54.535449546957400,-1.204871858146920
Fox and Meadowlark,TS3 9NU,54.558084533557800,-1.180092566137910
Egret and Diving bird,TS6 0PU,54.549767000000000,-1.151921000000000
Crow and Macaw,TS10 4RA,54.595770002855000,-1.079180364300630
Chipmunk and Armadillo,TS11 7BG,54.590172411822600,-1.018719657788330
Bunting and Night heron,TS6 8AU,54.566965846787200,-1.137705925537350
Thicketbird and Viscacha,YO22 4RF,54.435853407058200,-0.533542472035681
Treepie and Grouse,TS12 2FZ,54.562270000000000,-0.977677599991654
Crow and Maya,TS6 0BE,54.563116000000000,-1.166071000000000
Nukupuʻu and Bronzewing pigeon,TS6 0QF,54.548836308653500,-1.159067172451900
Eagle and Herring gull,TS9 6LN,54.450802685066000,-1.106310302950130
Ice seal and Jerboa,TS11 8HQ,54.580323223532900,-1.072396099407450
Coati and Eagle,TS3 7EZ,54.551774262324600,-1.205497590408090
New World blackbird and Kestrel,TS10 4HD,54.600628404942800,-1.081067621391630
Black cockatoo and American sparrow,TS14 6EJ,54.538000249819700,-1.054685318111650
Vulture and Marmoset,YO21 1UF,54.447565599142800,-0.748622282575085
Lemming and Meadowlark,TS12 2QR,54.582975000000000,-0.946030000000000
Night heron and Cloud rat,TS7 8AJ,54.540075944990600,-1.197764730007690
Badger and Stilt,TS14 7FH,54.529985000000000,-1.054315000000000
Old World vulture and Vole,TS12 3JW,54.530336000000000,-0.919540000000000
Hawk and Diving bird,TS13 4QW,54.550669875565000,-0.899197511915357
Stint and Diving bird,TS6 0TS,54.554131135932400,-1.142739000000000
Coati and Dorcopsis,TS6 9EZ,54.557718213552000,-1.140251385593590
Grackle and Logrunners,TS6 9AT,54.565670000000000,-1.153903619975940
Pheasant and Night heron,TS6 6QP,54.576090441528800,-1.167618190320390
Parakeet and Black jay,TS6 0PP,54.550198768309300,-1.152112938737920
Wader and Kangaroo,TS6 7LX,54.568667972265000,-1.142000859690880
Prion and Coati,YO22 4LY,54.477760000000000,-0.610735987349673
Herring gull and Pratincole,TS14 7BZ,54.528918587595700,-1.048374186618760
Masked owl and Hawk,TS9 6DJ,54.495217203763800,-1.132129629756000
Tit-tyrant and Partridge,YO21 3ND,54.485771538508400,-0.639568612471192
Dolphin and Cloud rat,TS7 0EB,54.531532937793300,-1.182216292977080
Parakeet and Wader,TS6 9AQ,54.563979428489300,-1.160333137240190
Fish eagle and Pratincole,TS14 6BP,54.535452337223600,-1.050664099369750
Rabbit and Tahr,TS10 2NS,54.598368323926100,-1.057126560693470
Booted eagles and Shearwater,TS3 8TG,54.572895000000000,-1.194676000000000
Armadillo and Old World quail,TS6 9LW,54.562418083455100,-1.132636568447670
Civet and Polecat,YO21 2AY,54.456851000000000,-0.809564000000000
Partridge and Grouse,TS13 5EU,54.538998006190700,-0.773339676131216
Mamo and Solitaire,TS7 8EH,54.528558098070900,-1.199674779518890
Dolphin and Kangaroo,YO18 8RB,54.357976606842900,-0.879532964976722
Tree warbler and Condor,TS14 8ES,54.512090618363900,-1.061693623974400
Masked owl and Mamo,TS14 6TX,54.540635481136800,-1.058395888826010
American sparrow and Puffleg,YO22 4TW,54.431991912908400,-0.547956368995988
Treepie and Bunting,TS13 4UT,54.561466430283700,-0.835159987884684
Warbler and Mink,TS14 6PS,54.534865318070200,-1.045732228495760
Jay and Thrasher,TS6 0DY,54.558901384522300,-1.157700380630040
Mamo and Polecat,TS6 0LH,54.554961352466800,-1.154596353492850
Herring gull and Old World vulture,TS3 8QX,54.558536482641000,-1.199273604024050
Darwin's finches and Gull,TS14 6LB,54.533742774605300,-1.065416181139580
Maya and Mouse,TS14 8JB,54.527821271310700,-1.081992291592240
Scimitar babbler and Scimitar babbler,TS7 0EQ,54.530771292146900,-1.175820000000000
Fox and New World blackbird,TS13 4DZ,54.565034889885400,-0.911477510555869
Ice seal and Grosbeak,TS14 8PE,54.531274946008800,-1.082332055256800
Moluccan boobook and Thicketbird,TS13 4LP,54.551949203819100,-0.875105172391884
Old World quail and Warbler,TS10 2PE,54.594365178691100,-1.060097767653500
Petrel and Marsh harrier,TS6 0BX,54.562032621067900,-1.163313000000000
Kestrel and Buzzard,YO21 1PF,54.480244363603500,-0.615056373402533
Parrotbill and Parakeet,TS12 2LE,54.562125961200300,-0.978627000000000
Condor and White ibis,TS3 0AF,54.548784995779400,-1.199201719218940
Scimitar babbler and Meadowlark,TS9 6BW,54.488496295297100,-1.133599527444650
Marmoset and Viscacha,TS9 7HF,54.447032000000000,-1.158100000000000
White ibis and Rabbit,TS7 0JG,54.522215688534700,-1.177273124072320
Parrotbill and Tahr,TS10 9BP,54.591320000000000,-1.089076000000000
Myna and Elephant,TS12 2XH,54.566768343292900,-0.928475890152812
Badger and Rat,TS10 2RD,54.597133000000000,-1.049555000000000
Tattler and Linsang,TS11 8DE,54.580145704036400,-1.046082639480540
Vulture and Mouse,YO22 4TQ,54.433861000000000,-0.542617000000000
Skunk and Triller,TS12 2WA,54.566375990835000,-0.976603157384644
Tattler and Parrotbill,TS12 2DT,54.550478160367400,-0.982010332163440
Cuscus and Ice seal,TS6 9LN,54.561973667970100,-1.133326449314850
Prion and Egret,TS7 0GH,54.514876629271200,-1.169480995253770
Dorcopsis and Black jay,TS12 2WR,54.565613200971600,-0.978864886057227
Gull and Rabbit,TS6 9JZ,54.559392000000000,-1.136629000000000
Kākāriki and Parrotbill,TS10 4RB,54.596503172523800,-1.078684010526060
Logrunners and Ground sloth,TS12 2PZ,54.568322921162800,-0.932518545513234
Prion and Macaw,YO21 2ER,54.463371838036000,-0.938028388357810
Ground sloth and Thrasher,TS14 8JD,54.526585069889700,-1.081340153295900
Masked owl and Mole,TS10 5NL,54.593101946087800,-1.090027764240620
Jerboa and Nukupuʻu,TS3 8DA,54.573285225876200,-1.203255000000000
Kite and Bunting,TS14 8HF,54.520853000000000,-1.095728000000000
New World blackbird and Moluccan boobook,TS9 6LT,54.457538469527200,-1.093607305754020
Recurvebill and Peafowl,TS10 4QW,54.595507609869700,-1.080130414429730
Chickadee and Boto,YO21 1NE,54.474889887153800,-0.633417077988824
Tahr and Fish eagle,TS9 7JA,54.419723000000000,-1.128146000000000
Kestrel and Kākāriki,TS12 2YJ,54.559508195343200,-0.969012130306051
Kite and Grackle,TS6 0EW,54.559443627895800,-1.162019072270590
Triller and Scimitar babbler,TS13 4SZ,54.543634674312300,-0.889135000000000
Tit-tyrant and Civet,TS11 8HY,54.577373315687700,-1.046673382990920
Siskin and Mole,TS13 4GA,54.554554338712100,-0.893357000000000
Kangaroo and Piping shrike,TS14 7AA,54.534662000000000,-1.050601017096960
Fulmarine petrel and Kite,TS10 2QT,54.599682663872100,-1.045935701422210
Ice seal and Pratincole,TS7 0DU,54.532675836705000,-1.171870411287450
Rat and Gull,YO22 5JB,54.433333235315200,-0.633675003232667
Black cockatoo and Kite,TS3 8JD,54.566270824084700,-1.200638000000000
Booted eagles and Hawaiian honeycreeper,TS14 7FE,54.531746375152100,-1.054661000000000
Condor and Tattler,TS3 0QP,54.552659661966300,-1.176614340825400
Fox and Grosbeak,TS7 0AY,54.517840000000000,-1.174192000000000
Linsang and Fulmarine petrel,TS3 0ER,54.549023183216300,-1.194466353438270
Chipmunk and Egret,YO22 5JE,54.417105311595300,-0.619591000000000
Pratincole and New World blackbird,TS11 8BS,54.577131362556900,-1.042208009726970
Maya and Magpie,TS3 0RW,54.555120008039400,-1.176301940115420
Maya and Peafowl,TS7 9ND,54.547511350149400,-1.172853172180120
Kite and Wader,YO21 1LY,54.479856144276600,-0.634963000000000
Mole and Siskin,TS12 2HH,54.560944809317800,-0.992219000000000
Night heron and Partridge,TS6 0EF,54.560375032872400,-1.160252531001110
Snipe and Puffleg,TS11 8EL,54.579650756213400,-1.036919530439650
Chipmunk and Myna,TS12 2WF,54.567213521843300,-0.980000390440723
Grouse and Black jay,TS3 9QL,54.562167484217900,-1.183165493802850
Kākāriki and Tree warbler,TS13 4PA,54.551996832886000,-0.855266848246674
Tree warbler and Chipmunk,TS3 0BW,54.545116041526800,-1.197511300123730
Polecat and Philippine hawk-owl,TS11 8HF,54.579941711047000,-1.074214949350570
Pratincole and Warbler,TS13 5JW,54.540587961135000,-0.777697318275468
Lemming and Elephant,TS6 6TD,54.571211000000000,-1.167558622786570
Condor and Flameback,TS3 9LB,54.560340824437800,-1.189511347492820
Quetzal and Tit-tyrant,TS12 2JR,54.563179645292500,-0.976018000000000
Dorcopsis and Nukupuʻu,TS8 0AN,54.498131077461600,-1.200207429312600
Hawk and Linsang,YO21 3SZ,54.502755690023700,-0.671016000000000
Tit-tyrant and Lemming,TS9 6BS,54.489420202586200,-1.132098007794680
Viscacha and Mink,TS9 7HJ,54.436665953350200,-1.165435908522720
Grackle and White ibis,TS3 7JF,54.552773323912900,-1.198907160311860
Chipmunk and Ice seal,TS10 4QF,54.596544419013200,-1.081747716255950
B and Jackal,TS8 9XJ,54.518742030505500,-1.195293947180560
Capuchin and Herring gull,TS6 0EB,54.560112477144600,-1.158680590951290
Gull and Goose,TS3 0AR,54.545971472195700,-1.199117675852720
Herring gull and Tit-tyrant,TS3 7ER,54.550991664443800,-1.201399000000000
Thicketbird and Recurvebill,TS3 9NB,54.565207115540100,-1.183460465970940
Rabbit and Grosbeak,TS3 0RL,54.554448380486500,-1.176655631359090
Kākāriki and Cuscus,TS7 9JA,54.538866160320000,-1.174233531947560
Mamo and Siskin,TS3 7JY,54.557977905777900,-1.203150341904920
Viscacha and Parrotlet,TS12 1QU,54.582457538194100,-0.991997937156434
Zebra and Eagle,TS9 7AX,54.444097954973000,-1.199918786797030
Hawk and Cloud rat,TS7 0RH,54.526288906054500,-1.168368591784860
Grouse and Cuscus,TS11 6EB,54.591611069335200,-1.035585059146880
Mole and Eagle,TS9 6NN,54.488947261271800,-1.142651636454480
Grackle and Capuchin,TS11 6HG,54.591304738173800,-1.032110184975200
Peafowl and Thrasher,YO21 1SB,54.479951138362800,-0.634313345742026
Fulmarine petrel and Jerboa,TS14 6JS,54.536300718851400,-1.052267210028960
Buzzard and Masked owl,TS14 8BH,54.526822801806200,-1.075973120124900
B and Puffleg,TS14 6TQ,54.539495230674300,-1.057386555463090
Cuscus and Tit-tyrant,YO22 4UG,54.426035064963900,-0.536960558475845
Jackal and Duck,TS12 1BZ,54.585543093069500,-0.977345332861838
Fish eagle and Mouse,TS6 0DE,54.564688018364500,-1.165329493407080
Pitohui and Pratincole,TS6 0TE,54.554211707143600,-1.148937361215070
Jay and Skunk,TS3 8RQ,54.573631189207500,-1.193316130023600
Myna and Ibex,YO21 1QH,54.483488122557700,-0.622062783113202
Hawk and Skunk,TS3 0DJ,54.550687639233100,-1.194742777179280
Ice seal and Parrotbill,TS9 5GH,54.472739089390500,-1.189146000000000
Viscacha and Pheasant,TS11 8HE,54.580922000000000,-1.073048000000000
Thicketbird and Logrunners,YO22 5BJ,54.433327000000000,-0.724682000000000
Wader and Minke whale,TS12 1AB,54.582783015463200,-0.974041351202455
Cuscus and Petrel,TS7 0BW,54.528748352497000,-1.173170603016500
Black jay and Rat,TS13 4NU,54.550804161796200,-0.848914845577993
Partridge and Coati,TS11 6AR,54.596489374149300,-1.020812132367290
Logrunners and Crow,YO21 3JU,54.492671170717900,-0.632932154979948
Dolphin and Hawaiian honeycreeper,TS7 0HX,54.530525687521300,-1.167618027054680
Duck and Partridge,TS3 8HB,54.566895755877000,-1.200826630582180
Fish eagle and Pheasant,YO22 4ES,54.483051874520000,-0.607521410116363
Bunting and Solitaire,TS11 7BS,54.589567945273700,-1.014973000000000
Gull and Rat,TS6 9NA,54.562443664868500,-1.142533602306710
Vole and Mink,TS6 0DZ,54.559546000000000,-1.158507000000000
Argus and River dolphin,TS6 7HF,54.577239038274500,-1.150546256211250
Bunting and Maya,TS13 5DX,54.545913000000000,-0.826127000000000
Polecat and Eagle,TS9 6JF,54.460061000000000,-1.122291000000000
Thrasher and Marsh harrier,TS3 0HQ,54.553084962711600,-1.190366390324070
Tit-tyrant and Grouse,TS3 0RT,54.555585902226600,-1.178735600564720
Dolphin and Macaw,TS6 7BN,54.577578538614100,-1.156280000000000
Fish eagle and Ibex,YO22 4SH,54.430645467248500,-0.532479731381202
Goose and Vulture,TS11 7HS,54.589563371158100,-1.007947930631470
Towhee and Philippine hawk-owl,TS6 6LL,54.574727291680900,-1.175922180993150
Marsh harrier and Flameback,TS13 4JW,54.552923667723700,-0.879392192722681
Buzzard and Parakeet,TS3 9PS,54.560669187563600,-1.178231412117940
Grouse and Pitohui,YO21 3RY,54.528882825223300,-0.717471584154970
Marmoset and Rabbit,TS3 0QD,54.556211615844200,-1.181984000000000
Diving bird and Ibex,TS9 6AJ,54.490958066369900,-1.137268038075380
Ground sloth and Nukupuʻu,TS6 7PS,54.571378814831600,-1.140273360166370
Quetzal and Viscacha,YO21 1EP,54.483009260256800,-0.615549513072706
Quetzal and Old World quail,TS10 4GZ,54.598833926668100,-1.079605000000000
Pitohui and Goose,TS6 0NB,54.549872158935100,-1.155134585341250
Booted eagles and Diving bird,TS14 6PJ,54.536410000000000,-1.051136000000000
Lemming and Coati,TS12 2ES,54.561127624849800,-0.989293000000000
Petrel and Prion,TS12 2AN,54.556634391149900,-0.957719285874406
Shearwater and Magpie,TS6 0AQ,54.565968599548800,-1.168582188900360
Wader and Mouse,TS6 0JE,54.557872078015000,-1.167401550631960
American sparrow and Nukupuʻu,TS13 5HU,54.533958002567100,-0.749582000000000
Jackal and Lemming,YO22 4HP,54.473301589577400,-0.609210599635341
Grackle and Scimitar babbler,TS14 8DN,54.529794204146900,-1.080248239447670
Marmoset and Songlark,TS11 8JU,54.579931198347800,-1.049661614138520
Cloud rat and Buzzard,YO22 5QW,54.435121874290800,-0.724336000000000
Treepie and Jerboa,YO21 3FD,54.488169657934600,-0.631291637712637
Perching duck and Kite,TS11 8BJ,54.579168384354100,-1.041819876601930
Jay and Jay,TS7 8AQ,54.538816381252700,-1.194852796858420
Linsang and Dolphin,TS6 9AB,54.570253136034300,-1.165633462673530
Kākāriki and Kite,TS13 5JB,54.537591000000000,-0.773660000000000
Asiatic leopard and Siskin,TS14 6NL,54.533513992216900,-1.061403333690300
Wallaby and Grosbeak,YO21 2QL,54.439004532019900,-0.794264000000000
Piping shrike and Jay,TS11 6EZ,54.590696695609900,-1.028008030744340
Parakeet and Civet,YO22 4FE,54.480717534178100,-0.611800000000000
Mink and Ibex,TS10 4GD,54.599155706752100,-1.081224606767220
Black cockatoo and Dorcopsis,TS8 9QU,54.522883368239600,-1.188306420429640
Quetzal and Boto,TS7 0RD,54.527582340695500,-1.184103079554090
Cloud rat and Magpie,YO21 2JZ,54.461188000000000,-0.919650000000000
Guillemot and Mockingbird,TS12 2FQ,54.571923158732300,-0.934141528545552
Peafowl and Coati,TS6 9RX,54.565817851370100,-1.146917089191300
Chipmunk and Macaw,YO22 4JR,54.488817000000000,-0.606260000000000
Black jay and Greenbul,TS6 0HY,54.556269762563700,-1.165717832637700
Duck and Boto,YO21 1JL,54.484059103588100,-0.628804660680494
Philippine hawk-owl and Meadowlark,TS6 0EN,54.558441379469100,-1.161343761781190
Goose and Elephant,YO21 2QR,54.453810216111200,-0.789029325353162
Grackle and Magpie,TS13 4PR,54.554846607240700,-0.888122171143268
Macaw and Ibex,TS13 4DL,54.562744798323200,-0.909667187364523
Masked owl and Eagle,YO21 2DA,54.463406922895700,-0.942654000000000
Wader and Grosbeak,TS10 2SA,54.597092923221500,-1.056072544617710
Mink and Tree warbler,TS7 0AX,54.535011000000000,-1.147743000000000
Treepie and Pitohui,TS11 7HN,54.590724000000000,-1.009170665343240
Tattler and Partridge,YO22 4PH,54.450485000000000,-0.544836000000000
Thicketbird and Flameback,YO21 1JU,54.484338276085000,-0.622528164179411
Boto and Capuchin,TS10 2UE,54.595039395635400,-1.048458000000000
Solitaire and Triller,TS7 0GG,54.514949350082800,-1.171317569811190
Night heron and Hawaiian honeycreeper,TS12 2HF,54.564947000000000,-0.993655688195887
Macaw and Chickadee,TS6 6XD,54.578863628127400,-1.176411000000000
Coati and Puffleg,TS3 9BY,54.567023000000000,-1.191451000000000
Perching duck and Bunting,YO21 3NG,54.484931000000000,-0.639788896872046
Puffleg and Siskin,TS14 6QB,54.553677256568000,-1.018327000000000
Badger and Parrotlet,YO22 5JG,54.443104000000000,-0.602261000000000
Argus and Lemming,TS6 9BH,54.562921066731400,-1.158050575713810
Solitaire and Scimitar babbler,YO22 4RU,54.432138315845000,-0.533289727055698
Cloud rat and Vole,TS3 8BQ,54.572024000000000,-1.197432000000000
Crow and Eagle,YO22 4DB,54.487505680541800,-0.612634289676018
Myna and Egret,TS9 7HU,54.439553000000000,-1.142450000000000
Cloud rat and Partridge,TS13 4TD,54.533900436285600,-0.902276004794187
Goose and Old World warbler,YO22 5EF,54.451237752047800,-0.664296774323197
Tattler and Kite,TS10 4JQ,54.593027000000000,-1.066993464469290
Asiatic leopard and Thrasher,TS10 2PP,54.600467627098800,-1.049756269005440
Argus and Ice seal,TS3 9JR,54.564464950012900,-1.182686543005280
Skunk and Thicketbird,TS7 9BW,54.546608907719600,-1.180229869744690
Petrel and White ibis,YO21 1JX,54.484558821896700,-0.622952972019537
Parrotlet and Tit-tyrant,TS3 8PS,54.560646437878700,-1.198969385351050
B and Chicken,YO22 4UF,54.427826224716400,-0.545130000000000
Kite and Pheasant,TS6 0NY,54.550536266709100,-1.153713965408090
Duck and Condor,TS3 9JD,54.564026425683200,-1.186963789968090
Black jay and Scimitar babbler,TS3 9HS,54.563834769398900,-1.179868969383560
Kite and Stilt,TS12 1LF,54.580690901810100,-0.978518924731833
Parrotlet and Flameback,YO22 4AG,54.483541967004700,-0.609496014274199
Stilt and Warbler,TS12 3DR,54.538053244824000,-0.961191000000000
Guillemot and Ground sloth,YO21 2SB,54.479745980498300,-1.044561586463550
Booted eagles and Pratincole,TS12 9AL,54.564094000000000,-0.965526000000000
Linsang and Kākāriki,TS9 7HE,54.443089000000000,-1.150626000000000
Capuchin and Recurvebill,YO22 4HY,54.476743000000000,-0.604371000000000
Coati and Wallaby,TS9 5HU,54.476428230956100,-1.185584149774520
Cuscus and Asiatic leopard,TS9 6DB,54.492313859585100,-1.133318123137900
Badger and Chipmunk,TS3 0AJ,54.547821565594100,-1.200287278110710
American sparrow and Macaw,TS3 0RD,54.555514917406300,-1.177546430086910
Jay and Booted eagles,TS11 8BD,54.579881102019700,-1.041029573201590
Perching duck and Mockingbird,TS7 9LP,54.547283044596400,-1.176274268188690
Parrotlet and Shearwater,TS6 0QY,54.557571153265000,-1.153815623174990
Ground sloth and Quetzal,TS7 0JA,54.525366887314400,-1.170210531212380
Cuscus and Goose,TS12 3HA,54.538795686906200,-0.970123000000000
