name,postcode,lat,lon
Buzzard and Black cockatoo,HP5 2RQ,51.711224730180200,-0.625391828994084
Black cockatoo and Magpie,OX27 8FD,51.921815924636400,-1.144628107042360
Tattler and Petrel,HP20 1QR,51.817503502118300,-0.809879832829271
River dolphin and Duck,HP21 8HH,51.813265000000000,-0.816490000000000
Wader and River dolphin,OX9 3XF,51.745911532094000,-0.969632410010619
Kestrel and Francolin,LU7 9BG,51.832821254914900,-0.646539321083746
Civet and Tattler,OX4 2JH,51.734570464074800,-1.200039000000000
Treepie and Tree warbler,HP22 5GZ,51.800965000000000,-0.738793000000000
Siskin and Pitohui,HP23 4QB,51.833146640058400,-0.703362943607080
Chickadee and Condor,HP27 0RL,51.709524485123000,-0.803683985389930
Asiatic leopard and Puffleg,OX27 9BG,51.928352532092500,-1.051892000911510
Solitaire and Mamo,HP18 0AQ,51.792315009565000,-0.930238368687031
Eagle and Kākāriki,OX3 8RA,51.748821000000000,-1.201350000000000
Stilt and Piping shrike,HP23 5PX,51.802126493737500,-0.656160529999697
Marmoset and American sparrow,HP21 8YD,51.804513043840200,-0.828003478950956
Perching duck and Coati,HP21 9LL,51.807195441932200,-0.799765989026152
Scimitar babbler and Puffleg,HP21 7TF,51.810332864222900,-0.805891068200784
White ibis and Egret,LU7 2TT,51.919523229081200,-0.688385505279192
Bronzewing pigeon and Petrel,HP22 4PR,51.860606983985000,-0.740650124637726
Chickadee and Cuscus,HP27 9BP,51.718498401614600,-0.841143320533578
Vole and Vole,HP20 1XJ,51.823747265475600,-0.791723010677283
Shearwater and Old World warbler,LU7 0PD,51.892322293978400,-0.720058313154348
Dolphin and Parrotbill,HP16 0LQ,51.695733306317800,-0.734350508625530
Egret and Jackal,HP22 6AQ,51.773577988253100,-0.748190082959974
Francolin and Mockingbird,OX26 3XN,51.912156387557700,-1.149158474662150
Stint and Philippine hawk-owl,LU7 3XE,51.922013110819600,-0.643102538800169
Shearwater and Chicken,LU7 1BS,51.921907118570500,-0.660541315624371
Grouse and Peafowl,OX33 1JW,51.739295290952000,-1.089626430912540
Chipmunk and Macaw,HP18 0BL,51.791396885726400,-0.960201302035531
Crow and Solitaire,HP18 9NG,51.819552755027900,-1.016063515052760
Magpie and Chickadee,OX3 7NS,51.752617691917400,-1.209845002897690
Skunk and Piping shrike,HP17 8JR,51.777565841237900,-0.924948579369890
Logrunners and Moluccan boobook,OX3 8JY,51.759674987176200,-1.197768463636240
Diving bird and Vulture,HP21 7EA,51.805554378163700,-0.787045961380934
Old World vulture and Pitohui,OX9 3PW,51.729573050331700,-0.979821005961103
Badger and Cloud rat,HP18 0PR,51.861268081181200,-0.962207488340933
Thicketbird and Grosbeak,HP22 7BD,51.824275000000000,-0.776682000000000
Minke whale and Peafowl,HP18 9NQ,51.822103022555800,-1.015674259826440
Bronzewing pigeon and Warbler,OX39 4LW,51.710514239499500,-0.941533181617504
Black jay and Stilt,OX9 2LU,51.744236782126800,-1.061703103184200
Gull and Prion,OX26 2EY,51.903071527379700,-1.161147118003890
Minke whale and Cloud rat,OX3 9BZ,51.766075599222900,-1.214913843742540
Goose and Badger,HP21 9YH,51.796543255456000,-0.793001201874822
Coati and Moluccan boobook,OX26 2EF,51.902777967105100,-1.161588634611390
Maya and White ibis,OX9 3FG,51.739173000000000,-0.975629000000000
Tattler and Ice seal,HP21 8BP,51.807729393922100,-0.808063049862922
B and Hawaiian honeycreeper,OX26 4XB,51.901231000000000,-1.140121000000000
Elephant and Kestrel,OX25 2NR,51.855113623370100,-1.162503554600330
Black jay and Marmoset,HP22 9QG,51.778273000000000,-0.771432000000000
Myna and Black cockatoo,HP19 7WD,51.815867678250700,-0.836906636287195
Wader and Mockingbird,OX3 9PP,51.767675302583900,-1.192235841695000
Herring gull and Goose,LU7 9FJ,51.826929001427100,-0.640838898091022
Fulmarine petrel and Petrel,LU7 1NS,51.916475582412600,-0.655744799476989
River dolphin and Stint,HP23 6EY,51.781549641614600,-0.640941645973208
Parrotlet and Thicketbird,OX33 1AG,51.788110000000000,-1.176141000000000
Greenbul and Viscacha,HP17 8PT,51.802820304954200,-0.873775801449723
Herring gull and Mockingbird,HP14 4BB,51.683441180398400,-0.859611000000000
Coati and Stilt,OX4 2JT,51.731037708506000,-1.203053731881510
Argus and Duck,OX33 1HA,51.777307413486600,-1.160494599838010
Marsh harrier and Peafowl,LU7 3EA,51.925529968196100,-0.656535977083120
Bronzewing pigeon and Fish eagle,LU7 4AT,51.914120000000000,-0.652500000000000
Pheasant and Vulture,MK18 3HP,51.944713799851400,-0.876787527494087
Puffleg and Mole,MK17 9AS,51.964622765032600,-0.684260352727229
Peafowl and Eagle,HP20 1LS,51.814902462702200,-0.791118140768752
Badger and Prion,OX44 9EF,51.690777000000000,-1.202585000000000
Cloud rat and Boto,OX27 0HA,51.900350184193500,-1.066012902345730
Warbler and Vole,HP21 9JD,51.793878136114700,-0.813851329650519
Puffleg and Guillemot,OX4 3RE,51.727969217406500,-1.209348049605360
Solitaire and Stint,HP5 2JF,51.708002000000000,-0.615745047030865
Goose and Tree warbler,OX27 7NH,51.943362471752900,-1.189695839638540
Logrunners and Zebra,HP20 1HR,51.824011650721000,-0.805282807354020
Darwin's finches and Tahr,OX26 1DA,51.892302000000000,-1.168875000000000
Argus and Black jay,HP21 9XW,51.799412943598300,-0.791387360636917
Snipe and Shearwater,OX4 6PE,51.719702186689700,-1.190267818837350
Pitohui and Parakeet,HP16 0HJ,51.687900000000000,-0.734960000000000
Kangaroo and Zebra,OX26 4LE,51.903849603589300,-1.132047369528030
Fish eagle and Shearwater,MK18 2GG,51.936605000000000,-0.993068000000000
Snipe and Cuscus,OX25 2ZX,51.901771000000000,-1.141520000000000
Flameback and Petrel,OX3 9EW,51.763626384752800,-1.201031204757720
Jackal and Triller,OX39 4GA,51.703071000000000,-0.920412000000000
Peafowl and Black jay,OX26 6QH,51.898583984665500,-1.144764039558480
Hawk and Old World warbler,HP20 2DL,51.822818519153100,-0.812251000000000
River dolphin and Kite,HP23 5BY,51.799371277705400,-0.666887115727089
Duck and Cloud rat,OX33 1FH,51.746771026217800,-1.135407872852060
Black cockatoo and Tattler,HP17 8YL,51.802095784163000,-0.874170927103313
Greenbul and Capuchin,HP21 7PR,51.809669142812700,-0.796349540910262
Herring gull and Kestrel,OX39 4LG,51.713687069879000,-0.934438989989304
Duck and Mamo,HP22 4JD,51.880911000000000,-0.838585000000000
Thicketbird and Kite,OX4 2RP,51.737140000000000,-1.193191186497750
Quetzal and Minke whale,OX25 2BF,51.870932000000000,-1.128289000000000
Vole and Elephant,OX33 1BD,51.806038353178400,-1.132304000000000
Crow and Greenbul,LU7 9EA,51.840299800062200,-0.634659171109265
Grackle and Vulture,HP20 1PT,51.813701160772800,-0.777542972233296
Triller and Minke whale,OX26 6DE,51.896972163962500,-1.151886806980850
Tree warbler and Coati,OX26 6UF,51.896138330233100,-1.142281740286660
Myna and Perching duck,HP20 1QB,51.814279219869100,-0.782996440215714
Ice seal and Tit-tyrant,HP20 1PX,51.812996912110100,-0.778127778954424
Bunting and Gull,HP22 5HX,51.803223279589000,-0.712401472688964
Kangaroo and Asiatic leopard,LU7 3LH,51.919914284247500,-0.648240668918887
Chickadee and Tit-tyrant,HP27 9NN,51.708189567873300,-0.837310787187886
Parrotlet and Ibex,HP22 4HN,51.884754364700400,-0.864929801854358
Partridge and Jackal,HP18 0TN,51.894471365726300,-1.015431094456900
Tahr and American sparrow,OX25 2LD,51.873370180749500,-1.124034000000000
Capuchin and Jay,HP21 7AQ,51.811447742756100,-0.779605763295446
Pratincole and Ground sloth,LU7 9GF,51.829939802896700,-0.646815000000000
Ibex and Herring gull,LU7 4RS,51.907137065132700,-0.645077233670649
Nukupuʻu and Mink,OX9 3ND,51.741947197744800,-0.963596044773919
Pratincole and Francolin,HP27 9PP,51.713297568958000,-0.873394994048612
Grosbeak and Peafowl,OX4 2ES,51.735307440155400,-1.214911136234970
Duck and Black jay,HP20 1LD,51.815209299344200,-0.798247472148875
Scimitar babbler and Booted eagles,OX25 2QB,51.871523674495100,-1.185743731554510
Fish eagle and Grouse,OX26 9NE,51.901779000000000,-1.141501000000000
Buzzard and Jay,OX3 8EA,51.764645118942500,-1.181813223750870
Guillemot and Fox,OX26 9FQ,51.901771000000000,-1.141520000000000
Logrunners and Prion,LU7 2XP,51.917633928765600,-0.690708848814715
Linsang and B,OX4 4RR,51.725418410442300,-1.225969845165590
Boto and Jay,HP22 4EX,51.889060983918500,-0.855623276049186
Warbler and Mockingbird,OX9 2QA,51.743337930086900,-0.980742200955157
Cloud rat and Asiatic leopard,OX26 3YS,51.913780648234000,-1.149971021123270
Parrotbill and Badger,OX3 9RQ,51.771570091939600,-1.225891015165170
Flameback and Chipmunk,HP17 9UG,51.751654889933000,-0.850131463295388
Capuchin and Petrel,MK18 3BT,51.938696437151700,-0.886015049720305
Mole and Cloud rat,OX4 4GP,51.716327041717200,-1.214950242080750
Stilt and Wader,OX4 7FZ,51.714602700896900,-1.201895091888010
Kite and Warbler,MK18 3FW,51.943541304100000,-0.888441149000000
New World blackbird and Rabbit,OX33 1TP,51.744789273228100,-1.150943846415130
Stilt and Fulmarine petrel,OX39 4EL,51.706703335395400,-0.909247568084662
Grouse and Partridge,OX33 1AF,51.784907738802700,-1.178706870284880
Crow and Fulmarine petrel,LU7 9FS,51.828141460300000,-0.644415880000000
Quetzal and Booted eagles,OX4 7UD,51.722360568950500,-1.185920662464750
Mockingbird and Old World warbler,OX25 1PS,51.851708252521700,-1.072870950361530
Pratincole and Guillemot,OX9 3RQ,51.748166388754200,-0.978678010720755
Grosbeak and Towhee,LU7 1AX,51.920491000000000,-0.663245000000000
Buzzard and Parrotbill,HP20 1NR,51.816646316974600,-0.786704673473473
Coati and Thicketbird,HP22 5XY,51.793215504912200,-0.782446924080905
Parakeet and Diving bird,HP21 8RW,51.799316353439600,-0.820843667978568
Pratincole and Songlark,OX3 7NB,51.751818297031400,-1.211307592914220
Diving bird and Herring gull,OX33 1XA,51.743303723310300,-1.126131996106110
Rabbit and Myna,OX27 7YU,51.901771000000000,-1.141520000000000
Herring gull and Towhee,LU7 2FG,51.913888067470200,-0.682966661268043
Mouse and Elephant,HP21 9HD,51.803079000000000,-0.805150989355474
Greenbul and Eagle,OX9 3YA,51.750828363677800,-0.966391502524676
Grosbeak and Warbler,HP6 5NS,51.684840933192000,-0.615269353325660
Fox and Treepie,LU7 4WW,51.908028323070500,-0.656941915470946
Triller and American sparrow,HP21 7PP,51.810295631910500,-0.795186910584767
Chicken and Maya,OX4 2PW,51.739696487828000,-1.199107023081430
Perching duck and Asiatic leopard,OX9 3JL,51.748046664277100,-0.958748000000000
Zebra and Herring gull,OX44 9BG,51.716382014681900,-1.176981018527850
Pitohui and Maya,OX4 7RY,51.715114917465400,-1.192636728113940
B and Shearwater,HP22 7DA,51.825068000000000,-0.768201000000000
Meadowlark and Petrel,HP6 5SH,51.691260197426600,-0.653094698555471
Vole and Magpie,HP17 8UG,51.793544256301100,-0.888274981000798
Boto and Vulture,OX26 2XN,51.907816882559500,-1.167207732769410
Maya and Moluccan boobook,HP21 7LN,51.807602689172000,-0.802670627817652
Stint and Lemming,HP21 8WA,51.818551402714700,-0.809475013229042
Skunk and Moluccan boobook,HP17 8HH,51.771847258698700,-0.921997392701582
Asiatic leopard and Jerboa,OX9 3JR,51.746108859497200,-0.967527618864930
Goose and Towhee,OX26 1XD,51.887520697017700,-1.187314621104950
Polecat and Grouse,OX5 2RE,51.837019987820800,-1.151142000000000
Ground sloth and Snipe,OX9 3QG,51.740706893351900,-0.937467870380063
Siskin and Kākāriki,HP21 8BD,51.797095000000000,-0.804675000000000
Prion and Fox,OX25 2UJ,51.869759374556200,-1.125107000000000
Grosbeak and Rabbit,OX4 7UH,51.720739050920300,-1.186774936356590
Gull and Marmoset,LU7 4EB,51.910255000000000,-0.635377000000000
Tit-tyrant and Diving bird,OX3 9QY,51.771015190961300,-1.222190404287070
White ibis and American sparrow,OX4 6JH,51.721239812011900,-1.200562000000000
Vulture and Duck,HP17 8NJ,51.804551690369800,-0.857517538998968
Prion and Marmoset,HP16 9NT,51.742681747985900,-0.698233000000000
Asiatic leopard and Quetzal,OX3 9JH,51.763764120196200,-1.206766923376300
Egret and Parrotlet,LU7 0TS,51.898592000000000,-0.720999000000000
Skunk and Stilt,HP19 9RY,51.832518000000000,-0.819469000000000
Greenbul and Flameback,OX33 1TR,51.744653375187300,-1.152047192812960
Stint and Rat,HP19 8DE,51.817418000000000,-0.825376000000000
Dorcopsis and Chickadee,OX25 2BD,51.869775000000000,-1.125087000000000
B and Parrotlet,OX4 3QR,51.728748751880800,-1.211622146784230
Darwin's finches and Warbler,HP5 2TY,51.733158455345600,-0.659901151724980
Tree warbler and Wader,HP16 9JT,51.728505955088700,-0.684234096844358
Myna and B,OX33 1EQ,51.763323000000000,-1.158667000000000
Maya and Parrotbill,OX26 1DN,51.895887000000000,-1.176318000000000
Meadowlark and Vole,HP5 2QP,51.716432145043500,-0.625494522039778
Petrel and Goose,HP21 8AG,51.802955886526900,-0.809044617147177
Ground sloth and Capuchin,HP22 4DY,51.865474426955700,-0.830689868352886
Linsang and Chickadee,MK17 9FT,51.955488000000000,-0.719984000000000
Fulmarine petrel and Cuscus,OX4 2LG,51.732993000000000,-1.208840000000000
Black cockatoo and Herring gull,HP22 5WW,51.796570045094100,-0.782516103308802
Civet and Vulture,HP20 2QZ,51.817278791534400,-0.816732000000000
Chipmunk and Snipe,MK18 3JQ,51.942141468999000,-0.874815043811398
Chickadee and Buzzard,OX39 4ZN,51.748141000000000,-0.978765000000000
Philippine hawk-owl and Asiatic leopard,OX3 9UL,51.791730000000000,-1.215092000000000
Pratincole and Parrotbill,HP23 6JH,51.761972000000000,-0.642950000000000
Fish eagle and Petrel,MK18 3PX,51.947703741325500,-0.874472174798257
White ibis and Night heron,HP17 0UZ,51.742952084289100,-0.778902748608205
Marmoset and B,HP6 5QY,51.681190065851700,-0.623668900652968
Elephant and Duck,OX9 3DG,51.753578154787700,-0.975455699935656
Egret and Coati,LU7 0DR,51.939344000000000,-0.715535000000000
Dorcopsis and Hawaiian honeycreeper,HP20 2RD,51.816489944101500,-0.816362407165090
Lemming and Grosbeak,HP23 4DE,51.792681039602500,-0.672405919461572
Night heron and Mouse,LU6 2HD,51.875329000000000,-0.617430000000000
Tahr and Parakeet,MK18 2ET,51.926490321313600,-0.953069163167873
Perching duck and Fulmarine petrel,LU7 9EY,51.827783603980000,-0.639769000000000
Marmoset and Old World vulture,LU7 1AP,51.918580400005100,-0.666093068458240
American sparrow and Kākāriki,HP19 8RS,51.823587703033100,-0.850260040476138
Grouse and Thrasher,OX27 0GA,51.904876048268900,-1.059654139700100
Jay and Booted eagles,OX26 6HR,51.891652000000000,-1.149526572424980
Kestrel and Scimitar babbler,HP22 5WQ,51.796834787320900,-0.783770588454333
Elephant and Partridge,HP23 5ER,51.803946785404300,-0.661240740347445
Grosbeak and Dorcopsis,OX44 9LP,51.689795000000000,-1.184624000000000
Flameback and Parrotbill,HP21 9AF,51.796420266946100,-0.811826985035100
Chickadee and Goose,OX39 4JU,51.699705755847300,-0.917765033006290
Stint and Grouse,HP20 2XN,51.825591082756600,-0.797042582312740
Vole and Vole,OX44 9AW,51.720245154923900,-1.166328666100990
Meadowlark and Argus,LU7 9SJ,51.902042000000000,-0.656150000000000
Kite and Black jay,HP19 7RB,51.817605537987900,-0.830812095336572
Wader and Rat,LU7 1EF,51.917257100318100,-0.661203137810860
Mockingbird and Duck,HP22 4AQ,51.867785043877800,-0.896786899694729
Guillemot and American sparrow,OX27 9AR,51.929875474021900,-1.115896391937500
Crow and Parrotlet,OX39 4BW,51.685643908796800,-0.888011831712272
Rat and Triller,HP22 4QU,51.853686474764300,-0.765526658623870
Boto and Vole,OX25 1TD,51.868745000000000,-1.099067983619060
Argus and Ground sloth,HP23 6NF,51.754299939071500,-0.656045000000000
Quetzal and Tree warbler,HP17 8EJ,51.773371482042800,-0.928410745017092
Black jay and Buzzard,MK18 3EW,51.946591401175000,-0.876624236151515
Jay and Old World warbler,HP20 1XU,51.823831775406300,-0.793824695617326
Piping shrike and Siskin,OX26 5DJ,51.899715444512100,-1.117767380259420
Viscacha and Darwin's finches,HP21 8DB,51.803227972152200,-0.811053411417997
Elephant and Peafowl,OX26 2DT,51.904156298809700,-1.160705389155400
Dolphin and Wallaby,HP16 0EA,51.681941801825100,-0.712170187885460
Darwin's finches and Tattler,OX25 2QA,51.872654000000000,-1.181337000000000
Pratincole and Tahr,LU7 0BZ,51.935641788818500,-0.716673307655458
Triller and Old World quail,OX4 2UQ,51.734493137086500,-1.211579000000000
Chipmunk and Puffleg,OX33 1DZ,51.766141424339800,-1.154383573081480
Chipmunk and Hawaiian honeycreeper,LU7 4UP,51.907864256095500,-0.648108172745658
Triller and Guillemot,LU7 4QR,51.906116367460000,-0.642521000000000
Logrunners and Siskin,OX9 3BJ,51.749065070135200,-0.976557308187837
Gull and Myna,HP19 7AB,51.818274458682100,-0.845738156127973
Cuscus and Viscacha,LU7 6DY,51.908030612300000,-0.656941944500000
Hawk and Logrunners,OX26 9LD,51.901779000000000,-1.141501000000000
Tattler and Night heron,LU7 2NE,51.912578710726800,-0.677654717523296
Ground sloth and Fish eagle,HP23 4AX,51.794852111539700,-0.666411333276108
Piping shrike and Dolphin,OX4 7WE,51.713506478481600,-1.202001226488110
Piping shrike and Myna,OX4 3SN,51.726611468832100,-1.222822146800810
Peafowl and Kākāriki,HP17 8SG,51.786821836666400,-0.836551862694328
Cloud rat and Parrotbill,HP17 0UX,51.736425637209200,-0.780773031695809
Piping shrike and Badger,OX26 6XZ,51.887870172996100,-1.140317683115540
Old World warbler and Maya,OX9 2PD,51.732903012317600,-1.034482654842510
Armadillo and Kangaroo,HP22 5YG,51.778020000000000,-0.771999000000000
Solitaire and Dolphin,OX33 1TJ,51.738778314026900,-1.161265000000000
Skunk and Logrunners,OX4 2EE,51.736897643086700,-1.220125952899620
Logrunners and Vole,OX4 4QG,51.719764394471500,-1.224835880669730
Snipe and Moluccan boobook,LU7 3FP,51.917947726203000,-0.653170791401332
Bunting and Old World warbler,HP16 0QY,51.707328280123300,-0.684834071910301
Jackal and Greenbul,OX27 0ER,51.900911807457600,-1.066539034396180
Buzzard and Bunting,OX4 6SR,51.724910988080500,-1.191984526267150
Parrotlet and Bronzewing pigeon,LU7 4PX,51.910329265649400,-0.642756853563797
Capuchin and Ibex,HP20 2QA,51.816766716597600,-0.814382112899590
Zebra and Chickadee,MK17 0JW,51.951522343878300,-0.775967371247464
Kestrel and Lemming,LU7 2US,51.911917000000000,-0.671354000000000
Pratincole and Gull,HP18 9JQ,51.760648836596400,-1.058682484797930
Myna and Skunk,HP20 2SH,51.816100650688100,-0.818780843249704
Bunting and Bunting,LU7 0LU,51.910665176512000,-0.764706552602452
Francolin and Old World warbler,HP17 8RF,51.802866501588800,-0.863433000000000
Vulture and Macaw,OX3 9UJ,51.790552604804200,-1.216692893941880
Night heron and Egret,HP22 4JQ,51.882109420446300,-0.840791666175757
Quetzal and Meadowlark,OX3 9EE,51.761364120561400,-1.205533892622590
Wader and River dolphin,HP22 6NA,51.763364206758000,-0.738155229519857
Thrasher and Siskin,OX26 4UA,51.906186945413400,-1.145520924320330
Thrasher and Kākāriki,OX9 3NY,51.737677122138700,-0.960637980289329
Mole and Bronzewing pigeon,HP18 0SA,51.834993924029700,-1.010008839061990
Duck and Mole,OX3 8LQ,51.758378607275500,-1.196212177346380
Diving bird and Mamo,HP18 9BF,51.766922000000000,-0.978530000000000
Shearwater and Pheasant,OX33 1SH,51.746295060921900,-1.147801407912820
White ibis and Guillemot,OX26 6ER,51.895605000000000,-1.147991614018250
Mole and Jerboa,OX26 2YB,51.907714184921600,-1.169215681127710
Kākāriki and Thrasher,HP17 8LZ,51.754066538307300,-0.918552569508871
Diving bird and Flameback,OX4 3LZ,51.733454759279700,-1.213495170524550
Parrotlet and Gull,HP5 2SZ,51.714330011386000,-0.648921047632821
Grouse and Moluccan boobook,HP19 9PT,51.821221265316200,-0.814758511080723
Chipmunk and Night heron,LU7 0PN,51.907754200967900,-0.682811718231951
Flameback and Dorcopsis,OX26 2LE,51.901561016449600,-1.164939708537310
Booted eagles and Mink,MK18 2JR,51.950792589387400,-0.921102906786261
Fox and Crow,LU7 4SW,51.910081021500600,-0.659541129461317
Grosbeak and Kangaroo,HP17 8SR,51.772292713942300,-0.820417473330573
Scimitar babbler and Piping shrike,HP16 0LX,51.694929414047000,-0.738192685829047
Rabbit and Jackal,OX26 3FZ,51.913768877408700,-1.152079334644180
Polecat and Zebra,HP22 5SA,51.785537193683500,-0.762675793471707
Bronzewing pigeon and Hawk,HP20 1HH,51.821058571981900,-0.795204562227242
Rabbit and B,HP23 5EL,51.801996271772700,-0.661298510879967
Songlark and Herring gull,MK3 5GN,51.972774254100000,-0.741293495300000
Cloud rat and Booted eagles,LU7 0PJ,51.898527121266700,-0.716001402394841
Zebra and Night heron,OX9 3LE,51.745961077323000,-0.958927013252732
Fox and Kākāriki,MK18 2BH,51.967206004889200,-0.960607051877669
Rat and Greenbul,HP23 5EE,51.795470360566400,-0.658316021145381
Hawaiian honeycreeper and Solitaire,HP19 0UN,51.829728425523600,-0.800690944376828
Cloud rat and Old World quail,HP19 7HG,51.819019446225100,-0.841946948198641
Partridge and Jay,HP21 7QG,51.813294317578200,-0.808873693819829
Old World vulture and Cloud rat,OX4 7WB,51.715789976834900,-1.204609962102190
American sparrow and Jackal,OX3 7JG,51.743590412704900,-1.200530027055570
Maya and Mole,OX26 1BA,51.885420000000000,-1.188878000000000
Cloud rat and Darwin's finches,HP27 9DA,51.717265482344600,-0.837657106743095
Petrel and Triller,MK17 9BQ,51.963686731458400,-0.685786948525201
Egret and Ice seal,HP23 6PF,51.755629284828800,-0.663119022222938
Tit-tyrant and Jay,LU7 2TH,51.922516789119700,-0.689141696225799
Pheasant and Peafowl,HP27 0LL,51.730673628606800,-0.815318033144665
Shearwater and Piping shrike,HP27 9QD,51.726394000000000,-0.849672000000000
Cuscus and Francolin,HP22 5QH,51.767567853924700,-0.724415556454179
Warbler and Perching duck,LU7 9AS,51.834718784144100,-0.635669750863599
Old World quail and Siskin,HP18 9JW,51.770006712245500,-1.076559896508010
Masked owl and Wallaby,OX26 4XL,51.909058377999200,-1.137340236406250
Dorcopsis and Minke whale,OX25 2RD,51.872896506427900,-1.125206248427550
Shearwater and Bronzewing pigeon,HP21 8UX,51.807664930077400,-0.830300522571975
Badger and Jackal,OX27 9AT,51.930644136381600,-1.117684752407790
Ice seal and Scimitar babbler,OX3 8EL,51.757997902683200,-1.191828938080850
Buzzard and Warbler,HP27 9SG,51.737361875472200,-0.858792509057498
Condor and Mouse,HP18 9FG,51.796849410137400,-0.987424985326879
Kite and Prion,HP16 9RA,51.712396712902000,-0.764093422850289
Vole and Eagle,LU7 3NN,51.920907488709300,-0.642350632755624
Pratincole and Night heron,LU7 4RZ,51.907580209992200,-0.646081499988561
Nukupuʻu and Treepie,OX4 6JX,51.722929606534000,-1.208683116273070
Vulture and Dolphin,OX25 1QS,51.856789000000000,-1.110071917871630
Chicken and Peafowl,HP19 8RT,51.821408876919100,-0.848124618791267
Tree warbler and Moluccan boobook,OX26 3DZ,51.909938261107000,-1.152020622281970
Linsang and Meadowlark,OX26 5AG,51.895601928000000,-1.117949789900000
Logrunners and Grosbeak,LU7 3FZ,51.920338000000000,-0.631829000000000
Quetzal and Grouse,OX4 2JY,51.730485340366200,-1.205134030427280
River dolphin and Piping shrike,HP17 8UX,51.796120254851300,-0.891604868510320
Marsh harrier and Black jay,MK18 4EX,51.933819485458500,-1.034235364483220
Myna and Chickadee,HP20 1DQ,51.819488916544700,-0.795580121412182
Stint and Thicketbird,OX4 6AH,51.724087061996300,-1.200352780989900
Meadowlark and Tit-tyrant,OX33 1RQ,51.738419251117100,-1.169238370452440
Polecat and Grosbeak,HP18 0LL,51.846778645246400,-0.920731223952944
Perching duck and Night heron,HP21 7EP,51.807638016511800,-0.782464549647995
Ibex and Mink,MK18 2FE,51.909949750028100,-1.004218697158360
Towhee and Grouse,OX27 9AH,51.946778685624400,-1.114705747695480
Booted eagles and Grackle,HP19 7SB,51.809976831202900,-0.833127273016063
Darwin's finches and Bronzewing pigeon,HP20 2BX,51.827017414629400,-0.800240541156850
Old World quail and Tattler,HP23 6JS,51.783466317160900,-0.678939173222700
Fox and Night heron,LU7 2RB,51.917043143243400,-0.673277846755334
Tahr and Hawk,LU7 2RD,51.916833074919500,-0.671509000000000
Marsh harrier and Polecat,HP23 6NJ,51.754166466397100,-0.668913866061897
Ibex and Tit-tyrant,LU7 0AY,51.945874873508100,-0.659463761275375
Pheasant and Jerboa,HP23 5PA,51.799451000000000,-0.646156965634808
Quetzal and Booted eagles,HP21 7EE,51.806710050970800,-0.787508098340320
Mole and Kestrel,OX4 1LR,51.749153602366900,-1.225694720282730
Warbler and Vulture,HP17 8SL,51.781258000000000,-0.821227000000000
Songlark and Puffleg,HP21 7LR,51.806469731406200,-0.800902098480089
Solitaire and White ibis,OX3 7XE,51.751732185654400,-1.218610245886000
Zebra and Linsang,HP27 0HA,51.724199775144200,-0.830587788887918
Duck and Zebra,OX4 2RB,51.738616872532600,-1.199010245969410
Mink and Tit-tyrant,LU7 0XJ,51.897565927431800,-0.715258507693902
Wader and Jay,OX4 6DB,51.719678644888800,-1.203933756933660
Duck and Ice seal,HP23 9BJ,51.792243121200000,-0.668460378600000
Mamo and Skunk,HP21 9XD,51.799014790833100,-0.796401194454486
Stilt and Warbler,OX26 4TL,51.904421890097100,-1.143897354626500
Parrotlet and Chipmunk,LU7 0SZ,51.835665395515300,-0.655409172026870
Triller and Petrel,OX44 7QA,51.706256352724100,-1.104240578827990
Kangaroo and Polecat,MK17 0DD,51.971124579796400,-0.772638355594576
Egret and Boto,HP20 2EQ,51.826197800147200,-0.809839385539388
Mockingbird and Maya,OX25 2SB,51.874722596593400,-1.118096665625230
Kestrel and Triller,HP21 7HH,51.811065348565400,-0.787840924397905
Lemming and Argus,OX26 9LR,51.901779000000000,-1.141501000000000
White ibis and Condor,OX9 2HB,51.746803712430100,-1.017123056002900
Partridge and Solitaire,LU7 9AT,51.833223077990400,-0.640722000000000
White ibis and Moluccan boobook,OX27 8HA,51.959461676757600,-1.139735190620010
Grackle and Solitaire,OX4 2RX,51.735450527224000,-1.210767031381390
White ibis and Vole,HP20 2JH,51.817586474435100,-0.814534695547769
Mockingbird and Crow,OX25 2AN,51.870685000000000,-1.119062000000000
Mockingbird and Recurvebill,HP20 1PW,51.814857567142600,-0.777207035605820
Ibex and Herring gull,OX44 9LT,51.687767076968300,-1.194511905675930
Mink and Tit-tyrant,LU7 4DT,51.902209720000000,-0.648786745700000
Parrotlet and Parrotbill,HP17 8EE,51.773342002140500,-0.926164933618776
Vole and Cloud rat,HP23 6FD,51.791138000000000,-0.648995000000000
Jay and Francolin,HP17 8SN,51.778787000000000,-0.811580000000000
Condor and Wallaby,HP23 4EN,51.796913533761000,-0.672860000000000
Magpie and Philippine hawk-owl,OX26 2BL,51.898927000000000,-1.168578000000000
Ground sloth and Shearwater,HP20 1NW,51.815743986418200,-0.785524792227239
Kite and Darwin's finches,LU7 4TT,51.907594163086300,-0.651212694047389
Hawk and Flameback,HP20 2HQ,51.825965211847000,-0.804636195700954
Duck and Parrotbill,LU7 0HZ,51.919293072408300,-0.761779745805928
Myna and Skunk,HP18 0DT,51.795085891738300,-0.933377443743855
Vulture and Polecat,MK17 9FQ,51.956397000000000,-0.715927000000000
Tree warbler and Coati,MK18 3EH,51.948151132704900,-0.879902663186923
American sparrow and B,HP23 5AG,51.794265274550300,-0.659874349869400
Boto and Cuscus,HP23 4HD,51.793435194598700,-0.678691434452067
Stint and Kākāriki,OX39 4JD,51.698528771003100,-0.908994000000000
Ground sloth and Ibex,HP23 5QY,51.798145000000000,-0.632017000000000
Hawk and Songlark,OX26 3FD,51.910984399653000,-1.156216844997800
Rabbit and Thicketbird,OX3 9FT,51.770434000000000,-1.222964000000000
New World blackbird and Chickadee,HP23 5NG,51.795927337283700,-0.654095000000000
Dorcopsis and Vulture,OX26 2XH,51.907579686830100,-1.171820203539300
Jerboa and Vulture,HP18 9QA,51.806223290844500,-1.075370596088120
Marmoset and Quetzal,HP18 0QN,51.894147680358900,-0.977465065301887
Bunting and Meadowlark,OX25 1TP,51.869955197544700,-1.095313855940240
Songlark and Mamo,HP21 8FR,51.809300884986700,-0.828445023319145
Fish eagle and Puffleg,HP22 4QP,51.853660053037700,-0.769012084743014
Recurvebill and Tit-tyrant,LU7 2NN,51.913534755978400,-0.675518477371840
Jay and Triller,HP22 5PN,51.773154000000000,-0.731201000000000
Macaw and Scimitar babbler,HP19 8BE,51.822790228595800,-0.830474766612409
Warbler and Parakeet,HP16 0SL,51.694604759108700,-0.730401000000000
Parrotbill and Vole,OX26 6RU,51.901581425655600,-1.150201225644560
Marmoset and Viscacha,HP21 8TU,51.804545248845500,-0.806174507613625
Maya and Minke whale,LU7 4SY,51.911289003493500,-0.642553461862879
Jay and Marmoset,LU7 0JY,51.898226263554500,-0.723220000000000
Cuscus and Peafowl,OX26 4XZ,51.902708109566100,-1.138217670192760
Mole and Stint,OX44 7PN,51.718414570242100,-1.093925227919560
Egret and Black jay,OX9 3XH,51.747323284797000,-0.969643752614900
Cuscus and Marmoset,HP27 0ET,51.716099000000000,-0.836818000000000
B and Triller,OX27 8AS,51.918061000000000,-1.158585000000000
Badger and American sparrow,HP18 0FN,51.833679356999100,-0.860496149926075
Diving bird and Chipmunk,OX3 7HG,51.750231505139600,-1.205323556051310
Buzzard and Cloud rat,MK17 0RX,51.949519649273400,-0.814332000000000
Kākāriki and River dolphin,HP20 9NY,51.822624000000000,-0.826524000000000
Duck and Cuscus,HP22 4LU,51.871777884091000,-0.768010000000000
Pratincole and Songlark,HP17 8FA,51.775789000000000,-0.936376000000000
Triller and Diving bird,HP23 6HD,51.782383284431300,-0.629101645683070
Old World vulture and Boto,LU7 2QH,51.917262355803700,-0.682388110838692
Marsh harrier and Tit-tyrant,OX4 6RE,51.719503890464000,-1.194122010871970
Elephant and Hawk,OX25 1TJ,51.878500785234000,-1.109989214900650
Siskin and Bronzewing pigeon,MK17 0HR,51.968587413160000,-0.770757061134971
Jackal and Coati,HP23 4DJ,51.790106710550200,-0.675352358861734
Badger and Pheasant,OX3 7PU,51.753852912930600,-1.221137873765880
Buzzard and Marsh harrier,HP17 8TU,51.789194214692400,-0.905722388794710
Guillemot and Philippine hawk-owl,HP17 8SU,51.775705000000000,-0.836084000000000
Black cockatoo and Old World vulture,LU7 2NH,51.913377209489400,-0.674953000000000
Kestrel and American sparrow,LU7 2XX,51.918080021326600,-0.691204790117594
Mamo and Chickadee,HP5 2UN,51.748741678531500,-0.652095648340091
Cuscus and Myna,HP22 6AY,51.776026434612500,-0.746759842059640
Quetzal and Piping shrike,HP21 9HP,51.794876429477800,-0.812984104057790
Perching duck and Booted eagles,OX3 8PX,51.750835100146700,-1.204168561793850
Warbler and Asiatic leopard,LU7 4YU,51.911283068163100,-0.640969000000000
Prion and Booted eagles,LU7 6DH,51.908030612300000,-0.656941944500000
Triller and Old World warbler,HP23 4LJ,51.818235559552700,-0.667679779312606
Solitaire and Badger,OX49 5SJ,51.681532576822200,-0.947314835781593
Jerboa and Piping shrike,HP16 0LT,51.695820133806800,-0.740757876885802
Crow and Jerboa,MK18 3RD,51.940652342291000,-0.885573827018456
Marmoset and Capuchin,OX4 6SZ,51.723394576998700,-1.193748835449850
Jay and Scimitar babbler,HP22 6NH,51.763641656852000,-0.749090000000000
Dolphin and Pitohui,HP18 9DW,51.775284707563400,-0.997517234649257
Treepie and Flameback,MK18 2BG,51.967624390033800,-0.961150509492840
Jackal and Puffleg,HP18 9EZ,51.786259966425100,-1.004551846582830
Cloud rat and Black jay,OX4 2GG,51.737469149868000,-1.216828737759060
Treepie and Rabbit,HP17 8QY,51.802091014738300,-0.856898092990717
Marsh harrier and Dorcopsis,OX26 3WB,51.913904292678200,-1.159680472656500
Rabbit and Tahr,OX26 6DT,51.897188000000000,-1.155429000000000
Booted eagles and Ground sloth,HP18 0WJ,51.830150855518100,-0.853619463402682
Partridge and White ibis,OX4 3SU,51.728096121623300,-1.218916362164660
Gull and Partridge,HP23 5FG,51.792773432882500,-0.660527670680028
Recurvebill and Parrotbill,HP22 9PB,51.778021610660400,-0.771998996118745
Stilt and Chipmunk,HP20 2RB,51.816685572177200,-0.817039141366791
Diving bird and Ice seal,HP5 2TZ,51.732678943380000,-0.668343228326171
Fox and Capuchin,OX4 2QR,51.738515361714700,-1.203921505876560
Gull and Fish eagle,OX27 7NY,51.945383518769000,-1.215978095331830
Darwin's finches and Night heron,HP20 2XP,51.825173252481400,-0.798388667172867
Marmoset and Gull,HP19 9PW,51.821698838567700,-0.816646692935344
Mamo and Ground sloth,HP22 5YH,51.789000884712600,-0.785286168567983
Mamo and Scimitar babbler,HP17 8XJ,51.776535198509300,-0.873444535082038
Argus and Macaw,LU7 1ST,51.914796437728600,-0.658963000000000
Logrunners and Polecat,OX33 1HR,51.777735836392500,-1.162573901012460
Parrotlet and Stilt,HP20 9NX,51.822624000000000,-0.826524000000000
Flameback and Warbler,MK3 5JU,51.972997000000000,-0.730325000000000
Towhee and Magpie,HP21 8JE,51.806665565394100,-0.815792959106815
Booted eagles and Hawk,OX27 7PJ,51.930372143581300,-1.217868549738340
Mamo and Argus,HP22 4AG,51.863337926405300,-0.899088577210580
Towhee and Snipe,OX9 2PB,51.732734200769100,-1.030359307462160
Minke whale and Marsh harrier,LU7 9DS,51.877717166360900,-0.645090049524456
Polecat and Parakeet,LU7 4US,51.908860792440700,-0.647976490185824
Kākāriki and Parrotlet,HP16 9NQ,51.738472393843900,-0.693430864032822
Tahr and Booted eagles,OX4 7XR,51.717467307261800,-1.190843316281960
Stint and Philippine hawk-owl,OX27 0EX,51.900857000000000,-1.067383000000000
Siskin and Linsang,HP27 9EF,51.717528000000000,-0.837266000000000
Macaw and Kite,HP16 0EY,51.688870197241500,-0.703611754112464
Mockingbird and Chicken,HP20 2GH,51.819136000000000,-0.814022000000000
Kangaroo and Mouse,HP22 5ET,51.803813645011600,-0.727816521391183
Wader and Kestrel,LU7 9JH,51.893965000000000,-0.623340000000000
Chicken and Cloud rat,OX3 7FZ,51.753152000000000,-1.215659000000000
Thrasher and Pheasant,HP20 2EG,51.826183113505300,-0.808388702035024
Wader and Bunting,HP21 7LG,51.808831100410800,-0.803218288402405
Mockingbird and Linsang,HP16 9NP,51.742608000000000,-0.714458000000000
Logrunners and Tahr,HP22 6DA,51.765080583472100,-0.747309282845153
Prion and Magpie,HP19 7ST,51.810697613734100,-0.834182083430399
Vole and Kestrel,HP18 9LY,51.762333873796500,-1.062516266075050
Partridge and White ibis,HP22 6AX,51.776309487551600,-0.744635764145029
Parakeet and Kite,OX25 2PP,51.870998824975100,-1.187859293652230
Perching duck and Old World vulture,OX4 4YX,51.712387000000000,-1.218521000000000
Booted eagles and Booted eagles,HP19 9RG,51.832734813958600,-0.816996059531814
Boto and Magpie,HP18 9BJ,51.775345576977900,-0.995167829387336
Parakeet and Songlark,OX27 8BF,51.919524000000000,-1.160850000000000
Fox and Vole,OX39 4BH,51.693500716942200,-0.893534241405964
Tit-tyrant and Booted eagles,MK18 3FY,51.944052581400000,-0.890217993500000
Ground sloth and Vulture,HP6 5QF,51.683013402715000,-0.615845846421674
Songlark and River dolphin,HP22 9RN,51.778221000000000,-0.771607000000000
Peafowl and Fulmarine petrel,HP18 0LB,51.846000000000000,-0.922971000000000
Philippine hawk-owl and Kite,HP17 8JA,51.773866100974400,-0.931384749895450
Capuchin and Marmoset,OX4 2FA,51.736047000000000,-1.212953000000000
Duck and Dolphin,HP18 0UJ,51.839139687691300,-0.849195000000000
White ibis and Grackle,OX27 8DR,51.956617152495600,-1.119809122505590
Black cockatoo and Songlark,OX9 3AT,51.754810115957800,-0.978571641324655
Peafowl and Philippine hawk-owl,OX3 7AW,51.756379592711200,-1.210373372570970
Viscacha and Kangaroo,HP19 9PB,51.827057624683500,-0.819321418880319
Parakeet and Pitohui,HP17 8FR,51.770185000000000,-0.921406000000000
Dorcopsis and Parrotlet,HP18 0FG,51.834747912036000,-0.858495360581624
Thicketbird and Jay,OX4 3SE,51.731196785823200,-1.221425866530190
Macaw and Stint,HP27 9LL,51.739870885675300,-0.813426486996987
Philippine hawk-owl and Towhee,HP22 4PT,51.863338674414900,-0.743013674239126
Ibex and Marsh harrier,OX4 6TU,51.726588845894900,-1.198035547150270
Polecat and Warbler,OX9 2AS,51.745590356949600,-0.986470902415611
Egret and Mink,HP17 8LY,51.754171611505100,-0.923142590674877
Pheasant and Argus,HP22 6DF,51.766523194660600,-0.745994091370225
Black jay and American sparrow,OX9 0EN,51.748147000000000,-0.978744000000000
Cuscus and Cloud rat,OX25 2AZ,51.882755000000000,-1.144202000000000
Coati and Crow,HP17 8HD,51.771393407793500,-0.927428580993808
B and Partridge,HP20 2FN,51.825969658627800,-0.813066758059876
Tattler and River dolphin,OX14 3AZ,51.686000000000000,-1.223040000000000
Coati and Fox,LU7 0RH,51.845720452506600,-0.662731138514089
Pitohui and Jackal,MK17 0BW,51.972774803058700,-0.768793615454392
Chicken and Eagle,MK18 2EN,51.945006486851900,-0.955475220526640
Petrel and Kestrel,LU7 9HB,51.827329892336100,-0.639738485270132
Philippine hawk-owl and Civet,HP17 8XW,51.765941219010100,-0.868549318778771
Partridge and Guillemot,OX3 8HS,51.760120877299400,-1.191979406273600
Skunk and Greenbul,OX4 4GF,51.721393250100000,-1.221840456800000
Pheasant and Rat,OX9 2NB,51.738724869715300,-1.059427649477720
Bronzewing pigeon and Pitohui,HP27 9QU,51.748879000000000,-0.874393000000000
American sparrow and Moluccan boobook,HP21 9PH,51.801721186394700,-0.801680691698224
Asiatic leopard and Moluccan boobook,OX4 2UF,51.740274499684300,-1.200805773061350
Mamo and Black cockatoo,HP16 9QU,51.703385966037000,-0.746162795266137
Perching duck and Jay,HP20 2AD,51.824781406118000,-0.801402716909873
Tit-tyrant and Parrotbill,HP19 8FP,51.822051145998800,-0.829391191231576
B and Magpie,HP21 7GE,51.818551402714700,-0.809475013229042
Rabbit and Night heron,HP22 6EB,51.762844161945400,-0.742487886690795
Chicken and Kite,HP20 1EA,51.818457596465800,-0.807315759929273
Viscacha and Polecat,HP16 0SW,51.693058529155700,-0.735625967463482
Viscacha and Macaw,OX27 8DB,51.924039000000000,-1.161028000000000
Condor and Kestrel,OX3 8EP,51.756347094857100,-1.192350987068890
Armadillo and White ibis,OX4 6DH,51.719455358618500,-1.204154818303240
Tree warbler and Armadillo,LU7 0SP,51.844726096887900,-0.667812468303400
Night heron and Piping shrike,HP23 4QU,51.833172410874600,-0.704886077770343
Argus and Vole,HP5 2EQ,51.717452549719800,-0.615142116799278
Masked owl and Mole,HP19 9HN,51.828483752280000,-0.833389238765427
Scimitar babbler and Wallaby,HP19 7GZ,51.816439847872400,-0.843870032019753
Parakeet and Tattler,HP17 8LX,51.757953953579700,-0.935643299152263
Kestrel and Parakeet,HP5 2PH,51.716833379543300,-0.619069528001854
Logrunners and Piping shrike,HP23 6AJ,51.791945585752500,-0.661465590215790
Parakeet and Maya,HP5 2BY,51.721135881819400,-0.616390463451631
Myna and Treepie,HP5 2EY,51.716561925587700,-0.616631379767539
Rat and Linsang,OX25 2BB,51.869775000000000,-1.125087000000000
B and Cuscus,OX9 0DG,51.748169224500000,-0.978678070500000
Songlark and Boto,OX9 7AY,51.710791050157000,-1.021363000000000
Asiatic leopard and Solitaire,OX39 4HZ,51.700757776232500,-0.909983796160888
Argus and Eagle,HP19 7BJ,51.819237376574400,-0.847657683124086
Condor and Condor,HP17 8JL,51.774769866892100,-0.928928404570232
Mole and Dolphin,HP27 0DF,51.722020139362600,-0.831121764211301
Goose and Perching duck,LU7 0JP,51.906546156754800,-0.715060470554562
Tit-tyrant and Petrel,LU7 9FX,51.828580000000000,-0.646710000000000
Chickadee and Hawk,MK18 3QT,51.948892874499600,-0.876595841142169
Kite and Warbler,HP27 0QZ,51.692160409336600,-0.809755269245210
Tree warbler and Ice seal,HP23 4HQ,51.795672000000000,-0.672811000000000
Siskin and Fulmarine petrel,OX26 6HB,51.892508675142600,-1.147611303248800
Grosbeak and Parrotbill,MK18 4LL,51.962591174246100,-1.044183825607380
Jerboa and Hawaiian honeycreeper,MK18 4AZ,51.969933000000000,-1.091294000000000
Black jay and Buzzard,HP21 8RU,51.806277366085900,-0.828204302572204
Civet and Lemming,OX4 3HB,51.733645885703600,-1.215186087955870
Egret and Logrunners,OX3 8LL,51.760417281903000,-1.201145787148310
B and Rat,MK18 4ED,51.929839012338800,-1.031266579766680
Jay and Polecat,OX4 6QE,51.718640979245500,-1.192848994440220
Stint and Shearwater,OX26 6AB,51.893969233283200,-1.151899730164840
Black jay and Buzzard,HP22 5JD,51.802678266182200,-0.720498000000000
Hawaiian honeycreeper and Kite,OX4 2AB,51.745464542026900,-1.225294269878260
Badger and Lemming,LU7 1LH,51.917387874100000,-0.667771557800000
River dolphin and Songlark,HP19 8FY,51.821542605875200,-0.823223563955660
Argus and Mink,OX9 7ER,51.694191434920700,-1.016714788928620
Bunting and Thicketbird,LU7 0RQ,51.845461258318700,-0.661287108841017
Night heron and Stilt,OX4 7YA,51.710300669896900,-1.199959011276150
Egret and Guillemot,HP19 8BY,51.823040703424200,-0.828538495316926
Masked owl and Towhee,HP18 0HX,51.822736288208400,-0.978168214355871
Hawk and Coati,LU7 3GH,51.921730000000000,-0.630944000000000
Treepie and Macaw,MK18 3ED,51.943557000000000,-0.881661000000000
Lemming and Jackal,OX26 1UH,51.896843000000000,-1.200095000000000
Tattler and Fulmarine petrel,HP22 6NR,51.763599206421300,-0.739945527154647
Tree warbler and Philippine hawk-owl,HP20 1TS,51.816175966874700,-0.811974865140823
Elephant and Asiatic leopard,HP22 7AU,51.824082000000000,-0.778037000000000
Pheasant and Gull,HP22 5QP,51.802266815276600,-0.718679573057738
Wallaby and Coati,OX3 9EU,51.765092410429700,-1.198454968782100
Viscacha and Kite,MK17 0EB,51.966183000000000,-0.740459000000000
Cuscus and Meadowlark,OX26 6BH,51.894875198282500,-1.150356770243740
Condor and Chicken,OX9 3BZ,51.747307859231200,-0.970962259244627
Solitaire and Old World vulture,OX4 2UW,51.735007963354100,-1.210470635656750
Old World vulture and Old World quail,HP23 6DA,51.789678000000000,-0.672277000000000
Puffleg and Siskin,OX4 6ET,51.720861730464700,-1.203377354567540
Herring gull and Ground sloth,HP22 4LW,51.874358000000000,-0.728325000000000
Booted eagles and Marsh harrier,LU7 2LQ,51.912756883650500,-0.684729865747640
Nukupuʻu and Mamo,OX26 3WR,51.908707846677400,-1.156665000000000
Vulture and Moluccan boobook,OX4 3JD,51.732596728488600,-1.210237511658690
Songlark and Recurvebill,HP22 6LT,51.767155537820300,-0.751338552471518
Songlark and Lemming,LU7 0HS,51.921088943557900,-0.760989000000000
Kestrel and Tit-tyrant,HP27 9DJ,51.719282000000000,-0.839618000000000
American sparrow and Jerboa,HP22 5XP,51.766944491986500,-0.787878069178448
Petrel and Dolphin,HP21 9DH,51.804491301638600,-0.776428721362042
Skunk and Chicken,OX4 3RQ,51.731761000000000,-1.214220000000000
Meadowlark and Philippine hawk-owl,LU7 3ND,51.915878772698500,-0.641353654220497
Prion and Mole,OX4 2PY,51.740755606040500,-1.201477984686800
Wader and Vulture,HP21 7TW,51.813146872491700,-0.805860224624375
Jay and Gull,OX4 2NH,51.736618932968700,-1.208024145608070
Grackle and Grackle,HP21 7JE,51.811692547453400,-0.792872213375917
Moluccan boobook and Egret,HP17 8UR,51.787109166567400,-0.896204119825980
Mockingbird and Crow,HP17 8JS,51.778458181702400,-0.924969000000000
Egret and Stint,MK18 3GJ,51.945089000000000,-0.886768000000000
Francolin and Philippine hawk-owl,OX33 1LG,51.757800014316200,-1.098395000000000
Egret and Towhee,HP16 0SB,51.694103774877000,-0.736667513772136
Jay and Magpie,HP21 9XY,51.797363795516700,-0.790601054886517
Goose and Asiatic leopard,LU7 1FN,51.919513808923300,-0.655668603850157
Warbler and Grosbeak,OX9 2DT,51.742593403811600,-0.976804898261037
Warbler and Jay,HP22 4QQ,51.866331708010200,-0.747969979500100
Solitaire and Petrel,HP18 0QU,51.866851000000000,-0.996151000000000
Logrunners and Grosbeak,OX26 5DA,51.896737520013000,-1.114978000000000
Dorcopsis and Armadillo,MK18 3FZ,51.944411185300000,-0.890107303500000
Mamo and Greenbul,MK17 0DF,51.973181730341400,-0.773324623211555
Ice seal and Vole,LU7 0WA,51.932948191766300,-0.716197424596381
Piping shrike and Kestrel,OX4 2QL,51.739134242199900,-1.205025778109310
Mockingbird and Myna,HP19 8SR,51.826008822345100,-0.845917782073956
White ibis and Fulmarine petrel,HP19 9RW,51.832128423351500,-0.818390643738464
Vulture and Philippine hawk-owl,HP21 9EB,51.796997167780800,-0.809303094045373
Thrasher and Minke whale,HP19 9QN,51.826476565019900,-0.815186523070806
Fox and Parrotbill,HP20 2RX,51.816002134439200,-0.815243607362121
Nukupuʻu and Jay,OX4 4NG,51.720329519129800,-1.217848608860340
Rat and Civet,HP14 4JA,51.681532085668000,-0.828519423371222
Perching duck and Wallaby,HP17 8JT,51.779264052642100,-0.924821254784912
Petrel and Francolin,OX26 9LF,51.901779000000000,-1.141501000000000
Peafowl and Stilt,HP19 9AS,51.835262098869100,-0.817960308469223
Perching duck and Magpie,OX3 8BZ,51.766857733475900,-1.189714456470500
Piping shrike and Old World quail,HP27 0HT,51.722756048086900,-0.826469977555833
Old World warbler and Egret,OX3 9PA,51.768082177094700,-1.191257639584760
Grouse and Meadowlark,HP19 9LB,51.825290817593700,-0.832383431746720
Kangaroo and Polecat,HP18 9NT,51.849856798404600,-1.037136520456460
Grosbeak and Wader,OX3 7BZ,51.756774000000000,-1.208729000000000
Myna and Maya,OX26 2QD,51.898925778001700,-1.158506496040260
Hawaiian honeycreeper and Mole,HP23 6NP,51.754649293203300,-0.684648053952012
River dolphin and Parakeet,HP14 4NL,51.682307894973800,-0.774126733264124
Pitohui and Wader,HP21 9DU,51.796054990464100,-0.807718291843889
Old World warbler and Gull,MK17 0FF,51.938224000000000,-0.835281000000000
Logrunners and Condor,OX4 3QA,51.727195299760800,-1.217440000000000
White ibis and Argus,HP21 7FJ,51.806916355032100,-0.793579965603095
Greenbul and Cuscus,OX26 1AR,51.892316828500000,-1.171941019700000
Guillemot and Egret,HP17 8DN,51.768095148796200,-0.930564538484751
Grosbeak and Solitaire,OX26 2FP,51.900976599078100,-1.171302080866190
Gull and Triller,HP27 0PP,51.686402000000000,-0.794283000000000
Wallaby and Magpie,OX4 2NW,51.736551024180800,-1.207286772447940
Shearwater and Coati,HP21 7RW,51.814408981757900,-0.801764929282728
Dolphin and Shearwater,HP21 7NF,51.803922408527500,-0.797111726696517
Puffleg and Pitohui,MK18 3HY,51.942009620677700,-0.877015086793141
Grosbeak and Grackle,LU7 2PS,51.913337983100800,-0.682822824965899
Piping shrike and Pheasant,OX4 7UJ,51.721757148271100,-1.187075167846970
Songlark and Petrel,OX9 3EB,51.752111076739800,-0.975286074577804
Mole and Kākāriki,HP23 6FB,51.782739377362700,-0.645863865438227
Chipmunk and B,HP22 4DZ,51.865543346590100,-0.829482643899032
Ice seal and Minke whale,HP18 9TQ,51.821195785899800,-1.055259658741050
Gull and Logrunners,HP23 6BJ,51.791042434378800,-0.666654186255710
Quetzal and Magpie,HP22 5FN,51.769996781071700,-0.724303718175937
Fish eagle and Dorcopsis,HP22 5PY,51.769126322005600,-0.729181000000000
Pheasant and Chicken,HP16 9AD,51.705289828686100,-0.708584048472356
Armadillo and Parrotlet,HP20 1AJ,51.817964000000000,-0.810796000000000
Tattler and White ibis,HP21 9BT,51.808582778361800,-0.776463000805407
Condor and Thrasher,OX3 7TJ,51.760812699815100,-1.221221015444310
Crow and Stint,OX3 9HD,51.764547910058100,-1.201681506550240
Tree warbler and Tattler,OX26 6AU,51.894448628986000,-1.153547392171190
Viscacha and New World blackbird,HP21 8LA,51.810822683727300,-0.815205334266412
Chicken and Pitohui,OX3 9AF,51.760139688387200,-1.211974052165810
Jackal and Darwin's finches,OX3 7AB,51.757578573582000,-1.213525401796220
Songlark and Stilt,OX26 6PG,51.899565137873300,-1.148640520695090
Fish eagle and Jackal,OX26 1EU,51.899150000000000,-1.178773000000000
Fish eagle and Polecat,HP17 8QW,51.801057622200800,-0.846830425521854
White ibis and Parrotbill,OX9 3EZ,51.745409899384600,-0.973960236534332
Snipe and Hawaiian honeycreeper,HP20 1QF,51.815231729859100,-0.782071336403493
Scimitar babbler and Fish eagle,HP19 9QU,51.822684812146100,-0.821713721696018
Thicketbird and Parrotlet,HP22 6RS,51.770692960429600,-0.745777097864449
Prion and Lemming,OX26 6YH,51.893245450091600,-1.135216150182510
Flameback and Songlark,HP5 2JG,51.709173667079400,-0.616118608406092
Boto and Tree warbler,HP23 5JT,51.798752635511200,-0.651082000000000
Ground sloth and Warbler,HP22 5TY,51.788520957681100,-0.780615996370600
Jackal and Elephant,HP20 2XA,51.826923528547200,-0.797210245405335
Kestrel and Prion,LU7 0QS,51.885418415322000,-0.669922733850070
Ground sloth and Snipe,LU7 2AP,51.916853895152800,-0.673239804162351
Gull and Fox,HP18 0YE,51.835596000000000,-0.857966000000000
Songlark and Kākāriki,HP23 6PA,51.756058509127000,-0.669249428930313
Civet and Coati,MK18 3AY,51.939696238743000,-0.887563000000000
Tree warbler and Recurvebill,LU7 1AL,51.915967014578800,-0.665691000000000
Vole and Black jay,MK18 2LE,51.934204374924800,-0.948991514425903
Buzzard and Boto,OX44 9DD,51.715368784698200,-1.159586182921980
Mole and Elephant,OX3 8BB,51.761809185949300,-1.200889395234090
Grosbeak and River dolphin,OX4 3XQ,51.732080219891000,-1.216357127272430
Jerboa and Parrotbill,HP22 4DU,51.864868654307900,-0.831372000000000
Cloud rat and Partridge,OX33 1TQ,51.741006308199600,-1.162557713023190
Marmoset and Goose,MK18 3ES,51.947167865207300,-0.881454866812744
Argus and Gull,HP22 5BF,51.795582900124800,-0.709341845122961
Quetzal and Grackle,HP20 1XY,51.825281825778600,-0.794061670051429
Hawk and Darwin's finches,LU7 3BX,51.927358939700000,-0.654299939200000
Philippine hawk-owl and Booted eagles,OX27 0BN,51.916445963806700,-1.023923000000000
Thicketbird and Greenbul,HP18 0BT,51.789823000000000,-0.959005000000000
Civet and Darwin's finches,LU7 0ND,51.898112211001300,-0.713411643859011
Boto and Ice seal,HP22 4QD,51.865574531206200,-0.741891145581982
New World blackbird and Nukupuʻu,HP19 9AT,51.820711733592300,-0.815947103979833
Grosbeak and Buzzard,HP21 8DA,51.802493407048000,-0.810434596027588
Mink and American sparrow,HP18 0YN,51.833682518480800,-0.847898731849984
Nukupuʻu and Peafowl,OX3 9PX,51.769837088871900,-1.222152679221470
Piping shrike and Armadillo,OX4 2RA,51.738807252893100,-1.198065000000000
Chickadee and Dorcopsis,OX4 1PB,51.749442357798200,-1.224487473501990
Mamo and Flameback,OX26 1TB,51.895091772751200,-1.212537275338960
Siskin and Black jay,HP20 1LZ,51.816469632978400,-0.797517584121392
Philippine hawk-owl and Ground sloth,LU7 0LX,51.890721570567300,-0.783621239413342
Herring gull and Recurvebill,OX3 7BN,51.751925184052700,-1.215898000000000
Pitohui and River dolphin,OX44 7UY,51.684650372301300,-1.142869173627400
White ibis and Tahr,HP18 0HH,51.816649780956700,-0.983426995052338
American sparrow and Snipe,OX9 3WE,51.748363307815200,-0.961131550035080
Nukupuʻu and Flameback,OX26 6AZ,51.896549431248800,-1.154365374030810
Treepie and Black jay,OX4 7NZ,51.715521828909600,-1.190356931256750
Tattler and Goose,HP23 5FF,51.800638000000000,-0.645333240765114
Songlark and Fox,HP18 0UD,51.880699951076400,-1.009368621641800
Prion and Chickadee,LU7 9HF,51.891889425500000,-0.631250773040805
Parrotlet and Tit-tyrant,OX26 2XE,51.908642154807300,-1.168210055284580
Greenbul and Elephant,LU7 0HD,51.925110810787000,-0.763524769780014
Argus and Myna,HP27 0BH,51.721247035297400,-0.829332065026897
Moluccan boobook and Myna,OX3 8AX,51.760751587871300,-1.204037751630810
Kite and Pitohui,OX33 1EN,51.765329737160700,-1.151544043005300
Fish eagle and Quetzal,LU7 4PZ,51.913872849057000,-0.653016457692555
Mouse and Darwin's finches,HP22 5LN,51.802317903335400,-0.723377146295062
Darwin's finches and Towhee,OX26 1UE,51.894133000000000,-1.190320000000000
Macaw and Puffleg,HP18 1AA,51.833248000000000,-0.851617000000000
Wallaby and Old World quail,LU7 0PX,51.887764384256800,-0.689891331107632
Recurvebill and Logrunners,LU7 9LA,51.941148793979700,-0.629301141999341
Kākāriki and Asiatic leopard,OX4 7GT,51.714300624202800,-1.194518429838170
Wader and Darwin's finches,HP18 0AW,51.793149608907700,-0.933031616491981
Boto and White ibis,OX44 9EY,51.724877779880600,-1.134276315221150
Civet and Viscacha,HP23 6LE,51.762195013756600,-0.694485092203354
Old World warbler and Old World vulture,OX39 4FE,51.699809000000000,-0.907958000000000
Songlark and Wallaby,HP22 5PR,51.771402142461600,-0.729756931935129
Piping shrike and Viscacha,OX26 2RN,51.899636327141100,-1.176340956175960
B and Shearwater,OX9 2AD,51.749751905078000,-0.983176376328512
Chipmunk and Fox,OX26 4TH,51.907415596531000,-1.141383780970610
Mink and Quetzal,OX4 2PU,51.739554652535900,-1.202049484005170
Jackal and Perching duck,MK17 0QY,51.973219345581300,-0.881883683804598
Mouse and Marsh harrier,OX39 4SB,51.689622358098300,-0.936045633472771
Booted eagles and Rat,HP18 9YS,51.757654502902300,-1.035360356778500
Petrel and Scimitar babbler,HP19 8AL,51.821431000000000,-0.820252000000000
Diving bird and Condor,LU7 2YQ,51.920379064085200,-0.690149135976169
Vulture and Old World warbler,OX26 6ED,51.902263855469000,-1.153822063502090
Greenbul and Warbler,OX4 3QP,51.728657523634300,-1.212767577498520
Pheasant and Peafowl,MK18 3LE,51.924918374934400,-0.860281499166816
Duck and Fox,HP19 9TR,51.827538266936700,-0.840524104139211
Chicken and Crow,OX3 7HP,51.750591896804100,-1.205433121879040
Fish eagle and Logrunners,HP21 7ND,51.804459876883400,-0.797793602911573
Black cockatoo and Masked owl,HP16 0PQ,51.695768500211100,-0.743493956415850
Pitohui and Minke whale,HP22 4PG,51.860599803226300,-0.739140050946426
Bunting and Francolin,OX44 9DT,51.726093000000000,-1.157838000000000
Black cockatoo and Cloud rat,HP27 0LY,51.734371486136900,-0.812875395082660
Goose and Parrotbill,OX26 2YU,51.906236765023300,-1.168806848363730
Guillemot and New World blackbird,MK17 0PA,51.968160000000000,-0.848413000000000
Quetzal and Grouse,HP22 4EA,51.865525688471700,-0.828611701761037
Warbler and Stilt,HP17 8UW,51.788819191262400,-0.895422957380599
Vulture and Recurvebill,HP19 7QS,51.814394495058000,-0.828893234833716
Thrasher and Mouse,HP21 8AA,51.807772075475300,-0.809613936856078
Kestrel and Puffleg,HP19 9TN,51.827969315583400,-0.840469503946686
Guillemot and Chickadee,HP21 9XZ,51.796380793837200,-0.793817603556902
Macaw and Ice seal,OX3 7LR,51.754778458854200,-1.216993051736750
Pitohui and Cloud rat,LU7 3JY,51.919479909383500,-0.651918043027375
American sparrow and Kite,LU7 4WZ,51.905041961200000,-0.646434099900000
Kestrel and Badger,HP20 2TH,51.816446458451700,-0.819192521746656
Tit-tyrant and Guillemot,MK17 0BH,51.971130000000000,-0.768766000000000
Booted eagles and Snipe,OX4 2HW,51.733586973669500,-1.205079637345550
Eagle and Magpie,OX25 2LR,51.870238909253900,-1.122091448040460
Fulmarine petrel and Mouse,HP20 2LD,51.817602000000000,-0.813188176088765
Grosbeak and Lemming,OX27 8FE,51.921121704905400,-1.143129039843640
Tit-tyrant and Argus,HP23 5QP,51.799847000000000,-0.622245753245417
Parakeet and Dolphin,MK3 5QG,51.969366254200000,-0.737198000000000
Pratincole and Siskin,HP20 1LT,51.815728622720700,-0.794519774460561
Tahr and Macaw,OX26 1US,51.889870011076100,-1.189001426147080
Songlark and Mamo,MK18 2GJ,51.920642000000000,-1.010609085400000
Old World warbler and Flameback,HP18 0DB,51.787950952928600,-0.956902428744760
Quetzal and Recurvebill,HP18 9EF,51.776976209212100,-1.005060485501280
Flameback and Masked owl,OX27 9AS,51.927205000000000,-1.115745000000000
Mouse and Black cockatoo,HP18 9QB,51.805755570592400,-1.074205351218000
Macaw and Condor,HP23 5HR,51.803448209568000,-0.657731133337308
Siskin and Tahr,HP5 2EZ,51.715803950665400,-0.615641214318969
Songlark and Rat,OX39 4FF,51.699809000000000,-0.907958000000000
B and River dolphin,OX4 7RU,51.716795749577800,-1.189943356295140
Hawk and Cuscus,OX27 8BS,51.918515000000000,-1.159313000000000
Pratincole and Thrasher,MK3 5QH,51.969676235000000,-0.739982804400000
Pratincole and B,OX3 8RT,51.745099783482400,-1.200358549564100
Scimitar babbler and Maya,HP18 9HE,51.758619143826100,-1.035673048033840
Songlark and Old World quail,OX4 2EN,51.737652778437800,-1.218751658456140
Chicken and Maya,HP22 6EE,51.762984718745600,-0.743860580685094
Condor and Badger,LU7 6FX,51.908021000000000,-0.656888000000000
Wader and Songlark,OX3 8FX,51.752852619971000,-1.198063149715410
Thrasher and Chickadee,OX27 8QA,51.922858732300000,-1.138021127700000
Mamo and Old World vulture,HP27 9RW,51.734317426163800,-0.857319692741117
Polecat and Grouse,LU7 0EA,51.939709162021200,-0.678122000000000
Siskin and Wallaby,HP20 1ET,51.821267000000000,-0.804230000000000
Duck and Elephant,HP19 9DD,51.834466557622500,-0.826253856864116
Bunting and Parrotbill,HP22 4NA,51.873933325368800,-0.769649785322357
Grouse and Grosbeak,OX27 0BJ,51.906592417270300,-1.006982160060300
Puffleg and Night heron,OX3 9JW,51.765125157169300,-1.207264742208680
Parakeet and Chicken,OX3 8FN,51.764553814550900,-1.180322347415840
Coati and Scimitar babbler,MK18 3DH,51.944575947167500,-0.883090602130296
Badger and Triller,OX33 1ET,51.775285980776400,-1.163242477220650
Jerboa and Logrunners,LU7 3NG,51.916689246180000,-0.639904262594390
Chicken and Songlark,MK18 3EB,51.942403666164200,-0.880627725635076
Marsh harrier and Jackal,HP19 7GU,51.816903710395400,-0.844409454098702
Pitohui and Grouse,HP27 0QY,51.694672092167600,-0.811830743855527
Mink and Pratincole,HP22 4EY,51.900396656354800,-0.848009896590234
Mockingbird and Songlark,HP23 5SH,51.794695302137100,-0.658948054066975
Philippine hawk-owl and Thrasher,HP20 1YU,51.814525204839300,-0.812337422429870
Stint and Pratincole,OX26 2LS,51.900278849747600,-1.170530069364680
Kangaroo and Crow,LU7 0PF,51.882116238672300,-0.729109041071779
Masked owl and Duck,HP16 0EB,51.682216699137300,-0.712639726329299
Macaw and Tahr,MK18 2FU,51.937189265200000,-0.989738856300000
Old World quail and River dolphin,LU7 0DX,51.936162000000000,-0.687915000000000
Wallaby and Duck,OX4 6NB,51.724274603188000,-1.190967954076570
Zebra and Bunting,HP16 0LE,51.695264789259800,-0.734262294392599
Chipmunk and Snipe,OX4 3HD,51.733783830344200,-1.214300378121780
Moluccan boobook and Grackle,HP21 8LW,51.809793025189300,-0.821904826095848
Maya and Chickadee,OX9 3UR,51.744585291388000,-0.957597000000000
Darwin's finches and Bronzewing pigeon,HP22 9QD,51.778273000000000,-0.771432000000000
Snipe and Masked owl,LU7 2LZ,51.914350529026900,-0.672906482392892
Maya and Booted eagles,OX33 1HH,51.780906000000000,-1.159319997647990
Grosbeak and Fulmarine petrel,OX26 9JQ,51.901771000000000,-1.141520000000000
Chicken and Hawk,OX26 3XQ,51.912345351719800,-1.152920272510530
Viscacha and Mamo,HP23 5NN,51.797067000000000,-0.652395000000000
Towhee and Jerboa,HP22 5HJ,51.799805050326900,-0.726305071863410
Condor and B,HP18 9EJ,51.766870187658900,-0.979719000000000
Philippine hawk-owl and Boto,LU7 1JQ,51.920072519586700,-0.657353233223212
Kākāriki and Asiatic leopard,HP21 8AR,51.799571181960600,-0.807770582455566
Buzzard and Tit-tyrant,HP5 2TE,51.724254211786000,-0.640893871234698
Old World quail and Tattler,OX3 9SY,51.803196489456800,-1.163480153597690
Nukupuʻu and Scimitar babbler,HP23 5QW,51.812378916011300,-0.624449072704147
Civet and Gull,OX33 1QN,51.754826707830800,-1.146409441147280
Fulmarine petrel and Crow,HP21 7NB,51.805130643391500,-0.797442170812663
Badger and Rat,OX4 2BB,51.747064624631400,-1.222514773894020
Treepie and Old World quail,HP22 9PU,51.778027000000000,-0.771975000000000
Black jay and Stint,OX44 9HL,51.723280634272800,-1.134726656193260
Tattler and Badger,LU7 2UZ,51.922082732391000,-0.678466129596333
Skunk and Maya,OX25 2PW,51.872196263248900,-1.186791921503600
Darwin's finches and Old World warbler,OX4 3HT,51.732050728925400,-1.213287851209080
Solitaire and American sparrow,OX33 1DU,51.767279442155800,-1.156347642469910
Rabbit and Grosbeak,LU7 9AG,51.835318675455500,-0.645403000000000
Maya and Fulmarine petrel,OX44 9BP,51.722245947558800,-1.170808711996320
Grosbeak and Songlark,OX44 7LS,51.712036380241200,-1.075034019248840
Fish eagle and New World blackbird,OX4 2QU,51.737456048990800,-1.198871463118330
Minke whale and Kite,HP23 4LL,51.817826000000000,-0.669549000000000
Zebra and Vole,MK17 9AP,51.961872080488600,-0.682710762816632
Black jay and Puffleg,OX4 2QX,51.738758430464000,-1.199992538789900
Booted eagles and Moluccan boobook,LU7 9BP,51.889322653799500,-0.642532352616105
Egret and Night heron,OX4 4NW,51.721056441599700,-1.218994198888370
Siskin and Recurvebill,HP22 5JG,51.800143437033200,-0.720204507945633
Duck and Flameback,OX4 2PE,51.738270498223700,-1.211486000000000
Booted eagles and Francolin,HP27 0LE,51.714989110866400,-0.814106632507267
Towhee and Old World vulture,MK17 9FR,51.954721000000000,-0.718915000000000
Greenbul and Dolphin,HP23 5PB,51.800952315035700,-0.647856322889777
Asiatic leopard and Kākāriki,HP18 0QJ,51.862271000000000,-0.991548000000000
Maya and Grouse,OX26 2DE,51.905085570780700,-1.161153218269060
Egret and Coati,OX4 3SG,51.730680695037800,-1.220884503060580
Ice seal and Coati,OX9 3RF,51.735388026082600,-0.956997719656017
Vole and Armadillo,HP18 0SX,51.875184004054400,-1.023914371788240
Eagle and Mink,OX3 9BH,51.760731000000000,-1.214265696715200
Chickadee and Dolphin,HP23 4PW,51.825354596912900,-0.708404000000000
Grackle and Mole,LU7 3NY,51.915046164888800,-0.651832726137506
Marmoset and Macaw,OX4 2SY,51.741525000000000,-1.223570910000000
Peafowl and Wader,LU7 9AB,51.841006000000000,-0.654452000000000
Prion and Flameback,HP19 8DP,51.818828231630500,-0.825383357736937
Parrotbill and Thrasher,OX26 1TE,51.890301206183200,-1.198133633882290
Chipmunk and Black jay,HP22 6QH,51.740235894731200,-0.753137926288818
River dolphin and American sparrow,OX3 8AT,51.765181260789700,-1.187817193650480
Marmoset and Badger,HP20 1EP,51.824123736765300,-0.795993408158087
Warbler and Kestrel,OX39 4PJ,51.703141033686600,-0.907133597576158
Piping shrike and Kite,OX26 2YR,51.906677942022300,-1.167621270228770
Greenbul and Armadillo,HP27 9FJ,51.735271000000000,-0.858518000000000
Flameback and Scimitar babbler,HP22 9DY,51.778019116627100,-0.771998957452219
Scimitar babbler and Triller,OX4 6AW,51.723685062213800,-1.203385659990610
Capuchin and Meadowlark,HP27 9QQ,51.723777164598400,-0.874799524599552
Goose and Eagle,HP22 4XE,51.778019116627100,-0.771998957452219
Flameback and Lemming,OX9 7DF,51.696193117262900,-0.985635696248284
Zebra and Partridge,OX4 6EB,51.719384907839900,-1.208368594790690
Herring gull and Wader,HP5 2FE,51.719955986032400,-0.620045703935505
Capuchin and Diving bird,HP19 7XD,51.814937848891700,-0.824120000000000
Dolphin and Mink,HP22 5UU,51.784112003151000,-0.791636771999725
Flameback and Eagle,LU7 3GP,51.922518000000000,-0.630600000000000
Snipe and Peafowl,HP18 9QT,51.804745083250700,-1.074907711825390
Chipmunk and Stilt,HP23 4NB,51.825706798664600,-0.669998765225052
Herring gull and Peafowl,OX26 6QX,51.901738100642500,-1.149486070968480
Old World quail and Marmoset,LU7 4EA,51.909394000000000,-0.660568000000000
Mole and Meadowlark,MK18 2EP,51.935804000000000,-1.008854000000000
Black jay and Meadowlark,HP20 1AR,51.820431000000000,-0.785825000000000
Pitohui and Mink,MK18 3AB,51.941304219285000,-0.882255338935947
Petrel and Chickadee,HP16 0QN,51.691004758982300,-0.726959268390674
Duck and Gull,OX9 3BP,51.739784000000000,-0.976615000000000
Tree warbler and Condor,OX26 6SS,51.891685663261300,-1.137077044476510
Songlark and Myna,HP22 5GU,51.768997000000000,-0.728361000000000
Crow and Herring gull,HP21 8HW,51.810806429057800,-0.811811412666181
Pratincole and Siskin,HP18 0XX,51.840505699526200,-0.850526047333034
Magpie and Triller,HP5 2HD,51.708130904437500,-0.614616273242521
Linsang and Peafowl,HP18 9AJ,51.774481706434600,-0.992983938376708
Greenbul and Asiatic leopard,OX5 2FE,51.839087000000000,-1.124657000000000
Fox and Hawaiian honeycreeper,OX4 7UN,51.721483636472800,-1.186529954181980
Goose and Prion,HP21 9PD,51.800437657669800,-0.788735019342366
Badger and Cuscus,OX33 1LF,51.758314573107900,-1.094619382005670
Recurvebill and Viscacha,HP23 5XA,51.794770715871500,-0.662411511352767
Kite and Goose,OX26 1TD,51.896151000000000,-1.200035000000000
American sparrow and Rat,HP20 2HX,51.814994170069000,-0.816938354283570
New World blackbird and Tahr,HP27 9SR,51.738546334481000,-0.862252969777118
Pheasant and Coati,HP22 5AP,51.818522049289400,-0.775091200208553
Snipe and Minke whale,HP21 8TP,51.804136438006000,-0.824503371985128
Duck and Tahr,HP27 0ST,51.690079181348900,-0.776954949143213
Marsh harrier and Warbler,HP22 5BL,51.779746146357300,-0.772923300583550
Greenbul and Grouse,HP17 8AS,51.768822529383700,-0.929474931995082
Armadillo and Chipmunk,HP19 8ER,51.819797770264800,-0.816261232178031
Quetzal and Greenbul,OX9 2ZX,51.748166388754200,-0.978678010720755
Pheasant and Black cockatoo,MK17 0SJ,51.938376720591500,-0.828068416828773
Flameback and Warbler,HP22 5BP,51.835232480787400,-0.777103000000000
Recurvebill and Black cockatoo,LU7 3EU,51.924624704234400,-0.654425234142768
Polecat and Kite,OX27 0EN,51.902831433589600,-1.064842252692980
Parakeet and Night heron,HP20 2AJ,51.828267775774000,-0.812701621113842
Asiatic leopard and Francolin,HP18 0DD,51.788437931072400,-0.959094956926892
Dolphin and Boto,HP22 5TX,51.788161874884800,-0.781539085540246
Logrunners and Jackal,HP19 9LW,51.827113076482700,-0.821264441945688
Eagle and Asiatic leopard,OX26 3YR,51.914533727591500,-1.150916366186500
Buzzard and River dolphin,OX39 4AW,51.699268738600000,-0.907169105700000
Egret and Herring gull,OX25 2AB,51.868866000000000,-1.121087000000000
Old World vulture and Meadowlark,OX4 6TJ,51.725263318996600,-1.196162380399400
Cloud rat and Rabbit,HP18 0NB,51.846294502934200,-0.916968369802030
Diving bird and Prion,OX4 3ED,51.739782419384200,-1.223986605057320
Dolphin and Grosbeak,HP20 1LE,51.815280584982800,-0.795547233697176
Minke whale and Cuscus,OX3 0AD,51.765816917048300,-1.226076337883070
Piping shrike and Mouse,HP21 8AD,51.805740109780000,-0.809623941302264
Mockingbird and Gull,HP22 6BJ,51.760575000000000,-0.738962000000000
Kite and Mockingbird,MK18 3PB,51.898322641256300,-0.880938555535529
Chickadee and Triller,HP27 9HW,51.728107444783800,-0.832933963812486
Capuchin and Coati,HP17 8DH,51.771748833598200,-0.933884077892086
Mamo and Recurvebill,OX9 2ET,51.748116003203300,-0.982199117451788
Bronzewing pigeon and Diving bird,MK18 2GS,51.941050000000000,-0.981005000000000
Solitaire and Mamo,OX3 7EG,51.746400507387800,-1.206549535550990
Marmoset and Scimitar babbler,OX3 9LB,51.768538856773500,-1.204161683205820
Triller and Minke whale,HP23 5JS,51.799926000000000,-0.650019000000000
Grackle and Meadowlark,HP27 0NU,51.696209707743200,-0.820761311198949
Darwin's finches and Peafowl,OX3 7FA,51.758429000000000,-1.215467000000000
Ibex and Chipmunk,OX4 6PX,51.718367684410000,-1.194952845103090
Gull and Triller,HP20 2XL,51.826555629362300,-0.798163247736736
Darwin's finches and Ground sloth,HP23 4JJ,51.808904990346300,-0.660789245837618
New World blackbird and Boto,HP5 2FF,51.719149738225700,-0.620188000000000
Fish eagle and Night heron,HP17 8HW,51.772794106662900,-0.920337079006323
Moluccan boobook and Moluccan boobook,OX3 9LP,51.767376299608200,-1.199791216755730
Maya and Partridge,HP22 5JY,51.800569165179100,-0.717190418136651
Pitohui and Goose,OX9 3XN,51.750617398382300,-0.968989362911834
Chickadee and Guillemot,HP17 8AX,51.770442498435700,-0.928654009256584
Warbler and Pratincole,HP18 0WH,51.829501656557700,-0.853432779158507
Vulture and Herring gull,LU7 1NR,51.916461689040000,-0.657679034668164
Magpie and Scimitar babbler,HP22 5LP,51.801149224625100,-0.710212619232527
Francolin and Wallaby,LU7 4BQ,51.907923857367100,-0.636127677149620
Eagle and Bronzewing pigeon,OX26 6AJ,51.896917680566200,-1.150565318569840
Minke whale and Wallaby,HP27 9HP,51.729753114406900,-0.833861732272422
Prion and Capuchin,HP18 0JN,51.845340103112400,-0.937532438896191
New World blackbird and Asiatic leopard,MK18 4LY,51.964785210878000,-1.041997556923250
Parrotbill and Chipmunk,HP22 5AD,51.807782438961100,-0.757584852877729
Cloud rat and Francolin,HP27 9AA,51.724005104673100,-0.833618698814879
Stilt and B,OX26 3TE,51.914400045488200,-1.154829814234330
Ice seal and Solitaire,HP19 8UG,51.818056557721500,-0.828247003165950
Guillemot and Polecat,OX4 7YF,51.716394910540700,-1.193106096436870
Pheasant and Petrel,HP21 8BJ,51.799522854931900,-0.818126383544544
Petrel and Lemming,OX26 2ES,51.904575529045000,-1.161497034968960
River dolphin and Thicketbird,HP23 4JU,51.797094603857600,-0.676278742259572
Masked owl and Old World quail,LU7 3YW,51.924257547547800,-0.639690080900639
Vole and Fox,OX3 9SR,51.786350000000000,-1.194715000000000
Hawk and Civet,OX26 2BE,51.897695494615200,-1.168004000000000
Duck and Kestrel,OX4 2TN,51.735866005832700,-1.201723434526720
Kite and Elephant,OX25 2RJ,51.873175985004300,-1.121685658315300
Tahr and Polecat,OX39 4TF,51.700568420106300,-0.918685029172703
Capuchin and Triller,HP21 7GY,51.818551402714700,-0.809475013229042
Black cockatoo and Argus,HP19 9BB,51.823392791245700,-0.825975641689387
Treepie and Mockingbird,HP21 8YA,51.804983945121700,-0.828339361771397
Meadowlark and Mink,HP27 9LS,51.738456000000000,-0.822776000000000
River dolphin and Fox,HP22 5JT,51.797174751841000,-0.706918152288456
Dorcopsis and Skunk,OX4 7FN,51.714028348007000,-1.203381584746470
Piping shrike and Crow,OX3 9TB,51.799895000000000,-1.179682000000000
Wallaby and Maya,HP22 5JW,51.801848729819900,-0.717444165700197
Fish eagle and Recurvebill,HP14 4XB,51.681416820655700,-0.795775071415914
Bronzewing pigeon and Tahr,OX26 2JU,51.899866000000000,-1.166628000000000
Parrotlet and Treepie,HP17 8YB,51.796112961215000,-0.881338370126682
Warbler and Thrasher,HP19 0UP,51.830963663209800,-0.802791439192699
Chickadee and Treepie,HP21 9PW,51.802329064248500,-0.802215693238826
Puffleg and Condor,HP19 8HJ,51.817490392538800,-0.821967000000000
Maya and Cloud rat,OX26 2FU,51.902752000000000,-1.171676000000000
Tahr and Chicken,HP23 5AY,51.793106176032700,-0.660735219925155
Goose and Siskin,HP20 2HD,51.825560109801400,-0.803703734019973
Francolin and Civet,MK17 0SR,51.940302590868400,-0.837314077757910
Partridge and Minke whale,HP22 5LB,51.797808508765400,-0.711410060689819
Stilt and Bunting,HP19 7RG,51.816097830400300,-0.827485385402051
Goose and Dorcopsis,OX9 3DL,51.752470157229800,-0.975220002360374
Crow and Warbler,HP20 1BU,51.818885496354600,-0.808726282623986
Kangaroo and Thrasher,HP16 9HH,51.700815172708100,-0.744555251983416
American sparrow and Shearwater,OX26 6FU,51.892846000000000,-1.147004000000000
Lemming and Perching duck,MK3 5FN,51.970415120700000,-0.739292444700000
Triller and Coati,OX3 8NR,51.756095939529300,-1.204307922397920
Tit-tyrant and Booted eagles,HP16 0HZ,51.691845000000000,-0.763011000000000
Chickadee and Polecat,HP22 5TW,51.786360485577000,-0.787328803769357
Diving bird and Kangaroo,HP16 0QE,51.695435248490200,-0.728397619950894
Quetzal and Mole,HP22 5GR,51.769637881595300,-0.723545723690785
Ground sloth and Logrunners,OX26 9JB,51.901771000000000,-1.141520000000000
American sparrow and Treepie,HP22 5EX,51.802641609551100,-0.725035877895042
Fox and Polecat,HP20 1YP,51.823656183715600,-0.791609367835089
Coati and Kākāriki,LU7 2PQ,51.913715835314900,-0.676429112581692
Coati and Marsh harrier,HP22 6JU,51.766901810068200,-0.746085043578166
Myna and Cuscus,OX39 4EE,51.707450614930300,-0.906450867403392
Grackle and Philippine hawk-owl,HP18 0YS,51.778019116627100,-0.771998957452219
Grouse and Petrel,LU7 0PU,51.893181997574100,-0.708219044424440
Logrunners and Asiatic leopard,HP23 5DS,51.802182259969400,-0.658682428031629
Civet and Shearwater,HP16 0JD,51.683977645214000,-0.745758689744943
River dolphin and Dorcopsis,HP27 9TL,51.733268000000000,-0.854667000000000
B and Francolin,HP19 9JL,51.825904897816400,-0.828130464460424
Tahr and Recurvebill,HP5 2NG,51.721556621472900,-0.620054888792350
Linsang and Parrotlet,OX3 9FU,51.772100000000000,-1.217877000000000
Prion and Gull,HP22 5NT,51.780781510880500,-0.737379527745958
White ibis and Stint,OX9 3AF,51.749549786026100,-0.980602417789934
Quetzal and Fish eagle,LU7 3DU,51.934384301947100,-0.656344296013598
Mink and Crow,HP22 4AH,51.870612172285600,-0.908773396517816
Condor and Tahr,HP16 0RQ,51.701881955845800,-0.667510921999004
Cuscus and Grosbeak,HP27 9QN,51.717510521429300,-0.881440199905004
Stilt and Ice seal,HP19 0WG,51.830352573822400,-0.803707387513126
Thrasher and Snipe,HP19 8HA,51.824919575697200,-0.836659047511788
Vulture and Cloud rat,HP23 4BS,51.791051307099900,-0.667436903578054
Wader and River dolphin,HP20 2QS,51.817327031112100,-0.815557052778073
Nukupuʻu and Diving bird,OX39 4TL,51.701896807387100,-0.917452294996134
Prion and Parakeet,HP22 5US,51.797070728290800,-0.710546498730813
Jerboa and Civet,OX3 7AH,51.756093302701300,-1.209248314658060
Greenbul and Solitaire,OX9 7AB,51.710191834869900,-1.006785000000000
Grackle and Mink,HP6 5RN,51.691352190731700,-0.649359290910917
Argus and Black jay,OX4 4PB,51.721635916279800,-1.223674697917680
Crow and Civet,OX26 2YH,51.906779646391800,-1.169291063863740
Vulture and Ice seal,HP22 5TH,51.788352251239900,-0.764863000000000
Rabbit and Mouse,LU7 9AH,51.834190976338800,-0.646019314757789
Triller and Prion,LU7 3HL,51.938416066058900,-0.672516601077712
Jackal and Meadowlark,LU7 2UE,51.921121091577400,-0.692192428521674
Duck and Darwin's finches,MK18 3HW,51.944346743198200,-0.876011063043836
Eagle and Tahr,LU7 2QP,51.917168814985300,-0.689311979262849
Piping shrike and Gull,OX3 9FY,51.771483000000000,-1.217076000000000
Philippine hawk-owl and Rat,OX26 2BG,51.897991793235400,-1.166241205799330
Myna and Mole,HP23 4HX,51.796522681528400,-0.669421844196327
Treepie and Songlark,MK17 9DH,51.956839156424500,-0.722078599136937
Dolphin and Solitaire,OX33 1UZ,51.742756343541900,-1.127489530370600
Kestrel and Booted eagles,OX4 4XP,51.717066000000000,-1.210957000000000
Coati and Vole,OX27 7NG,51.925295034280800,-1.187737997117910
Snipe and Puffleg,OX3 8HT,51.759285818500500,-1.188227205374120
Asiatic leopard and Jay,OX3 7EU,51.745214082591700,-1.205281207952050
Mamo and Herring gull,HP18 0UH,51.879985186131800,-1.007771742749910
Francolin and Thicketbird,OX27 7LS,51.925601794886200,-1.185289346102160
Duck and Civet,HP23 4PF,51.818465458725200,-0.690552737440263
Treepie and White ibis,HP18 0FD,51.833832284664700,-0.858649126349040
Stint and Siskin,OX26 3WT,51.914060000000000,-1.157453000000000
Stint and Fish eagle,HP17 0UB,51.762379478867400,-0.789884041572506
Snipe and Kestrel,LU7 0BN,51.948971474225200,-0.656621391827447
Siskin and Mink,HP18 9SD,51.811609364837300,-1.032918116567410
Mole and Vulture,HP22 5GB,51.798608886619500,-0.712242863553981
Mole and Scimitar babbler,OX27 8BB,51.917553000000000,-1.156719000000000
Ground sloth and Stint,HP19 7FY,51.813896016522100,-0.839380011144863
Armadillo and Guillemot,OX44 9LJ,51.692428561578600,-1.185951236863910
Hawaiian honeycreeper and Grosbeak,LU7 4DH,51.903938817900000,-0.649025586800000
Cloud rat and Hawk,HP22 5SP,51.790740377477400,-0.757284654345495
Quetzal and Mole,HP16 0JQ,51.684475062105200,-0.738468835829889
Pitohui and Ice seal,HP19 7BH,51.818776333127100,-0.848322315477541
Kite and Coati,OX33 1BP,51.809401486673600,-1.127726640699180
Cuscus and Puffleg,OX26 6UG,51.893174623605600,-1.132921464737370
Flameback and Cuscus,OX3 8AJ,51.758500830956400,-1.204932141218410
Hawaiian honeycreeper and Cloud rat,HP23 6HJ,51.777151523952300,-0.640174000000000
Towhee and Civet,OX9 3NT,51.739213291511900,-0.961500666464518
Shearwater and Snipe,OX9 3EG,51.745248385500000,-0.973674326800000
Skunk and B,OX26 3WJ,51.906948812781600,-1.155158613155790
Chipmunk and Hawaiian honeycreeper,HP22 5LW,51.778019116627100,-0.771998957452219
Booted eagles and New World blackbird,OX26 4JQ,51.903073000000000,-1.133836000000000
Capuchin and Rat,OX26 3EX,51.908930400061800,-1.149408401997240
Capuchin and Badger,LU7 0TD,51.899427858749100,-0.719449452087876
Philippine hawk-owl and Puffleg,MK18 3FS,51.943396489200000,-0.886437046900000
Grouse and Cuscus,HP21 8JW,51.807371000000000,-0.825093036344930
Meadowlark and Lemming,HP17 9TH,51.747038077963400,-0.807299752821789
Old World vulture and Mole,LU7 0SH,51.857072540544500,-0.660782836413450
Perching duck and Stint,HP19 8FR,51.822060923519000,-0.822760000000000
Meadowlark and Snipe,HP27 0RU,51.692390287440200,-0.783909599724213
Old World quail and Kākāriki,HP18 9PZ,51.815163122040400,-1.080279594199440
Cloud rat and Pheasant,OX26 4YR,51.910069393807800,-1.145287351715010
Night heron and Marsh harrier,HP19 7SH,51.811524432251400,-0.830519754966264
Chicken and Mink,OX4 7UX,51.721482254209400,-1.187630213372480
Grackle and Black jay,HP17 8ZX,51.818553000000000,-0.809475000000000
Stint and American sparrow,HP27 0AD,51.722464418486700,-0.830589121219834
Grackle and Eagle,OX26 6QD,51.898967159652300,-1.150497610970980
Jackal and Stilt,HP17 8UA,51.797903485191000,-0.881468087152361
Kangaroo and Lemming,HP21 9NF,51.794830448765900,-0.816450961786086
Capuchin and Bronzewing pigeon,HP22 6NS,51.764704197523800,-0.739016320258668
River dolphin and Gull,HP27 9ST,51.741177962833400,-0.861955147569048
Chipmunk and Mink,HP16 9QG,51.708637846273600,-0.687763105758625
Old World quail and Recurvebill,OX33 1AN,51.807271000000000,-1.141071107600140
Snipe and Ground sloth,OX3 7DH,51.757525205188000,-1.208252597301730
B and Diving bird,OX9 3DD,51.747800521771400,-0.972805196013194
Scimitar babbler and Wader,HP5 2NZ,51.711633000000000,-0.616366158134769
Grouse and Ibex,MK18 2AS,51.967838766538700,-0.948830965879761
Siskin and Snipe,LU7 3AA,51.922913040434800,-0.659653394063727
Mockingbird and Fish eagle,HP23 6JA,51.768700000000000,-0.616140000000000
Wallaby and Eagle,OX39 4DT,51.705052212759700,-0.911544868067242
Fulmarine petrel and Crow,HP18 1AJ,51.836300000000000,-0.862208000000000
Greenbul and Marmoset,HP22 4NQ,51.859908074878200,-0.791466229596249
Petrel and River dolphin,OX9 2HL,51.738269177154300,-0.996699879625861
Coati and Kangaroo,HP22 6QL,51.743824736966800,-0.760904151590058
Goose and Francolin,HP20 1JJ,51.815919111396800,-0.791177983729259
Badger and Puffleg,HP22 4LP,51.871184836484300,-0.770785124535379
Fulmarine petrel and Magpie,OX4 9GA,51.722548598175700,-1.213408000000000
Argus and Rabbit,HP20 2RH,51.816184836747200,-0.813744545434958
Civet and Towhee,LU7 2XL,51.917107547954500,-0.691887372117324
Ground sloth and Snipe,OX25 2LG,51.873700000000000,-1.114718000000000
Rabbit and Night heron,LU7 0TP,51.896852691232000,-0.718983000000000
Ibex and Thrasher,HP18 9UR,51.809083116776400,-1.109239063265730
Rat and Fulmarine petrel,OX3 7LB,51.753476868765100,-1.211930625675830
Ground sloth and Booted eagles,HP27 9UA,51.711056320386500,-0.849945277663492
Polecat and Linsang,OX26 2HB,51.908844650156900,-1.166215000000000
Marmoset and Marmoset,MK18 3JY,51.897635143150000,-0.913118518477933
Lemming and Thrasher,LU7 2TN,51.921897142066900,-0.686789444408467
Nukupuʻu and Night heron,LU7 3HD,51.932227053668000,-0.665892125821600
Macaw and Chipmunk,LU7 3DF,51.936456990201100,-0.654391343560314
Capuchin and Grosbeak,LU7 3EE,51.925399710481200,-0.650649993082954
Booted eagles and Parrotbill,OX9 3GW,51.740431749745900,-0.962023093716208
Gull and Pheasant,OX3 8QT,51.748392919863300,-1.202024177756110
Recurvebill and Philippine hawk-owl,HP23 4NA,51.825464000000000,-0.665899000000000
River dolphin and Peafowl,HP22 5XJ,51.778657000000000,-0.792684581984850
Darwin's finches and Myna,HP27 0PY,51.693585226444500,-0.791661510965892
Puffleg and Egret,HP18 0BS,51.791135000000000,-0.959917000000000
Jackal and Buzzard,HP27 0HL,51.727163628657900,-0.827543139942542
Parakeet and Stilt,HP21 9GS,51.795522000000000,-0.803142000000000
Duck and Old World warbler,HP16 9RG,51.707242364614300,-0.779487000000000
Meadowlark and Mamo,LU7 0TN,51.901388388206500,-0.717009965200459
Buzzard and Moluccan boobook,OX9 3HG,51.742256334731500,-0.958896279415639
Goose and Peafowl,HP18 0EZ,51.842411000000000,-0.850535000000000
Recurvebill and Magpie,HP27 0PR,51.682596322126700,-0.813607752984871
Masked owl and Magpie,HP21 7RQ,51.813664988253400,-0.806412292827231
Stilt and Tree warbler,HP27 9PJ,51.720688178311900,-0.884662517728252
Grosbeak and Minke whale,HP23 4QQ,51.827713581158300,-0.686148862526886
Recurvebill and Chickadee,HP21 8RZ,51.805972823190700,-0.824716687870173
Goose and Cloud rat,OX9 3BQ,51.750063206136700,-0.975535212852356
Jerboa and Parrotbill,OX9 3XX,51.747744245390200,-0.968431891310585
Grouse and Masked owl,HP23 6QU,51.788883744119800,-0.667384784004740
American sparrow and Dorcopsis,OX9 3NQ,51.743978474578400,-0.965548389686595
Songlark and Siskin,HP22 4AN,51.873686846863600,-0.898834000000000
Parrotbill and Meadowlark,MK17 9LW,51.954916455960200,-0.715599249318854
Argus and Grouse,LU7 1DY,51.915644263972400,-0.664071811880783
Rabbit and Hawaiian honeycreeper,OX44 7XL,51.683860322993500,-1.130791508946160
Scimitar babbler and Old World quail,HP18 9PW,51.806702000000000,-1.072001597257170
Armadillo and Flameback,HP22 5BZ,51.832139076908800,-0.791121142000319
Mouse and Triller,LU7 4QS,51.911203869359600,-0.643748171114476
Philippine hawk-owl and Mink,HP21 8HZ,51.808886601240800,-0.814023154833257
Chipmunk and Minke whale,HP21 7YH,51.818551402714700,-0.809475013229042
Diving bird and Fish eagle,HP23 4FD,51.792222615067300,-0.667764000000000
Rat and Dorcopsis,HP23 4JA,51.799187695730700,-0.668937342482175
Francolin and Shearwater,OX3 9AH,51.760450655109500,-1.211418050449270
Badger and Goose,OX9 3AZ,51.753351702735300,-0.977329666125295
Crow and Bunting,HP18 9FW,51.777244000000000,-0.991336000000000
Siskin and Minke whale,OX9 2FP,51.748350000000000,-0.991820000000000
Boto and Ice seal,OX26 6QG,51.897372334222200,-1.146298499111190
Goose and Pheasant,OX26 6GE,51.899109000000000,-1.150228000000000
Parakeet and Zebra,HP21 7UT,51.806113314970700,-0.802985664536676
Vulture and Dolphin,HP7 0RB,51.682241962994300,-0.672889792271489
Lemming and Viscacha,HP21 7AW,51.808875399447500,-0.779530177391413
Rabbit and Songlark,HP22 5ZW,51.803825000000000,-0.722193000000000
Elephant and Chickadee,HP21 7HY,51.807750394303400,-0.786377822129885
Minke whale and Logrunners,LU7 0BP,51.930294106845100,-0.712753411479716
Thicketbird and Stint,OX33 1JE,51.742361303326800,-1.120327807384700
Vulture and Treepie,OX3 8SE,51.756894000000000,-1.206496000000000
Petrel and Crow,OX4 3LE,51.734566473618900,-1.219760600115540
Peafowl and Cuscus,OX27 8EG,51.971083737070200,-1.119816926080870
Pratincole and Peafowl,HP19 0YH,51.829387514860400,-0.804298910425309
Capuchin and Black jay,HP20 9JT,51.818553952663600,-0.809475055358046
Wader and Snipe,HP16 0HP,51.692226000000000,-0.739165000000000
Pitohui and Greenbul,OX3 8HX,51.761114818677200,-1.190078042192820
Capuchin and River dolphin,HP22 5EL,51.830064942888000,-0.789652909698796
Old World quail and Macaw,OX3 8ND,51.755985805767000,-1.201325373333320
Marsh harrier and Polecat,HP22 4HW,51.884099392557600,-0.866006934199508
Black cockatoo and Zebra,HP23 6BP,51.790321343272000,-0.669332000000000
Zebra and Boto,HP20 1JG,51.816742026202800,-0.791634719983835
Cloud rat and Armadillo,LU7 2NZ,51.912688675454300,-0.673842333534886
Tree warbler and Grackle,OX25 2PG,51.874139357312700,-1.185638399299440
B and Grouse,HP23 5DN,51.798550939461100,-0.661951616015148
Snipe and Stilt,HP18 0RL,51.852345000000000,-0.997897000000000
Rabbit and Meadowlark,OX26 4UD,51.906817003174800,-1.148096436289930
Triller and Stint,LU7 2SR,51.923501896926500,-0.673538260383905
Puffleg and Parrotlet,OX26 4YJ,51.909722184101800,-1.142052132125300
Pitohui and Wallaby,OX3 7EZ,51.745135000000000,-1.208078000000000
Eagle and Parakeet,OX44 9DE,51.717588741788700,-1.160717562616790
Condor and Herring gull,HP20 1PS,51.814522669927000,-0.778724826716225
Condor and Jay,HP20 1PA,51.817574411325700,-0.782544977709710
Ground sloth and Chickadee,OX27 0HG,51.901751000000000,-1.061206803356440
Recurvebill and Puffleg,HP23 4BQ,51.791857651022800,-0.667181143031635
Condor and Ibex,OX9 2NU,51.723954260075900,-1.051872740885740
Hawk and Ice seal,HP21 7JY,51.804182123853000,-0.792623185382501
Solitaire and Petrel,HP20 1AQ,51.819886000000000,-0.787886000000000
Kangaroo and Black cockatoo,HP21 8JU,51.812548998914900,-0.816987867056547
Recurvebill and Hawk,HP23 6JN,51.764641194392300,-0.625885870139130
Mouse and Tattler,HP27 0QG,51.698049152421600,-0.815909577766736
Capuchin and Mockingbird,HP22 6AZ,51.777663830009600,-0.746004220616652
Booted eagles and Diving bird,HP22 6JN,51.767205136995700,-0.745018734071703
Condor and Dolphin,HP23 4JE,51.797917476041400,-0.667930611502685
Jerboa and Mockingbird,MK17 9EU,51.959255584388300,-0.719390220269652
Vole and Kangaroo,HP16 9AU,51.708204060413500,-0.711945655492789
Bunting and Stilt,HP21 9JS,51.796637687761100,-0.819129880762254
Macaw and Siskin,OX9 2BD,51.749089300131400,-0.983495452998502
Shearwater and Ice seal,OX9 7HF,51.682140553302000,-1.022906180870770
Kite and Stilt,HP22 5ZE,51.796359696061000,-0.782173739698034
Old World quail and Peafowl,HP19 8BA,51.823554921557800,-0.834140464682689
Jay and Myna,HP20 1LR,51.817358539788800,-0.791255533308459
Partridge and Greenbul,OX9 2LE,51.738240207406900,-1.064043060680050
Treepie and Mink,HP16 9PN,51.718824188541000,-0.736051191561203
Pitohui and Zebra,OX26 6UZ,51.894629967155200,-1.147527579275270
Moluccan boobook and Towhee,MK3 5QS,51.969087257000000,-0.738718312300000
Moluccan boobook and White ibis,HP21 9YG,51.796810303334600,-0.791862971847265
Polecat and Zebra,HP19 7HB,51.817812461579300,-0.840817248454832
Shearwater and Tattler,HP23 5AL,51.793740400605700,-0.660368422656376
Moluccan boobook and Cloud rat,OX9 3XG,51.746650077952400,-0.969774945858599
Herring gull and Bunting,HP19 7SS,51.812369873571100,-0.832354673339872
Booted eagles and Booted eagles,LU7 3PJ,51.917231425883100,-0.647943189714861
Grouse and Stilt,MK17 0PE,51.969757856855700,-0.846465353569783
Recurvebill and Herring gull,MK18 2GP,51.940912000000000,-0.979597000000000
Parrotbill and Gull,MK17 0JZ,51.953523000000000,-0.762547016566251
Dolphin and Parakeet,HP18 0HW,51.841571039842600,-0.856508377932142
Tit-tyrant and Eagle,OX44 7JU,51.711726947906400,-1.077992974780180
Viscacha and Parrotlet,HP19 8DB,51.819976000000000,-0.827646000000000
Partridge and Herring gull,LU7 0JN,51.923090000000000,-0.713239162211448
Bunting and Lemming,MK18 2AZ,51.968012548868600,-0.957255003552443
Parrotlet and Macaw,HP27 0NY,51.695110417543900,-0.822323562715737
Parakeet and Puffleg,OX26 1UT,51.887874113334600,-1.187715093612300
Jerboa and American sparrow,HP23 4FL,51.831811917728500,-0.697305956707832
Old World vulture and Vole,HP22 5BQ,51.788083595566200,-0.756879207023906
White ibis and Mouse,HP16 6AF,51.703951000000000,-0.707739000000000
Cuscus and Parakeet,HP17 8AA,51.767970000000000,-0.926577774435020
Chipmunk and Kestrel,OX3 7AU,51.755921579815700,-1.213641000000000
Dolphin and Coati,LU7 4BU,51.905334302800000,-0.642151603600000
Fish eagle and Chipmunk,LU7 9EZ,51.826881534740100,-0.634411883974220
Puffleg and American sparrow,HP19 7WF,51.817348158163900,-0.836592874791895
Treepie and Kākāriki,HP18 0ZZ,51.843982000000000,-0.849421000000000
Partridge and Prion,HP18 9LW,51.795428000000000,-1.000771605511010
Chicken and Songlark,HP20 9JU,51.818553952663600,-0.809475055358046
Francolin and White ibis,HP19 9QW,51.825222000000000,-0.816351000000000
Hawaiian honeycreeper and Cuscus,OX4 4RD,51.726568691639600,-1.225877814689710
Condor and Black cockatoo,HP21 7PZ,51.812295000000000,-0.800675000000000
Piping shrike and Tahr,OX26 5EH,51.904395931922600,-1.104157630234430
Bronzewing pigeon and Guillemot,HP27 9RJ,51.741131079692900,-0.846994992333091
Capuchin and Pitohui,MK17 0ST,51.956548811239800,-0.836311820268973
Thrasher and Tit-tyrant,MK17 0LD,51.960048685620900,-0.768458213218694
Tahr and Stilt,HP27 9AS,51.721577642268200,-0.838183547358914
Elephant and Partridge,LU7 2ZS,51.908028323070500,-0.656941915470946
Armadillo and Logrunners,HP5 2PF,51.713889541991700,-0.618768358264644
Gull and Badger,LU7 1BW,51.918990731499200,-0.662634736631832
Francolin and Fish eagle,HP22 5AH,51.802601000000000,-0.737814000000000
Shearwater and Tree warbler,HP20 1UA,51.814525204839300,-0.812337422429870
Minke whale and Mouse,HP27 9JW,51.731327665873700,-0.830345951848061
Tahr and Skunk,HP19 7FQ,51.813693291042000,-0.834336901161959
Skunk and Zebra,LU7 3BN,51.937448095874900,-0.657722003039514
Buzzard and Kestrel,HP19 9NU,51.824933095164000,-0.821756642983213
Grackle and Marmoset,OX33 1AL,51.792104007597700,-1.163859325226680
Meadowlark and Rat,OX39 4PH,51.702273868335600,-0.906705888294791
Grouse and Chipmunk,HP20 2JS,51.817914536748700,-0.813933000000000
Greenbul and Flameback,OX3 7JT,51.748614569324800,-1.210885353569380
Vole and Warbler,OX4 2TH,51.735842247509900,-1.199551651160020
Bronzewing pigeon and Recurvebill,HP23 4HZ,51.798979897172800,-0.671234800627357
Grouse and Jackal,HP19 0UA,51.831227149101100,-0.803060187895593
Triller and Mockingbird,HP22 4DF,51.875709154121500,-0.955222001158101
Kākāriki and Hawk,OX3 7PX,51.757509558948100,-1.216656065512780
Old World quail and Mockingbird,LU7 9BL,51.893995647198200,-0.632988847441763
Guillemot and Tattler,LU7 9AY,51.835559496142500,-0.639940472907321
Perching duck and Warbler,OX5 2UJ,51.837920151383400,-1.187815766474080
Flameback and Armadillo,HP21 8HU,51.808206834603500,-0.811705700201398
Guillemot and Armadillo,HP17 9UH,51.758865000000000,-0.868407000000000
Parakeet and Hawaiian honeycreeper,HP21 9TG,51.796092080759400,-0.818520586353043
Shearwater and Argus,OX27 8FB,51.922213566928600,-1.146147387105920
Kestrel and Black jay,OX25 2PD,51.873382674822100,-1.188034245876770
Chickadee and Mole,HP18 0LT,51.849674541611600,-0.920807150305788
Gull and Grackle,HP20 2YD,51.817867664719200,-0.812104476561110
Old World quail and Mole,HP23 6DP,51.779654045448400,-0.619472026163225
Bronzewing pigeon and Bunting,MK18 3RH,51.943358193706900,-0.885521330195882
Jay and Old World quail,HP22 5EW,51.821555000000000,-0.737078245006588
Lemming and Treepie,HP18 9TF,51.820207044622900,-1.054177687320350
Hawk and Magpie,HP22 5YL,51.789326402475200,-0.755366153073921
Tit-tyrant and Civet,OX4 4LU,51.718817729327300,-1.216311287244930
Stint and Minke whale,HP23 5PF,51.800299000000000,-0.657496000000000
Guillemot and Viscacha,HP22 6JB,51.766211204775900,-0.732829915692157
Triller and Night heron,LU7 0SG,51.855042982831200,-0.664168205569125
Ground sloth and Parrotbill,LU7 1GN,51.916903852979600,-0.659396126427895
Night heron and Masked owl,HP23 9BH,51.792253094684900,-0.668547084862370
Vole and Zebra,OX3 9ET,51.764719070625800,-1.197766030472220
Pitohui and Logrunners,HP18 0UU,51.858758000000000,-0.930981000000000
Grouse and Kākāriki,HP21 8XL,51.804630445961000,-0.828957682893876
Meadowlark and Warbler,OX26 6DG,51.897894153132200,-1.153816931935630
Fox and Stilt,HP22 4AE,51.864057186820200,-0.889515026155709
Mamo and Mamo,OX27 8EX,51.960410279909500,-1.137781000000000
Civet and Diving bird,OX3 8SY,51.753546804927000,-1.200977234286680
Petrel and Duck,OX9 3QU,51.740871000000000,-0.922749000000000
Gull and Parrotlet,LU7 2QU,51.918683802546600,-0.678449597841488
Siskin and Booted eagles,OX26 6BW,51.896552001637000,-1.149729298247900
River dolphin and Logrunners,OX26 2EH,51.905729230512700,-1.164426356919760
Ice seal and Logrunners,OX25 6EP,51.899967365470900,-1.122602313155000
Black jay and Wader,MK18 3HA,51.946387737227800,-0.882623672364233
Stint and Coati,HP19 8JP,51.821805000000000,-0.828048000000000
Black cockatoo and Hawaiian honeycreeper,HP22 5JF,51.801016609717400,-0.721122465029299
Buzzard and Scimitar babbler,HP16 0NS,51.697667523838000,-0.740301456847800
Vole and Mamo,MK18 2WW,51.943557000000000,-0.881661000000000
Partridge and Partridge,OX49 5SP,51.683009000000000,-0.956422000000000
Marsh harrier and Parrotbill,OX26 4UX,51.903373230654000,-1.145588833601050
Macaw and Marsh harrier,OX3 7SB,51.759865690987600,-1.223497588660530
American sparrow and Fish eagle,HP22 6PA,51.766610630442900,-0.735688086574765
Marmoset and Francolin,OX3 8TB,51.749034000000000,-1.190381000000000
Argus and Recurvebill,OX4 2LZ,51.734985507866700,-1.209804897893240
Jerboa and Siskin,HP23 5LB,51.800216404776300,-0.652678687675992
Solitaire and Rabbit,OX27 0HS,51.902607484331700,-1.057056119617230
River dolphin and Tree warbler,LU7 1YX,51.920361087638800,-0.666127543274668
American sparrow and Mockingbird,OX3 8AF,51.759581212133500,-1.209143940608080
Chicken and Puffleg,OX3 9JF,51.764873311556100,-1.204588385599330
Bronzewing pigeon and Chipmunk,HP18 0BQ,51.793467233687000,-0.924469086845609
Rat and Condor,HP16 0RF,51.697125000000000,-0.678474000000000
Buzzard and Vulture,LU7 0LY,51.892561889882600,-0.779865867566301
Parakeet and Ground sloth,HP21 7RR,51.814931250837800,-0.802723054537069
Bunting and Linsang,HP21 8RT,51.804291437138700,-0.808632332419389
Booted eagles and Parakeet,HP23 6AF,51.791768371504500,-0.662485825386397
Hawk and Skunk,LU7 4FF,51.907458946214800,-0.661421784535866
Diving bird and Triller,OX3 9BP,51.761472899851600,-1.215037120304670
Ice seal and Fulmarine petrel,OX26 5EE,51.901974000000000,-1.111851000000000
Puffleg and Chicken,OX9 2DS,51.741109192110100,-0.979836447654885
Cloud rat and Linsang,HP5 2SJ,51.721543004507300,-0.641264705613183
Black cockatoo and Nukupuʻu,OX25 2LB,51.901771000000000,-1.141520000000000
Minke whale and Gull,HP23 4HG,51.794237380912700,-0.675666364082750
Pheasant and Crow,HP20 2XR,51.824550000000000,-0.798841000000000
Partridge and Meadowlark,HP19 9BJ,51.835731517376400,-0.817251358135483
Peafowl and Dolphin,HP21 7LF,51.808702755841700,-0.803859911409329
Badger and Piping shrike,LU7 2PE,51.910000345267000,-0.676247577193122
