name,postcode,lat,lon
Egret and Hawk,SM4 6LY,51.385151334834400,-0.195953443347858
Old World quail and Mouse,KT3 6AG,51.392053915593100,-0.253277556482284
Triller and Tattler,KT17 3DS,51.342565052552300,-0.244678117723638
Parrotlet and Magpie,KT11 2HS,51.330819000000000,-0.404145000000000
Badger and American sparrow,SM1 4JR,51.366106402968200,-0.173415201361755
Bronzewing pigeon and Solitaire,KT22 8NG,51.293426892554300,-0.323688357445858
Egret and Eagle,SM7 2NE,51.322164000000000,-0.204454000000000
Prion and Herring gull,KT19 7NW,51.348144717478000,-0.285031720200452
Hawaiian honeycreeper and Old World vulture,SM7 1DX,51.318706000000000,-0.217677000000000
Ibex and Ibex,RH2 9NA,51.249875562871200,-0.205422354367187
Hawk and Mink,KT12 5NT,51.373077886423300,-0.404472025859816
Guillemot and Dorcopsis,KT9 1LQ,51.365824206613100,-0.286267601902329
Fulmarine petrel and Fox,KT6 6PG,51.387853756804900,-0.308397313851159
Ibex and Parrotlet,KT12 4ER,51.367645000000000,-0.395747000000000
Solitaire and Rabbit,KT22 9SH,51.298852337986600,-0.368460443763418
Boto and Kangaroo,KT6 7JL,51.379743952091200,-0.285604082566825
Grouse and Macaw,KT18 5QB,51.309859766498700,-0.241148524110113
Towhee and Armadillo,RH2 7RS,51.236379863572900,-0.203827400670232
Kangaroo and Grackle,RH4 2BL,51.232414197619900,-0.325748899756141
Quetzal and Cloud rat,KT19 8QZ,51.344782494126700,-0.273469120718510
Ice seal and Parrotlet,KT5 8LP,51.394735110381200,-0.283189426665426
Black cockatoo and Masked owl,KT24 6RR,51.265355986758300,-0.434392960530892
Grouse and Cloud rat,SM5 4BF,51.348664000000000,-0.167776000000000
White ibis and Flameback,SM7 3PJ,51.318432002606100,-0.169124353657028
Argus and Perching duck,KT13 9RW,51.375008000000000,-0.428069000000000
Songlark and Darwin's finches,KT6 4HJ,51.396961151084200,-0.312000171467492
Crow and Marsh harrier,SM4 6SQ,51.385558911236800,-0.190892925054475
Kite and Goose,KT12 2NQ,51.389079340753200,-0.413372647832346
Bronzewing pigeon and Eagle,SM2 6BU,51.344068522786200,-0.199175305404717
Towhee and Capuchin,KT1 2LE,51.399394214234800,-0.305498949698438
Wader and Parakeet,KT6 6AD,51.393776717605100,-0.298246319051914
Fox and Fox,KT4 7NX,51.382420774806200,-0.245912895687161
Zebra and Parrotlet,KT12 4PX,51.372156374906100,-0.390352334726927
Diving bird and Duck,KT9 2LZ,51.355169859812600,-0.320545305578128
Logrunners and Kestrel,KT8 0DR,51.400593310891300,-0.355584623194370
Solitaire and Tahr,SM1 4HB,51.362637523639800,-0.187458154564176
Dolphin and Philippine hawk-owl,KT12 5QN,51.370244255685700,-0.403737255431509
Kestrel and Flameback,KT10 8EP,51.386128950065900,-0.354622858818113
Parakeet and Ice seal,KT19 9FD,51.346340036545500,-0.264464705742226
Pitohui and Vulture,KT4 7PY,51.375214642193500,-0.263818391519911
Thrasher and Quetzal,KT21 2FF,51.306207913228000,-0.307484412202334
Greenbul and Quetzal,KT3 6QP,51.394182027825800,-0.240446430431801
Solitaire and Treepie,KT11 1PL,51.315245000000000,-0.438220000000000
Zebra and Fish eagle,KT21 2QD,51.304976403040400,-0.315750108826209
Black cockatoo and Old World quail,KT20 7JY,51.249148643619200,-0.298245747637525
Ground sloth and Viscacha,KT17 1HT,51.343495365762600,-0.253372544411039
Civet and Night heron,KT18 5FL,51.331743000000000,-0.268475000000000
Pitohui and Chickadee,KT6 4TF,51.396637381464300,-0.301417678230728
Thicketbird and Fish eagle,RH2 9QS,51.241093497823400,-0.205090794786081
Lemming and Zebra,CR4 4EH,51.399031955084800,-0.169602425828815
Meadowlark and Puffleg,KT7 0UP,51.384165166122200,-0.327072064806915
Mouse and Diving bird,KT5 9PB,51.377943000000000,-0.280460428879415
Recurvebill and Crow,KT22 8NJ,51.292585378386900,-0.322069617696483
Grackle and Pheasant,KT10 0EU,51.360802491378800,-0.327061553487295
Kite and Fulmarine petrel,RH2 7JQ,51.232314278961200,-0.200261495867005
Greenbul and Dolphin,KT23 3PE,51.288462469134600,-0.384947000000000
Kākāriki and Mamo,KT3 6EU,51.397840169239800,-0.245121866794685
Crow and Lemming,KT17 2DX,51.354612910034900,-0.251743360925672
Crow and Chicken,KT12 5PP,51.370697922912500,-0.415961955658238
Snipe and Skunk,KT17 1FG,51.344389000000000,-0.246364000000000
Night heron and Thrasher,KT4 8PX,51.380565574156400,-0.219499662850503
Civet and Parrotbill,KT5 9QL,51.382404527215100,-0.269007180613751
Black cockatoo and Old World vulture,KT18 7HT,51.325994337309600,-0.287379534331442
Night heron and Diving bird,KT19 8RG,51.339018673957600,-0.274719396143011
Flameback and B,KT22 8JJ,51.286496000000000,-0.324480816061109
Herring gull and Meadowlark,KT22 7EX,51.298215975725200,-0.322782364848457
Macaw and Stint,KT4 7SR,51.384603040835600,-0.250528897699129
Ice seal and Kangaroo,KT21 2NL,51.307931271727300,-0.311122536792099
Black cockatoo and Skunk,SM4 4JZ,51.381714074613700,-0.221107702766670
Linsang and Bunting,KT9 2GA,51.363131158688700,-0.312612177784249
Petrel and Chipmunk,KT13 9RR,51.377793000000000,-0.430575000000000
Greenbul and Mouse,KT22 0PP,51.343429836779900,-0.352505379812432
Philippine hawk-owl and Vole,KT21 2HN,51.314634918703700,-0.320791810106987
Fox and Chickadee,RH5 6DE,51.261103000000000,-0.325810000000000
Fox and Old World warbler,RH4 1HZ,51.239168715196600,-0.338439938202458
Darwin's finches and Mamo,KT6 6PB,51.387589571262600,-0.310031115326392
Mockingbird and Eagle,SM2 7AU,51.355257150806300,-0.214563804514474
Masked owl and Marmoset,KT18 5LR,51.316471932819800,-0.255145263773517
Egret and Fox,KT17 3EY,51.343198494792500,-0.234172266841284
Pratincole and Petrel,KT9 1ND,51.367037825581200,-0.308518000396580
Piping shrike and Asiatic leopard,RH5 6AH,51.254094248000800,-0.330063199576095
Piping shrike and Boto,SM1 9SN,51.361625845703700,-0.194924000000000
Mouse and Nukupuʻu,KT11 2DT,51.337957842937000,-0.385764750487664
Elephant and Lemming,SM4 5NA,51.398173631117400,-0.191933469008363
Nukupuʻu and White ibis,SM4 6PW,51.389591939062600,-0.194672069747002
Bronzewing pigeon and Jay,SM1 3RR,51.368081935594100,-0.183062587673940
New World blackbird and Masked owl,KT20 5JS,51.301847285349600,-0.225057887194154
Grackle and Duck,KT20 5PA,51.309953885888500,-0.225333373952946
American sparrow and Black cockatoo,RH5 6AU,51.252401760575800,-0.334982369222387
Greenbul and Kākāriki,KT11 3HG,51.323448563283600,-0.399205337064860
Dorcopsis and Chickadee,KT17 3NW,51.318756053389500,-0.238487000000000
Kangaroo and Kite,RH2 9NY,51.246714735443600,-0.202794339395956
Stint and Thicketbird,KT6 5PX,51.391709068738700,-0.318848393398322
Logrunners and Recurvebill,CR5 3QP,51.299645755252300,-0.167375905333660
Masked owl and Cloud rat,KT20 7QY,51.276250549901200,-0.250518718726529
Duck and New World blackbird,KT19 8TL,51.336227324954200,-0.266555020696876
Wader and Guillemot,RH2 7RU,51.235841715112100,-0.204050000000000
Kangaroo and Bronzewing pigeon,KT8 2HE,51.395314979364500,-0.382740515794914
Stint and Hawaiian honeycreeper,KT18 5PR,51.306881777445800,-0.242252328638414
Goose and Goose,RH2 2FU,51.241098000000000,-0.203016000000000
Nukupuʻu and Mouse,KT18 7QN,51.326525000000000,-0.271973000000000
Shearwater and Night heron,KT17 2JZ,51.365400265396900,-0.243675860662933
Wallaby and Grackle,SM4 6PR,51.389163508636600,-0.192547370823420
Diving bird and Tree warbler,SM2 7PQ,51.349272000000000,-0.214169205260879
Treepie and Duck,KT7 0HL,51.381880816130100,-0.345420101300802
Scimitar babbler and Pitohui,KT8 9JS,51.400630812557900,-0.352492389921096
Kite and Jerboa,KT12 2YA,51.394873375901000,-0.403656404021089
Argus and Nukupuʻu,KT12 2PB,51.388780150806100,-0.418513947104063
Armadillo and Meadowlark,KT19 9PU,51.369233851954800,-0.274115545980718
Goose and Recurvebill,SM3 8NU,51.362681509755500,-0.215510454225348
Hawk and Fish eagle,KT12 2NZ,51.389126916901300,-0.422224473382828
Recurvebill and Solitaire,KT17 1LD,51.341329000000000,-0.251517000000000
B and Piping shrike,KT10 9EE,51.362940319214700,-0.356114732941306
Songlark and Civet,KT23 4AL,51.283277809542600,-0.363993517019889
Grackle and Kangaroo,SM4 5QH,51.387995901051000,-0.204925002349299
Thrasher and Boto,KT13 0AX,51.365987922915500,-0.437543063627611
Perching duck and Crow,SM2 7HR,51.345818224775900,-0.224249838445005
Mockingbird and Badger,KT23 4PT,51.272672237654400,-0.365689144379791
Darwin's finches and Guillemot,KT7 0DE,51.388980170693600,-0.333033571853619
Herring gull and Piping shrike,KT22 7UX,51.295530000000000,-0.330516000000000
Chipmunk and New World blackbird,KT18 6AB,51.306427633763800,-0.260619390158477
Meadowlark and Parakeet,SM2 6HG,51.354584297050800,-0.204665794989982
Mink and Grouse,SM2 5TN,51.354722485909500,-0.189106235583125
Diving bird and Wallaby,KT17 4DT,51.332899814637100,-0.258053062644092
Maya and Buzzard,SM4 6AS,51.391324164965700,-0.171836117155583
Chipmunk and Kite,SM4 6DR,51.392633344464200,-0.182578814728002
Treepie and Jerboa,SM4 6PD,51.383467270042600,-0.198132218838234
Kangaroo and Tattler,KT18 5TS,51.306103501531300,-0.229986818966101
Fulmarine petrel and Chicken,SM5 1EP,51.390122436147200,-0.177820160648240
Vulture and Chickadee,KT20 6HS,51.294244512332600,-0.211208728275306
Civet and Scimitar babbler,KT23 4BH,51.282056171106000,-0.362803753598214
Piping shrike and Towhee,TW17 8RY,51.400847168108300,-0.431841422358236
Parrotlet and Grackle,KT20 6AF,51.309231939442600,-0.217469911410931
Vole and Treepie,SM2 7LU,51.350426146731100,-0.225680102645546
Civet and Tattler,KT21 2DB,51.313450315756000,-0.310331585278782
Fox and Rat,KT4 7NJ,51.384142536352700,-0.250402746079580
Shearwater and Eagle,SM2 5EG,51.358259604291100,-0.185232308280914
Vole and Macaw,KT4 8JQ,51.381365618787300,-0.237920198679236
Chipmunk and Parrotlet,KT17 1QP,51.345934660988200,-0.241505206794215
White ibis and Myna,KT24 6NT,51.281485000000000,-0.438089000000000
Treepie and Mouse,RH4 2BY,51.230219736889900,-0.327618925278772
Mockingbird and Viscacha,SM1 2PS,51.373494849298200,-0.201670363258273
Crow and Argus,KT19 8BH,51.335321050432800,-0.262440342312989
Thrasher and Tit-tyrant,KT18 6NQ,51.272204463011600,-0.277853888681424
Pratincole and Wallaby,SM4 6LL,51.387048371970500,-0.196511215771020
Old World vulture and Polecat,RH4 1EW,51.234013811153500,-0.335760783684849
Fox and Lemming,SM1 2SF,51.363179775245600,-0.200465579505201
Old World warbler and Bronzewing pigeon,KT18 5SD,51.310020202115400,-0.230309599258818
Black jay and Maya,KT4 8LQ,51.376189634312900,-0.233391629136418
Booted eagles and Goose,KT22 8UJ,51.295778527705500,-0.324635438642017
Guillemot and Triller,KT10 0LE,51.352104705496000,-0.338292767257202
Coati and Linsang,KT4 8TB,51.372507948894300,-0.233145419449184
Tahr and Tattler,KT6 6NY,51.387878706836800,-0.309503060792280
Parakeet and Dolphin,SM5 4HQ,51.341808468366400,-0.182105988906132
Grackle and Asiatic leopard,KT12 1ES,51.380483320319800,-0.421415216236455
Linsang and Siskin,KT12 1LT,51.373768114583600,-0.414246815908625
Old World quail and Macaw,KT19 8PL,51.343751090056000,-0.291441678961407
Siskin and Jay,KT23 4PP,51.273772382786300,-0.360761343736784
White ibis and Stilt,KT22 9AB,51.282811000000000,-0.352410000000000
Myna and Elephant,KT10 8PG,51.369515000000000,-0.376831629015932
Parakeet and Capuchin,KT17 2LL,51.364205788548600,-0.239584437900534
Diving bird and Meadowlark,KT12 2PP,51.387734010909900,-0.425635444552618
Maya and Nukupuʻu,SM7 2BX,51.326285580864900,-0.210034052811563
Ice seal and Treepie,RH2 7RW,51.237253107565000,-0.202131638086390
Coati and Jerboa,KT21 1EB,51.307706631420300,-0.297472218765275
Condor and Jay,SM7 1DA,51.318366000000000,-0.212999791382351
Jay and Solitaire,KT17 1QD,51.346552434894200,-0.243721636584293
Tit-tyrant and Kestrel,SM2 5LD,51.351985212503500,-0.180755375841181
Stint and Old World warbler,KT17 1DJ,51.338662851400500,-0.260390152049242
Thrasher and Petrel,RH1 1JE,51.239995094052400,-0.175349102370823
Black cockatoo and Mamo,KT11 2AD,51.327747978124200,-0.407193977110686
Vulture and Mockingbird,SM1 2LY,51.372263650227800,-0.205827733639557
Mouse and Minke whale,SM7 3BS,51.324148224736200,-0.194989696081436
Myna and Stint,KT12 9HU,51.377224000000000,-0.409796000000000
Kangaroo and Old World vulture,KT6 4EH,51.394442690598400,-0.310712929841541
Macaw and American sparrow,KT22 7SG,51.310460335518100,-0.333756000000000
Eagle and Fulmarine petrel,KT10 9BS,51.363611858560200,-0.353347046308000
Pratincole and Rabbit,SM1 3HQ,51.382575068789400,-0.190421382280005
Logrunners and Songlark,KT22 9NU,51.286456047137800,-0.364913102223226
Chickadee and Solitaire,KT22 0AH,51.297172069717600,-0.332172636930033
Prion and Mockingbird,RH4 2ER,51.231022117732200,-0.332803524352202
Pratincole and American sparrow,KT6 4NR,51.392192939152900,-0.306239344449745
Mamo and Grackle,SM7 3DT,51.317501474565300,-0.191419022489305
Tahr and Darwin's finches,KT19 8AW,51.342464145999200,-0.283377199215649
Parrotlet and Dolphin,SM7 2JJ,51.326529254140000,-0.205976943356177
Argus and Moluccan boobook,KT18 5JL,51.323386977613600,-0.256332425146844
Darwin's finches and Egret,KT12 3TD,51.384112219841600,-0.403858396302856
Tree warbler and Linsang,KT17 3BY,51.330415622480700,-0.238065378604986
American sparrow and Crow,SM7 3JN,51.315428655388700,-0.170865456999495
Jay and Asiatic leopard,KT12 2SP,51.389578019647800,-0.415669398505182
Chipmunk and Marsh harrier,KT17 3AZ,51.317475000000000,-0.239150000000000
Kangaroo and Rabbit,KT3 3PP,51.398979158975000,-0.256967125503090
Ibex and Wader,RH1 6SU,51.227102102548500,-0.179568552842315
Hawaiian honeycreeper and Buzzard,SM2 6PB,51.355775940977200,-0.199692898104530
Thrasher and Songlark,KT22 8SR,51.297375000000000,-0.322434181323497
Cuscus and B,KT21 2AW,51.307621382652000,-0.300890010437288
Fulmarine petrel and Recurvebill,RH4 9SQ,51.235645383147200,-0.325316470260331
New World blackbird and Tree warbler,RH1 6QJ,51.230085881904600,-0.175984575393776
Bronzewing pigeon and Night heron,SM2 7AL,51.354419399428600,-0.212700592216040
Egret and Fox,KT12 2DX,51.392385952546800,-0.410527295237745
Old World quail and Vulture,RH2 9PH,51.250410264000700,-0.201589878582267
Flameback and Black cockatoo,SM1 3SD,51.370993963737600,-0.184700114106818
B and Tattler,KT22 7XP,51.305732075068400,-0.330843746682506
Petrel and Chickadee,KT23 3JY,51.288571604282100,-0.384514029350487
Chickadee and Magpie,KT3 4TA,51.400217000000000,-0.252463000000000
Goose and Fulmarine petrel,KT22 0PZ,51.341742220759000,-0.350799881082100
Hawk and Myna,RH2 8RL,51.233921837232700,-0.227816223991781
Warbler and Kangaroo,KT11 3HD,51.323721119332600,-0.398750933557168
Philippine hawk-owl and Tattler,SM1 4NG,51.363283080783700,-0.176903264258289
Chicken and Coati,KT18 5FG,51.306679134612800,-0.228099628369642
Egret and Petrel,KT21 1BT,51.306348000000000,-0.297307000000000
Vole and Hawaiian honeycreeper,KT13 0AF,51.363946862337500,-0.433518608899496
Stilt and Maya,RH2 0UE,51.246027991617000,-0.199654579541127
Kite and Thicketbird,KT17 4JS,51.322086000000000,-0.245604000000000
Vole and Buzzard,KT24 5SR,51.266832550117500,-0.415808530232448
Hawaiian honeycreeper and White ibis,RH2 0RY,51.236937660530100,-0.187304000000000
Snipe and Meadowlark,SM5 1JZ,51.387385569368700,-0.172424264136678
Eagle and Kestrel,SM3 9HX,51.380484166293800,-0.217103009702153
Siskin and Old World quail,KT11 2LH,51.333395342437400,-0.411835952013617
Recurvebill and Peafowl,SM3 8DF,51.355400888017800,-0.219872259947706
Crow and Jay,KT19 0SB,51.360114114504700,-0.251591371111899
Vulture and Petrel,KT9 2QT,51.366192898668300,-0.313402000000000
Stilt and Grosbeak,RH4 1EP,51.234534740965600,-0.335083066306433
Coati and Egret,RH4 9SF,51.235645383147200,-0.325316470260331
Greenbul and Prion,RH4 1EX,51.236316009094500,-0.335133368407265
Black cockatoo and Grackle,KT21 2HU,51.316165912345900,-0.312814793569561
Snipe and Kākāriki,KT12 5DZ,51.359128177480300,-0.424892765962434
Crow and Fish eagle,SM5 3SD,51.358775553602600,-0.170417610656140
Chickadee and Grosbeak,KT22 7LE,51.301942429782400,-0.331210743064915
Parakeet and Armadillo,CR5 3PJ,51.310022764304700,-0.167909483745717
Viscacha and Quetzal,KT20 5TJ,51.292964944133400,-0.227594876967624
Argus and Skunk,TW17 8HW,51.396237610259800,-0.438165799339439
Chipmunk and Meadowlark,KT19 0TD,51.368349374973800,-0.262339745190196
Zebra and Snipe,KT17 9SJ,51.333125461023500,-0.265380037935546
Mockingbird and Dorcopsis,KT8 0BJ,51.394267977750400,-0.351484783727084
Fox and Duck,SM3 8EB,51.365356457279000,-0.230605056990724
Black jay and Songlark,KT5 9DX,51.388839163324900,-0.279112683661052
Badger and New World blackbird,SM7 1NP,51.329063270246000,-0.221179466014528
Egret and Ibex,KT12 5EA,51.359866374663900,-0.424953625841773
B and Petrel,SM5 2RB,51.372096444682500,-0.169441245172259
Kestrel and Tree warbler,KT9 1RX,51.371649517481900,-0.302198886529154
Black cockatoo and Hawk,KT24 6TW,51.252317973687900,-0.431124383797050
Tree warbler and Scimitar babbler,SM4 4AT,51.399066300973000,-0.203197801019218
Wader and Elephant,KT11 2PT,51.339576474557800,-0.374782000000000
Civet and Meadowlark,KT4 7JD,51.379050325387400,-0.256272915934557
Pratincole and Jerboa,KT21 2TF,51.299235016592500,-0.304871886182984
Eagle and Ground sloth,RH2 0AU,51.242446556436100,-0.202430598944828
Logrunners and Kangaroo,SM5 3RW,51.362386176833300,-0.166682593931736
Tit-tyrant and Mockingbird,KT6 7RG,51.378417031931900,-0.292033656160077
Old World quail and White ibis,SM7 2QU,51.325991140044900,-0.199625161979106
Old World vulture and Old World warbler,KT12 3EX,51.378204710906600,-0.392712267832768
Cuscus and Mole,KT10 8DT,51.379736018457800,-0.354033029608034
Grosbeak and Old World vulture,SM1 1PU,51.370588079977000,-0.194514516968744
Eagle and Mouse,KT17 4ND,51.323770066411500,-0.251868674761642
Linsang and Goose,KT4 8XA,51.371621766923200,-0.234012838591772
Booted eagles and American sparrow,SM1 4HE,51.367316000000000,-0.189179608299496
Old World warbler and Flameback,KT12 5AB,51.369515923894000,-0.427682600017313
Grackle and Thrasher,KT5 8EG,51.395612113891400,-0.293980787117932
Guillemot and Armadillo,KT4 7PT,51.378496605805000,-0.260159337514662
Puffleg and Petrel,SM1 9QQ,51.359909000000000,-0.193013000000000
Vole and Dorcopsis,KT17 2PG,51.348259028060500,-0.244187709997366
Parrotlet and Bunting,KT24 5LS,51.271342959968800,-0.400314190549995
Jerboa and Kestrel,SM5 2SE,51.376115270439300,-0.173993916934775
Stint and Parrotlet,KT20 5DT,51.290975141897800,-0.236965196092400
Pheasant and Chickadee,KT12 3HT,51.381697086449600,-0.410092858275708
Civet and Prion,SM1 2QP,51.369937448392500,-0.201910310763521
Marsh harrier and Ibex,KT10 8JN,51.383770828027700,-0.348082423244484
Parakeet and Marsh harrier,KT10 0LJ,51.354360232831500,-0.338814356717066
Ground sloth and Perching duck,KT19 0AY,51.356897640568200,-0.256611510216424
Towhee and Bronzewing pigeon,KT3 5DU,51.394986853656100,-0.261230006501401
River dolphin and Rat,SM1 4BR,51.368961974947400,-0.194032549159358
Ibex and Shearwater,KT12 1EY,51.380898000000000,-0.420065000000000
Marmoset and Stilt,KT22 0HF,51.324991012943100,-0.357974282855222
Mole and Songlark,KT7 0JE,51.385916021567600,-0.338893568937846
Grackle and Chicken,RH5 6SY,51.245351000000000,-0.388207000000000
Stint and Francolin,KT5 8HJ,51.395530238033700,-0.281607188190498
Kestrel and Elephant,KT20 5DH,51.293482046640600,-0.243409534992619
White ibis and Armadillo,KT23 3WJ,51.296132308201400,-0.333673360570952
Shearwater and Bunting,KT5 8NL,51.394898457366600,-0.290672444922910
Cuscus and Cloud rat,KT11 1JX,51.337156329522100,-0.406695652595074
Pitohui and Pheasant,KT3 5RF,51.393786351093600,-0.256086422995294
Polecat and Recurvebill,KT22 7ET,51.296937323074900,-0.334633938136320
Grosbeak and Mamo,SM4 6JD,51.396166000000000,-0.186493000000000
Peafowl and Pratincole,SM1 4QX,51.363934463859600,-0.184102999884681
Stint and Myna,SM7 1AS,51.318804507301500,-0.214802735839338
Ground sloth and Mink,KT22 9HA,51.287833271678800,-0.350265103092041
Old World vulture and Zebra,KT23 3NW,51.286408542085100,-0.370536261432432
Siskin and Marsh harrier,SM5 4NL,51.353385169480000,-0.166725963696286
Kestrel and Grackle,RH4 3PG,51.227951372662600,-0.365655340590310
Viscacha and Rat,KT17 1BT,51.336960000000000,-0.260067000000000
Hawaiian honeycreeper and Old World vulture,KT10 0BN,51.355516000000000,-0.337178000000000
Fox and Quetzal,KT11 1BE,51.330260973569000,-0.416781572805888
Piping shrike and Zebra,RH4 1PJ,51.240815518530700,-0.318997038210542
River dolphin and Elephant,KT4 8UY,51.372243702617300,-0.238888232761669
Bronzewing pigeon and Mink,KT13 9LN,51.378479000000000,-0.433439000000000
Kite and White ibis,RH4 1HA,51.234888268523900,-0.336545730034359
Perching duck and Tahr,KT19 7DE,51.341559900172100,-0.289182831384017
Cloud rat and Badger,KT19 8GD,51.343639323876500,-0.284293000000000
Black jay and Puffleg,KT22 9AW,51.291925355370300,-0.338214386745054
Jay and Prion,SM7 2NQ,51.321595250313000,-0.199725532987697
Old World vulture and Mole,KT7 0JZ,51.386593778601700,-0.344847714701613
Herring gull and Condor,KT20 7JF,51.252587873472400,-0.280062875570960
Asiatic leopard and Masked owl,SM5 1AJ,51.385545108147900,-0.183606980514564
American sparrow and Perching duck,RH3 7EQ,51.234560036604100,-0.288828525301393
Dorcopsis and Quetzal,RH4 1UX,51.233451162779900,-0.331612780491294
Mamo and Polecat,SM1 1RD,51.372639615251800,-0.196344718826081
Stint and Tit-tyrant,KT23 3JS,51.281881774657200,-0.377407133349073
Viscacha and Stilt,SM4 6LB,51.394465163261600,-0.188212925626539
Ice seal and Jay,RH1 6JP,51.229304771007900,-0.181844933165120
Bronzewing pigeon and White ibis,SM2 5JU,51.354398075519300,-0.180358193866052
Capuchin and Guillemot,KT23 4AU,51.280388867266700,-0.370921331823459
Tattler and Shearwater,SM2 6LL,51.357983307199300,-0.195742000000000
Duck and Dorcopsis,KT9 1RY,51.370384439663800,-0.300536026860047
Eagle and Ice seal,RH2 0RE,51.236720000000000,-0.188379901625593
Grackle and Treepie,RH2 9AQ,51.240913215600000,-0.206129396700000
Ice seal and Magpie,SM5 1DP,51.384179107296600,-0.168068134727665
Shearwater and Bronzewing pigeon,KT17 2JT,51.365126869233000,-0.242235426585438
Wader and Tattler,SM4 4QU,51.389182041992700,-0.221378635488395
Marmoset and Hawaiian honeycreeper,KT9 1AG,51.369115101477100,-0.303542506186152
Crow and Civet,KT11 3AX,51.325692074590800,-0.395582108477407
Booted eagles and Scimitar babbler,KT18 7PN,51.331817746840500,-0.270597124669597
Bunting and Parakeet,KT23 3PG,51.279723551483800,-0.375461462727963
River dolphin and Bunting,SM5 3RU,51.361182791214500,-0.168511802722506
Boto and Kākāriki,KT6 5LE,51.386802068062800,-0.324072775519635
New World blackbird and Chicken,KT19 8GX,51.338174343343200,-0.298640845581601
Chickadee and Pitohui,KT17 3PP,51.330804362430300,-0.246591432587525
Kākāriki and New World blackbird,KT11 3PT,51.315442000000000,-0.389023000000000
Chickadee and Black jay,KT17 4NH,51.322071205142300,-0.253727240101467
Jerboa and Fish eagle,KT3 4NE,51.400701958798900,-0.238672330276597
Petrel and Old World vulture,KT12 2BQ,51.390051037310100,-0.413410902413292
Goose and Fox,KT4 8DE,51.387308974541000,-0.240264537988603
Herring gull and Kestrel,KT18 6LY,51.276417060522900,-0.275072607605741
Ice seal and Nukupuʻu,KT18 5QA,51.305663347221100,-0.242557121021679
Buzzard and Viscacha,KT17 1WP,51.335321050432800,-0.262440342312989
Philippine hawk-owl and Fulmarine petrel,KT6 4EG,51.392752585355600,-0.310746432733345
Polecat and Asiatic leopard,SM1 4AN,51.363765479530800,-0.188289884755978
Parrotlet and Capuchin,KT11 2TD,51.327918452389700,-0.384839830365191
Puffleg and Pheasant,KT22 7EF,51.300725581311900,-0.324713544711972
Quetzal and Mockingbird,KT4 7AP,51.371230783194900,-0.255822979480645
Piping shrike and Linsang,KT5 8RL,51.390180219805100,-0.297043061687199
Quetzal and Jay,KT20 5DJ,51.292956204225200,-0.242526010965577
Treepie and Pheasant,SM3 8PQ,51.364839773811100,-0.219649941921199
Minke whale and Warbler,KT12 2PT,51.389190572769900,-0.417608700322237
Tit-tyrant and Stilt,KT6 7UA,51.381379206200400,-0.297226028891029
Peafowl and Parakeet,SM1 3BS,51.371277070023400,-0.191958770895968
Magpie and Tahr,KT17 4HH,51.329440341255200,-0.250992757714631
Black jay and Booted eagles,KT11 2RB,51.326752000000000,-0.403267000000000
Tit-tyrant and Prion,KT7 0YR,51.392174091241200,-0.343927669972392
Fox and Shearwater,KT24 5QG,51.260919951761500,-0.408186252389438
Parrotlet and Vole,SM1 9QY,51.359909000000000,-0.193013000000000
Scimitar babbler and Egret,KT12 1SL,51.377260063727200,-0.409815516443051
Logrunners and Goose,KT9 2AW,51.361356565032100,-0.293774368889317
Polecat and Stint,KT18 7JR,51.327471989013200,-0.272267725481220
Kangaroo and Magpie,KT21 2NF,51.310897685678300,-0.313538913230112
Peafowl and Magpie,KT22 9QP,51.290979294824700,-0.361052228717528
Hawaiian honeycreeper and Partridge,RH2 0HW,51.247587014375300,-0.193446693626420
Partridge and Towhee,KT9 1PN,51.370461534881100,-0.308348738232247
Black cockatoo and Kite,SM7 1LN,51.323226050166300,-0.227045729008395
Recurvebill and Chicken,KT12 1DJ,51.384510884997800,-0.417338973260749
Armadillo and Linsang,KT3 4NB,51.400211624910200,-0.241350778120510
Tree warbler and Masked owl,SM2 6JA,51.347773818726300,-0.203294949506761
Siskin and Greenbul,KT17 1TR,51.351223769587500,-0.254830708736226
Boto and Tit-tyrant,SM1 4BJ,51.363847211869000,-0.186133000000000
Pheasant and White ibis,SM3 9TU,51.373234135401800,-0.215200752590178
Ground sloth and Rat,KT3 4FB,51.400840000000000,-0.238255000000000
Mole and Boto,SM1 4DD,51.366963031638200,-0.189787042891442
Black cockatoo and Parakeet,RH2 9PA,51.247390082788900,-0.202266511178321
Bronzewing pigeon and Marmoset,KT22 7HF,51.295865129949900,-0.330068473202880
Bunting and Capuchin,KT10 8LP,51.362576113982500,-0.384885049864584
Elephant and Coati,KT8 2HJ,51.394915403521600,-0.381805896530255
Flameback and Mouse,KT12 3RD,51.386957410671000,-0.383782501130763
Maya and Pheasant,KT6 6PY,51.386087737820400,-0.308778612380615
Pratincole and Meadowlark,TW16 6AT,51.395504790929400,-0.423730010665903
Minke whale and Solitaire,KT17 1FA,51.337433000000000,-0.259278000000000
Piping shrike and Chipmunk,KT19 0HH,51.364266053597100,-0.262293188225104
Cuscus and Triller,KT10 0LG,51.351491154527600,-0.336246999885245
Lemming and Herring gull,KT5 9JL,51.383633472011000,-0.282857592197808
Maya and Cuscus,KT20 5TA,51.295322778942500,-0.235450369569538
Badger and Ground sloth,KT21 1DT,51.309256028452500,-0.295678876299050
Minke whale and Bunting,KT7 0QN,51.394773233753600,-0.333168003039469
Chipmunk and Skunk,KT21 2NW,51.309626639378700,-0.309582469491091
Old World vulture and Pratincole,KT19 9NJ,51.364762374733600,-0.281308183834791
Stint and Tahr,KT7 0JH,51.384912853481100,-0.342350264376247
Old World warbler and Argus,RH4 1DW,51.232728000019900,-0.333243205964702
Songlark and Mockingbird,KT23 3EU,51.286845162774600,-0.383871918080716
Minke whale and Moluccan boobook,SM1 4LT,51.363612574213600,-0.180165381180417
Guillemot and Parakeet,TW17 8HP,51.395731213272400,-0.438628655922736
Tree warbler and Partridge,RH2 0DR,51.249363465724500,-0.200183464343166
Capuchin and Grosbeak,RH1 6AW,51.237396584738200,-0.181153479887752
Skunk and B,KT12 4QT,51.375151579775600,-0.393681283425773
Philippine hawk-owl and Asiatic leopard,KT7 0UL,51.386006641029600,-0.326933055803548
Prion and Ice seal,KT12 3AX,51.383519179257500,-0.395989464621103
Old World warbler and Thrasher,KT21 1AT,51.309499315924600,-0.298926739219898
Asiatic leopard and Ground sloth,SM5 1HE,51.387489522012000,-0.181417245260466
Herring gull and Myna,RH4 1JZ,51.234685392405900,-0.329247577222986
Parakeet and Dorcopsis,KT19 7EH,51.340017285127700,-0.287617884841617
Chipmunk and Stilt,KT4 7LW,51.381432370619400,-0.258625351224505
Night heron and Minke whale,KT5 9BN,51.383914692394200,-0.281797976456145
Stint and Nukupuʻu,RH1 6JR,51.227373247992200,-0.181391124483519
Ice seal and Kangaroo,RH2 2TD,51.239537570948700,-0.205079724451592
Hawaiian honeycreeper and Jay,KT18 5NY,51.311818672155100,-0.241647564187511
Mouse and Duck,KT18 5UD,51.313618799858900,-0.238163640327234
Rabbit and Kite,KT23 4DL,51.278569522134400,-0.379789242370714
River dolphin and Dolphin,KT20 7PL,51.257357036260200,-0.274768525097001
Parakeet and Vole,KT3 5QR,51.389571898938200,-0.266595153057774
Ground sloth and Mink,SM2 6LG,51.358351490577000,-0.192338486807294
Masked owl and Bronzewing pigeon,RH1 2EA,51.254656946525400,-0.168090504344773
Eagle and Masked owl,KT11 1AF,51.330168028223100,-0.413899605560955
Darwin's finches and Dorcopsis,SM5 2PY,51.366757261749400,-0.166723517967878
Buzzard and Night heron,KT19 0QT,51.360962997718900,-0.251228676004497
Petrel and Ground sloth,KT12 2QE,51.390011270067300,-0.419118278512628
Armadillo and Tahr,RH1 1RD,51.239444431408700,-0.168881125560260
Piping shrike and Puffleg,KT24 5AS,51.271565021087600,-0.424648664848995
Songlark and Peafowl,KT17 4QP,51.329992000000000,-0.260139107719612
Dolphin and Triller,SM1 3LE,51.376715739646300,-0.187236000000000
Chipmunk and Myna,SM2 5HN,51.357590362906100,-0.186149264084704
Pitohui and Vulture,KT17 2RF,51.347452623342700,-0.238991582254889
Minke whale and Treepie,KT3 5JU,51.391818086726100,-0.256764954592211
Magpie and Petrel,KT10 8BG,51.380099228890700,-0.362627500080508
Buzzard and Grouse,KT11 1NL,51.297957000000000,-0.424448000000000
Chicken and Argus,SM2 7BY,51.348611177658100,-0.208647263086424
Egret and Skunk,KT19 8FR,51.350002706607800,-0.268175011993633
Bunting and Crow,KT20 7QJ,51.276565526527100,-0.249744000000000
Zebra and Fox,RH1 1HB,51.240090829103300,-0.175144744870405
Condor and Cuscus,SM5 2ST,51.376494679026300,-0.170645220174609
Badger and Tahr,KT18 5FB,51.310328331420100,-0.228088126046742
Black cockatoo and Mole,SM1 3QE,51.369053702971600,-0.176731542869917
Pratincole and American sparrow,KT12 9EZ,51.377260063727200,-0.409815516443051
Mockingbird and Treepie,RH2 9PU,51.239111689602800,-0.207216553107686
Duck and Jerboa,KT11 3JT,51.301568758318200,-0.395189647696355
Grouse and Chickadee,KT19 9QS,51.355253199161800,-0.267603538150209
Myna and Mamo,SM1 1NL,51.365451000000000,-0.193682000000000
Cloud rat and Vulture,KT22 9PF,51.285344622295300,-0.362600784601158
Grackle and Linsang,KT12 2TR,51.385535475505900,-0.417964712703492
Hawk and Maya,KT24 6AJ,51.262765406287700,-0.435011297983057
Thrasher and Tahr,KT17 9SD,51.333125461023500,-0.265380037935546
Greenbul and Mink,KT19 9DG,51.346533045030500,-0.271436092513030
Coati and New World blackbird,SM1 1NU,51.366347585096400,-0.194192865792553
Mamo and Perching duck,RH2 2TW,51.239537570948700,-0.205079724451592
River dolphin and Vulture,KT12 2ND,51.385251065802600,-0.411564916626045
Nukupuʻu and Parrotlet,KT21 2AA,51.306148000000000,-0.317161000000000
Parakeet and Ice seal,KT23 3DB,51.280819000000000,-0.382391000000000
Vole and Fulmarine petrel,KT6 5BF,51.379873064137600,-0.307826000000000
Parakeet and Meadowlark,RH2 9AU,51.237254000000000,-0.207962000000000
Zebra and Francolin,SM4 6AZ,51.393199369249600,-0.175024309710947
Black jay and Songlark,KT17 1SL,51.349975104991100,-0.250096095416175
Petrel and Egret,KT24 5AG,51.268942914386800,-0.426931575363594
Ibex and Booted eagles,KT18 5UB,51.316037143641100,-0.236923001515166
Minke whale and Recurvebill,KT17 3HH,51.340841203484800,-0.232898878548438
Triller and Bronzewing pigeon,KT3 6EZ,51.395202484516200,-0.241930996365282
Logrunners and Tit-tyrant,RH1 6LX,51.227193800565500,-0.184892855610958
Flameback and Skunk,KT5 9AE,51.390213509871800,-0.283301178961317
Cloud rat and Meadowlark,KT17 2PH,51.351142511568300,-0.239783576424026
White ibis and Kite,KT13 0JG,51.363495000000000,-0.435301000000000
Maya and Cloud rat,KT3 6QF,51.398191748702400,-0.242779557848149
Stilt and Hawaiian honeycreeper,RH2 2SB,51.239413000000000,-0.205079724451592
Fox and Booted eagles,KT10 9JQ,51.353881282568500,-0.382993503287144
Mockingbird and Grosbeak,KT19 8LD,51.338665577558900,-0.277001050605942
Chipmunk and Minke whale,KT3 5BJ,51.397182846571300,-0.260140470161678
Piping shrike and Triller,KT22 9TH,51.292639339441200,-0.367877492815091
Francolin and Argus,KT6 7TG,51.378359579024600,-0.293645160855414
Wallaby and Wallaby,KT12 2JR,51.389907000000000,-0.416635000000000
Towhee and Grosbeak,SM1 4TB,51.362053000000000,-0.186777000000000
Ground sloth and Quetzal,KT12 4RE,51.369510445965000,-0.394783772108467
Goose and Recurvebill,KT5 9NH,51.383963158447400,-0.271032188761985
Rat and Triller,KT22 9FH,51.282773000000000,-0.353048000000000
Warbler and Booted eagles,KT10 1TJ,51.369929428879900,-0.361898500021611
Guillemot and Perching duck,KT24 5TD,51.242632106043500,-0.433746211863261
Quetzal and Mamo,SM5 2PE,51.363622243359300,-0.171546042921666
Bunting and Ibex,KT19 9JN,51.362808775019200,-0.275649880761645
Buzzard and Grosbeak,KT11 1ET,51.338797579545700,-0.437075077172815
Parrotbill and Towhee,SM5 1HH,51.386162980134200,-0.177646888283664
New World blackbird and Coati,KT11 3EG,51.326806236246000,-0.410685684124187
Marsh harrier and Vulture,SM5 2QX,51.369630173016300,-0.169295369509472
Siskin and Puffleg,KT17 3JX,51.335168424858400,-0.246166533385459
Coati and Kestrel,KT11 2TG,51.338757622948900,-0.395542347036187
Shearwater and Flameback,KT9 1HX,51.364259761633600,-0.297386992963479
Ibex and Kākāriki,SM3 9NT,51.383765403377900,-0.202906116359165
Moluccan boobook and Logrunners,KT18 5YN,51.335321050432800,-0.262440342312989
Macaw and Jerboa,KT22 0BQ,51.311020583963500,-0.353135493638722
Grouse and Fox,KT10 1SL,51.369929428879900,-0.361898500021611
Shearwater and Marsh harrier,KT18 7EG,51.325518000000000,-0.273231000000000
Booted eagles and Cuscus,KT10 9DB,51.364159019945200,-0.352609182654379
Chickadee and Stilt,SM7 3RA,51.329875962434600,-0.193200163650082
Thicketbird and Kite,KT11 3HT,51.321897460883800,-0.389701223238366
Crow and Marsh harrier,KT3 5LH,51.386338742661400,-0.255967146116835
Hawaiian honeycreeper and Meadowlark,KT18 6LW,51.276800597678200,-0.273638816017507
Parrotbill and Grackle,KT22 9QY,51.292514257254800,-0.358286861945647
Magpie and Crow,KT6 4NQ,51.391924492965200,-0.307056000000000
Thrasher and Elephant,KT18 6BS,51.303677911807800,-0.283303989577440
Fulmarine petrel and Black cockatoo,RH2 0NB,51.242973587964700,-0.188784838692985
Buzzard and Eagle,KT17 2JR,51.363226326306000,-0.243227530654721
Mouse and Coati,KT10 1TA,51.369929428879900,-0.361898500021611
Old World warbler and Triller,KT10 0QD,51.373036449507400,-0.341902805662918
Warbler and Jay,RH1 1EN,51.242349304745800,-0.172920628302520
Minke whale and Hawk,KT9 1EL,51.366935017001400,-0.306381293236614
Argus and Towhee,KT19 9HE,51.348133653069900,-0.270212711358456
Flameback and Rat,KT21 2NX,51.308489045506400,-0.313010272671603
Snipe and Bronzewing pigeon,KT23 3ND,51.283655920107100,-0.372411786221192
Jackal and Viscacha,SM3 8LX,51.367690799696900,-0.221450064069147
Shearwater and Perching duck,KT11 1HT,51.334519802853700,-0.408552769394192
Buzzard and Towhee,KT18 5BX,51.332789000000000,-0.265020000000000
Recurvebill and Dorcopsis,RH1 2AR,51.246434687709000,-0.175395147941691
Grouse and Tree warbler,KT19 9SA,51.357347332041000,-0.270569453039609
River dolphin and Shearwater,KT22 7DY,51.305436348813400,-0.325876245006719
Jerboa and Grackle,CR5 3SD,51.284759000000000,-0.171583762731776
Piping shrike and Perching duck,KT20 6AW,51.307775106575900,-0.217468971939734
Puffleg and Francolin,KT24 5QN,51.261190479938500,-0.416862444705692
Ibex and Herring gull,KT22 9QT,51.291575592409600,-0.362536919749640
Jerboa and Myna,KT21 2RN,51.315479614220800,-0.310744921663042
Vulture and Magpie,KT22 8QZ,51.290720000000000,-0.317322721671216
Pitohui and Parrotlet,KT22 0HS,51.323478608586700,-0.357856069263544
Dolphin and Prion,CR4 4EU,51.397392933613800,-0.174889000000000
Wallaby and Songlark,TW16 6AP,51.399802000000000,-0.416179000000000
Siskin and Vole,RH4 9EU,51.233194400089100,-0.330003456352451
Prion and Black jay,KT18 5SH,51.309406747073200,-0.237334964335251
Puffleg and Vulture,KT6 5EJ,51.380139156714600,-0.310334268973077
Armadillo and Hawaiian honeycreeper,RH5 4BH,51.232122422326600,-0.316692605493006
Tattler and Mockingbird,KT20 7LG,51.252023000000000,-0.287967812392972
Coati and Logrunners,KT4 8UQ,51.370652851466700,-0.238345857528340
Grouse and Peafowl,KT4 7SA,51.382742609941100,-0.262685661674160
Night heron and Buzzard,KT12 1LR,51.381394147595400,-0.414946079546088
Thrasher and Snipe,SM5 3RB,51.358321672784100,-0.171297491607249
Dolphin and Puffleg,KT19 9LS,51.364284622829500,-0.276944756960835
Argus and Pitohui,SM2 6LE,51.359093884154300,-0.192079445257947
Perching duck and Eagle,SM2 7AF,51.354366362932300,-0.211582422963472
Moluccan boobook and Tree warbler,RH2 9PW,51.241331356242300,-0.205941139601634
Vole and Logrunners,KT3 6BB,51.387934193943900,-0.246578792624045
Parakeet and Fulmarine petrel,RH4 1NB,51.237758481932800,-0.337287410430661
Fish eagle and Pitohui,KT12 1AW,51.386764653325400,-0.424432738440140
Jay and Boto,KT5 9JH,51.384011223664400,-0.283475783433857
Boto and Flameback,RH4 2EB,51.228362296377500,-0.330421851468548
Puffleg and Kangaroo,RH4 1NG,51.240723729110600,-0.330805286982162
Kite and Grosbeak,SM4 4JX,51.381028031089300,-0.220343934897434
Piping shrike and Mouse,KT17 1PN,51.347123882006600,-0.248854900929767
Jerboa and Darwin's finches,KT12 3LA,51.382013646039900,-0.398341346595215
Old World quail and Grackle,KT17 3HD,51.341486670657800,-0.233362223281457
Peafowl and Vulture,KT3 6LE,51.398837995218200,-0.234919952598496
Chicken and Warbler,KT18 5RB,51.308376338633800,-0.234002771413136
Dolphin and Philippine hawk-owl,KT18 5HN,51.325862944112100,-0.258951232708422
Fox and Minke whale,SM7 2RA,51.326497395057300,-0.200968896608352
Badger and Chickadee,RH1 6DQ,51.232194189714500,-0.168753561765152
Cloud rat and Bronzewing pigeon,KT22 9AD,51.293463000000000,-0.333698000000000
Rat and Magpie,KT5 8ST,51.388647108597800,-0.294268584023375
Gull and Capuchin,KT22 7UW,51.299182852369400,-0.335714584142374
Nukupuʻu and Old World warbler,KT6 7TY,51.383281470882500,-0.296321919117828
Skunk and Macaw,RH2 0EE,51.244427374174900,-0.197324354003038
Macaw and Tattler,SM5 1QU,51.380596545405400,-0.180540849519686
Darwin's finches and Prion,KT22 0PQ,51.344029000000000,-0.358615000000000
Solitaire and Mole,SM7 2AW,51.321795548663300,-0.205745446193284
Philippine hawk-owl and Pitohui,KT11 1DS,51.335912703744800,-0.437876616557523
White ibis and Hawaiian honeycreeper,KT7 0UT,51.385016627172600,-0.324985910148576
Old World quail and Pitohui,KT22 9SA,51.299425906881400,-0.372431000000000
Condor and Greenbul,RH4 9TD,51.235645383147200,-0.325316470260331
Songlark and Dorcopsis,SM2 6AX,51.352398902869600,-0.194123806944326
Lemming and Pratincole,KT21 2JE,51.311173199967800,-0.321449069586299
Pratincole and Stilt,KT11 2JX,51.334286113159400,-0.394722275725396
Boto and Partridge,KT10 0BX,51.372826560095400,-0.334712253102887
Tahr and Asiatic leopard,KT11 2JJ,51.332272519672600,-0.383952000000000
Philippine hawk-owl and Old World warbler,RH2 0TN,51.260844632957900,-0.177347199378504
Bunting and Buzzard,KT12 2AH,51.385963000000000,-0.407631000000000
Zebra and Fish eagle,KT20 5EQ,51.295999525055500,-0.239784904375360
Chicken and Booted eagles,CR5 3NB,51.312357167947400,-0.168246966606351
Myna and Shearwater,KT24 5AP,51.289910000000000,-0.423878000000000
Rat and Jerboa,RH2 8AE,51.231064520353800,-0.203203610209984
Chickadee and Kākāriki,KT12 1QB,51.384463094761300,-0.418461564170859
Parakeet and Parakeet,KT12 3LU,51.384816621710700,-0.404078200684169
Grosbeak and Snipe,SM4 6QG,51.390352282889400,-0.190330161041244
Kite and Goose,KT18 6JU,51.284184151618500,-0.279786282176205
Marsh harrier and Crow,KT9 1DJ,51.368538000000000,-0.295907000000000
Rabbit and Chipmunk,KT13 0HN,51.358743474228600,-0.435778739012733
Siskin and Asiatic leopard,KT11 1HD,51.333694593384600,-0.424673488153693
Myna and Goose,KT22 8HP,51.292008644727900,-0.328272173226297
Kestrel and Tattler,RH1 6NT,51.236259407122000,-0.171657747084426
Quetzal and Kite,SM7 1NJ,51.327846591008800,-0.222188241181730
Lemming and Linsang,SM1 4DQ,51.368792074813400,-0.191180297345657
Viscacha and White ibis,KT22 7PJ,51.309204283008700,-0.332812522956402
Wader and Capuchin,RH1 6HJ,51.227243134158200,-0.171886184340623
Songlark and Fulmarine petrel,RH1 1DD,51.241575182374600,-0.171146117872531
White ibis and Condor,KT20 6WE,51.292208375602800,-0.237047043020716
Maya and Triller,KT5 9NN,51.380392000000000,-0.278797000000000
Thrasher and Flameback,SM2 5UE,51.356322948717900,-0.186184962593202
Siskin and Philippine hawk-owl,KT23 4LG,51.270650840293100,-0.376168486364259
Darwin's finches and Grosbeak,RH2 9PX,51.237791412138800,-0.208167000000000
Meadowlark and Treepie,KT17 1PL,51.346882313780700,-0.249539008601921
Vole and Kākāriki,KT6 5LA,51.386443214176700,-0.320363582025781
Ibex and Siskin,SM1 4BU,51.365548578666000,-0.186711137850953
Vole and Chicken,KT12 5BL,51.365532509394700,-0.429040055745115
Scimitar babbler and Tattler,RH1 1EE,51.242423379673400,-0.170754298168231
Bronzewing pigeon and Pheasant,KT23 3AH,51.280382254855600,-0.386679682109000
Thrasher and Tit-tyrant,KT3 6RH,51.392800911839400,-0.251509860880998
Capuchin and Rat,KT4 8TD,51.372602037513400,-0.231633195231340
Zebra and Kākāriki,KT8 2TT,51.400821798303500,-0.373244862708474
Diving bird and Gull,SM4 4BQ,51.395226845457200,-0.215581169767249
Kākāriki and Siskin,KT24 9BX,51.265201310800000,-0.432764247500000
Buzzard and Grackle,SM3 9SB,51.371325525940400,-0.219786293131059
Boto and Cloud rat,SM3 9LL,51.380267684813700,-0.208805518642492
Thrasher and Rat,KT8 2PG,51.399026112931700,-0.362469288938603
Kangaroo and Lemming,SM1 2RE,51.363339537980000,-0.197988572560934
Marsh harrier and Moluccan boobook,KT11 2BD,51.331211406861700,-0.404648075949351
Cloud rat and Eagle,KT11 2DH,51.327848820341800,-0.389578895295707
Egret and Coati,KT13 9SH,51.377850839716900,-0.433647549747504
Shearwater and Rabbit,KT21 2RA,51.310370326107600,-0.306283783778324
Pratincole and Vulture,KT18 6AA,51.305969691219100,-0.260793000000000
Treepie and Fulmarine petrel,KT3 5HP,51.399689977648000,-0.265479497046673
Tree warbler and Chickadee,KT9 1EZ,51.370886559864200,-0.302916722713395
Polecat and Thrasher,KT3 5JS,51.392251004181200,-0.254434325117434
Crow and American sparrow,KT10 8LL,51.363711751904500,-0.381814169298910
Francolin and Parrotlet,CR4 4EF,51.400764856095300,-0.170582734902538
Elephant and Black cockatoo,KT12 2EN,51.392338329887400,-0.403715887029085
Stilt and Vulture,KT9 2GF,51.360805913068100,-0.313502001442756
White ibis and Old World vulture,SM5 1SB,51.384659849497200,-0.178137744596973
Tahr and Zebra,KT22 9AU,51.291963824662200,-0.340292626553591
Polecat and Asiatic leopard,SM1 3JE,51.378565779437000,-0.198683938712146
Guillemot and Minke whale,RH2 0EX,51.246761131111200,-0.189467094384356
B and Greenbul,RH4 9TA,51.235645383147200,-0.325316470260331
Jay and Moluccan boobook,KT3 5BQ,51.396894207294200,-0.259475786723771
American sparrow and Snipe,KT19 0EF,51.363520418566700,-0.260525816350113
Ibex and Darwin's finches,RH4 9TR,51.235645383147200,-0.325316470260331
Macaw and Chipmunk,KT6 7SA,51.382803867495900,-0.293163722236035
Thicketbird and Dorcopsis,KT4 8UG,51.370762721923700,-0.239074360310044
Petrel and Siskin,SM2 5NF,51.346868796076000,-0.193565789104299
Solitaire and Argus,KT19 9UX,51.349182307412600,-0.260867778894170
Prion and Guillemot,SM2 7LH,51.344378548778800,-0.230135163333820
Cuscus and Asiatic leopard,KT11 3LS,51.322041595257400,-0.412113304540934
Vulture and Old World vulture,SM7 2HG,51.315270375182000,-0.209014000000000
Grackle and Snipe,KT22 8RD,51.286228014600600,-0.309595622454066
Condor and Pitohui,KT19 8TZ,51.341794381966200,-0.269029938869532
Meadowlark and Prion,KT20 5EA,51.293362907356700,-0.241463452962203
Armadillo and Petrel,KT3 6DW,51.396554698530500,-0.252485000000000
Magpie and Crow,SM1 4FG,51.360823000000000,-0.190464000000000
Cuscus and Old World warbler,KT19 8TE,51.343771650416500,-0.274440412435573
Philippine hawk-owl and Parakeet,KT7 0JA,51.386659434428700,-0.341223636816774
Chipmunk and Mockingbird,KT3 5DZ,51.393214392442200,-0.266789000000000
Boto and Old World vulture,SM2 6EH,51.353176024591200,-0.196118239340799
Polecat and Old World vulture,KT20 6HZ,51.293198128037000,-0.200434871501787
Viscacha and Viscacha,KT9 2AF,51.361866536448400,-0.291744433511497
Prion and Puffleg,KT17 1HX,51.334898106384800,-0.263633507292717
Logrunners and Ibex,KT3 6BY,51.397661143398200,-0.249987626397472
Marmoset and Scimitar babbler,SM7 1JG,51.319836832877600,-0.227707400824740
Chickadee and Pitohui,SM1 4QF,51.366695829697400,-0.183562792783989
Parrotbill and Egret,KT23 3AG,51.284069697585300,-0.387367851526181
Moluccan boobook and Wader,KT11 1LH,51.311812097640400,-0.435122451201955
Scimitar babbler and Marmoset,KT8 2TG,51.400296514555700,-0.371984000000000
Argus and Black cockatoo,KT18 5RZ,51.307048188587100,-0.235976273012341
Piping shrike and Kite,KT20 6RL,51.281250893688000,-0.205977885925782
Argus and Kangaroo,KT19 9QL,51.356360562363400,-0.269515064319043
Cloud rat and Guillemot,SM5 3LQ,51.356664856614500,-0.172311412634298
Piping shrike and Myna,RH1 2HH,51.245064038772900,-0.174002269548417
Prion and Old World warbler,KT22 9BF,51.282892757352800,-0.351288140684411
Triller and Pitohui,KT6 6LF,51.387284042253300,-0.303201243654624
Herring gull and Stilt,KT22 8XE,51.297434454543200,-0.303489460526508
Petrel and Herring gull,KT4 8TG,51.371914760555200,-0.230783262193037
Treepie and Snipe,KT6 7QT,51.379145624728600,-0.290813861129022
Magpie and Civet,SM7 2AY,51.319254332441700,-0.201883727354019
Gull and Solitaire,SM5 3QE,51.362542514867400,-0.174390139339128
Night heron and Linsang,KT19 9NA,51.366069747393100,-0.277868977938591
Parrotbill and Boto,KT11 2DD,51.333195254389400,-0.391243385880857
Egret and Zebra,KT8 2QP,51.398940085841100,-0.374375417223725
Guillemot and Viscacha,RH4 1HT,51.237224997837800,-0.335816818551920
Prion and Petrel,KT19 9DP,51.344369417687300,-0.269851883250595
Myna and Prion,KT19 8RP,51.341547912550600,-0.278304000000000
Duck and Tit-tyrant,RH1 6RW,51.238637227652100,-0.179972800814690
Myna and Greenbul,RH1 1DS,51.241462000000000,-0.177655000000000
Mouse and Tahr,SM7 2HJ,51.314485147685100,-0.206963376686298
Siskin and Warbler,KT17 2LP,51.367128107616200,-0.237173826858405
Chicken and Ibex,SM1 2AZ,51.360364891109700,-0.199283154838006
Petrel and Quetzal,SM7 1DF,51.317533171738200,-0.213402693883558
Thrasher and Condor,KT19 9FQ,51.365034000000000,-0.280106000000000
Shearwater and Bunting,KT6 7JY,51.376559861993500,-0.283711405821006
Grouse and Triller,SM7 2PJ,51.320118298076900,-0.200170843038078
Old World quail and Triller,KT20 7AF,51.281723340953200,-0.249550889238611
Mamo and Ground sloth,KT23 4RW,51.278277602690100,-0.363970414796406
Pitohui and Songlark,KT22 9DJ,51.290964007467000,-0.338908821311606
Dolphin and Old World vulture,KT4 9EP,51.379884000000000,-0.242810000000000
Black jay and Old World warbler,KT21 2JS,51.313769039154900,-0.314351976882947
Tit-tyrant and Darwin's finches,SM4 6DW,51.394527606675800,-0.184113700110508
Jackal and Dorcopsis,SM7 1DD,51.322146772400000,-0.223958709000000
Dolphin and Vulture,SM5 1LZ,51.386610504593200,-0.170586765938172
White ibis and Mouse,RH1 1DH,51.241805942849000,-0.170950715410958
Piping shrike and Condor,KT23 3JB,51.286182000000000,-0.380654000000000
Logrunners and Fox,KT17 3DT,51.339613974060700,-0.245178497773898
Perching duck and Grosbeak,KT19 0LT,51.364544114983100,-0.253778540561525
Diving bird and Flameback,KT21 1NB,51.318871956444300,-0.297231092041047
Perching duck and New World blackbird,KT23 3DY,51.280039936159900,-0.378174615359728
Jay and Francolin,SM1 4BG,51.365910069513700,-0.191480609978576
Herring gull and Viscacha,CR4 4BF,51.399094165129500,-0.170706898398803
Buzzard and Crow,KT6 5RJ,51.388125501407100,-0.319784580497254
Thrasher and Condor,KT11 1JY,51.338004941188200,-0.406278605411065
Scimitar babbler and Kākāriki,SM4 6RH,51.389114248153400,-0.184126798412083
Partridge and Francolin,KT22 8RN,51.297347982374800,-0.319945203148792
Grosbeak and Cloud rat,KT17 2DW,51.354086679165500,-0.250226678531794
Snipe and Black jay,SM1 2DH,51.357205005908100,-0.208441310708722
Cloud rat and Masked owl,RH4 3QR,51.227818068823800,-0.362552130522131
Greenbul and Kākāriki,KT18 7ET,51.310871987541900,-0.278401032286283
Mamo and Mouse,KT6 4BY,51.397312074095200,-0.308896574423194
Buzzard and Flameback,KT5 9HA,51.391222402672600,-0.273015185837041
Civet and Piping shrike,KT6 4LQ,51.393613203049400,-0.303714547950266
Stilt and Dorcopsis,KT9 1NU,51.367100466388900,-0.307251502757488
Philippine hawk-owl and Snipe,KT11 1JA,51.332210941787100,-0.419212000000000
Peafowl and Fish eagle,KT11 9DT,51.329083007447900,-0.410664470305741
Masked owl and Tree warbler,KT12 3PA,51.377039087526500,-0.390339138406838
Viscacha and Partridge,KT10 1SF,51.369929428879900,-0.361898500021611
New World blackbird and Booted eagles,SM3 9RG,51.378232476032400,-0.218052664532696
Kākāriki and Parakeet,SM2 6EG,51.345976967050900,-0.199890260636609
Tit-tyrant and Shearwater,KT24 5BL,51.281186137354200,-0.429266437411722
Prion and Viscacha,SM4 6NP,51.382294435885600,-0.195548435877328
Grouse and Buzzard,KT6 7JN,51.379392011012300,-0.286134540130835
Mockingbird and Boto,RH2 9RN,51.254676865558300,-0.198342264657508
Stilt and Old World quail,RH2 2ER,51.241099000000000,-0.202988844000000
Ice seal and Thicketbird,SM1 3EQ,51.373151284755400,-0.195117708924407
Thrasher and Jay,KT3 6AE,51.395685708599500,-0.255007956990852
Stilt and Rat,KT20 6PT,51.291278245627400,-0.208943187944178
Mole and Old World quail,KT19 0RT,51.366606649637800,-0.249174881205383
Myna and Pratincole,SM3 8PS,51.359946761924400,-0.214855461612317
Parrotlet and Quetzal,SM1 1SE,51.367850020956500,-0.195987003469064
Warbler and Warbler,KT10 0DZ,51.362862498358700,-0.334053794322205
Cuscus and Condor,KT22 8TY,51.299082280639900,-0.307990277008046
Parrotbill and Nukupuʻu,KT17 3LH,51.322755461210600,-0.236378355441610
Shearwater and Puffleg,SM3 9RF,51.377632979483900,-0.217659236734627
Linsang and Viscacha,KT10 0JX,51.356944954677300,-0.336552116112435
Stint and Black jay,KT7 0HN,51.382050235420100,-0.346592365711433
Coati and Vole,KT4 7PZ,51.376998000000000,-0.262148771681686
Rat and Black cockatoo,KT1 2ES,51.400766574464500,-0.305879523192231
Prion and Viscacha,KT20 5EY,51.295170804531100,-0.236704074950045
Treepie and Capuchin,KT21 2NR,51.310223380414100,-0.311052733606753
Armadillo and Prion,KT13 9LU,51.382007950981900,-0.429812486162213
Crow and Kite,RH2 0LR,51.243232300142200,-0.182270060652628
Argus and Treepie,KT17 1HR,51.339476862057400,-0.254659514993960
Polecat and Gull,RH2 0DY,51.248541655663900,-0.195401000000000
Zebra and Vulture,KT6 7BN,51.380964405859700,-0.289122283416589
Prion and Songlark,KT19 0BS,51.366759000000000,-0.262917000000000
Old World warbler and Marsh harrier,SM7 1BL,51.322290353936100,-0.222862346342351
Tahr and Rabbit,KT22 0LR,51.337810907724800,-0.353884059769192
Mink and Mouse,KT12 3JT,51.377741406451400,-0.394337821216468
Fulmarine petrel and Skunk,SM1 2XD,51.362489990825300,-0.209441711576669
Booted eagles and Towhee,SM4 4SX,51.389649032944200,-0.216013769230844
Parrotlet and Mink,KT12 3QU,51.388933196878400,-0.381643247954834
Piping shrike and B,KT12 4LG,51.369287963929300,-0.385137367830462
Perching duck and Civet,KT3 5JE,51.390655516230200,-0.254178833628436
Capuchin and Eagle,KT22 9BA,51.287450217315000,-0.354996964978940
Ibex and Kite,KT5 8QP,51.391189357972900,-0.294087802789459
Thrasher and Parakeet,SM2 5BS,51.356967397106000,-0.189477319662130
Badger and Greenbul,KT4 8XE,51.369146122077600,-0.233835120941729
Old World quail and Shearwater,KT19 0HA,51.364710523726000,-0.266801375841571
Mamo and Prion,KT18 7SJ,51.331606797167100,-0.279476292452186
Puffleg and Solitaire,KT22 9RJ,51.298618184038000,-0.356218708688371
Tahr and Songlark,KT20 5DP,51.296243000000000,-0.243899183978785
Philippine hawk-owl and Grosbeak,RH2 0EF,51.243633448957000,-0.197742234914511
Thrasher and River dolphin,KT6 4EB,51.394209666712500,-0.312015198192659
Stint and Ground sloth,KT6 7LL,51.376267929710300,-0.297602478443943
Thrasher and Pratincole,KT7 0JQ,51.384522415458300,-0.343355983544761
Civet and Francolin,RH2 7LB,51.233145000000000,-0.198668000000000
Chicken and Songlark,KT18 6HX,51.304360743064300,-0.264958367598961
Thrasher and Cuscus,KT18 6AL,51.309206764826500,-0.268534710083629
Shearwater and Logrunners,KT12 3NJ,51.382742713154700,-0.406966962137907
Grackle and Stint,RH3 7AD,51.234549000000000,-0.252087000000000
Armadillo and Marsh harrier,KT4 8NE,51.378193364555100,-0.230900430971500
Mockingbird and Kestrel,SM7 2DG,51.324124428988300,-0.199870492434928
Egret and Thicketbird,KT4 8PU,51.380982347670500,-0.221480959315853
Thicketbird and Mink,KT6 4EU,51.397819249488400,-0.309769146487145
Asiatic leopard and Dorcopsis,KT3 4NY,51.398657338827100,-0.253471671422524
Magpie and Songlark,SM4 4QA,51.385826725474400,-0.221307524219092
Polecat and Lemming,SM7 1JJ,51.322331996079000,-0.227984375137935
Old World quail and Condor,KT19 9RR,51.346619000000000,-0.267427000000000
Tit-tyrant and Grackle,SM7 3PZ,51.314467994824700,-0.169239114409160
Ibex and Hawaiian honeycreeper,KT11 1JW,51.337511223770700,-0.410975905142420
Eagle and Solitaire,KT8 2HF,51.397061097723900,-0.384159569308051
Night heron and Francolin,KT17 9DW,51.335321050432800,-0.262440342312989
Zebra and Kangaroo,KT18 5QN,51.305738898268200,-0.240402226836486
Wallaby and Piping shrike,KT5 8BA,51.389930245054700,-0.296549288708598
Towhee and Mink,RH2 9ND,51.251076522525800,-0.203398094171875
Mamo and Cuscus,KT9 2LQ,51.357011884976000,-0.302352307334690
B and Triller,KT12 5HE,51.364593437655600,-0.406117183396144
Puffleg and River dolphin,RH2 2SS,51.239537570948700,-0.205079724451592
Linsang and Pheasant,KT8 2JA,51.400151212237900,-0.362544118047261
Treepie and Pitohui,KT10 0PW,51.355349353476900,-0.343891473289547
Old World vulture and Tahr,RH2 2GL,51.241098000000000,-0.203016000000000
Pheasant and Viscacha,KT20 5QX,51.288092439878000,-0.233648043503103
New World blackbird and Old World warbler,KT18 5US,51.315304820898000,-0.233679339971739
Tree warbler and Philippine hawk-owl,SM3 9PH,51.384421333795600,-0.204044504771864
Mouse and Diving bird,KT6 5NE,51.392283099221300,-0.312488565245009
White ibis and Badger,KT17 3JZ,51.326208779619200,-0.233403963612035
Thrasher and Chicken,SM7 2AQ,51.325298719778400,-0.209010362644735
Zebra and Moluccan boobook,SM1 2PG,51.374460988602800,-0.198414010729742
Thrasher and Snipe,KT24 5LH,51.269900109520600,-0.399360820955329
Zebra and Ground sloth,KT4 8FQ,51.378232494476400,-0.242351402596974
American sparrow and Flameback,KT22 7EU,51.298612516664400,-0.323353000000000
Armadillo and Black cockatoo,RH1 6DA,51.236507000000000,-0.176452308756960
Thicketbird and Thicketbird,SM1 4JQ,51.363465207858200,-0.192137149165817
Badger and Gull,KT22 7PZ,51.309033311143300,-0.332173077059254
Wallaby and Thrasher,KT17 2EX,51.356743331335300,-0.249881290592055
Grackle and Siskin,KT18 6HJ,51.304955278161000,-0.266241472778710
Herring gull and Vole,RH4 1TJ,51.235087656700000,-0.324192000000000
Duck and Condor,KT10 0EH,51.360971193516300,-0.339551940031210
Snipe and Asiatic leopard,KT6 5DB,51.377287175309800,-0.304016345153816
Diving bird and Chicken,KT20 6LQ,51.294727203587500,-0.208077463211065
Peafowl and Chickadee,KT4 9AD,51.380010000000000,-0.242743000000000
Dorcopsis and Badger,KT11 2BJ,51.335013023219400,-0.389887834895115
Goose and Pitohui,KT17 2PU,51.354297098132300,-0.246857981503493
Peafowl and Coati,KT10 9BF,51.379766605486800,-0.343441469294354
Cuscus and Jerboa,SM5 2BS,51.376682540843600,-0.169430732857785
Grosbeak and Coati,KT18 5QP,51.307969526895700,-0.240431687102692
Scimitar babbler and Chipmunk,KT23 4FF,51.280154000000000,-0.360612000000000
Polecat and Argus,KT20 5DS,51.292806731847400,-0.237368349762324
Thrasher and Minke whale,KT12 3JY,51.376358250366500,-0.397087501347812
Marmoset and Crow,KT23 3HP,51.286680627125000,-0.384981915871743
Petrel and Hawk,RH2 9LA,51.244421394023700,-0.213944699645887
Ibex and Songlark,KT20 6QX,51.284898833504500,-0.218139696978614
Partridge and Meadowlark,RH3 7DR,51.239768816190400,-0.265140425883852
New World blackbird and Lemming,KT22 8JD,51.288609593141200,-0.332697975483448
Dorcopsis and Moluccan boobook,KT23 3HS,51.289412000000000,-0.389260000000000
Mink and Pitohui,KT8 2HD,51.397055684666400,-0.382463503271085
Booted eagles and Goose,KT19 8FZ,51.350302662966500,-0.270217268425186
Nukupuʻu and Parrotlet,KT22 7FY,51.309066000000000,-0.333119000000000
Tit-tyrant and Old World quail,KT11 2AW,51.332103774609700,-0.403483084207035
Chickadee and Macaw,KT20 5NP,51.305809409727800,-0.221260950821561
Dolphin and Tit-tyrant,KT5 9QR,51.381030919159700,-0.272206079125383
Pitohui and Triller,RH2 0SU,51.249893911528000,-0.182136357640005
Jackal and Thicketbird,KT10 9LN,51.365482174656200,-0.370704949971037
Hawaiian honeycreeper and Mockingbird,KT19 8DH,51.333499264154400,-0.265954000000000
Partridge and Fish eagle,KT3 5HS,51.400137685089600,-0.267173330226719
Parakeet and Polecat,KT23 3NP,51.285729431237400,-0.370847101044536
Solitaire and Marmoset,KT22 9AT,51.292776936675600,-0.333594035120547
Lemming and Ibex,RH5 4BS,51.235256349978100,-0.318254220872247
Eagle and Chicken,SM7 3JW,51.313550387270800,-0.169792214773066
Towhee and Vulture,KT12 4DL,51.351863000000000,-0.430915000000000
Towhee and Buzzard,SM4 4RJ,51.384578496241300,-0.214917525681615
American sparrow and Marsh harrier,KT6 6RH,51.382181317620700,-0.303548033949248
Badger and Viscacha,SM3 9HE,51.385105493036800,-0.212913740252824
Myna and Black cockatoo,KT19 9SB,51.353439993332200,-0.266494355041557
Puffleg and Partridge,KT10 8HQ,51.386397574277000,-0.359672082870045
Maya and Marmoset,KT22 7DG,51.305325131685300,-0.328792621568503
Thrasher and Piping shrike,TW16 6AR,51.396115212038400,-0.422314684427320
Mouse and Capuchin,KT20 7QU,51.274991000000000,-0.249176000000000
Ibex and Tahr,KT21 2RE,51.313442284521200,-0.307906896923816
Cloud rat and Old World vulture,KT21 2HL,51.313581216843700,-0.320055430903415
Pheasant and Chipmunk,KT20 6LA,51.291312509102500,-0.197697502440708
Darwin's finches and Booted eagles,KT22 0TN,51.341025303699800,-0.351977000000000
Chicken and Magpie,KT18 5AW,51.331498571488100,-0.266647230946291
Mouse and Jackal,KT22 8AQ,51.295573950468100,-0.326679650126502
Magpie and Cloud rat,RH1 1TX,51.241021466900000,-0.169494000000000
Old World quail and Thrasher,KT4 7QB,51.377190054209000,-0.269088929987227
Fish eagle and Moluccan boobook,SM7 3RD,51.330343475333700,-0.196110101356955
American sparrow and Puffleg,KT20 7SF,51.280968810397300,-0.249120652100437
Gull and Ice seal,KT9 1RU,51.371349552805600,-0.302597894535016
Civet and Francolin,KT18 5YE,51.335321050432800,-0.262440342312989
Parrotlet and Partridge,KT12 3AN,51.380735126211500,-0.397566888292606
Maya and Linsang,SM3 9TH,51.370825681940100,-0.220624604767166
Thicketbird and Minke whale,KT10 9NY,51.368849000000000,-0.365098000000000
Francolin and Wallaby,KT19 9PA,51.365675716910400,-0.273703428235772
Kākāriki and Pheasant,KT6 7HF,51.382131296359500,-0.285284951138396
Eagle and Skunk,KT10 0LR,51.359095168068100,-0.344876718048434
Argus and Argus,KT24 5RD,51.251050214758600,-0.431138868831182
Fulmarine petrel and Viscacha,KT17 3BF,51.322892030074000,-0.231608294772188
Pitohui and Marmoset,KT18 7RJ,51.333266473648200,-0.271877654180007
Jackal and Thrasher,SM4 5LP,51.398462840140900,-0.193776544994759
Elephant and Kite,SM2 6LQ,51.358342374977000,-0.192913375371984
New World blackbird and Buzzard,RH2 0EG,51.244321113065300,-0.195680826835130
Dorcopsis and Perching duck,SM5 3RZ,51.358935545081800,-0.169721789358554
Flameback and Meadowlark,KT18 6LU,51.276518000000000,-0.269018000000000
Dorcopsis and Eagle,KT18 6JL,51.306231523802600,-0.266193377851560
Quetzal and Armadillo,KT18 6DL,51.292384126951300,-0.272365972456206
Night heron and Darwin's finches,KT9 1BB,51.366790000000000,-0.304964000000000
Skunk and Puffleg,KT11 2TF,51.334412116309100,-0.409231202131107
Wader and Minke whale,KT19 8JT,51.337779630312600,-0.276072371163840
Thrasher and Argus,SM2 6TB,51.353465898964100,-0.196839301192906
Perching duck and Elephant,KT23 4NH,51.274449348924700,-0.374486209023538
Bronzewing pigeon and Linsang,SM2 5ES,51.357366251871400,-0.186775723201677
Scimitar babbler and Hawk,CR4 4BE,51.400161627394300,-0.169384811097973
Ground sloth and Moluccan boobook,KT17 4PY,51.330306005508000,-0.258998266572729
Egret and Perching duck,KT21 1DF,51.307077344911400,-0.295013467363801
Minke whale and Shearwater,SM4 4AX,51.384914467520000,-0.228887000000000
Treepie and Viscacha,KT20 5AH,51.290293656490800,-0.235901311740650
Vole and Solitaire,KT12 2NU,51.389221394521700,-0.419892871958434
Ibex and Kite,KT24 5AL,51.271533567724500,-0.430341039576044
Rat and Solitaire,CR4 4PH,51.398920000000000,-0.176660255665549
Perching duck and Rat,KT20 6SB,51.279074436019900,-0.216558429185278
Marmoset and B,KT6 6BL,51.391516784349700,-0.303633972950246
American sparrow and Pratincole,KT4 8QP,51.375292401449000,-0.234719331402039
Boto and Zebra,KT3 6EA,51.396214571767400,-0.249467830124969
Partridge and Puffleg,RH2 0PY,51.239036459566600,-0.191804681370740
Francolin and Hawaiian honeycreeper,KT3 5PD,51.385444611858700,-0.262971372562748
Prion and Argus,KT12 3EJ,51.382499963723200,-0.391828915563069
Petrel and Chicken,SM1 9LB,51.359919393000000,-0.193023744900000
Linsang and Eagle,KT11 3HR,51.321823154290500,-0.390837594133616
Logrunners and Gull,SM7 1AE,51.315413699154300,-0.212997137994143
Civet and Tahr,KT20 6JS,51.290329000000000,-0.187528000000000
Asiatic leopard and Songlark,SM5 2SS,51.378235000000000,-0.170878000000000
Rabbit and Crow,KT5 8AL,51.398369224557700,-0.297083000000000
Buzzard and Marmoset,SM7 3DB,51.323023953391600,-0.192062928707914
Dolphin and Quetzal,SM2 7PN,51.348154438997100,-0.217022606251262
Maya and Bronzewing pigeon,KT7 0AE,51.382859918463900,-0.324461078013733
Tit-tyrant and Pheasant,RH5 6BU,51.255426000000000,-0.333827000000000
Mole and Meadowlark,KT4 7EL,51.380138045720600,-0.247207240461394
Kestrel and Chicken,SM5 3EZ,51.358667775419300,-0.166400156634461
Maya and Logrunners,SM1 4NS,51.365032477161200,-0.182421917729127
Kite and Grackle,KT13 9SB,51.376424161141000,-0.433207712887093
Goose and Old World vulture,SM4 4NF,51.386092317498300,-0.226370500341631
Boto and Piping shrike,KT21 1BZ,51.304377892595100,-0.293664534955317
Zebra and Grackle,KT22 0SF,51.330096763720000,-0.366835012822151
American sparrow and Rabbit,KT22 9BL,51.289899748983500,-0.334257511496005
Old World vulture and Bronzewing pigeon,KT20 6UT,51.266965503881700,-0.205659814030024
Wallaby and Logrunners,KT5 9EF,51.395877909126300,-0.278949187416142
Goose and Songlark,SM1 1AG,51.361754000000000,-0.195379000000000
Viscacha and Greenbul,KT17 3AG,51.337440000000000,-0.250660000000000
Meadowlark and American sparrow,SM1 2PT,51.372372223612900,-0.200593676556018
Cuscus and Hawk,RH4 2HY,51.226931258003000,-0.334755925644868
Cuscus and Mamo,KT3 5AL,51.396066479741400,-0.260053450826309
Prion and Myna,SM5 2PW,51.368530160095300,-0.169109378167368
Badger and Siskin,KT22 8AH,51.295758648483700,-0.327648290972865
Kākāriki and Diving bird,RH1 6QH,51.230146291227500,-0.178130680947041
Moluccan boobook and Cuscus,KT17 1QW,51.345226919829000,-0.242882048057399
Moluccan boobook and Grosbeak,KT18 7RN,51.332272656634300,-0.272173408732790
Siskin and American sparrow,KT7 0AT,51.384784467174400,-0.331403985041355
Tattler and Rat,RH4 1GL,51.232543095600000,-0.338449496100000
B and Ibex,KT11 2LN,51.333304640845700,-0.412441998267682
Scimitar babbler and Guillemot,SM1 3JH,51.378609574211500,-0.200363460096544
Chipmunk and Armadillo,RH3 7LR,51.237718156163600,-0.281577271223583
Thicketbird and Myna,KT12 3FA,51.380092000000000,-0.400471000000000
Mink and Mamo,KT20 7LB,51.249255766190600,-0.313100988809170
Eagle and Vole,KT3 5RW,51.390835409205800,-0.262652238940122
Quetzal and Bunting,KT19 8HL,51.345928126461600,-0.282888788896832
Eagle and Greenbul,KT24 6QF,51.273345419429500,-0.435368695032182
Mouse and Chickadee,KT19 0QZ,51.363713302473900,-0.248724992632937
Gull and Francolin,KT23 3EE,51.279127307524200,-0.375912641610235
Magpie and Elephant,TW17 8EZ,51.397414660077400,-0.436745704734495
Grouse and Recurvebill,SM1 4FU,51.360776000000000,-0.190939000000000
Hawaiian honeycreeper and Skunk,CR5 3TE,51.309614852465400,-0.171281000000000
Triller and Parrotbill,KT22 9NH,51.289340293506600,-0.367965773153286
Condor and B,KT19 7DW,51.340229324344600,-0.289821025021982
Stint and Marsh harrier,RH4 1DR,51.233419655276400,-0.333819824748110
Hawk and Zebra,KT11 1BQ,51.342659000000000,-0.394688000000000
Black cockatoo and Chipmunk,KT12 4RJ,51.366161894068300,-0.399138634295440
Kestrel and Grouse,KT3 4BD,51.400454944530400,-0.250497000000000
Cuscus and Chickadee,RH4 3HN,51.229139000000000,-0.338114000000000
Black cockatoo and Ibex,KT7 0NX,51.388543005635200,-0.336441359988046
Petrel and Treepie,KT5 8JT,51.393657721167200,-0.290071851704258
Dolphin and Elephant,KT8 2QT,51.398428741529700,-0.379008079461969
Philippine hawk-owl and American sparrow,SM1 2BZ,51.373233625800000,-0.204468038700000
Argus and Perching duck,KT21 2FN,51.306777469446600,-0.305827908045563
Scimitar babbler and Magpie,SM2 5EY,51.356832143909100,-0.188290541750325
Mamo and Treepie,KT17 1JS,51.342964244170700,-0.253938351572828
Mamo and Wallaby,KT4 8HJ,51.386167207994800,-0.236097375680777
Meadowlark and Kākāriki,SM3 9SY,51.369899629203600,-0.215316048093259
Pratincole and Bunting,SM5 1RN,51.378554608898000,-0.173566344329736
Fox and Macaw,SM2 5EE,51.358488244588800,-0.184318384082338
Triller and Solitaire,RH1 1JB,51.239160056601200,-0.174279032805902
Petrel and Duck,KT18 5TU,51.306418937707400,-0.231222867707007
Wallaby and Coati,KT11 2DJ,51.324573000000000,-0.389966000000000
Prion and Moluccan boobook,KT7 0UR,51.385659385907900,-0.324028289820404
Mole and Maya,RH4 1ES,51.236263687796100,-0.339045963752786
Philippine hawk-owl and Parakeet,KT12 4LA,51.367960158223600,-0.394521930505159
Ground sloth and Piping shrike,SM3 8SD,51.356807957652600,-0.216011596240171
Badger and Booted eagles,KT20 6SA,51.275544000000000,-0.215548000000000
Treepie and Night heron,KT12 2AE,51.385660715311700,-0.408618959059166
Polecat and New World blackbird,KT6 4HL,51.398330641881000,-0.310310944091788
Diving bird and Masked owl,SM2 5FH,51.354653451600000,-0.182804064300000
Armadillo and Civet,SM5 2EB,51.373113539451900,-0.170075968840861
Fox and Asiatic leopard,SM7 1DG,51.317326153726200,-0.215749848992910
Civet and Mockingbird,SM4 6RR,51.389492270619300,-0.187633220881443
Herring gull and Ibex,KT9 1EJ,51.367921000000000,-0.305964535417683
Triller and Flameback,RH4 2WG,51.233194400089100,-0.330003456352451
Cuscus and Goose,KT23 4BQ,51.282852796177800,-0.360610181785009
Recurvebill and Wallaby,SM4 4DS,51.399750000000000,-0.207239000000000
Booted eagles and Vole,SM1 1QR,51.369977487545900,-0.196909070135699
Darwin's finches and Jackal,KT17 1BB,51.334656874111800,-0.264346051117477
Black jay and Coati,SM3 8QP,51.362786221279200,-0.217072125010879
Condor and Shearwater,KT11 2SU,51.329851316057900,-0.369872436241825
Kestrel and Mink,KT1 2JX,51.399685294959100,-0.303863703959451
New World blackbird and Tahr,SM1 3SS,51.372252149612700,-0.189880159316669
Kangaroo and Chickadee,KT20 7RT,51.283310489123300,-0.243955347888815
Stint and Grouse,SM3 8JG,51.367554555277800,-0.229672734956256
Myna and Viscacha,KT5 9DY,51.388494681738600,-0.278924391577593
Marsh harrier and Siskin,SM1 4RW,51.361832624438800,-0.185421464356329
Rat and Gull,KT17 1LP,51.339536385857500,-0.259868936033191
Ibex and Parakeet,KT24 6SS,51.265910760690600,-0.433514069902506
Piping shrike and Partridge,KT22 2JY,51.296060000000000,-0.333681000000000
Logrunners and Kangaroo,KT22 7HR,51.296870696605000,-0.327435756904546
Greenbul and Cuscus,KT9 2AS,51.362713282477100,-0.293077552019068
Solitaire and Black jay,SM4 5DQ,51.400243827853900,-0.198479339277409
Crow and Darwin's finches,KT22 7NS,51.303800072624400,-0.332836194040140
Kākāriki and Skunk,SM1 2RZ,51.365254920862400,-0.197985216333966
Polecat and Myna,SM1 2BH,51.359730324655300,-0.205557000000000
Asiatic leopard and Fox,KT10 0HG,51.359718374868100,-0.334282771807323
Elephant and Cuscus,RH4 1BL,51.231583213601900,-0.334315859121529
Vulture and Ice seal,KT19 0EA,51.362561877469000,-0.257746699525759
Scimitar babbler and Triller,KT9 1QA,51.367306025635800,-0.287979288812109
Night heron and Kākāriki,KT10 9LG,51.367349465668300,-0.367894817422887
Stilt and River dolphin,KT17 4NA,51.325024902059700,-0.252194133001176
Dolphin and Rat,KT6 6EX,51.390867218147500,-0.298526746828477
Parrotlet and Recurvebill,RH1 6GX,51.235239284631300,-0.172557679679734
Asiatic leopard and Moluccan boobook,KT20 5EP,51.298332252346600,-0.240025601235061
Black jay and Jerboa,KT12 5HG,51.364457049451700,-0.404685437213591
Darwin's finches and Mamo,KT13 0EJ,51.363686515267600,-0.437203000000000
Linsang and Thicketbird,SM5 4PQ,51.352990215799900,-0.173103921247994
Partridge and Black jay,KT22 7JZ,51.305304000000000,-0.336115000000000
Kangaroo and Fish eagle,CR5 3QU,51.298693715978000,-0.169751998096269
Grackle and Buzzard,KT17 4EJ,51.330706715303200,-0.255710265533344
Nukupuʻu and Fulmarine petrel,KT21 1PA,51.317667015569500,-0.303432005643544
White ibis and River dolphin,KT13 0BN,51.367540781856900,-0.436411000000000
Francolin and New World blackbird,SM2 7QA,51.349282616148100,-0.211392631362290
Warbler and Bronzewing pigeon,KT10 0BB,51.377461000000000,-0.333690755346622
Myna and Egret,KT3 4NA,51.399868080917600,-0.242427791449466
Maya and Ground sloth,RH2 9TB,51.242572101015400,-0.231925179424032
Dolphin and Peafowl,KT23 3QG,51.279909923638300,-0.385032970240496
Scimitar babbler and Shearwater,KT9 2NF,51.347613830725300,-0.307266013550046
Nukupuʻu and Thicketbird,KT21 9BT,51.309369959802800,-0.300423764441834
Tit-tyrant and Scimitar babbler,SM1 4RS,51.362624564074800,-0.184298455269960
Masked owl and Scimitar babbler,KT19 8AS,51.334238022082600,-0.267032006702523
Condor and Triller,KT20 5NJ,51.313516309894500,-0.217131680654495
American sparrow and Chipmunk,SM5 1EA,51.388738829027700,-0.171551096050453
Snipe and Philippine hawk-owl,KT22 7ES,51.300667623842000,-0.322549558962711
Vulture and Jackal,RH2 0LX,51.241537000000000,-0.196392000000000
Gull and Kestrel,KT17 9SQ,51.333125461023500,-0.265380037935546
Mouse and Pratincole,KT11 1DT,51.336611000000000,-0.436202000000000
Crow and Armadillo,KT17 2LB,51.335321050432800,-0.262440342312989
Grackle and Hawk,KT20 5LY,51.312530752562700,-0.217370767527925
Duck and Wallaby,RH4 9FW,51.233194400089100,-0.330003456352451
Dolphin and Grouse,KT22 0EE,51.320898808657100,-0.330580295903377
Kite and Rabbit,SM7 1ES,51.320823745436700,-0.216303003524539
Vole and Magpie,KT12 5PJ,51.371630357263300,-0.409119799214955
Wallaby and Tit-tyrant,KT12 2PW,51.387660772731200,-0.424200753201538
Fox and Logrunners,RH2 2BJ,51.241099000000000,-0.202988837703587
Duck and Chipmunk,KT17 3EP,51.344496335905400,-0.235558268158933
Tit-tyrant and Parakeet,KT4 7JW,51.374262000000000,-0.261958000000000
Chickadee and Jay,KT9 2JD,51.359864566301700,-0.306843173927439
Jerboa and Peafowl,RH2 7AP,51.236302440636800,-0.187141585926599
Kite and Solitaire,KT10 9PH,51.348942354071900,-0.388064111799511
Solitaire and Jay,KT24 5QL,51.262420532248300,-0.412735296547197
Pitohui and Pitohui,KT9 1DY,51.373639339006500,-0.302369532936546
Bronzewing pigeon and Jerboa,KT24 5LA,51.271918240724700,-0.401613118578624
Meadowlark and Goose,KT17 2PY,51.357294071235800,-0.248222940284642
Solitaire and Fulmarine petrel,RH2 7DA,51.236357579264400,-0.184317352285169
Petrel and Puffleg,KT19 7LR,51.350979239881100,-0.285773178123292
Night heron and Marmoset,SM5 2PH,51.367614774607500,-0.170956028646852
Puffleg and Booted eagles,KT7 0DW,51.379671113297200,-0.338602336308549
B and Hawaiian honeycreeper,KT19 9DD,51.343683129959800,-0.268441874258390
Parrotbill and Bronzewing pigeon,KT12 2DA,51.387810860302900,-0.407365858609175
Dorcopsis and Chickadee,KT17 1QA,51.347470878614400,-0.243801401405459
Eagle and Booted eagles,SM2 6PW,51.356304000000000,-0.194803000000000
Rat and Quetzal,KT4 7BZ,51.374040252215700,-0.253776451004061
Magpie and Zebra,RH2 0SR,51.238081526244000,-0.199277176176070
Lemming and Wallaby,KT10 9LY,51.358243807425300,-0.370746329146530
Diving bird and Darwin's finches,SM1 3PZ,51.371870514741500,-0.176289192616490
Jackal and Tree warbler,KT20 7NF,51.269969485137700,-0.258814000000000
Meadowlark and Black cockatoo,SM3 9AS,51.372788189634400,-0.220764035431075
Partridge and Parrotlet,KT9 2HT,51.357241130899600,-0.310746016262594
Lemming and Treepie,KT4 7NU,51.383540162799800,-0.250411346811879
Chipmunk and River dolphin,KT17 1XN,51.346201839725400,-0.256974356897441
Marsh harrier and Warbler,KT19 7EY,51.339228705553100,-0.288422554333988
Meadowlark and Perching duck,KT5 9AH,51.383345548895700,-0.275381188823862
Fish eagle and Night heron,KT22 7DS,51.306303871980500,-0.325543395850032
Rat and Triller,SM2 5JA,51.353663554732200,-0.178807498092181
Magpie and Thrasher,KT11 2LY,51.331023000000000,-0.411846000000000
Hawaiian honeycreeper and Pheasant,RH1 1DA,51.241740269291900,-0.171927550121485
Siskin and Grackle,SM2 6TZ,51.347966962955400,-0.196552562594036
Armadillo and Recurvebill,SM4 6NQ,51.383579298491200,-0.194894312230186
Eagle and Grackle,KT4 7LJ,51.380891478759700,-0.252495434996801
Thicketbird and Chipmunk,KT22 7PE,51.307892658569700,-0.332271818515208
Chicken and Philippine hawk-owl,KT21 2TS,51.304936973999500,-0.305536945642015
Buzzard and Solitaire,SM2 6NG,51.347790294623100,-0.200853117837288
Darwin's finches and Black cockatoo,KT21 2UD,51.304631994983500,-0.296911718413666
Civet and Capuchin,KT20 6AQ,51.311383988494600,-0.215291629343690
Grackle and Old World quail,KT4 7QS,51.376659597016700,-0.262413052005064
Herring gull and Marsh harrier,KT20 5TP,51.296395805776300,-0.228495506118462
Vole and Solitaire,KT18 5SN,51.309629275303900,-0.234198585448894
Kākāriki and B,KT9 1NT,51.369687387251800,-0.313908407282136
Magpie and Mockingbird,KT7 0XE,51.391041928076400,-0.322494910009689
Zebra and Francolin,KT12 3QX,51.387205507656700,-0.381560477162078
Thicketbird and Mouse,CR5 3TD,51.309223974765500,-0.169734790040535
Argus and Boto,KT20 6NL,51.283451000000000,-0.211556000000000
Ground sloth and Stint,SM2 7LS,51.348860023155900,-0.224993865645942
Armadillo and Civet,KT7 0QT,51.395821940682000,-0.335458596260366
Partridge and Herring gull,KT12 4NQ,51.368624462536200,-0.383321841568990
Herring gull and Chipmunk,SM3 9WS,51.382029188311500,-0.214628707120776
Elephant and Chipmunk,KT20 6JW,51.294046456140500,-0.194205462255535
Chickadee and Booted eagles,KT11 3BN,51.319537340187900,-0.388750610476189
Francolin and Kestrel,KT4 8SA,51.374375651711100,-0.227010135707167
Tree warbler and Argus,RH5 6EA,51.268894904441400,-0.324939527275569
Rabbit and Badger,KT23 4EE,51.275918323883800,-0.389029636381704
Fish eagle and Cuscus,SM5 1AY,51.384639952799600,-0.186129087743103
Parrotbill and Recurvebill,KT13 0JF,51.362688914210300,-0.434265371452198
Rat and Old World warbler,KT4 8FP,51.385117674070400,-0.230791580965605
Duck and Magpie,KT24 5BZ,51.281287019981000,-0.430754231643751
Asiatic leopard and Grosbeak,KT22 7NZ,51.306026000000000,-0.334965000000000
Buzzard and Chickadee,KT12 4RA,51.375524745140500,-0.390076148767484
Condor and Grosbeak,KT3 5JP,51.392157426949500,-0.258303000000000
Elephant and Jay,KT19 0HX,51.363054689029700,-0.266720238037117
Viscacha and Petrel,KT22 7LQ,51.297091749719000,-0.328431795202467
Guillemot and Jerboa,KT7 0UW,51.385281668311200,-0.326542722181492
American sparrow and Old World warbler,SM1 2TT,51.365203817378500,-0.202268104892154
Coati and Grouse,KT4 8LZ,51.375787417528500,-0.229383893882187
Logrunners and Kākāriki,KT10 8PY,51.372099156956000,-0.369306332572160
Booted eagles and Piping shrike,KT8 0PB,51.399252262735100,-0.360635488792505
Goose and Meadowlark,SM1 4LH,51.362946321674100,-0.184170812832874
Francolin and Old World quail,KT20 6ES,51.298067401957700,-0.213039657661970
Condor and Night heron,KT22 7BH,51.296861372956400,-0.331194173656927
Rat and Grosbeak,KT12 5BJ,51.361211365555800,-0.430696087325706
Coati and Kite,KT17 3EX,51.343240414013300,-0.232777886232678
Ground sloth and Elephant,KT12 2FL,51.397972000000000,-0.401990000000000
Wallaby and Piping shrike,KT20 5HY,51.300078144142400,-0.237721013484507
Kestrel and Black cockatoo,KT11 1BT,51.343960306808600,-0.413739426462915
Herring gull and Night heron,KT6 4SS,51.396528453989100,-0.301967963744402
Kestrel and Dolphin,KT18 7LY,51.328046515245300,-0.277083306511920
White ibis and Vole,SM4 6GA,51.386557089708300,-0.183336956172368
Grosbeak and Chicken,KT3 5RE,51.393069858722800,-0.258700989357182
Tit-tyrant and Moluccan boobook,KT18 5DB,51.332159000000000,-0.268646000000000
Minke whale and Scimitar babbler,KT6 5BS,51.379447551891300,-0.304166412704749
Mink and Black jay,RH2 7EP,51.236493621933000,-0.186131303593262
Grouse and Capuchin,KT17 2JH,51.365794996783900,-0.245413348642492
Rat and Bunting,KT5 8PG,51.390918048247300,-0.293364856315404
Parakeet and Coati,KT9 1QY,51.364632198687200,-0.305087201578566
Chipmunk and Capuchin,KT10 0PX,51.355198798242400,-0.345965031090612
Fish eagle and Booted eagles,SM5 3QX,51.362547319534800,-0.172967853655296
Flameback and Black jay,KT19 9NY,51.364863971824200,-0.272929503213044
Meadowlark and Prion,KT22 8PP,51.289487212860400,-0.322368984208108
Warbler and Guillemot,KT21 1ED,51.306884757584200,-0.297846961333266
Chickadee and Parrotlet,KT6 6QH,51.386096000000000,-0.302455000000000
Stint and Towhee,RH2 9DZ,51.243875482243700,-0.209409700266584
Asiatic leopard and Asiatic leopard,KT19 8BP,51.344170751324000,-0.283241642580207
B and Kite,KT20 6EP,51.296716243747300,-0.212519000000000
Flameback and White ibis,KT6 5DA,51.376279000000000,-0.305812000000000
Gull and Songlark,KT12 2DJ,51.391867447010300,-0.404795906022767
Ground sloth and Lemming,RH1 1FH,51.242762525944900,-0.168863976796390
Stint and Mink,KT19 9FS,51.343789000000000,-0.265226000000000
Gull and Mockingbird,KT11 3AZ,51.325637838262400,-0.394249201202672
Egret and Tit-tyrant,KT4 8QS,51.377098465333400,-0.237609878327647
Fox and Mole,KT7 0WB,51.382237652092200,-0.335060487817306
Logrunners and Dolphin,KT4 8TT,51.374221612663200,-0.232289198175369
Myna and Scimitar babbler,KT19 8SF,51.339645873498800,-0.270905531324977
Parrotlet and Bronzewing pigeon,SM1 1PG,51.368262607876000,-0.194749649317927
Chickadee and Macaw,KT17 2AQ,51.351918669038200,-0.247767350758322
American sparrow and Parrotbill,KT11 2DY,51.342204099031200,-0.372248387344893
Kangaroo and Cuscus,KT13 0HU,51.362975609338000,-0.434858895884116
Elephant and Magpie,KT6 7TJ,51.379472951578100,-0.298475082014838
Mamo and Petrel,SM1 2NJ,51.375212605137800,-0.202853111352897
Francolin and Shearwater,RH1 2DZ,51.253310000794800,-0.167642470844611
Kangaroo and Flameback,SM4 6LP,51.386108910218100,-0.198574592834694
Old World quail and Scimitar babbler,RH2 2TE,51.239537570948700,-0.205079724451592
Condor and Quetzal,KT17 9PE,51.335321000000000,-0.262416000000000
Condor and Thicketbird,SM7 1WW,51.321593000000000,-0.203027000000000
Perching duck and Nukupuʻu,KT20 5AF,51.290749942761800,-0.236342770975222
Asiatic leopard and Minke whale,RH2 7JJ,51.232299988690900,-0.196996198106037
Pratincole and Siskin,KT23 4EW,51.272809569939300,-0.389224376273341
Myna and Polecat,KT17 3DF,51.319606000000000,-0.239168000000000
Kite and Masked owl,KT4 7NS,51.385352694061600,-0.253159056139885
Mouse and Gull,SW20 9HQ,51.397219603652200,-0.220074995808098
Stilt and Snipe,KT20 7PF,51.260471622521100,-0.267671963829725
B and Elephant,KT4 7SE,51.384989072187900,-0.250485433650595
Coati and Rat,KT12 9GN,51.377262016672700,-0.409815530117664
Thicketbird and Bunting,SM7 1DP,51.321864000000000,-0.220830000000000
Capuchin and Kākāriki,KT5 8HQ,51.396611000000000,-0.286569000000000
Greenbul and Duck,SM1 2EQ,51.361641172887600,-0.198069594641040
Boto and Black cockatoo,RH1 6PR,51.235355939787700,-0.171965735779372
Mockingbird and Jackal,KT13 9QZ,51.372573855362400,-0.436456850338049
Stint and Civet,SM1 4PR,51.366091557170100,-0.185770286825423
Grackle and Parrotlet,SM2 6SL,51.354861869052800,-0.202242105294559
Ice seal and Magpie,KT21 2LQ,51.309093245800000,-0.318755869519350
Songlark and Dolphin,KT17 1BP,51.337029000000000,-0.259906000000000
Tattler and Treepie,SM1 2TS,51.364627972820800,-0.202247558709070
Hawaiian honeycreeper and Old World warbler,KT6 7AL,51.383981852913800,-0.291927096242871
Mink and Duck,RH2 0PW,51.239020404101800,-0.194842428068354
Asiatic leopard and Polecat,RH2 2GH,51.241098000000000,-0.203016000000000
Fish eagle and Condor,SM2 5QD,51.341545359000700,-0.188922091274355
Meadowlark and Philippine hawk-owl,KT6 7LN,51.374362731388200,-0.298305345378948
Treepie and Flameback,KT12 5LE,51.369291597349500,-0.411054106453393
Argus and Linsang,SM1 1SB,51.367421790375700,-0.198546628465033
Old World quail and Warbler,KT23 3HX,51.293578000000000,-0.392612385132628
Black jay and Ice seal,KT22 8TB,51.297414659767200,-0.320832096796426
Chickadee and Darwin's finches,KT10 8HE,51.380510649347100,-0.356045771000725
Old World vulture and Polecat,SM3 8AA,51.355391699829100,-0.222228028476662
Maya and Marmoset,KT23 4BN,51.276032518934100,-0.362903182022765
Elephant and Nukupuʻu,SM2 7HJ,51.345707767628900,-0.219343247935427
Thrasher and Parrotbill,KT22 9EA,51.286776065625800,-0.346717826906650
Jerboa and Mouse,KT12 5JH,51.366300206604500,-0.404003679303476
Condor and B,KT9 2GP,51.359089959097400,-0.315489701923257
Petrel and Wader,SM1 2SS,51.361416645521500,-0.197503838532109
Marmoset and Parrotlet,KT3 5AN,51.396821756534600,-0.261864816990607
Grosbeak and Zebra,KT21 2PB,51.307224481285700,-0.303111000000000
Thicketbird and Dorcopsis,KT4 8EW,51.377291660860200,-0.242689118250039
Tahr and Badger,KT21 2QR,51.310049000000000,-0.301451000000000
Rabbit and Kākāriki,KT12 2TU,51.385535475505900,-0.417964712703492
Hawk and Fulmarine petrel,KT13 0HY,51.364147132023000,-0.434373656339568
Kite and Kestrel,KT23 3PN,51.279445353600600,-0.374854729001315
Dolphin and Scimitar babbler,KT22 0UL,51.337052000000000,-0.347221982591019
Armadillo and Ground sloth,KT4 7HD,51.378667461833100,-0.250496554915057
Perching duck and Jerboa,KT8 2NF,51.395161224748500,-0.380072287003063
Kestrel and Scimitar babbler,RH5 6ED,51.268931770311300,-0.323117627268161
Viscacha and Petrel,SM5 2TA,51.375563000000000,-0.171950000000000
B and Lemming,KT4 8QF,51.380635876853500,-0.222945776832668
Asiatic leopard and Wallaby,KT12 1AA,51.386682764636100,-0.420353975221583
Cuscus and Egret,KT6 6QY,51.381769334120400,-0.306149936824526
Petrel and Francolin,KT4 8AP,51.384063229762700,-0.240302810986303
Snipe and Polecat,KT19 9SQ,51.359230273814900,-0.270196906581741
Tahr and Cuscus,KT17 4AL,51.335205846101600,-0.255184000000000
Siskin and Wader,SM5 2QR,51.372089498231100,-0.168421423430985
Linsang and Coati,KT9 2JU,51.357432270457700,-0.306545058438816
Quetzal and B,SM5 4NZ,51.351399423573600,-0.169706169742997
Piping shrike and Dorcopsis,KT23 3NN,51.287021898747200,-0.371962961831943
Crow and Ground sloth,CR4 4UY,51.390307593440600,-0.166456000000000
Meadowlark and Condor,KT12 3XE,51.377260063727200,-0.409815516443051
Towhee and Black cockatoo,KT22 0LX,51.328655000000000,-0.351801000000000
Snipe and Partridge,KT9 2SN,51.356745707052300,-0.313809098800070
Skunk and Petrel,KT10 8BZ,51.380689273439300,-0.360450951021918
Guillemot and Nukupuʻu,SM5 4ES,51.344560300692900,-0.176325314830462
Quetzal and Tahr,KT19 8RE,51.341537430842800,-0.272944954836113
Petrel and B,KT8 2NP,51.396892460408400,-0.372622375074943
Zebra and Kangaroo,KT4 8BL,51.383524000000000,-0.239634000000000
Gull and Lemming,SM5 4AW,51.347401314200000,-0.168113639100000
Fish eagle and Argus,KT12 1EE,51.382377260797800,-0.413834337690925
Vulture and Logrunners,SM2 6BX,51.344011234130500,-0.200713936858204
Myna and Dorcopsis,KT10 9TJ,51.374623146369600,-0.342822512554689
Boto and River dolphin,KT3 4YW,51.399285000000000,-0.255044000000000
Thrasher and Wader,RH2 0TX,51.266658168385600,-0.190950135898938
Viscacha and River dolphin,KT12 5EX,51.363886269939100,-0.408339520415124
Herring gull and Grosbeak,KT22 8BX,51.294900158081900,-0.331338000000000
Partridge and Black jay,RH2 7HX,51.230898733667400,-0.201777719265835
Minke whale and Guillemot,SM5 3ST,51.363637172796800,-0.165598362154951
Hawk and Piping shrike,KT17 3PB,51.317815233714700,-0.234372196090933
Vulture and Buzzard,RH1 2DR,51.244157776649700,-0.175284666582108
Pratincole and Francolin,KT22 8TT,51.299186242471700,-0.308961885148707
Viscacha and Masked owl,KT22 2JA,51.296060000000000,-0.333681000000000
Puffleg and Hawaiian honeycreeper,KT7 0QG,51.392841256163000,-0.332634515809202
Duck and Maya,SM3 9QP,51.377293000000000,-0.207672000000000
White ibis and Minke whale,KT13 9RL,51.376682150393100,-0.427739000000000
Mockingbird and Old World quail,KT6 6HU,51.392840268585200,-0.300020303627341
White ibis and Vulture,KT3 6PT,51.391252526394200,-0.247184984650809
Scimitar babbler and Mockingbird,SM1 1PX,51.370588079977000,-0.194514516968744
Coati and Moluccan boobook,KT12 1AL,51.387157000000000,-0.422775000000000
Vole and Condor,SM4 4LU,51.385204000000000,-0.224637000000000
Herring gull and Mouse,SM4 4PF,51.388266341770700,-0.214975229553507
Jackal and Zebra,KT10 8AS,51.379830253122600,-0.371072102061589
Shearwater and Argus,RH2 2FA,51.241099000000000,-0.202988844000000
Marmoset and White ibis,KT22 9EJ,51.292186137203300,-0.345835092333660
Coati and Kangaroo,RH1 6QT,51.234421788531200,-0.170885438510878
Mockingbird and Dorcopsis,SM3 9DG,51.369779774425800,-0.213352458502799
Pratincole and Dolphin,CR4 4BU,51.395547200394300,-0.171035268005241
B and Herring gull,KT11 2LA,51.330682000000000,-0.410653479842208
Egret and Ice seal,KT22 8RF,51.288861397877700,-0.316985108470208
Songlark and Dorcopsis,KT9 1JF,51.365472475212900,-0.297298922362521
Grosbeak and Tree warbler,KT12 3LP,51.381833986472900,-0.397039923902932
Recurvebill and Gull,SM5 1RQ,51.380178739644000,-0.174493231840548
White ibis and Mockingbird,TW17 8NE,51.391346732688200,-0.434868399003655
Meadowlark and Grackle,KT19 9DL,51.343435000000000,-0.261947000000000
Parrotbill and Vulture,KT17 4LG,51.328351334036900,-0.255756578873253
Parakeet and Scimitar babbler,RH4 9ZZ,51.233196000000000,-0.330003000000000
Eagle and Philippine hawk-owl,KT19 8BZ,51.344137409143200,-0.278405000000000
Grosbeak and Prion,KT12 1GD,51.385114747412600,-0.419734000000000
Kite and Partridge,SM7 1LF,51.328836168874200,-0.223398764719710
Crow and Snipe,KT11 3QD,51.315125018811700,-0.370121783731975
Guillemot and Black cockatoo,KT22 7RP,51.307481445716900,-0.333707089631649
Maya and Duck,KT21 1HF,51.304874426113200,-0.284564866231537
Fish eagle and Fish eagle,RH1 1NN,51.240956581496900,-0.167818212060255
Mouse and Herring gull,KT4 7DG,51.370320105954700,-0.263644360280966
Tree warbler and Masked owl,RH2 7BH,51.237545430063700,-0.205357816280511
Capuchin and Marsh harrier,SM1 3HA,51.383755935359300,-0.190604743859250
Meadowlark and Thicketbird,SM3 8NR,51.363640090331300,-0.215272087712350
Parakeet and Cuscus,KT19 7DG,51.340703786905100,-0.289674148410787
Black cockatoo and Linsang,KT20 7TT,51.280541001487400,-0.240978107883207
Grosbeak and Asiatic leopard,KT22 0UR,51.334532835375500,-0.350166000000000
Parakeet and Elephant,KT18 5PS,51.308272577576200,-0.243246555354924
Coati and Quetzal,SM2 5QF,51.342378279157500,-0.189865620625716
Kite and Ice seal,KT18 5JW,51.322630115518500,-0.255629177242794
Partridge and Ibex,KT10 8HB,51.379474796635000,-0.361701389036265
Perching duck and Parrotbill,KT6 5PJ,51.393189535260700,-0.315488118910784
Old World vulture and Peafowl,KT24 5BD,51.277226000000000,-0.429580031998010
Peafowl and Bunting,RH2 9SS,51.240179442885000,-0.207060431715094
Condor and Jay,KT22 9EN,51.291935842605800,-0.347852001123670
Parrotbill and Stint,KT10 1SX,51.369929428879900,-0.361898500021611
Moluccan boobook and Philippine hawk-owl,KT18 5JN,51.323527483054600,-0.258522990504788
Boto and Quetzal,SM2 6BL,51.341330431340300,-0.201235297796283
Maya and Chipmunk,RH1 6NP,51.228966429721100,-0.190767119055520
Linsang and Meadowlark,SM5 2ER,51.378496686228500,-0.172735213755037
Tattler and Dolphin,KT24 6TJ,51.258159518619800,-0.430853888251439
Darwin's finches and Cuscus,KT23 4NF,51.272463788134200,-0.373968494441163
Prion and Rat,SM1 3EN,51.374708060395400,-0.195185798779459
Eagle and Coati,SM5 2LP,51.375645686707700,-0.166957570383950
Jay and Night heron,KT6 4PJ,51.393397750424700,-0.303118806977289
Hawaiian honeycreeper and Dolphin,RH1 2BT,51.246771000000000,-0.167018641190376
Cloud rat and Kākāriki,KT12 1NH,51.372640015570700,-0.419271261593666
Marsh harrier and Treepie,RH4 9TB,51.235645383147200,-0.325316470260331
Pratincole and Guillemot,KT23 4HS,51.266015631320700,-0.393475449164006
Diving bird and Darwin's finches,RH1 6HU,51.227975173309300,-0.171542078712809
Perching duck and Masked owl,KT6 4HP,51.396415970606300,-0.310985240966354
Bunting and Pratincole,KT6 7JP,51.376012616598200,-0.285642898558805
Parakeet and Mink,SM3 8PU,51.360918000000000,-0.215425230945274
Mouse and Shearwater,KT22 8JQ,51.287408942982400,-0.325441958441463
Snipe and Jerboa,KT23 3DE,51.280372146824200,-0.383339146440564
Marsh harrier and Quetzal,KT5 9AF,51.388874264093900,-0.284572975859430
Stint and Pratincole,KT22 7QG,51.312053669161200,-0.332092262923383
Nukupuʻu and Cuscus,KT11 3HF,51.323519096582300,-0.399102417351206
Boto and Petrel,KT8 2RT,51.399093000000000,-0.381457000000000
Wallaby and B,SM1 4HY,51.365835896314600,-0.180881719273084
Greenbul and Ice seal,KT19 9QQ,51.341223068761900,-0.265060003599409
Stint and Recurvebill,KT9 2EH,51.359943368174800,-0.297389045995807
Civet and Parakeet,KT18 5DE,51.330990630856000,-0.263924663177882
Treepie and White ibis,RH2 0PR,51.241099000000000,-0.202988837703587
Tahr and Wallaby,SM1 2DF,51.358368562654600,-0.203972040406299
Coati and Grosbeak,KT11 2SQ,51.323600617447800,-0.382781290212594
Dorcopsis and Quetzal,KT10 8JL,51.384764680346200,-0.349052626746028
Condor and Chicken,KT19 8BG,51.342806622703200,-0.284656644438567
Viscacha and Jackal,KT12 2YD,51.394168596681300,-0.404069035793716
Kākāriki and Philippine hawk-owl,SM7 3AP,51.326657075111500,-0.195565797409445
Kestrel and Kangaroo,SM7 1BJ,51.319282000000000,-0.211857000000000
Buzzard and Boto,SM1 4LR,51.364604000000000,-0.180193344158453
Magpie and Jerboa,RH4 2BJ,51.232827054845200,-0.326321194371718
Bronzewing pigeon and New World blackbird,KT6 6EZ,51.391072432274900,-0.300114000000000
Wader and Linsang,SM1 3DJ,51.373093753080800,-0.184990625715807
Herring gull and Wader,RH4 3HQ,51.229139000000000,-0.338114000000000
Lemming and Petrel,KT17 2ES,51.356990496635000,-0.250173488226215
Booted eagles and Chicken,KT6 7LJ,51.375247297714700,-0.297913337512913
Stilt and Elephant,KT10 8DW,51.383058385412100,-0.361386614029513
Perching duck and Gull,SM4 4JN,51.392748815482000,-0.219386072513028
Mouse and Jay,KT12 5LF,51.370365477788900,-0.411333000877038
Duck and Greenbul,KT20 7SH,51.280323742943900,-0.246277421715298
Fish eagle and Masked owl,KT20 6BN,51.300938333253900,-0.220272943253515
Old World warbler and Black cockatoo,SM4 6BA,51.392328295016100,-0.175102093601401
Stint and Flameback,SM2 5FX,51.354202000000000,-0.186272000000000
Magpie and Songlark,SM4 5NR,51.389649110018400,-0.199556653926443
Hawk and Jerboa,SM3 9UL,51.375855541185700,-0.216090241085699
Marmoset and Grackle,KT6 7RU,51.383288586366600,-0.294956421130248
Tahr and B,KT22 8JB,51.289855657161800,-0.330530285783387
Pitohui and Thicketbird,RH2 0RX,51.237570428543200,-0.187722068988514
Darwin's finches and Fulmarine petrel,RH1 1QU,51.240633978842900,-0.171341038707523
Stint and Mouse,SM3 8DZ,51.362929962448000,-0.227136147377494
Logrunners and Vole,KT19 9DE,51.344947332862300,-0.268796277354457
Wader and White ibis,KT4 8XD,51.369436644542500,-0.233421676399169
Herring gull and Scimitar babbler,KT20 9EZ,51.292210055905400,-0.237047050180602
Puffleg and Snipe,SM1 4LX,51.362854596865700,-0.179419733440982
White ibis and Petrel,KT22 0QP,51.334208365492500,-0.363114423654188
Zebra and Linsang,KT5 8BY,51.399087946033600,-0.299874944602082
Jackal and Tree warbler,RH1 2AN,51.247120457837700,-0.174966807106378
Francolin and Linsang,SM1 1JG,51.363306502713900,-0.193508054276170
Gull and Recurvebill,KT20 7QN,51.276433000000000,-0.246411000000000
Tattler and Vulture,KT9 1PE,51.368207618294000,-0.307325606047314
Kestrel and Elephant,RH3 7LS,51.235458007678400,-0.281374982874499
Bronzewing pigeon and Pratincole,KT23 3LB,51.286929260816900,-0.378247438368679
Egret and Cloud rat,SM4 6JY,51.390644753522300,-0.189470592752506
Jerboa and Philippine hawk-owl,KT6 7JH,51.380372000000000,-0.281112000000000
Prion and Jerboa,SM1 4YQ,51.359917793408000,-0.193023738803492
Jackal and Skunk,KT24 6NX,51.281411914729000,-0.437403194095912
Marmoset and Argus,KT20 7TW,51.278981875901700,-0.243747616123752
Moluccan boobook and Bronzewing pigeon,SM5 2BJ,51.378292362655200,-0.165414889133258
Masked owl and Goose,KT17 2BX,51.360728658054800,-0.239186289104250
Snipe and Kākāriki,SM7 2QZ,51.326938663123800,-0.198669435771343
Ibex and Partridge,KT3 5QJ,51.392928683064800,-0.261911743041033
Tattler and Cuscus,KT21 2TP,51.304311000000000,-0.305689000000000
Shearwater and Civet,KT23 4PW,51.273471383269900,-0.365603444871715
Rat and Chipmunk,KT17 4NG,51.323023450882000,-0.251251217173172
Stilt and Greenbul,KT22 8NH,51.290726448604900,-0.324130902191486
B and Vole,KT22 7BU,51.301440461633100,-0.327542221437353
Grouse and Asiatic leopard,RH1 2EW,51.249457000000000,-0.167769555560447
River dolphin and Grosbeak,SM4 4JG,51.395916175958700,-0.217149968726037
Kangaroo and Siskin,KT8 0BW,51.393537907324800,-0.346896968446298
Black jay and Jerboa,KT6 5AR,51.376579318052900,-0.302950478986900
Marsh harrier and Argus,KT24 6RL,51.263353924422100,-0.431279009103478
Goose and Grackle,SM4 5SL,51.393583010931900,-0.196901095161248
Duck and Stilt,KT11 3PU,51.317649084300000,-0.380938501554461
Herring gull and Warbler,KT12 3AG,51.378084252274600,-0.402315038047595
Herring gull and Meadowlark,SM7 2FF,51.307388264268900,-0.190944000000000
Old World quail and Eagle,SM4 6AX,51.394013388280600,-0.174747550722075
Ground sloth and Perching duck,KT9 2QU,51.365693914449200,-0.312604178127242
Ibex and Viscacha,KT20 6NX,51.292371000000000,-0.215670000000000
Vulture and Moluccan boobook,KT24 5DL,51.277445512484000,-0.425938647286871
Myna and Tattler,SM1 4DL,51.366057535538700,-0.187639168275499
Viscacha and Tit-tyrant,SM4 6EQ,51.393348670652700,-0.176527663662982
Old World quail and Kestrel,RH1 2HD,51.246679480198400,-0.166315554780982
Prion and Tahr,KT18 6HN,51.305675487919800,-0.265080946095221
Gull and Mink,KT3 6EJ,51.395375118450300,-0.249859242511465
Ibex and Diving bird,KT5 9NB,51.386494199998700,-0.272532081174729
Goose and Herring gull,KT22 9RF,51.293742822724500,-0.356120309883860
Pratincole and Ibex,SM1 3EH,51.374777573821400,-0.193861173489084
Rat and Mole,SM4 5RA,51.395082448535100,-0.199673964546240
Parakeet and Marsh harrier,KT4 8PH,51.380111616832000,-0.222175730715041
Dorcopsis and Chipmunk,KT9 1BA,51.366461011897500,-0.305939081103485
Parrotbill and Tit-tyrant,SM1 2EJ,51.362920198502400,-0.206408357189312
Logrunners and Wader,SM5 3QS,51.360335850782700,-0.172438204449014
Logrunners and Towhee,KT17 3DY,51.343858471239600,-0.234405356615775
White ibis and Philippine hawk-owl,SM5 2TD,51.374235435896200,-0.173393406370734
Rabbit and Kākāriki,KT17 9LX,51.335322767000000,-0.262440350200000
Prion and Argus,KT10 1SS,51.369929428879900,-0.361898500021611
Lemming and Asiatic leopard,SM1 2BP,51.359228254900800,-0.209023092330507
Booted eagles and Goose,KT21 1BU,51.304226974832000,-0.294416132340257
Minke whale and Tree warbler,RH5 6DJ,51.264109985358900,-0.324253463756369
Masked owl and Booted eagles,KT20 5HW,51.301266296095600,-0.231794000000000
Chickadee and Songlark,RH1 6YS,51.235606991826100,-0.170766810184048
Ground sloth and Crow,KT12 1LL,51.377473000000000,-0.410167000000000
Civet and Stint,SM5 1QE,51.381344670345300,-0.178916059819648
Civet and Peafowl,KT3 6ER,51.396028860975200,-0.243667436181202
Asiatic leopard and Rabbit,SM4 4PS,51.382013317145800,-0.217129811953733
Quetzal and Stilt,RH4 2EW,51.229829087418500,-0.334909141662665
Hawaiian honeycreeper and Stint,KT17 4JG,51.326983179167300,-0.243636856719082
Meadowlark and Vulture,KT8 9LX,51.398464207983700,-0.345511835575818
Flameback and Goose,KT20 7LT,51.252823000000000,-0.281936746430333
Greenbul and Badger,SM5 2DP,51.373677730886500,-0.168774713088127
Vulture and Hawaiian honeycreeper,CR5 3DZ,51.300796305407300,-0.168391702083976
Minke whale and Myna,KT10 1TG,51.369929428879900,-0.361898500021611
Pitohui and Dorcopsis,SM7 1AW,51.319300000000000,-0.212365970734924
Crow and Grackle,KT10 0TE,51.361203135624100,-0.328670078588838
Boto and Piping shrike,KT8 9HU,51.399681502890500,-0.350384000000000
Grosbeak and White ibis,KT18 5RJ,51.305551000000000,-0.233781000000000
Snipe and Fish eagle,KT23 3AJ,51.279166601910400,-0.375221000000000
Hawk and Darwin's finches,KT18 5UH,51.315690958213300,-0.239016998649688
Meadowlark and Tit-tyrant,SM1 2TW,51.362794919761800,-0.201170165983405
Chickadee and Piping shrike,KT20 5NT,51.306692901432100,-0.220222497821605
Gull and Vulture,KT21 2NU,51.312521257279700,-0.310136134190220
Civet and Greenbul,KT10 8PZ,51.371947341792600,-0.372616183881221
Grackle and Zebra,SM7 2FA,51.307793000000000,-0.189276000000000
Mole and Viscacha,KT22 0WS,51.296132308201400,-0.333673360570952
Vulture and Cloud rat,RH1 6EL,51.233314039702000,-0.167906941643283
Solitaire and Zebra,SM5 2BL,51.377444667888200,-0.167561063369348
Mink and Diving bird,RH5 4AD,51.233248855911200,-0.321865444968555
Cuscus and Kangaroo,SM3 8HX,51.368570305995500,-0.228455517711127
Vole and Bronzewing pigeon,KT11 2HU,51.332299691523000,-0.400705811400866
Thicketbird and Pratincole,RH1 1SG,51.238769739369000,-0.168462000000000
Warbler and B,KT23 4HA,51.269574000000000,-0.384664000000000
Fish eagle and Grackle,KT11 2LX,51.330999321826600,-0.412866119423605
Masked owl and Vulture,RH1 1QY,51.241908676721900,-0.170044041777944
Towhee and Logrunners,SM1 3LB,51.378631815453400,-0.189081000000000
Francolin and Polecat,KT10 8BQ,51.381355337421700,-0.362424604912148
Eagle and Treepie,KT12 4RZ,51.367656048395100,-0.398583728218448
Black cockatoo and Triller,KT20 7NJ,51.269050813481600,-0.253157471670888
Shearwater and Parrotbill,RH4 1QT,51.233723041773800,-0.327978935688725
Thicketbird and Night heron,KT17 4JN,51.322581480314800,-0.248153650455378
Parrotlet and Masked owl,KT3 6QN,51.398453605067500,-0.238658064624245
Rat and Grackle,KT17 1RJ,51.348958640795400,-0.249474247883491
Parrotbill and Hawaiian honeycreeper,RH4 1DE,51.231838996491600,-0.333332621062651
Kangaroo and Polecat,SM1 4NP,51.364165000000000,-0.182623369882196
Thrasher and Grosbeak,RH1 2BD,51.248590338408200,-0.176957668371423
Herring gull and Pheasant,KT17 1SU,51.348949546197000,-0.247062079346965
Greenbul and Logrunners,KT9 2EQ,51.357057413403500,-0.299291377998515
Towhee and Capuchin,RH4 9JF,51.233196000000000,-0.330003000000000
Chicken and Guillemot,SM4 6RJ,51.389966476676800,-0.182253293476046
Fish eagle and Hawaiian honeycreeper,KT20 5RW,51.290917841857200,-0.227214752958212
Kākāriki and Capuchin,KT12 3AQ,51.378567604525900,-0.400832548072124
Recurvebill and Civet,KT19 9FE,51.346794943200700,-0.264820867241549
Kangaroo and Macaw,RH2 7EU,51.233293895564400,-0.185082545539072
New World blackbird and Goose,KT13 9SA,51.376294250512800,-0.432235091683331
Linsang and Cloud rat,RH2 7JG,51.232338294502600,-0.202409148984345
Meadowlark and Solitaire,RH4 1RQ,51.234873685586400,-0.326690993163502
Wader and Kite,SM1 2EN,51.362717688545600,-0.207278143674186
Kangaroo and Grosbeak,KT6 6JR,51.385867000000000,-0.296542000000000
Treepie and Treepie,SM2 5ST,51.344805661979400,-0.196820253260633
Myna and Shearwater,KT17 1EQ,51.340882000000000,-0.258339000000000
