name,postcode,lat,lon
Flameback and Boto,KA15 1AN,55.748144955615900,-4.638306763215720
Tahr and Francolin,KA1 4LU,55.589310214960900,-4.495695122705050
Flameback and Fulmarine petrel,KA13 6QR,55.652400771424200,-4.725336999313350
Crow and Badger,KA11 2EB,55.633766948107000,-4.624810388345480
Dorcopsis and Zebra,KA24 5LG,55.726587603561100,-4.738612000000000
Parrotbill and Hawaiian honeycreeper,KA20 4BA,55.644223395370800,-4.754189203494530
Towhee and Viscacha,KA11 2AY,55.634911848527100,-4.633038601674050
Dolphin and B,KA3 3EL,55.671904762452900,-4.580795118250330
Kite and Tree warbler,KA3 3FA,55.682031957519900,-4.529934267592950
Kākāriki and B,KA3 2SR,55.641202560143400,-4.525853341869590
Moluccan boobook and White ibis,KA1 4EU,55.597468000000000,-4.503388000000000
Thicketbird and Jay,KA20 3HY,55.636612158765100,-4.756880739906820
Thrasher and Greenbul,KA24 4HF,55.708321020902700,-4.650617253061550
Stint and Old World vulture,KA22 7NJ,55.656224384421700,-4.814337402080630
American sparrow and Towhee,KA15 2EG,55.757917005530300,-4.630693980567320
Hawaiian honeycreeper and Dolphin,KA11 3AY,55.614281570136900,-4.592617815790300
Magpie and Solitaire,KA2 9EZ,55.578368417377800,-4.599578955068310
Parrotlet and Argus,KA21 6DF,55.646654218369200,-4.789806967523020
Moluccan boobook and Ibex,KA24 4DN,55.704894455797900,-4.703856175299110
Skunk and Greenbul,KA12 0LD,55.613476351034600,-4.652516855101980
Mamo and Quetzal,KA1 1UF,55.600654437237500,-4.515434787250240
Kite and Night heron,KA3 5LW,55.707165115800500,-4.504941927850850
Perching duck and Peafowl,KA1 4QX,55.582589402393500,-4.496014254031130
Crow and Skunk,KA24 5HE,55.708880093858000,-4.738153890523090
Asiatic leopard and Dorcopsis,KA3 3BJ,55.677765273096400,-4.527256037946090
Darwin's finches and Warbler,KA20 3AQ,55.640963879067500,-4.754834431903300
Flameback and Cloud rat,KA1 2PG,55.614291467990300,-4.519294013125770
Hawaiian honeycreeper and Armadillo,KA14 3DA,55.743610017973200,-4.671367196707360
Parakeet and Polecat,KA13 6DN,55.650524498532400,-4.696767192923660
Armadillo and Argus,KA11 1JX,55.619433246561700,-4.632206773544740
Linsang and Boto,KA1 1GB,55.611444580898300,-4.497212791409170
Songlark and Herring gull,KA20 3BW,55.641856996729300,-4.763479666741220
Thrasher and Rat,KA21 5JJ,55.634263366017200,-4.784047337579170
Chicken and Stint,KA3 3BG,55.678220262544000,-4.523928975538980
Black cockatoo and Capuchin,KA3 5AS,55.682630515880700,-4.514445085106620
Prion and Puffleg,KA1 2LF,55.613010451119200,-4.519958219113880
Mouse and Cuscus,KA13 6DA,55.649895160098600,-4.700856995416900
Jerboa and Treepie,KA24 5AE,55.707814000000000,-4.718609000000000
Pitohui and Boto,KA15 2ET,55.751219528553500,-4.630322590174660
Perching duck and Snipe,KA12 9JP,55.624474441977600,-4.655198192998670
Vulture and Masked owl,KA25 6DW,55.746912625722900,-4.693823591121700
Solitaire and Cloud rat,KA13 7AF,55.656072135575600,-4.697514506069730
Rabbit and Black jay,KA15 2JT,55.759701678392300,-4.613199597829930
Rabbit and Zebra,KA12 8FA,55.605032000000000,-4.693812000000000
Booted eagles and Puffleg,KA24 5EG,55.709731443736100,-4.735045201233780
Wallaby and Goose,G78 4DA,55.765983201822200,-4.484178368062330
Condor and Stilt,KA22 7AW,55.649114281005200,-4.804908963214210
Badger and Diving bird,KA3 7DP,55.606404264425600,-4.474059895538540
Kangaroo and White ibis,KA12 0XW,55.619332823178800,-4.668034067122150
Zebra and Condor,KA11 3DB,55.623969466579200,-4.611335448907560
Philippine hawk-owl and Marsh harrier,KA11 2GF,55.633979177860700,-4.651647213765730
Old World quail and Macaw,KA13 6UY,55.659099531486600,-4.713082502684910
Petrel and Partridge,KA12 9AP,55.628180583036400,-4.667904763823720
Francolin and Macaw,KA13 6EF,55.654071635368800,-4.698966670711900
Gull and Parrotbill,KA12 8QF,55.608182336938600,-4.679360746873310
Chickadee and Old World vulture,KA2 0BZ,55.618646000000000,-4.547457570290680
Capuchin and Coati,KA21 5AW,55.641694726547000,-4.797194365996750
Diving bird and Civet,KA12 2TD,55.613202753991000,-4.674208324647040
Fulmarine petrel and Darwin's finches,KA12 9ET,55.625812943103000,-4.661039677044560
Herring gull and Marsh harrier,KA23 9HQ,55.692767401732700,-4.862034322363570
Masked owl and Ibex,KA21 5TB,55.640453444999400,-4.792496831927720
Vole and Skunk,KA15 1EQ,55.750647000000000,-4.630619000000000
Skunk and Black jay,KA11 1DB,55.612879513850000,-4.619665976356320
Fulmarine petrel and Mouse,KA3 1PX,55.624065171119100,-4.509929519637930
Parrotlet and Cloud rat,KA21 5AH,55.639247223101000,-4.790201879426910
Jerboa and Vole,KA1 4SY,55.585803972838200,-4.503423000000000
Petrel and Eagle,KA12 8RS,55.620971538222500,-4.668733182642670
Petrel and Ibex,KA1 1SJ,55.601695305790900,-4.507626883470090
Mole and Vole,KA12 9LL,55.627325966551700,-4.655931286348140
Skunk and Civet,KA22 8JN,55.645661406818800,-4.806919106718400
Recurvebill and Pitohui,KA20 3PB,55.632396688972700,-4.744444830665360
Mole and Magpie,KA12 9HU,55.626378378633300,-4.660664960855090
Pratincole and Black jay,KA11 2AP,55.653112000000000,-4.612529000000000
Armadillo and New World blackbird,KA25 7DL,55.756312625181700,-4.682835935921800
New World blackbird and Badger,KA23 9PJ,55.711742000000000,-4.838921584278890
Flameback and Pitohui,KA13 6PW,55.657479008920000,-4.711571168836480
Stint and Wallaby,KA24 5HR,55.723167644731800,-4.753233380140280
Marmoset and Macaw,KA13 6HZ,55.647772456314400,-4.703365359127990
Thrasher and Linsang,KA14 3AQ,55.741734000000000,-4.681995306250460
Piping shrike and Mamo,KA3 5AB,55.681014281089700,-4.514802664788960
Fish eagle and Ground sloth,KA15 1JT,55.736789583633300,-4.627120937527890
Jerboa and Magpie,KA20 3LB,55.633881684429200,-4.750380427097680
Condor and Pheasant,KA1 4RU,55.588675150841100,-4.499511399212180
Myna and Mouse,KA12 9NN,55.627355137791200,-4.657903268169190
Mole and Badger,KA15 1JN,55.737981909062100,-4.650270681562950
Fulmarine petrel and Cloud rat,KA3 5JF,55.668879814160300,-4.495448778827160
Tahr and Dolphin,KA11 1RE,55.630335478966600,-4.634765206219340
Herring gull and Peafowl,KA11 5DD,55.599752000000000,-4.638715000000000
Linsang and Egret,KA3 1HY,55.619095319466500,-4.497572364414560
Peafowl and Stint,KA13 7EG,55.660287755644400,-4.696294071698260
Triller and Cuscus,KA1 2RR,55.610517156157600,-4.510492721521220
Asiatic leopard and Wader,KA3 2HL,55.633492780957600,-4.497662504683110
Duck and Philippine hawk-owl,KA15 1AT,55.746033984496000,-4.633638579872270
Capuchin and Songlark,KA13 7NY,55.652399414870800,-4.685879209785610
Masked owl and Solitaire,KA21 5EQ,55.631614638768900,-4.785496000334190
Tahr and Coati,KA22 8BN,55.642364000000000,-4.808695000000000
Pitohui and Coati,KA21 6BG,55.644730153463800,-4.785871221492860
Fox and Siskin,KA3 2ET,55.629185053659300,-4.492034357026420
Viscacha and Wallaby,KA21 5PU,55.637706241605600,-4.781272221621460
Masked owl and Eagle,KA15 2LW,55.758606093272800,-4.565401243352200
Tit-tyrant and Duck,KA3 1LJ,55.622085228933600,-4.495522910554310
Lemming and Masked owl,KA3 7SH,55.610956000000000,-4.483223000000000
Parakeet and Grosbeak,KA25 7AB,55.754387001095700,-4.685397340929490
Puffleg and B,KA15 2DE,55.755739864259700,-4.633719240318470
Old World warbler and Treepie,KA23 9AL,55.694330048065900,-4.859013263888400
Chickadee and Mamo,KA1 3RJ,55.588453516557700,-4.486991206741880
Pheasant and Peafowl,KA3 5EF,55.677953567629000,-4.509325031418940
Buzzard and Grackle,KA3 2RX,55.637072000000000,-4.531340000000000
Meadowlark and Lemming,KA21 6HL,55.647116873964600,-4.777743199379120
Stint and Shearwater,KA22 8NY,55.652999676754400,-4.819320545368830
Lemming and Gull,KA12 0UE,55.624767068347300,-4.663669406617710
Kangaroo and Stint,KA22 7EW,55.652616445910200,-4.800739860123090
Triller and Ibex,KA21 5RG,55.640011865561300,-4.775523566506440
Tit-tyrant and Hawaiian honeycreeper,KA22 8HN,55.643847059197200,-4.813131177899890
Jay and Old World vulture,KA13 7HB,55.655245730950600,-4.704834624072270
Marsh harrier and Macaw,KA13 7ER,55.661610331693300,-4.703588327424010
Gull and Mink,KA23 9QN,55.712349039993100,-4.837466100085980
Jay and Condor,KA13 6LH,55.652990291448800,-4.712532522839540
Coati and Zebra,KA3 5EU,55.685848189660800,-4.514890341276650
Duck and Parrotlet,KA25 6AR,55.750585704186100,-4.690283787168170
Egret and Polecat,KA1 1HA,55.609261480985100,-4.497904000000000
Mole and Kite,KA13 6RJ,55.655120980092000,-4.714142633013700
Grackle and Warbler,KA13 7PD,55.652362994421800,-4.690820819639540
Solitaire and Old World quail,KA20 4DA,55.643143641039200,-4.745546000000000
Civet and Rabbit,KA1 4UJ,55.588005114740400,-4.505912229030940
New World blackbird and Triller,KA1 3LQ,55.604855452982500,-4.474645062918400
Moluccan boobook and Wallaby,KA20 3HQ,55.638343525268100,-4.754237203640430
Grackle and Grouse,KA1 3LH,55.605157182616500,-4.477061553269840
Tree warbler and Stilt,KA24 5JD,55.714405665003700,-4.720484171906210
Kākāriki and Coati,KA20 4HU,55.648093141451500,-4.744367048705960
Wader and B,KA22 8DP,55.638592328576400,-4.811784853411740
Prion and Hawaiian honeycreeper,KA12 9AG,55.629155094540700,-4.669798132734770
Maya and Philippine hawk-owl,KA13 6UW,55.661796978696100,-4.713202000000000
B and Marmoset,KA13 6LD,55.646702687409300,-4.724893281423120
Rat and Duck,KA1 3LX,55.594097488856700,-4.492776947056560
Greenbul and White ibis,KA15 2JR,55.765301285838300,-4.597452000000000
Tahr and Fish eagle,KA11 2EZ,55.633744000000000,-4.614973000000000
Kākāriki and Buzzard,KA3 4AN,55.712417277024800,-4.535002870109700
Chipmunk and Masked owl,KA23 9EQ,55.694954323446500,-4.859997884717760
Capuchin and Parakeet,KA3 7LS,55.611353768743400,-4.476436091191540
Warbler and Mole,KA3 1HL,55.616226659404400,-4.502487983576090
Tit-tyrant and Dorcopsis,KA1 4ED,55.591604970755100,-4.496443984570770
Moluccan boobook and Mole,KA1 2HR,55.609338060028000,-4.515832158830890
Bunting and Armadillo,KA3 4BS,55.686808502234800,-4.579899826400520
Skunk and Jay,KA15 1LP,55.743339125081700,-4.649790249888710
Black cockatoo and Duck,KA1 2QW,55.611651885670200,-4.504673738693710
Skunk and Moluccan boobook,KA13 6HW,55.646834026965300,-4.700264668402890
American sparrow and Logrunners,KA13 7JG,55.656455982360000,-4.687810656026690
Night heron and Coati,KA24 5EW,55.707601920719400,-4.735007769374090
Marmoset and Eagle,KA1 2HG,55.602731097387800,-4.518044507088170
Greenbul and Partridge,KA1 4QU,55.581788655814000,-4.495170014364430
Greenbul and Marmoset,KA1 3UJ,55.584579389927400,-4.486555668168100
Magpie and Parrotbill,KA3 2JZ,55.632672026752900,-4.487632239726480
Black jay and Kangaroo,G78 4AD,55.764319345770300,-4.493988496725650
Stint and Greenbul,KA24 5ET,55.709780966155900,-4.723521875422380
Old World vulture and River dolphin,KA11 2FH,55.629360094089600,-4.648744617722930
Kestrel and Flameback,KA12 9HR,55.628010416060000,-4.658773796786500
Fish eagle and Piping shrike,KA23 9DZ,55.690703991192800,-4.852207841142750
Recurvebill and Booted eagles,KA22 7PT,55.658650668511800,-4.811236096734770
Elephant and Wallaby,KA12 0BF,55.621829835448200,-4.666409518517590
Recurvebill and Francolin,KA3 6FT,55.633437206093800,-4.484471203802760
Marmoset and Crow,KA20 3JY,55.634923337424700,-4.753631590964410
Jackal and Moluccan boobook,KA15 2BW,55.755241573273900,-4.635996802224210
Scimitar babbler and Vole,KA1 4UQ,55.588145048626700,-4.505222843920910
Chipmunk and Jerboa,KA24 5EN,55.708026099654100,-4.734527973600190
Fulmarine petrel and Thrasher,KA2 0JD,55.608487397836900,-4.553490203840530
Kangaroo and Tree warbler,KA24 5EX,55.711550354489600,-4.721559326704650
Parrotbill and Asiatic leopard,KA3 4AS,55.711867840216500,-4.532881627130420
Goose and Pheasant,KA13 7JE,55.656307400110000,-4.690487407294100
Warbler and Diving bird,KA2 9BP,55.581608350404600,-4.602776457332720
Pratincole and Thicketbird,KA1 3RT,55.586769734738300,-4.486694229643900
Herring gull and Shearwater,KA12 0JH,55.613048605284100,-4.655251313627170
Solitaire and Old World warbler,KA1 1UX,55.599509108022100,-4.509043111752650
Scimitar babbler and Jerboa,KA1 4EJ,55.590998267954800,-4.501071734811480
Chickadee and Duck,KA2 9BL,55.583207000000000,-4.589282000000000
Old World quail and Zebra,KA13 6BW,55.651919244645000,-4.701600528449390
Masked owl and Black jay,KA1 4SR,55.584215423156300,-4.500465602387100
Elephant and Night heron,KA13 6UD,55.660066656744000,-4.716091077270640
Puffleg and Parrotbill,KA23 9LD,55.689220150840900,-4.860342789573210
Rabbit and Pheasant,KA11 2DN,55.635421906426400,-4.640668413108580
Mamo and Booted eagles,KA12 2SJ,55.613202753991000,-4.674208324647040
Petrel and Shearwater,KA21 5QS,55.641305673083500,-4.783085021933510
Badger and Petrel,KA13 6UG,55.658511037773800,-4.712866867558540
Vole and Grosbeak,KA1 2BB,55.608950000000000,-4.503191465220330
Stilt and Ice seal,KA13 7AP,55.659762855452700,-4.699724269776790
Pratincole and Linsang,KA3 7PQ,55.619380244441100,-4.472431577491950
Tree warbler and Eagle,KA22 8PT,55.649399174368600,-4.809348659268810
Cuscus and Wallaby,KA12 9NY,55.625629113163500,-4.654593195107950
Pitohui and Grouse,KA21 5LY,55.635242859981200,-4.786039657962830
Eagle and Black jay,KA3 1UE,55.620410952299700,-4.512730348055330
Skunk and Snipe,KA12 0UA,55.623584726490900,-4.663890992194850
Vole and Chickadee,KA22 8GA,55.640223867193600,-4.816288321967400
Pheasant and Stilt,KA23 9BG,55.697149346207100,-4.856067756706070
Hawaiian honeycreeper and Recurvebill,KA12 0TW,55.620272139592100,-4.667001892173820
River dolphin and Condor,KA11 2BJ,55.633829294938500,-4.635730753632250
New World blackbird and Dolphin,KA21 5NB,55.637034680668900,-4.791045675311660
Black cockatoo and Tit-tyrant,KA12 2TX,55.613210474186000,-4.674209577304810
Jackal and Moluccan boobook,KA3 3DG,55.680733962603900,-4.524949999189790
Dolphin and Tit-tyrant,KA20 3LP,55.632075524001600,-4.749951910792510
Shearwater and Marmoset,KA1 4PQ,55.588439759636900,-4.493417954958680
Chicken and Crow,KA11 1JE,55.615965678510900,-4.629178980213290
Night heron and Night heron,KA3 4AT,55.712372386825000,-4.533694429115440
Vulture and Francolin,KA1 1SW,55.600904000000000,-4.508561000000000
Armadillo and Petrel,KA24 4HS,55.719800000000000,-4.683706000000000
Kangaroo and Egret,KA3 3DJ,55.678973126523600,-4.524470618925750
Zebra and Jay,KA1 4EG,55.590209351883200,-4.498767787078280
Solitaire and Gull,KA12 2UA,55.615784000000000,-4.668296000000000
Parakeet and Diving bird,KA13 6NB,55.648177007962700,-4.718001537704160
Partridge and Meadowlark,KA3 1HH,55.612936007456900,-4.497244115222140
Boto and Puffleg,KA11 2GH,55.634893000000000,-4.650199000000000
Recurvebill and Old World warbler,KA13 6SG,55.653540982085900,-4.710392595261250
American sparrow and Zebra,KA3 1US,55.620363404645900,-4.514172719378610
Myna and Ground sloth,KA1 3HP,55.605182817261500,-4.493528043637550
Tit-tyrant and Vole,KA22 8BD,55.644365651434500,-4.803440774190520
Dorcopsis and Parrotlet,KA1 3SJ,55.592217946394200,-4.491499051367620
White ibis and Jerboa,KA23 9JJ,55.690900800868300,-4.856884957649690
Argus and Mole,KA3 1JY,55.620027700673800,-4.499013545209030
Partridge and Quetzal,KA21 6JJ,55.647293497437600,-4.783827919332460
Quetzal and Pitohui,KA1 1JG,55.611054704879900,-4.497184000000000
Shearwater and Jay,KA1 2LQ,55.612879038621100,-4.518917542039950
Francolin and Diving bird,KA22 8DT,55.640301463467000,-4.810556464052260
Macaw and Moluccan boobook,KA3 1EB,55.616961000000000,-4.495104674273910
River dolphin and Mouse,KA3 5AE,55.680634337657400,-4.514921443049230
Goose and Fox,KA3 4BP,55.700129000000000,-4.576528000000000
Perching duck and Triller,KA11 4JL,55.607466882552300,-4.620575237862730
Partridge and Masked owl,KA13 6TF,55.648037078009000,-4.712142178063920
Tit-tyrant and River dolphin,KA11 2DX,55.627745742018300,-4.618449959965790
Macaw and Recurvebill,KA3 5BE,55.682530250859700,-4.517143161035620
Capuchin and Logrunners,KA11 1LA,55.612051000000000,-4.635349471296430
Old World warbler and Hawk,KA3 5HS,55.677934011847600,-4.511598481034120
Nukupuʻu and Masked owl,KA12 2TG,55.613202753991000,-4.674208324647040
Flameback and Darwin's finches,KA21 6BS,55.644968000000000,-4.785580000000000
Tree warbler and Francolin,KA21 5SQ,55.641758163846500,-4.786012000000000
Grosbeak and Rat,KA11 1JY,55.618821662670600,-4.633897076992010
Wallaby and Zebra,KA3 7HW,55.613327547250100,-4.471272310116920
Chicken and Badger,KA13 6PE,55.657062885097200,-4.712909737057170
Ground sloth and Bronzewing pigeon,KA3 6AE,55.635844802214800,-4.475645924854560
Marsh harrier and Dorcopsis,KA12 0PW,55.619714834937900,-4.657068241388520
Booted eagles and Fox,KA13 6PB,55.657553447496800,-4.715629000000000
Parakeet and Diving bird,KA3 4BH,55.710902000000000,-4.523907373949990
Diving bird and Cloud rat,KA3 4AR,55.714481491629700,-4.533846959759210
Parakeet and Mockingbird,KA20 4HD,55.644775027840900,-4.746026300342280
Chicken and Philippine hawk-owl,KA29 0AT,55.763912000000000,-4.854313000000000
Myna and Bronzewing pigeon,KA22 7PX,55.657524730623500,-4.812904355432030
Parakeet and Duck,KA3 1AR,55.614064000000000,-4.492647000000000
Snipe and Recurvebill,KA12 8PS,55.610456494781900,-4.676069868026400
Duck and Herring gull,KA11 1EW,55.615627973187700,-4.624804623108720
B and Shearwater,KA3 6FW,55.634243828859700,-4.484585836119620
Darwin's finches and Masked owl,KA22 7AP,55.649025463342500,-4.804075983432890
Coati and Shearwater,KA11 1EB,55.614870260615000,-4.621148765877050
Thicketbird and Egret,KA1 9EY,55.599202773521100,-4.493149172945690
Mamo and Jerboa,KA12 9PD,55.631771197095500,-4.659441743697060
Parrotlet and Wallaby,KA3 7PG,55.620223750174900,-4.472500584891190
Egret and Eagle,KA2 0HN,55.611409602400600,-4.553013250277270
Vole and Viscacha,KA12 0LQ,55.616890676485300,-4.648840347906570
Piping shrike and Lemming,KA23 9FE,55.679551000000000,-4.855064000000000
Francolin and Quetzal,KA11 4BL,55.607559417253200,-4.609497904880720
Piping shrike and Parrotbill,KA3 2JS,55.632441106349600,-4.484392245563130
Elephant and Black cockatoo,KA3 1PY,55.625346364154700,-4.508375225463090
Zebra and Scimitar babbler,KA22 8DJ,55.640806134530700,-4.804219402910400
Flameback and Civet,KA11 1NJ,55.626977182241600,-4.632093151624660
Polecat and Parakeet,KA13 6RL,55.655513477076400,-4.715902782915360
Ice seal and Chickadee,KA24 5BB,55.709478749599700,-4.709968160462260
Skunk and Hawk,KA2 9JG,55.574338470103200,-4.589111060313840
Magpie and Dolphin,KA11 1RD,55.629650937577200,-4.634830458792130
Night heron and Old World warbler,KA12 9JL,55.624517765593500,-4.653612524287700
Piping shrike and Kangaroo,KA22 8JF,55.644215973377800,-4.808802485448980
Flameback and Duck,KA2 0DE,55.619966008921100,-4.546993842884300
Petrel and Siskin,KA3 5JY,55.711142143964700,-4.488384561851270
Triller and Jerboa,KA20 3EX,55.636485000000000,-4.754053000000000
Buzzard and Scimitar babbler,KA3 6FF,55.633783321824000,-4.479805872728930
Duck and Pheasant,KA3 7BB,55.613128180402800,-4.483360771873700
Chickadee and Thrasher,KA3 2BE,55.636979156744100,-4.527106903026540
Dolphin and Civet,KA12 0EZ,55.611946507790300,-4.661719728529760
Thicketbird and Songlark,KA12 2TF,55.613202753991000,-4.674208324647040
Logrunners and Ice seal,KA13 6JL,55.650161832608200,-4.703848032255370
Elephant and Scimitar babbler,PA12 4BU,55.767518000000000,-4.623718000000000
Francolin and Mole,KA12 8HZ,55.609536696245500,-4.672084820263220
Perching duck and Snipe,KA13 6DG,55.664350698524900,-4.714225265474540
Zebra and Wader,KA24 4AE,55.705152162528000,-4.723502133072950
Ground sloth and Diving bird,KA13 6HF,55.651050612476100,-4.717723833202940
Old World vulture and Ground sloth,KA20 3DE,55.646978925069600,-4.737914967378010
Tahr and Wallaby,KA13 6SY,55.650264464778900,-4.711819348896840
Guillemot and Egret,KA1 3HY,55.615200000000000,-4.500421000000000
Wader and Puffleg,KA21 5TE,55.639933514374600,-4.790854631154400
Guillemot and Tit-tyrant,KA1 5LN,55.579929963739500,-4.470235761857480
Ice seal and American sparrow,KA20 4JP,55.646638306849200,-4.743502251063390
Grouse and Grackle,KA11 1PD,55.628838998327100,-4.627848930705020
Jackal and Minke whale,KA13 7LG,55.654126912633400,-4.682929221277600
Marmoset and Masked owl,KA3 1UP,55.628929060012000,-4.481612098701530
Myna and Warbler,G78 4BH,55.759100871637300,-4.541603050636350
Flameback and Booted eagles,KA3 4BW,55.710672285732100,-4.565345721232970
Mouse and Marmoset,KA12 9PA,55.630858789447300,-4.659236905639960
Moluccan boobook and Nukupuʻu,KA1 2EJ,55.608185747915000,-4.508025396666590
Jackal and White ibis,KA3 5PA,55.682186627283500,-4.508466717467040
Songlark and Old World vulture,KA24 4EU,55.683675779014200,-4.686496611004240
Old World warbler and Kākāriki,KA2 0DL,55.615798178533300,-4.586778032308250
Goose and Nukupuʻu,KA12 0BW,55.613779461078200,-4.659684078054940
Recurvebill and Kākāriki,KA1 2NP,55.613728000000000,-4.508197804412850
Mink and Petrel,KA3 1TW,55.624826103689200,-4.489803692854570
River dolphin and Myna,KA1 3NJ,55.596953485471800,-4.484036896678530
Black cockatoo and Parrotbill,KA1 4UH,55.589724647061700,-4.506656717217880
Vole and Vulture,KA11 4AZ,55.608817059938500,-4.612487409361240
Meadowlark and Marmoset,KA11 1BA,55.624690976135700,-4.636419672364530
Treepie and Dorcopsis,KA20 4BL,55.644713688422700,-4.751569231042270
Mouse and Parakeet,KA2 9JL,55.576886350094400,-4.589342298501930
Prion and Meadowlark,KA22 7EP,55.653222896610100,-4.800163151872490
Capuchin and Marsh harrier,KA12 0PG,55.615976918643100,-4.654099343149200
Old World vulture and Stilt,KA29 0EW,55.751204211591900,-4.857485066655590
Chickadee and Parrotlet,KA11 4HR,55.612018145669000,-4.642206927647990
Hawk and New World blackbird,KA22 8HT,55.643339966739600,-4.814859079843050
Argus and Grosbeak,KA11 1BU,55.629906215309100,-4.639677582125580
Scimitar babbler and Grouse,KA1 2DS,55.606114305232200,-4.508226560350480
Night heron and Booted eagles,KA13 7HU,55.655648710855000,-4.681984055228210
Recurvebill and Siskin,KA22 8EL,55.640310640313900,-4.814466838155040
Rat and Condor,KA1 3PB,55.594344201874700,-4.487713222062570
Mink and Wallaby,KA3 5LN,55.709983000000000,-4.515279000000000
Gull and Mockingbird,KA11 4HF,55.606970237931900,-4.628656143327160
Bronzewing pigeon and Wader,KA3 6GG,55.632510187267800,-4.480980600657370
Songlark and Towhee,KA12 9AT,55.629084645422100,-4.670969045764540
Linsang and Tahr,KA3 1PR,55.624586057196200,-4.506436278378580
Tahr and Dolphin,KA20 3DQ,55.641155246743500,-4.757517934792100
B and Guillemot,KA3 2SN,55.641358409459400,-4.529629839236960
Myna and Mamo,KA22 8JS,55.646079739890700,-4.809063149847600
Hawaiian honeycreeper and Tahr,KA23 9LB,55.691457129733300,-4.861556581515670
Masked owl and Peafowl,KA12 0SH,55.622391929918700,-4.659663000000000
Elephant and Ice seal,KA1 3XJ,55.602470095690700,-4.488577070678370
Solitaire and Badger,KA1 2SD,55.604510308869500,-4.524937000000000
Grackle and Minke whale,KA14 3BQ,55.738481743352200,-4.674888204171320
Kite and Badger,KA3 7LB,55.620355967809300,-4.469062195883150
Kite and Warbler,KA12 9BP,55.629971806773900,-4.671919177718210
Puffleg and New World blackbird,KA21 5ED,55.633043964618900,-4.787075259513600
Viscacha and Tattler,KA12 0BD,55.614349237594700,-4.662835530090790
Snipe and Pratincole,KA1 2HQ,55.603467682862100,-4.518504522735710
Hawaiian honeycreeper and Fox,KA1 1LL,55.609692000000000,-4.496235411138400
Mockingbird and Mole,KA3 2LS,55.639540423126900,-4.541478933923180
Eagle and Night heron,KA15 2ED,55.758177639606400,-4.629436318879190
Grouse and Jackal,KA3 2SG,55.639928632099900,-4.527916686625270
Fox and Wader,KA13 6RW,55.654621427799700,-4.715999966365880
Peafowl and Philippine hawk-owl,KA1 1RP,55.596721572301300,-4.515675095198960
Polecat and Bronzewing pigeon,KA1 1HW,55.610265000000000,-4.498733352432710
Crow and Partridge,KA15 1AL,55.748225726868600,-4.639985521349290
Petrel and Guillemot,KA3 1RW,55.621243415141500,-4.489624105045160
Solitaire and Fulmarine petrel,KA13 7JS,55.655246609258500,-4.686392252983320
Piping shrike and Masked owl,KA13 7HW,55.661785082696300,-4.708704716433800
Grosbeak and Chipmunk,KA13 7LH,55.653909309224200,-4.683836416131660
Mouse and Chipmunk,KA15 2ER,55.751734275171100,-4.626850979933820
Scimitar babbler and Jay,KA24 9AB,55.707420000000000,-4.719564000000000
Lemming and White ibis,KA2 9DN,55.578966000000000,-4.603220000000000
Capuchin and Tit-tyrant,KA14 3BX,55.737526678916400,-4.663415523967220
Stilt and Old World quail,KA3 2QT,55.640989855891500,-4.532244161344280
Dolphin and Hawaiian honeycreeper,KA1 3QY,55.592905290645800,-4.491733099511480
Lemming and Buzzard,KA12 0UW,55.623960693165400,-4.670572673415620
Chickadee and Bunting,KA21 6AR,55.645497259128500,-4.782174470519160
Fulmarine petrel and Night heron,KA11 1DZ,55.616379715145600,-4.621598957764270
Grouse and Fulmarine petrel,KA12 0JU,55.614629434743600,-4.648243094974970
Linsang and Wader,KA3 2LY,55.629303767948100,-4.535779625770130
Chipmunk and Kite,KA3 7QE,55.619106554260900,-4.478862839487320
Stint and Skunk,KA23 9LX,55.682523000000000,-4.858835000000000
Parrotbill and Booted eagles,KA12 8SN,55.626154943287000,-4.685750874239170
Hawaiian honeycreeper and Old World quail,KA12 8BU,55.637751000000000,-4.677832000000000
Mole and Lemming,KA3 5QS,55.687085039004300,-4.500109168140540
Elephant and Black jay,KA23 9JH,55.691790890468900,-4.857650148027360
Marmoset and Kite,KA1 2BG,55.609994514088300,-4.500691000000000
Philippine hawk-owl and Badger,KA15 1EZ,55.746358281550300,-4.631509158130320
Warbler and Petrel,KA2 9ET,55.580736644887900,-4.600227461116450
Philippine hawk-owl and Linsang,KA3 2PS,55.644500114728100,-4.500032230894920
Kangaroo and Asiatic leopard,KA11 3AX,55.614039000000000,-4.588822000000000
Mole and Triller,KA23 9GA,55.694922837051200,-4.848432000000000
Viscacha and Stint,KA2 9AS,55.572676920984000,-4.583512470814700
Hawaiian honeycreeper and Fulmarine petrel,KA3 7PP,55.617027139735500,-4.478128027926810
Stint and Parakeet,KA12 8JE,55.604033575835300,-4.674647815484660
Ice seal and Dorcopsis,KA11 1NX,55.627911226434100,-4.628358744419600
Magpie and Perching duck,KA21 5AJ,55.639873592076800,-4.793091263156810
Peafowl and Francolin,KA3 4EL,55.725915000000000,-4.510682000000000
Pheasant and Condor,KA21 5LL,55.634862398006500,-4.785377005265790
Kangaroo and Marmoset,KA21 5EB,55.633746735753400,-4.788189840852270
Goose and Dolphin,KA21 6JF,55.646329646095300,-4.783521060346090
Herring gull and Siskin,KA24 5AQ,55.707384270645500,-4.718101445953910
B and Darwin's finches,KA13 7DJ,55.658797040028100,-4.700723053868870
Gull and Linsang,KA29 0BE,55.771342279875500,-4.846154145188500
Darwin's finches and Snipe,KA24 4HG,55.708939526991500,-4.656931745383090
Jerboa and Darwin's finches,KA1 4HE,55.596123043392300,-4.497477101586140
Treepie and Elephant,KA25 6AH,55.752182670244200,-4.690011267653830
Recurvebill and Rat,KA25 6JE,55.744255263996700,-4.689162676045590
Prion and Thicketbird,KA25 6HS,55.747213604217500,-4.685828512706470
Myna and Songlark,KA1 3DL,55.605273347517300,-4.489516789971760
Condor and Booted eagles,KA15 1AX,55.746568254170400,-4.639315774035640
Magpie and Hawaiian honeycreeper,KA22 8AY,55.642555541688000,-4.802405420088760
Fulmarine petrel and Macaw,KA3 5JB,55.676524428701400,-4.510203777386670
Diving bird and Perching duck,KA11 4FP,55.605562000000000,-4.654280000000000
Francolin and Black jay,KA24 5BL,55.709055359071500,-4.714890139102850
Argus and Quetzal,KA3 2LB,55.632903002558100,-4.489537631789770
Macaw and Pitohui,KA1 1PT,55.608965715205300,-4.497118685412060
Kestrel and Siskin,KA2 0FJ,55.607316000000000,-4.538881000000000
Crow and Buzzard,KA20 3NL,55.634828000000000,-4.752274000000000
Skunk and Chicken,KA12 0NF,55.617587007911300,-4.657781915137160
Shearwater and Marsh harrier,KA22 8AG,55.641025805340200,-4.801294830583850
Moluccan boobook and Condor,KA24 5HS,55.714719000000000,-4.757224000000000
Marsh harrier and Ice seal,KA3 4BU,55.702935000000000,-4.554922000000000
Guillemot and Tahr,KA11 4JB,55.605816268496000,-4.622942114625220
Old World quail and Chickadee,KA24 5JH,55.716511742965400,-4.721984178842200
Mole and River dolphin,KA1 4LY,55.590282000000000,-4.493969987848740
Jay and B,KA13 6RF,55.656432301170700,-4.717031691312160
Parrotlet and Vulture,KA12 9BL,55.629885422794100,-4.673819886444320
Old World warbler and Old World quail,KA20 4HZ,55.649426971402600,-4.742203102085010
Towhee and Duck,KA22 8DS,55.639602554136600,-4.811634774888800
Kangaroo and Stilt,KA3 2HJ,55.632569548937600,-4.497095304122020
Elephant and Fulmarine petrel,KA3 1DR,55.614328500139600,-4.494072000000000
Booted eagles and Kangaroo,KA23 9AW,55.695700274032300,-4.855373124710640
Tattler and Solitaire,KA20 4ED,55.648132785117500,-4.746611159488860
Tit-tyrant and Condor,KA3 2JY,55.633357515530800,-4.487071923720150
Skunk and Zebra,KA22 8HY,55.643733671257100,-4.809451405665300
Gull and Triller,KA20 3HW,55.636961847547400,-4.752519257699700
Logrunners and New World blackbird,KA24 4DJ,55.705365000000000,-4.702933000000000
Parakeet and Badger,KA3 3HP,55.683703264151300,-4.522611839607480
Thrasher and Warbler,KA3 2TJ,55.641313722958000,-4.525256595864870
Vole and Egret,KA24 5DE,55.707717077353200,-4.730239773515270
Chipmunk and Pitohui,KA3 5AX,55.683354062029100,-4.510275595946760
Dolphin and Herring gull,KA12 0HY,55.614803856551100,-4.657212339481210
Night heron and Black jay,KA12 0HZ,55.614221437556700,-4.656712349039280
Scimitar babbler and Prion,KA13 6LY,55.650002440397400,-4.716347656264940
Asiatic leopard and Kangaroo,KA13 7HP,55.660989654648800,-4.706868825935760
Wallaby and Grackle,KA25 7AQ,55.756297786716100,-4.686803910214430
Black cockatoo and Macaw,KA1 3QE,55.596185776095700,-4.477559492760580
Ice seal and Warbler,KA25 7LA,55.765943000000000,-4.695612000000000
Parakeet and Gull,KA25 7EX,55.762328574319600,-4.688063839850420
Black jay and Egret,KA11 4DD,55.608929634898500,-4.617322267630820
Cuscus and Eagle,KA11 3AQ,55.612671606206700,-4.585857416408930
New World blackbird and Fish eagle,KA12 0EN,55.613002895897100,-4.657360441265490
Meadowlark and Dorcopsis,KA12 8DS,55.610307246600900,-4.670549221556880
Petrel and Cloud rat,KA13 6QW,55.651519808220000,-4.725339349840280
Mouse and Fulmarine petrel,KA1 2PN,55.611428649426600,-4.513822283883190
Wallaby and Maya,KA3 1TE,55.619372393904900,-4.512092075888200
Puffleg and Warbler,KA1 9FW,55.599195000000000,-4.493128000000000
Wallaby and Grosbeak,KA25 7HE,55.764095193392600,-4.690305884297990
Jackal and Darwin's finches,KA12 9DT,55.627899923316600,-4.666757675653590
Dorcopsis and Pratincole,KA12 0NP,55.618667193579100,-4.654392414761230
Peafowl and River dolphin,KA21 5HW,55.633194925346500,-4.785179166860400
Ice seal and Lemming,KA1 2PB,55.614653499409200,-4.516109202366520
Capuchin and Tahr,KA1 4UF,55.592229018709000,-4.505943484127870
Parakeet and Thrasher,KA12 0AD,55.615085311849700,-4.665587000000000
Kestrel and Fox,KA12 9AD,55.627452158551400,-4.670397202713070
Jackal and Jackal,KA1 1LE,55.599195323090600,-4.493148014720030
Rat and Grackle,KA21 6AN,55.643814238137700,-4.783453778748660
Jay and Grosbeak,KA20 3NS,55.630154573413800,-4.745018884930310
Minke whale and Moluccan boobook,KA2 0LL,55.600265910393900,-4.522093524348880
Darwin's finches and B,KA11 1DG,55.613179316843300,-4.623719817316210
Bunting and Minke whale,KA1 3PT,55.595585512161100,-4.483236107310090
Tahr and Wader,KA3 1SL,55.623211702825500,-4.494053706709140
Badger and Hawaiian honeycreeper,KA23 9BA,55.697088141615000,-4.853675825262780
Rabbit and Wader,KA15 1LQ,55.719008292539000,-4.571609187304580
Petrel and Songlark,KA13 7AJ,55.657716509247500,-4.699583326585780
Meadowlark and Kākāriki,KA12 0SD,55.623626744562600,-4.661542764202550
B and Vole,KA12 9DU,55.627039660980500,-4.667461796680010
Kangaroo and River dolphin,KA12 0SE,55.623646820107000,-4.662687894534190
Grouse and Shearwater,KA3 2LL,55.633591761244600,-4.491472115095520
Partridge and Darwin's finches,KA11 4FD,55.608699000000000,-4.621750491989070
Grosbeak and Philippine hawk-owl,KA3 1TR,55.625333172205300,-4.490947849917510
Puffleg and Treepie,KA3 3AR,55.682581368646000,-4.518594159130140
Mockingbird and Zebra,KA1 3HG,55.605825327806800,-4.493314789310820
Black jay and Civet,KA3 1HG,55.614305816960100,-4.497950597924960
Polecat and Partridge,KA2 0ED,55.621880780316200,-4.546117363637310
Viscacha and Guillemot,KA1 3TG,55.589403079110100,-4.481385336609100
Dorcopsis and Moluccan boobook,KA24 5HD,55.708944116739000,-4.737298654932690
Tit-tyrant and Elephant,KA21 6NF,55.667574412240200,-4.768664874296090
Coati and Tahr,KA3 1EA,55.616114807924600,-4.494746373900090
Pitohui and Linsang,KA3 3HF,55.682867044602100,-4.526121610172610
Moluccan boobook and Parrotbill,KA25 7HN,55.761528867010800,-4.685585617982790
Bronzewing pigeon and Zebra,KA11 2GR,55.635304000000000,-4.613770000000000
Diving bird and Solitaire,KA3 5HL,55.679722000000000,-4.514720000000000
Wallaby and Peafowl,KA14 3BJ,55.738340316133900,-4.666099806801070
Herring gull and Dolphin,KA3 7DL,55.607087417445000,-4.472721530504600
Duck and American sparrow,KA12 0NR,55.619589770378300,-4.652882282997880
Old World warbler and Myna,KA21 5TD,55.640238897129600,-4.791655119111030
Kestrel and Civet,KA14 3AY,55.738967610802000,-4.672802424389880
American sparrow and American sparrow,KA1 3PN,55.593733309688200,-4.485039665766830
Grosbeak and Meadowlark,KA24 5EU,55.710944222112800,-4.722754000000000
Rat and Logrunners,KA22 8HP,55.644680836840000,-4.812443928616890
American sparrow and Marmoset,KA2 9AR,55.572261329757700,-4.573363604058340
Ice seal and Elephant,KA21 5DG,55.633481976564600,-4.792318387024320
Kite and Crow,KA13 6SU,55.649847494570800,-4.710757235238180
Peafowl and Kangaroo,KA21 6DP,55.647766895390700,-4.793446854926980
Jerboa and Fulmarine petrel,KA21 6HT,55.647361358746200,-4.777267747600020
Grosbeak and Piping shrike,KA13 7JY,55.655155811799700,-4.681505174220260
Hawk and Parrotlet,KA24 5AZ,55.708940807627600,-4.715598615291110
Stint and Cuscus,KA24 4ES,55.685032877174300,-4.705730348180430
Myna and Diving bird,KA1 3QS,55.593505530905000,-4.487406165334890
Pitohui and Tit-tyrant,KA11 1BT,55.630862271064700,-4.637438066823950
Macaw and Duck,KA3 7RH,55.617776000000000,-4.478922000000000
Marmoset and Philippine hawk-owl,KA12 9LX,55.628868709044500,-4.660230075094790
Perching duck and Condor,KA1 3SA,55.588656378527700,-4.488067382664840
Wader and Civet,KA3 1AL,55.620126000000000,-4.494600000000000
Coati and Myna,KA1 2QZ,55.611041000000000,-4.506898656398570
Scimitar babbler and Peafowl,KA11 1HG,55.614013489925700,-4.636369692799890
Thicketbird and White ibis,KA3 2SY,55.639273421631200,-4.526126410332830
B and Grackle,KA12 8EL,55.612342283337500,-4.669560068466680
Booted eagles and Kite,KA1 2NR,55.615650048022200,-4.513902660256970
Pitohui and Scimitar babbler,KA13 6ES,55.647745813090000,-4.697227810215720
Ice seal and Condor,KA22 8HU,55.643755469625500,-4.814204000000000
Vole and Vulture,KA21 5BP,55.637801000000000,-4.793377671896620
Vole and Marmoset,KA3 2TS,55.635170994177100,-4.526307178084500
Bronzewing pigeon and Minke whale,KA1 3PS,55.595669868382900,-4.482177910401950
Prion and Black jay,KA3 5BG,55.680067000000000,-4.518051000000000
Diving bird and Mamo,KA24 4JE,55.724808581716900,-4.680721623039680
Wallaby and Grouse,KA21 5QP,55.641462777182300,-4.779329417919710
Eagle and Parakeet,KA20 4DJ,55.645932607222900,-4.746918011913210
Gull and Dorcopsis,KA22 7NY,55.657143000000000,-4.813091394737040
Crow and Mockingbird,KA3 2RR,55.639611385400100,-4.534141621515770
Hawaiian honeycreeper and Moluccan boobook,KA1 9FG,55.599202773500000,-4.493149172900000
Mamo and Quetzal,KA3 1HJ,55.613075317809400,-4.496141329154440
Booted eagles and Coati,KA20 4HS,55.648306828960600,-4.743253384276610
Tattler and Crow,KA13 6TA,55.649571473210500,-4.712264208788870
Wallaby and Civet,KA21 5JF,55.634541956355100,-4.776916311197210
Magpie and Solitaire,KA3 1AT,55.613558437624300,-4.494044007890260
Chickadee and Vulture,KA22 8NW,55.652672000000000,-4.818327000000000
Crow and Wallaby,KA13 6RX,55.654113758648600,-4.719033164866590
Badger and Goose,KA13 6HU,55.648117920520400,-4.698699920777130
Perching duck and Dolphin,KA23 9PF,55.702144457484600,-4.846133092929360
Marmoset and Quetzal,KA3 5JA,55.676101304662400,-4.511115134065150
Capuchin and Thrasher,KA24 4EB,55.713791299156500,-4.701907623842620
Kangaroo and Pitohui,KA2 0BW,55.601164000000000,-4.586814000000000
Dorcopsis and Flameback,KA2 9HQ,55.573922488971400,-4.589654820080130
Jerboa and Linsang,KA14 3AH,55.741999790839700,-4.680498745468250
Nukupuʻu and Buzzard,KA15 1LJ,55.720953853600000,-4.575702396835080
Herring gull and Vulture,KA21 6LN,55.644398250572400,-4.778313572184540
Shearwater and Boto,KA24 4HQ,55.712861620228300,-4.648472952723820
Pitohui and Quetzal,KA21 5HH,55.633137796751500,-4.785715375088830
River dolphin and Coati,KA15 1HT,55.741355384482400,-4.588200178422750
Asiatic leopard and Kestrel,KA2 9ED,55.580300289447400,-4.596439000000000
Wader and Grosbeak,KA1 4UD,55.590365010500000,-4.506110314492350
Guillemot and Cloud rat,KA1 3QW,55.591514080914600,-4.485438978093870
Old World vulture and Duck,KA23 9NF,55.680813609756200,-4.858869597112720
Masked owl and Egret,KA12 0QQ,55.622141134382100,-4.655024465097480
Herring gull and Eagle,KA3 5JL,55.677801000000000,-4.514191954182840
Stilt and Old World vulture,KA1 3UW,55.584704524704900,-4.484817978841500
Duck and Solitaire,KA13 6TT,55.655508552189300,-4.726252609897570
Boto and Parrotbill,KA24 4AB,55.707423320168600,-4.719584715862240
Ibex and Warbler,KA11 2BP,55.632361451936000,-4.637109834491380
Snipe and Vulture,KA1 9UG,55.605741691861000,-4.478750367570490
Tree warbler and Jackal,KA25 7ES,55.761877030325700,-4.688160289016240
Partridge and Old World quail,KA25 7JE,55.756413973289300,-4.681488017997650
Capuchin and Tahr,KA3 5DJ,55.680718988514300,-4.509470383417830
Fox and Bunting,KA1 3TN,55.588502183961400,-4.481487166255600
Civet and Elephant,KA13 7JF,55.656696355586000,-4.689146771649640
Minke whale and Capuchin,KA1 3AX,55.605729465087600,-4.490514236030630
Masked owl and Fox,KA2 0LR,55.599107904698500,-4.520272922486140
Tit-tyrant and Skunk,KA12 9NJ,55.628129643196000,-4.656176329061920
Stint and Stint,KA21 5JY,55.637412854870800,-4.782713467762630
Marsh harrier and Tattler,KA11 4JN,55.607799012664900,-4.618914218709360
Vulture and Snipe,KA11 5AU,55.586270761112700,-4.646125687369300
Scimitar babbler and Argus,KA3 4EH,55.730861085379100,-4.479110854960630
Grosbeak and Tit-tyrant,KA12 8HJ,55.604220822005700,-4.666467592027170
Triller and Dorcopsis,KA3 7NB,55.612432597532500,-4.476869372961790
Stint and Minke whale,KA25 7HB,55.764006659050900,-4.687780804843940
Duck and Kangaroo,KA3 7PY,55.619330969537400,-4.479321736528290
Chickadee and Grackle,KA11 2EE,55.636094897500600,-4.621454331465510
Kestrel and Mockingbird,KA1 9SW,55.605734267663900,-4.478749216910940
Civet and Grackle,KA12 0EF,55.610899515460100,-4.657361021200640
Thrasher and Vole,KA15 1JE,55.743622928956500,-4.642941060142460
Fox and Jackal,KA12 0AJ,55.615329736059500,-4.666110260662980
Black jay and Linsang,KA20 3EH,55.640592028362200,-4.757780304072660
Logrunners and Marmoset,KA1 2LB,55.611745560420300,-4.519400641589570
Fish eagle and Piping shrike,KA25 7EB,55.751881030728600,-4.682021525833700
Francolin and Cuscus,KA2 9BQ,55.583556362311700,-4.575674012027720
Night heron and Black cockatoo,KA1 4PR,55.586526306293200,-4.494248767691810
Philippine hawk-owl and Ground sloth,KA3 1HA,55.614732745101900,-4.498613011339140
Fulmarine petrel and Solitaire,KA12 0PE,55.616513096428600,-4.654659721953310
Scimitar babbler and Jackal,KA22 7EQ,55.655109886305900,-4.802555618195300
Coati and Prion,KA3 1QU,55.622952251451600,-4.513797765185040
Kākāriki and Herring gull,KA20 3JL,55.638685901496300,-4.761941000000000
Jay and Condor,KA22 8EW,55.640379388445100,-4.814996246935140
Myna and Armadillo,KA1 3RF,55.590381983085000,-4.486303796822270
Jackal and Masked owl,KA23 9FG,55.692841000000000,-4.857195000000000
Buzzard and Dolphin,KA3 7UF,55.621692507432400,-4.479883873611030
Eagle and Old World warbler,KA21 6AQ,55.647648926876200,-4.787175417466970
Grosbeak and Hawaiian honeycreeper,KA13 6TE,55.648665000000000,-4.711804000000000
Logrunners and Elephant,KA3 7EN,55.610432366567400,-4.478442322794980
River dolphin and Skunk,KA13 7QA,55.645076396987600,-4.681642446261640
Meadowlark and B,KA3 7DD,55.606909916058100,-4.478394703223310
Nukupuʻu and Minke whale,KA11 5DP,55.601562568606300,-4.641711000000000
Bunting and Capuchin,KA3 2TB,55.640640688821400,-4.523131000000000
Pitohui and Stilt,KA1 2EW,55.607556935666700,-4.513110000000000
Parrotlet and Songlark,KA25 6HE,55.749374548425900,-4.692638725267480
Grouse and Jackal,KA3 2LD,55.632576202235200,-4.490581428301590
Rabbit and Chicken,KA24 4BT,55.706403005652300,-4.717762643573430
Cloud rat and Marmoset,KA15 1LH,55.727471085450600,-4.561064381615900
Black cockatoo and Warbler,KA23 9JX,55.691978000000000,-4.860161343804370
Shearwater and Grouse,KA2 9BX,55.589363175477900,-4.601194976257880
Parrotbill and Badger,KA20 3PJ,55.629816310236000,-4.740451091808750
Chipmunk and River dolphin,KA24 5HW,55.710613694434300,-4.735791502233910
Buzzard and Pitohui,KA3 5EL,55.685162441575900,-4.510630163993420
Coati and Masked owl,KA13 6AY,55.653519146565300,-4.699564553356490
Rat and Black jay,KA1 3AE,55.607824000000000,-4.492215000000000
Coati and Gull,KA1 4TE,55.586940043251200,-4.503051184522780
Ice seal and Vole,KA25 6EQ,55.747952291924200,-4.692731928699460
Polecat and Rabbit,KA23 9DF,55.693110307109300,-4.850393831496090
White ibis and Siskin,KA23 9NZ,55.689193000000000,-4.856521000000000
Minke whale and Jay,KA3 7TB,55.623008303652600,-4.469022528444040
Songlark and Badger,KA11 3BU,55.614694266825400,-4.587975839789720
Quetzal and Siskin,KA13 6TR,55.653885568449500,-4.724454529411840
Argus and Wallaby,KA12 0ET,55.612961904492500,-4.658421716446430
Stilt and Warbler,KA21 6HF,55.648675492359200,-4.791047637939120
Jay and Partridge,KA12 2TW,55.613210474186000,-4.674209577304810
Moluccan boobook and Black jay,KA13 6LB,55.654870353803800,-4.710436811376140
Goose and Jackal,KA20 4JW,55.645385425753600,-4.742047638861560
Siskin and Linsang,KA1 3HE,55.605720022723200,-4.491987000000000
Capuchin and Parrotbill,KA2 0DA,55.619396304611900,-4.545860923746150
Hawaiian honeycreeper and Francolin,KA12 8QS,55.607734835285900,-4.680505285313430
Darwin's finches and Perching duck,KA21 6GJ,55.651671780985100,-4.786571138837940
Wallaby and Towhee,KA15 2LP,55.756009000000000,-4.574842000000000
Pheasant and Eagle,KA11 2GQ,55.635323000000000,-4.614979000000000
Hawk and Hawaiian honeycreeper,KA2 0HB,55.612565058513000,-4.551913202451060
