name,postcode,lat,lon
Gull and Skunk,NP20 9LE,51.591363129300000,-2.997047000000000
Booted eagles and Darwin's finches,NP16 5JF,51.634596013079300,-2.677820000000000
Chickadee and Maya,NP20 7XL,51.609554070024700,-3.038114284801730
Snipe and Warbler,NP19 9GP,51.598559295128400,-2.931817845063290
Marmoset and Grosbeak,NP20 5AE,51.584788000000000,-3.025310000000000
Prion and Black cockatoo,NP44 7JD,51.636034720247900,-3.037057224845660
Old World vulture and Darwin's finches,NP26 3AA,51.609114237815900,-2.849012330993000
Marsh harrier and Wader,NP20 3PU,51.579118095181800,-3.035991714427890
Night heron and Kestrel,NP4 7JJ,51.734155181891900,-3.070581301284400
Stilt and Stilt,NP20 4DG,51.585101489042600,-2.999250064330260
Condor and Moluccan boobook,NP25 5NP,51.868155569703000,-2.801422599794580
Capuchin and Parrotbill,NP19 7PJ,51.595481152817000,-2.962274205706010
Wader and Mole,NP10 0ED,51.595639386384100,-3.053764180173100
Marmoset and Skunk,NP19 4NB,51.582317692500100,-2.947880941869910
Hawk and Chicken,NP44 7JF,51.636557116413700,-3.038990982946730
Recurvebill and Stint,GL15 6SW,51.726265000000000,-2.666333000000000
Solitaire and Peafowl,NP25 3NA,51.808307165266500,-2.706617631060390
Elephant and Armadillo,NP16 5EE,51.637610107050100,-2.674106991529030
Macaw and Perching duck,NP4 7NY,51.731826618665700,-3.066602100550630
Songlark and Ground sloth,NP16 6TW,51.699144018062100,-2.693006000000000
Ibex and Argus,NP44 2QL,51.665268365617600,-3.011393000000000
Nukupuʻu and Francolin,NP44 2BA,51.656846606938400,-3.001217974399580
River dolphin and B,NP25 5QG,51.848182779718200,-2.771016751996480
Minke whale and Scimitar babbler,NP26 5SA,51.591318428642200,-2.720148254145020
Triller and Piping shrike,NP18 1AN,51.610770686602300,-2.951881852213270
Night heron and Nukupuʻu,NP26 3HF,51.579989331666800,-2.809763287351660
Gull and Chipmunk,NP20 2BA,51.581630411881500,-2.990803087524170
Parakeet and American sparrow,NP7 9YA,51.813387427512100,-3.035452428291910
Masked owl and Skunk,NP19 0LT,51.580219000000000,-2.971621000000000
Mole and Flameback,NP18 3DL,51.616651319659500,-2.974019000000000
Partridge and Black cockatoo,NP15 1XQ,51.702418203863400,-2.905631184850080
Parakeet and Jay,NP26 5NY,51.614723890420400,-2.770996063769510
Ice seal and Myna,NP7 8NH,51.838850914756800,-2.981984366930420
Eagle and Bunting,NP20 5BR,51.587157397997900,-3.014292322674530
Chicken and Skunk,NP15 1RE,51.728315282595900,-2.891278819241000
Solitaire and Marmoset,NP19 9PU,51.586384597100000,-2.943650000000000
Triller and White ibis,NP20 6YN,51.602181107287200,-3.005039642878040
Wader and Tahr,NP4 0TY,51.706490417032800,-2.974281315725200
Duck and Moluccan boobook,NP18 3DQ,51.617416636123600,-2.971491120384270
Partridge and Greenbul,NP25 4BP,51.784526702770500,-2.777628551793950
Myna and Piping shrike,NP20 4FL,51.582075404418900,-3.005086599056940
Mockingbird and Skunk,NP20 3HL,51.577830874121200,-3.010375796315080
Songlark and Parrotlet,NP20 6PB,51.617420753648700,-3.015617004200790
Herring gull and Old World warbler,NP18 1BJ,51.611321391508400,-2.952716558113410
Grosbeak and Recurvebill,NP20 4EN,51.583855090287100,-2.995672159913990
Tattler and Dolphin,NP26 3LN,51.580821000000000,-2.832393000000000
Grackle and Darwin's finches,NP16 7EH,51.644046203248400,-2.664953200713840
Vole and Moluccan boobook,NP20 4JS,51.586239644981900,-3.007054919463110
Tahr and Shearwater,NP25 5BN,51.807223217068200,-2.722236143623220
Jerboa and Hawaiian honeycreeper,NP44 3FD,51.630867715012200,-3.015093830032530
Grouse and Boto,NP15 1LR,51.650826000000000,-2.877313000000000
Minke whale and Vole,NP26 3PG,51.581217806997600,-2.815442532344490
Maya and Fish eagle,NP19 7NW,51.600843216875500,-2.964091316090540
Rabbit and Goose,NP25 3AD,51.809895529100000,-2.709558328100000
Badger and Minke whale,NP15 1EQ,51.750208986143400,-2.926186586133540
Fish eagle and Greenbul,NP7 7BH,51.829855830653500,-3.033827543439830
Boto and Old World vulture,NP7 9LJ,51.814444537174500,-3.030776476226170
Tattler and Cloud rat,NP4 6JE,51.703584852657000,-3.040482674199150
Grouse and Badger,NP44 6EP,51.636694681316900,-3.053819799656750
Night heron and Polecat,NP44 8UB,51.639865481118900,-2.998647299292290
New World blackbird and Old World vulture,NP44 2QW,51.665001331796600,-3.014902421238690
Flameback and Chicken,NP26 5AT,51.614572113000000,-2.768971868500000
Francolin and Flameback,NP44 2HB,51.660332124209500,-3.004750143738490
Eagle and Parrotlet,NP10 9BW,51.582836878516600,-3.039468031975710
Fish eagle and Herring gull,NP44 2HA,51.661129325888800,-3.006155720676800
Siskin and Macaw,NP4 6HJ,51.701523981382100,-3.046759047185810
Tree warbler and Mink,NP10 8JZ,51.578906429667000,-3.040605020454950
Bronzewing pigeon and American sparrow,NP4 6XU,51.703110466457700,-3.041253229459460
Meadowlark and Wallaby,NP7 7HN,51.840579901611000,-3.013461734369250
Wallaby and Fish eagle,NP25 3PX,51.814406000000000,-2.711605000000000
Pratincole and Jackal,NP20 4NY,51.587135081803800,-3.002239266182030
Grosbeak and Skunk,NP26 4FL,51.586606839767200,-2.760069797599740
Civet and Ground sloth,NP19 0RX,51.579264976102300,-2.961700664727490
Kestrel and Scimitar babbler,NP20 3SP,51.582706325168600,-3.032869249880310
Dolphin and Viscacha,NP4 0TT,51.686631285343500,-3.004869515864270
Black cockatoo and Dolphin,NP16 5RP,51.625262822262600,-2.676033038740820
Myna and Marsh harrier,NP4 6PG,51.709745291964200,-3.056457787960350
Mink and Bronzewing pigeon,NP7 7HA,51.833001448975900,-3.041112417062230
Booted eagles and Mamo,NP18 3NT,51.615978785879900,-2.961566743298460
Chickadee and Capuchin,NP7 5RG,51.827128422615300,-3.010388157493940
Grouse and Armadillo,NP10 9JD,51.596671393816000,-3.074808756796130
Recurvebill and Elephant,NP15 1EE,51.742265020901000,-2.833127118306650
Pitohui and Jerboa,NP20 2DX,51.578461593987100,-2.988209000000000
Treepie and Tahr,NP4 7HR,51.729441016017800,-3.067907011129320
Capuchin and Cuscus,NP16 6JU,51.629184038374500,-2.695869661211500
Chipmunk and Macaw,NP25 3YR,51.813633000000000,-2.713794000000000
Warbler and Shearwater,NP7 7EJ,51.826288000000000,-3.034805000000000
Mink and Recurvebill,NP4 8AH,51.699629654600500,-3.019859001679960
Viscacha and Diving bird,NP10 8JT,51.576900442536500,-3.062768510032960
Shearwater and Greenbul,NP25 3PY,51.817556000000000,-2.714179000000000
Quetzal and Maya,NP10 9FU,51.593917739543200,-3.062212933640300
Fish eagle and Pheasant,NP4 6HX,51.701492792216300,-3.046222914712590
Rat and Polecat,NP19 0EG,51.587298363184500,-2.979711015530100
Tree warbler and Gull,NP7 7DP,51.826922335197200,-3.026911284475450
Mouse and Parrotlet,NP26 4QF,51.588582516361300,-2.761834911454810
Minke whale and Marsh harrier,NP15 1HY,51.722550700373300,-2.917123031151630
Vole and Logrunners,NP16 5DY,51.636334184240800,-2.673958021696640
Chickadee and Linsang,NP19 0EE,51.587791893104900,-2.978754530753580
Myna and Rabbit,NP26 4BG,51.591397305653700,-2.752122000000000
Flameback and Bunting,NP44 8HZ,51.642602414608300,-3.004560424054030
Tattler and Puffleg,NP16 6DF,51.633903752605700,-2.703541971040350
Logrunners and Capuchin,NP19 9PJ,51.590414000000000,-2.941958000000000
New World blackbird and White ibis,NP25 4QN,51.753197121766800,-2.693544527656410
Pitohui and Recurvebill,NP26 3HU,51.581257003219600,-2.831636130404490
Parrotbill and Cloud rat,NP19 0EU,51.583878108804900,-2.970385792076310
Linsang and Argus,NP4 4ZZ,51.701143000000000,-3.040137000000000
Booted eagles and Lemming,NP44 5UG,51.655501217797600,-3.050237298477390
Parrotbill and Flameback,NP4 9QN,51.778364044973300,-3.083557131300550
Kangaroo and Old World vulture,NP18 3DR,51.617193320627500,-2.971313026334500
American sparrow and Fox,NP4 7JH,51.731972464784500,-3.072310799551810
Treepie and Songlark,NP4 8BN,51.705970872037900,-3.035197000000000
Wallaby and Civet,NP44 2PE,51.663394231687900,-3.004167265835700
Pheasant and Peafowl,NP19 7AB,51.591283948935100,-2.991215255241340
Grosbeak and Zebra,NP19 9PQ,51.592096900213400,-2.937142265448340
Greenbul and Tit-tyrant,NP4 5DY,51.677631223267700,-3.023558876219570
Darwin's finches and Egret,NP18 1LE,51.614125422779700,-2.953988469990810
Polecat and Mink,NP44 8UR,51.642579000000000,-3.001181318308490
Kākāriki and Grouse,NP19 4DU,51.578165000000000,-2.934610000000000
Dorcopsis and Philippine hawk-owl,NP7 8LU,51.877838757703200,-2.845132069666750
Songlark and Coati,NP7 9RX,51.816139210189100,-3.068563188582020
Old World quail and Masked owl,NP16 7FJ,51.650256000000000,-2.661378000000000
Black cockatoo and Old World vulture,NP20 3QW,51.579507000000000,-3.030718000000000
Francolin and Towhee,NP25 4RE,51.746540095444700,-2.680304933451640
Goose and Kangaroo,NP44 3JS,51.647570789778400,-3.022722560958920
Myna and Flameback,NP20 5HT,51.594971832784400,-2.995308949609260
Duck and Fulmarine petrel,NP44 3JN,51.646786859413700,-3.021881085886920
Myna and Parakeet,NP16 6JH,51.620494313506300,-2.696372000000000
Kite and Warbler,NP44 1RE,51.663394562907000,-3.025970591544490
Moluccan boobook and Logrunners,NP44 4BQ,51.652650523746300,-3.043218514590550
Argus and Treepie,NP19 0LD,51.581505461366000,-2.978908075298130
Eagle and Cuscus,NP15 1TB,51.685530775868100,-2.908158226354500
Asiatic leopard and Petrel,NP4 7NW,51.732073593147500,-3.067129210173340
Polecat and Myna,NP25 5RB,51.834444191056900,-2.722918421412810
Tit-tyrant and Stint,NP7 7AU,51.829173793403200,-3.036743243274220
River dolphin and Old World quail,NP25 3LH,51.809266202870300,-2.704123304435590
Masked owl and Grouse,NP19 7DJ,51.597100941411000,-2.983805628988570
Snipe and Dorcopsis,NP26 3EP,51.579526151430000,-2.830998397734480
Pitohui and Rat,NP4 9QX,51.778430399314900,-3.082210662718970
Pheasant and Zebra,NP15 2LG,51.800833082450200,-2.848477000000000
Scimitar babbler and Solitaire,NP7 5HR,51.816181010579100,-3.013059176793950
Peafowl and Fish eagle,NP44 7HY,51.643006138591800,-3.030597309794120
Grouse and Old World vulture,NP7 8TL,51.834412000000000,-2.852765000000000
Shearwater and Ibex,NP20 1HR,51.585782558582600,-2.994227626245240
Minke whale and Skunk,NP19 8LX,51.593700240764800,-2.969988823002190
Wader and Wallaby,NP4 6JL,51.701768000000000,-3.039703000000000
Partridge and Meadowlark,NP4 0NA,51.688689452316600,-3.004972967297400
Flameback and Diving bird,NP4 8RH,51.734232986780700,-3.011051504597000
Civet and Siskin,NP10 9FD,51.592088929853200,-3.057622978726820
Minke whale and Nukupuʻu,NP18 2HB,51.594264897915400,-2.893199264735900
Night heron and Macaw,NP20 6YE,51.608707537327200,-2.996779114915370
Masked owl and Black cockatoo,NP7 6NY,51.841985697131500,-3.004711385561490
Francolin and Marsh harrier,NP44 7JL,51.641945547976400,-3.032596485516810
Scimitar babbler and Thrasher,NP4 8BD,51.705973000000000,-3.039018000000000
Old World warbler and Old World quail,NP15 1DB,51.718127356357100,-2.842642607587780
Marmoset and Mole,NP18 3SD,51.611708600640700,-2.976712752357720
Stilt and Mamo,NP44 2NA,51.666788825168400,-3.006758292707020
Meadowlark and Siskin,NP4 8PB,51.712629334588400,-3.053702538477230
Ground sloth and Thicketbird,NP20 5LW,51.599919757903800,-2.999243283308340
Stint and Partridge,NP44 5UH,51.654406411770400,-3.049995151892130
Piping shrike and Tree warbler,NP16 5UE,51.647211043827500,-2.686635000000000
Stint and Piping shrike,NP20 7EF,51.613000715325600,-3.024487066493060
Grosbeak and Hawaiian honeycreeper,NP19 4DT,51.577485000000000,-2.934206000000000
Puffleg and Duck,NP4 0NL,51.692919171907400,-3.002433527116940
Cloud rat and B,NP44 3XF,51.633394736700300,-3.015049114637100
Masked owl and Magpie,NP44 3AZ,51.640657626446700,-3.020500460711000
Tit-tyrant and Macaw,NP16 5SN,51.641749366869200,-2.681336217877070
Chickadee and Recurvebill,NP20 9LR,51.591363129300000,-2.997047000000000
Stint and Peafowl,NP44 7AJ,51.635793977209600,-3.024538317829030
Mink and Mole,NP26 3BJ,51.621688924632800,-2.820559284907860
Civet and Kite,NP19 7LN,51.605042722402500,-2.974923528882960
Philippine hawk-owl and Lemming,NP16 6SG,51.703545015298900,-2.683205019954870
Nukupuʻu and Fox,NP20 5HX,51.595708397274100,-2.995397238990630
Black jay and Mamo,NP15 1NS,51.648805753673900,-2.907496220453160
Flameback and Siskin,NP16 6BY,51.661645706446400,-2.746650595519060
Condor and Magpie,NP20 6NT,51.615622150810600,-3.013569235111840
Mockingbird and Pratincole,NP26 5YW,51.590816000000000,-2.734749000000000
Herring gull and Jay,NP19 9AH,51.586212154574000,-2.959913240474140
Buzzard and Prion,NP19 7NL,51.603561611717800,-2.971368590490930
Vulture and Snipe,NP26 3PE,51.580729447663600,-2.814553436688200
Polecat and Tit-tyrant,NP16 5EJ,51.642140151784500,-2.675951710753440
Darwin's finches and Puffleg,NP19 9LN,51.589065591586600,-2.929371720572020
Asiatic leopard and Kākāriki,NP19 8NB,51.591777000000000,-2.968952000000000
Fish eagle and Bunting,NP25 4AJ,51.779054596427600,-2.681460774852580
Partridge and Elephant,NP44 5ED,51.653860395065200,-3.055735795637400
Stint and Lemming,NP7 8AW,51.848096071254000,-2.958841464717490
Polecat and Armadillo,NP4 5AE,51.678277943736300,-3.028780208092310
Old World quail and Capuchin,NP19 4EH,51.582457000000000,-2.953244000000000
Chicken and Marsh harrier,NP20 4AN,51.587528041387400,-2.999389920116490
Coati and Stint,NP25 5BT,51.815621551169600,-2.729420779596230
Hawk and Fox,NP16 6QT,51.726901000000000,-2.765534000000000
Zebra and Pratincole,NP25 4TS,51.742549000000000,-2.674672000000000
Fox and Flameback,NP16 6NA,51.723174930849800,-2.708676857227370
Jay and Logrunners,NP19 9GL,51.597759174220100,-2.931801465075040
Coati and Vulture,NP44 5SH,51.658738224228500,-3.051237396313800
Hawaiian honeycreeper and Old World warbler,NP18 2AB,51.622960011222200,-2.870043330991460
Marsh harrier and Grackle,NP7 5TG,51.828038123566600,-3.011045000000000
Parrotbill and Treepie,HR9 6BX,51.850650391480800,-2.662681284647410
Pheasant and Argus,NP4 8TU,51.709430164315100,-3.024016147322140
Bunting and Coati,NP26 4NX,51.596186013534100,-2.755393396250450
Black jay and Ice seal,NP26 3FN,51.585049930257100,-2.782430000000000
Pitohui and Herring gull,NP20 1LY,51.584381589128200,-2.994023839805270
Bunting and Pratincole,NP10 8QW,51.579855602085900,-3.066084652512970
Viscacha and River dolphin,NP44 9DN,51.654418000000000,-3.022638000000000
Polecat and Asiatic leopard,NP4 8LF,51.712298000000000,-3.050655000000000
Black cockatoo and Marmoset,NP10 8ZS,51.591363129300000,-2.997047000000000
Elephant and Mouse,NP16 5JG,51.634394479260700,-2.676660106869280
River dolphin and Goose,NP25 3NL,51.833007571214200,-2.681955875697780
Asiatic leopard and Old World quail,NP10 9FS,51.594856534555300,-3.063794003637310
Argus and Jay,NP19 9DQ,51.597058000000000,-2.940986042953160
Egret and Kite,NP18 3BT,51.617151754390400,-2.968726718740280
River dolphin and Old World warbler,NP20 4DP,51.585371532724600,-2.998159033766710
Ground sloth and Philippine hawk-owl,NP10 9FW,51.591652668036000,-3.055491000000000
Civet and Minke whale,NP15 1YN,51.702418203863400,-2.905631184850080
Masked owl and Minke whale,NP7 8BH,51.833643000000000,-2.964993000000000
Condor and Francolin,NP25 5DQ,51.808516994240000,-2.723852331888200
Dorcopsis and Partridge,NP26 5BR,51.609047861800000,-2.738711393300000
Asiatic leopard and Masked owl,NP16 5SQ,51.621936732867400,-2.668053308002130
Stint and Mockingbird,NP26 5AN,51.609797693732300,-2.761857000000000
Siskin and Ice seal,NP7 5JW,51.824787199226300,-3.007651400961430
Puffleg and Jay,NP4 9QU,51.779527509943000,-3.082193431461450
Coati and Myna,NP25 3GZ,51.805332960873400,-2.703307814649370
Macaw and Mink,NP4 6QW,51.709984616504500,-3.055841011949070
Bronzewing pigeon and Kestrel,NP4 5DP,51.682336013640600,-3.023303380553670
Coati and Snipe,NP44 7DX,51.639887806503800,-3.038561339054270
Crow and Chicken,NP4 9BE,51.768966000000000,-3.083941000000000
Kākāriki and Old World vulture,NP7 9HJ,51.792368000000000,-3.015715000000000
Petrel and Bronzewing pigeon,NP18 3PS,51.616916653856500,-2.957932338138540
Black cockatoo and Asiatic leopard,NP15 1BD,51.702238273032600,-2.900968024394640
Parrotbill and Marmoset,NP16 7PZ,51.658964127688100,-2.659952729661770
Polecat and Minke whale,NP10 8LJ,51.576565651059000,-3.054030001239480
Logrunners and Mole,NP20 4DX,51.585014475337600,-2.996794456494690
Polecat and Pitohui,NP44 1TB,51.668124574857200,-3.018688440132590
Black cockatoo and Thrasher,NP20 6QD,51.618604017038400,-3.008595000000000
Jackal and Herring gull,NP4 0AS,51.738292053011700,-2.980888574289870
Linsang and Prion,NP26 3UX,51.587279039904100,-2.787664468845410
Siskin and Kākāriki,NP19 7SG,51.594710534727300,-2.971771611389340
Solitaire and White ibis,NP4 0XG,51.708616074142600,-3.061033854769160
Skunk and Zebra,NP26 4QP,51.596031519437800,-2.754250325171210
Tit-tyrant and Treepie,NP20 5QE,51.601478000000000,-3.009543000000000
Elephant and Minke whale,NP10 8PJ,51.578802006306700,-3.057314432303210
Kestrel and Marmoset,NP4 0BA,51.737380251570300,-2.982403918543760
Fish eagle and Hawaiian honeycreeper,NP26 4PP,51.594361409585400,-2.752606000000000
Fox and Tattler,NP20 1GG,51.588078000000000,-2.997208000000000
Siskin and Masked owl,NP10 8PN,51.578913238038500,-3.055946007821610
Rabbit and Eagle,NP19 0DP,51.585776931880900,-2.983156814915200
Darwin's finches and Black cockatoo,NP19 4PE,51.580087310805200,-2.946824290049320
Civet and Fish eagle,NP26 5PW,51.587290320049200,-2.737636000000000
Pitohui and Warbler,NP25 5UP,51.807250000000000,-2.739137000000000
Boto and Linsang,NP18 2DZ,51.583861000000000,-2.879212000000000
Piping shrike and Egret,NP10 9ED,51.580612198633700,-3.040903771632730
Parrotlet and Parakeet,NP26 3TH,51.587854336086400,-2.774178417944810
Stint and Cuscus,NP26 5BD,51.601233959930100,-2.760386255108390
Warbler and Mole,NP4 7RF,51.734388916918200,-3.074525696909080
Zebra and Condor,NP20 1DU,51.586608000000000,-2.993538000000000
Dorcopsis and Egret,NP4 9LT,51.771419046078000,-3.073173193886260
Marmoset and Songlark,NP20 6EQ,51.607807578166000,-3.009496144475950
Magpie and Logrunners,NP19 4BN,51.576413000000000,-2.971055000000000
Snipe and Magpie,NP20 1DZ,51.588049000000000,-2.995640000000000
Fox and Parrotbill,NP7 9ES,51.767443832330300,-3.014575942066820
Linsang and Asiatic leopard,NP7 5LB,51.823078093952000,-3.008788526183680
Goose and Badger,NP44 2JL,51.660507055810500,-3.013688754303090
Stilt and Skunk,NP44 1HR,51.664500383596400,-3.041307451368270
Grosbeak and Scimitar babbler,NP25 4QL,51.754484641932200,-2.685581796600190
Cloud rat and Old World warbler,NP26 3NQ,51.583620507159900,-2.822889641299370
Perching duck and Night heron,NP20 6JW,51.617745417360100,-3.002956940463600
Recurvebill and Stint,NP25 3NE,51.806088841444600,-2.703203552435040
Tit-tyrant and Warbler,NP44 5AE,51.665820035814300,-3.049622858151800
Cuscus and Capuchin,NP4 0YT,51.718072448876300,-3.001947523370140
Marsh harrier and Meadowlark,NP20 3PX,51.577566927986200,-3.031410607654050
Grouse and Tattler,NP7 7BD,51.830010000000000,-3.031756000000000
Logrunners and Petrel,NP26 9BS,51.588001000000000,-2.760185000000000
Vulture and Chicken,NP26 4RA,51.599134529100000,-2.750793717600000
Puffleg and Nukupuʻu,NP26 5FA,51.586498241270500,-2.747582767541570
Lemming and Tattler,NP19 4NE,51.582230765357300,-2.945281266723390
Elephant and Puffleg,NP16 5NE,51.643088079334000,-2.686139799697850
Mamo and Tree warbler,NP19 4DR,51.578322000000000,-2.937471000000000
Parakeet and Petrel,NP16 7DT,51.641616350708500,-2.662157463562270
Tahr and Parrotlet,NP44 7BE,51.627164000000000,-3.013356000000000
Myna and Pitohui,NP20 5QH,51.604295275587000,-2.999642590885760
Marmoset and Grackle,NP44 3EW,51.654945000000000,-3.025881000000000
Marmoset and Recurvebill,NP7 8AE,51.835938565964600,-2.975404386384500
Black jay and Capuchin,NP16 6RJ,51.638317115273600,-2.753044437377600
Greenbul and Thicketbird,NP4 0AY,51.739076097647000,-2.980673835579460
Civet and Egret,NP44 3FQ,51.651302000000000,-3.034536000000000
Philippine hawk-owl and Solitaire,NP44 4NA,51.645427547282500,-3.038456705968530
Cloud rat and Booted eagles,NP16 6PS,51.694065000000000,-2.731747000000000
Triller and Fulmarine petrel,NP4 5EZ,51.683318670019000,-3.033277318611250
Stint and Viscacha,NP16 6HW,51.628955000000000,-2.695303000000000
Marsh harrier and Moluccan boobook,NP44 5UZ,51.660138851776600,-3.048450616847440
Old World quail and Fox,NP16 6BL,51.655294000000000,-2.721596000000000
Jay and Thrasher,NP26 4BP,51.592019473826400,-2.750329566885970
New World blackbird and Pratincole,NP26 4YY,51.587999812123200,-2.760179656139570
Dolphin and Dorcopsis,NP19 0HT,51.582659765431700,-2.964384675934210
Asiatic leopard and River dolphin,NP20 6NQ,51.616725096102600,-3.010791754576850
Kite and Prion,NP4 6PT,51.711068189415500,-3.059325458211700
Grosbeak and Egret,NP4 5JE,51.686875618674100,-3.024461774754720
Wallaby and Nukupuʻu,NP44 6UA,51.641498335889600,-3.051575589338660
Flameback and Partridge,NP19 0ER,51.586051079127200,-2.978327400163210
Shearwater and Hawaiian honeycreeper,NP18 1RY,51.629467481712000,-2.970144913538340
Darwin's finches and Myna,NP25 5UB,51.804892328904400,-2.722590471369240
Fulmarine petrel and Macaw,NP16 5PW,51.637271119091200,-2.681428030555330
Crow and Condor,NP10 9DX,51.583619201041000,-3.046543686140270
Wallaby and B,NP20 7SD,51.606442636147600,-3.035097466530000
Parrotlet and Minke whale,NP4 9LS,51.771423372093400,-3.078593678236110
Greenbul and Moluccan boobook,NP19 0FE,51.585166382293700,-2.976590801183230
Thicketbird and Marsh harrier,NP4 7HT,51.729386062243100,-3.069006160751760
Badger and Tit-tyrant,NP4 8DP,51.714985784249200,-3.044565744985160
Pheasant and Macaw,NP25 5DT,51.813148672258300,-2.733805188721440
Parakeet and Flameback,NP26 4LY,51.590740000000000,-2.752307070316030
Hawk and Wallaby,NP20 5AF,51.585252494548400,-3.026547336117010
Cuscus and Kākāriki,NP44 4NG,51.647510187701000,-3.037824994683110
Old World vulture and Pitohui,NP15 2BN,51.782511677097900,-2.901146027419090
Booted eagles and Snipe,NP18 2AG,51.609848374882600,-2.869099391728250
Night heron and Thrasher,NP19 7BW,51.593023677059100,-2.986431492929890
Kangaroo and Grackle,NP44 4TY,51.647571545286600,-3.046108209721100
Armadillo and Old World quail,NP20 3EQ,51.579966876362400,-3.010841705321110
Jackal and Linsang,NP7 7DU,51.826818110598500,-3.028548625205180
Tit-tyrant and Magpie,NP25 3SX,51.842792810848900,-2.679897416699100
Quetzal and Herring gull,NP16 6BR,51.653587723743100,-2.734086776900580
Siskin and Jay,NP26 4DY,51.594337765985300,-2.761729118586580
Cuscus and Tattler,NP25 9BN,51.813638000000000,-2.713798000000000
Perching duck and Kestrel,NP19 9PN,51.590853699234200,-2.939686161473340
Parrotlet and Jerboa,NP4 7TU,51.723239097616200,-3.066284000000000
Thicketbird and Boto,NP4 0EX,51.695979122216500,-3.006306449757460
Rat and Diving bird,NP16 7DD,51.649334637820800,-2.666273619722800
Booted eagles and Tattler,NP4 8JR,51.709980000000000,-3.034305000000000
Nukupuʻu and Thrasher,NP20 7BX,51.607967530557400,-3.024243768904530
Old World warbler and Dolphin,HR9 6ET,51.868411476565500,-2.686165000000000
Stilt and Siskin,NP18 1HQ,51.602951000000000,-2.931387113172810
Kangaroo and Masked owl,NP20 1JE,51.586830000000000,-2.997096533177040
Thicketbird and Darwin's finches,NP10 9LF,51.593303465401500,-3.070441681740440
New World blackbird and Pratincole,NP16 5DF,51.640042662051500,-2.677943612428440
Partridge and Wallaby,NP20 7XA,51.613946465967100,-3.032509636618200
Puffleg and Greenbul,NP7 7HE,51.833901294704300,-3.041031583531910
Kangaroo and Goose,NP10 0AR,51.594358390645600,-3.051222569899290
Jackal and B,NP25 4LZ,51.784108000000000,-2.672172000000000
Philippine hawk-owl and Ice seal,NP44 3PQ,51.648292413606900,-3.019356653953930
Stint and Parrotbill,NP44 1RJ,51.665383888621600,-3.023658710181330
Ibex and Ground sloth,NP15 1DZ,51.730843902916200,-2.850856000000000
Egret and Mockingbird,NP44 3LU,51.645855771151000,-3.026571779554690
Night heron and Eagle,NP7 9YD,51.776953000000000,-3.002585000000000
Armadillo and Jackal,NP19 8GN,51.591763398888800,-2.974769058575290
Tit-tyrant and Tahr,NP4 6BL,51.703485101985200,-3.054691148945890
Armadillo and Partridge,NP20 1JR,51.585413906383600,-2.995287667055470
B and Moluccan boobook,NP25 3DQ,51.826502109178400,-2.717523972945330
Rabbit and Shearwater,NP44 4SU,51.649178874699300,-3.047229000000000
Dorcopsis and Logrunners,NP15 1PL,51.684698942694300,-2.905598000000000
Hawaiian honeycreeper and Mockingbird,NP7 0EJ,51.826340183200000,-3.083460763700000
Warbler and Grosbeak,NP11 6AD,51.605300482914300,-3.080023251251870
Marmoset and Elephant,NP19 9HP,51.587639174879400,-2.935751430677880
Bunting and Ibex,NP25 3UZ,51.810587683567400,-2.716067197497030
Pheasant and Capuchin,NP16 5NB,51.644715546336200,-2.686135470909380
Masked owl and Egret,NP44 2NL,51.664081512637200,-3.008953816679790
Perching duck and Old World warbler,NP7 1DA,51.821706000000000,-3.019573000000000
Perching duck and Pratincole,NP44 8YN,51.646287146680300,-2.996331424322520
River dolphin and Stint,NP20 5DS,51.592717272379100,-3.005581373014690
Warbler and B,NP26 5BA,51.612431000000000,-2.775333000000000
Kangaroo and Ice seal,NP4 8PW,51.729844187814400,-3.059127348780470
New World blackbird and Ice seal,NP19 4NF,51.581783532359100,-2.954985023056140
Eagle and Treepie,HR9 6NH,51.883839000000000,-2.682899000000000
Pitohui and Philippine hawk-owl,NP16 7JA,51.660476979530300,-2.662736041618010
Rabbit and Egret,NP16 5RX,51.624187629408600,-2.669097574599840
Philippine hawk-owl and Fulmarine petrel,NP20 5JL,51.597336031924400,-2.997497383733140
Mouse and Kite,NP20 7LP,51.610669891400900,-3.019553291886790
Macaw and Ice seal,NP44 1QB,51.656225081579400,-3.021182670787350
Hawk and Old World warbler,NP16 6HP,51.626659700876900,-2.698518070849590
Booted eagles and American sparrow,NP44 2PU,51.666789725274900,-3.009794809334070
Duck and Piping shrike,NP25 5AZ,51.814694475396700,-2.729579884465970
Recurvebill and Tahr,NP4 5AT,51.680930902288600,-3.030389000000000
Pheasant and Hawaiian honeycreeper,NP10 8PP,51.579572789233800,-3.057592098220470
Songlark and Grouse,NP16 5UZ,51.640736819086300,-2.672939493146550
Philippine hawk-owl and Capuchin,NP20 6LF,51.611505402844900,-2.997663603526630
Warbler and Parakeet,NP16 5QB,51.639332287232000,-2.679508118982490
Black cockatoo and Francolin,NP4 7QJ,51.737401000000000,-3.069806087736140
Logrunners and Peafowl,NP15 1LT,51.690152472733900,-2.845522583296200
Vulture and Tree warbler,NP16 5BD,51.634778538118700,-2.683312385186020
Dorcopsis and Gull,NP44 1DU,51.660110492797700,-3.025187987700040
Night heron and Pheasant,NP44 1EH,51.662180961479700,-3.026969695326890
Tahr and Ibex,NP16 5DR,51.638676182480100,-2.676535000000000
Parrotlet and Jackal,NP15 2EY,51.766689000000000,-2.830302000000000
Treepie and Tattler,NP18 3RJ,51.611218981469600,-2.979359534301300
Thrasher and Partridge,NP20 7DR,51.610814517729900,-3.018430078425710
Mouse and Logrunners,NP10 9HQ,51.585834410797600,-3.047186382844670
Tattler and Wallaby,NP20 3NN,51.579582256945800,-3.020993168672200
Pitohui and Puffleg,NP16 5QS,51.627489926913800,-2.670244123094240
Maya and Tahr,NP20 7BQ,51.608563000199700,-3.019881546560220
Boto and Triller,NP20 3DZ,51.580181699342500,-3.013040137511540
Crow and Nukupuʻu,NP7 9NG,51.811304548452800,-3.039176174346390
Puffleg and Tahr,NP4 8JZ,51.714813716451500,-3.042680048048480
Chickadee and Minke whale,NP4 8BL,51.704494524523800,-3.035221429599590
Jerboa and Dolphin,NP4 6BZ,51.703886152233000,-3.043007605924340
Marsh harrier and Boto,NP16 6QH,51.725379174209900,-2.757444117778220
Crow and Logrunners,NP44 9BY,51.654415000000000,-3.022631000000000
Fulmarine petrel and Egret,NP18 1GS,51.630426918888800,-2.976970350801700
Macaw and Masked owl,NP4 0NT,51.685173775336800,-3.006023397043260
Treepie and Songlark,NP10 8PW,51.578716787715400,-3.056792917059410
White ibis and Thicketbird,NP20 5NN,51.599540493140800,-2.996260702883990
Coati and Greenbul,NP10 8LZ,51.576863970848900,-3.046821408268920
Dolphin and Rabbit,NP25 5AQ,51.806895908907800,-2.719895759377420
Mouse and Pratincole,NP25 4RX,51.769997783903100,-2.686555999931750
Ground sloth and Chicken,NP7 9RJ,51.816887322436100,-3.065389223875250
Egret and Bronzewing pigeon,NP20 5EW,51.590038876100000,-3.010358379300000
Vulture and Maya,NP25 4NY,51.745301594875900,-2.723565399298400
Civet and Moluccan boobook,NP18 3DY,51.616893714890000,-2.969486734226750
Pratincole and Herring gull,NP16 6AR,51.660679343289100,-2.805779739727140
Myna and New World blackbird,NP20 4NF,51.587111760156500,-3.011245689885840
Warbler and Grackle,NP4 7JW,51.730475340210300,-3.067873474294480
Treepie and Marmoset,NP10 8FN,51.580131000000000,-3.045598000000000
Old World quail and Mouse,NP15 1RP,51.733618000000000,-2.885822000000000
Vulture and Songlark,NP25 3JU,51.805798252380300,-2.693089967053360
Minke whale and Piping shrike,NP10 9GZ,51.586091549206100,-3.045575698073860
Hawaiian honeycreeper and Macaw,NP19 0HD,51.580105213605700,-2.966682990639430
Mouse and Linsang,NP19 0RY,51.578231945274200,-2.961577834429550
Diving bird and Elephant,NP18 3EQ,51.617595749466600,-2.965038555628520
Darwin's finches and White ibis,NP4 5JF,51.685244278993900,-3.023875256713600
Meadowlark and Masked owl,NP16 6JA,51.615314919767700,-2.688984855598120
Peafowl and Badger,NP18 1JT,51.604724262380500,-2.949055140770770
Solitaire and Dorcopsis,NP15 1BW,51.703815080596000,-2.900536276284600
Argus and Old World warbler,NP19 4LY,51.581852499969600,-2.957555450272710
Chipmunk and Moluccan boobook,NP20 4HE,51.581442000000000,-3.008811000000000
Peafowl and Civet,NP4 5LR,51.685755740332200,-3.030164855301450
Bronzewing pigeon and Moluccan boobook,NP19 0BH,51.588089748976700,-2.986136952443580
Piping shrike and Philippine hawk-owl,NP18 1AR,51.611196429002800,-2.953710424116360
Cuscus and American sparrow,NP7 9AT,51.785975292185100,-2.963249928754110
Piping shrike and Treepie,NP25 5AR,51.806352000463100,-2.725006958283560
Perching duck and Eagle,NP20 7EJ,51.613343085887500,-3.024408121517020
Crow and Francolin,NP44 8RZ,51.648125277579300,-3.004321189623480
Greenbul and Greenbul,NP4 5NE,51.685659000000000,-3.025222000000000
Old World quail and Peafowl,NP4 5UZ,51.688227544738400,-3.048549871032400
Solitaire and Hawaiian honeycreeper,NP7 5LU,51.822035954581900,-3.013915996811540
Myna and Cuscus,NP4 6NE,51.709557133081600,-3.051373313236480
Tattler and Parrotlet,NP44 3LX,51.647681330951000,-3.026540758261200
Myna and Armadillo,NP19 8AX,51.590514000000000,-2.958497345084060
Parrotbill and Kestrel,NP20 6GP,51.603054897913700,-3.006950481579310
Philippine hawk-owl and Puffleg,NP19 9DE,51.588994034942100,-2.957287025551720
Mouse and Bunting,NP16 7JP,51.662765829925500,-2.663434512472540
Black cockatoo and Fulmarine petrel,NP7 9BW,51.776486514291800,-2.918694702810220
Pratincole and White ibis,NP4 0JB,51.705554000000000,-3.008617000000000
Pratincole and Egret,NP16 5EG,51.638432499180300,-2.684263234444570
Snipe and Badger,NP20 1ED,51.585173735937900,-2.992989000000000
Fish eagle and Chicken,NP4 9HH,51.772701469735800,-3.078450234386830
Diving bird and Old World quail,NP18 2DX,51.585081499029400,-2.915751813724840
Towhee and Dorcopsis,NP44 4QB,51.645285082718700,-3.045390745926280
Tit-tyrant and Old World vulture,NP20 2FR,51.578542000000000,-2.980720000000000
Elephant and Linsang,NP20 5JZ,51.595714761532600,-2.994646658856550
Civet and Snipe,NP20 2DN,51.576723786081700,-2.984058153137940
American sparrow and Capuchin,NP44 5US,51.655406389822400,-3.048775057284930
Black jay and Peafowl,NP4 5XQ,51.686099569166600,-3.042150252146080
Black jay and Night heron,NP44 4TW,51.639011664292400,-3.043064388770750
Prion and Bunting,NP4 0TX,51.701259000000000,-2.983980000000000
Vulture and Night heron,NP10 9PL,51.582614000000000,-3.053715000000000
Egret and Elephant,NP18 2NL,51.602782831337900,-2.912685903772100
Tit-tyrant and Argus,NP16 7DY,51.647009672450200,-2.665603595284460
Guillemot and B,NP20 3DW,51.580586642732600,-3.015084075198240
Grosbeak and Tit-tyrant,NP4 5XU,51.683619536796400,-3.039938023094540
Coati and Kangaroo,NP7 5AF,51.822907611268900,-3.019173483844670
Zebra and Hawk,NP4 5XP,51.687258222695000,-3.034800000000000
Condor and Marsh harrier,NP19 7HH,51.604906455282500,-2.981562921408440
Herring gull and Viscacha,NP20 3HJ,51.577472240095800,-3.013383950555010
Egret and Tahr,NP20 2XJ,51.577593329090000,-2.987583709551450
Wader and Viscacha,NP16 5UP,51.622719000000000,-2.671682000000000
B and Jackal,NP26 3PA,51.581510578449300,-2.816010631953540
Wallaby and Scimitar babbler,NP44 4NP,51.648819498260100,-3.038216247784270
Marsh harrier and Hawk,NP15 2LB,51.766440306741500,-2.846034645616120
Meadowlark and Jerboa,NP7 9NJ,51.813327991880700,-3.028908682520790
Dolphin and Chicken,NP4 0SZ,51.681367784906300,-2.962344141354710
Chipmunk and Bunting,NP20 1DB,51.588988364144000,-2.995784408329940
Mockingbird and Songlark,NP19 9DX,51.592568647563100,-2.944470957112300
Tree warbler and Fox,NP4 9PA,51.777754212929200,-3.080455077302100
Logrunners and Night heron,NP15 2DY,51.764733000000000,-2.853656106806880
Greenbul and Parakeet,NP10 8RX,51.580070176964000,-3.068355000000000
Kākāriki and Thrasher,NP10 8NT,51.579143873682600,-3.051289909994240
Badger and Thicketbird,NP7 8DF,51.856174226008700,-3.000453623139940
Scimitar babbler and Pitohui,NP25 3LX,51.810281000000000,-2.706083000000000
Asiatic leopard and Piping shrike,NP20 4HH,51.584281615327700,-3.005755922486410
New World blackbird and Logrunners,NP19 0JH,51.581544890721000,-2.959988055491150
Thicketbird and Tree warbler,NP44 4QE,51.645828849768300,-3.043900157025960
Fulmarine petrel and Darwin's finches,NP20 2FG,51.577036645645300,-2.990688732789800
Guillemot and Cuscus,NP15 1PU,51.715397567802500,-2.917759929820220
Wader and Warbler,NP4 7BB,51.724351774421500,-3.063950409811510
Kangaroo and Booted eagles,NP4 9QY,51.777381618936600,-3.082837836560730
Cuscus and Songlark,NP44 2AP,51.656300908963900,-3.002998509879280
River dolphin and Pratincole,NP15 1TL,51.692289050629600,-2.899236845838760
B and Duck,NP20 2BJ,51.581114935600300,-2.991152680489860
Hawk and Rabbit,NP7 7BT,51.831410606060100,-3.028783883819270
Rabbit and Masked owl,NP20 2EJ,51.579642156563700,-2.994122448026160
Quetzal and Vulture,NP19 8FW,51.592966839805900,-2.980338258082340
Goose and Marmoset,NP11 6RH,51.608585644053100,-3.077718450653460
Partridge and Parrotlet,NP19 9TN,51.594862732038100,-2.938715044758120
Magpie and Old World warbler,NP7 9TW,51.815009336978500,-2.946504350683790
Tattler and Pheasant,NP4 9LB,51.771276486258700,-3.080880062910810
Scimitar babbler and Jackal,NP4 5HH,51.686311219082900,-3.027313248880410
Moluccan boobook and Parrotlet,NP15 9TA,51.712094581000000,-2.917780278800000
Zebra and White ibis,NP7 9EY,51.767949503615400,-3.001747535599700
Tattler and Cuscus,NP44 7LJ,51.635497427872000,-3.041885577673830
Moluccan boobook and Goose,NP4 7QH,51.739069532118900,-3.070031271653460
Old World quail and Mockingbird,NP26 3PN,51.581013663358400,-2.811166979801140
Mamo and Jay,NP19 7HQ,51.599903422651700,-2.985223398220330
Vole and Vole,NP4 8NW,51.712973406049400,-3.053435525242980
B and Shearwater,NP19 8GL,51.590373778839900,-2.975360020493600
Petrel and Mamo,NP7 6PG,51.832428538508200,-3.006748063387730
Masked owl and Philippine hawk-owl,NP4 5SP,51.696294890790300,-3.033109900653980
Nukupuʻu and Dorcopsis,NP20 2RP,51.578504630511700,-2.992539023979540
Kestrel and Linsang,NP19 0GA,51.582370857253800,-2.974322657212180
White ibis and Minke whale,NP44 1PH,51.659650719746000,-3.024295716766560
Pitohui and Triller,NP18 1JU,51.604056194818900,-2.949216000000000
Jerboa and Recurvebill,NP10 8JP,51.576348188723900,-3.061197094828740
Treepie and New World blackbird,NP20 3GU,51.579849309126000,-3.018199365309850
Towhee and Marsh harrier,NP15 2EL,51.764079375775400,-2.852974881573510
Tit-tyrant and Old World quail,NP16 6BB,51.640737664958800,-2.689832655076210
Mink and Petrel,HR9 6EU,51.869566221323300,-2.686430419064870
Perching duck and Kestrel,NP15 1EL,51.666588756623700,-2.908936055010750
Booted eagles and Greenbul,NP44 4SN,51.649697129827900,-3.044697286885100
Towhee and Armadillo,NP4 6RD,51.712108481134900,-3.060623481498550
Old World warbler and Asiatic leopard,NP26 3NB,51.581312955326200,-2.836414209558700
Parrotlet and Bronzewing pigeon,NP4 5XB,51.688984431867600,-3.049377494884560
Darwin's finches and Jackal,NP20 7SJ,51.607562994348000,-3.036523701794190
Ground sloth and Francolin,NP7 5LD,51.822392884525100,-3.015273375674870
Black jay and Thicketbird,NP4 8PP,51.732120115215400,-3.059006797282430
Night heron and Guillemot,NP25 3SZ,51.823970662040700,-2.716859829141280
Diving bird and Chicken,NP4 5AJ,51.679559280651500,-3.030313467914570
Mockingbird and Asiatic leopard,NP16 6AY,51.639937161188000,-2.752796717067550
Flameback and Grackle,NP7 9UL,51.797081026408400,-2.938617248335390
Tahr and Myna,NP4 6DJ,51.705029855653600,-3.050877596533930
Macaw and Dolphin,NP20 4HJ,51.586133703073700,-3.004728721342980
Booted eagles and Mink,NP15 1LP,51.681015000000000,-2.865703000000000
Viscacha and Meadowlark,NP4 6YN,51.701635263415200,-3.041320650740320
Parrotbill and Grouse,NP4 7AS,51.726909614380400,-3.070410081761420
River dolphin and Nukupuʻu,NP16 5NU,51.643804244794000,-2.685138979614530
Buzzard and Crow,NP19 7SL,51.595242294118400,-2.973789669669920
Jay and Dorcopsis,NP44 2JG,51.662966887958600,-3.015175034664360
Philippine hawk-owl and Polecat,NP19 4SF,51.583247375421900,-2.957411583851810
Black jay and B,NP44 3QE,51.648925795296100,-3.019934564034270
Ground sloth and Grackle,NP4 6NH,51.702404012466400,-3.041830314348840
Siskin and Peafowl,NP7 6NB,51.838599823620500,-3.009512864211150
Solitaire and Hawaiian honeycreeper,NP20 3SL,51.582949654343800,-3.033827340009290
Wallaby and Masked owl,NP10 9DE,51.582048278715500,-3.038151097096880
Partridge and Black cockatoo,NP25 4TG,51.734917907228800,-2.688963729951170
Armadillo and Grackle,NP15 1UA,51.700755895556700,-2.902980000000000
Zebra and Dorcopsis,NP25 3PW,51.808974589400000,-2.702712145900000
Condor and Macaw,NP15 1NX,51.656354769792800,-2.933219880742610
Jay and Prion,NP20 2FX,51.581542964700000,-2.983758560900000
Crow and Kākāriki,NP19 9SL,51.588265176180900,-2.949606978474550
Masked owl and Prion,NP25 4DX,51.800038781038200,-2.819646466551080
Perching duck and Masked owl,NP4 6QS,51.711133292086600,-3.061078297320630
Goose and Stint,NP7 6BW,51.832585555829200,-3.014631884703280
Petrel and Jerboa,NP25 3SE,51.810350023047600,-2.689649569221480
Lemming and Buzzard,NP7 5AD,51.822132000000000,-3.019689317307180
Chickadee and Shearwater,NP4 9RB,51.776104759123200,-3.083821880413640
Egret and White ibis,NP20 2UP,51.579268263870500,-2.988356041914790
Fox and White ibis,NP44 1RZ,51.665570870011800,-3.027986207771860
Songlark and Moluccan boobook,NP44 3AX,51.636520598759000,-3.019569483020900
Crow and Parrotlet,NP26 3NR,51.579059700646700,-2.808967460583390
Argus and Crow,NP44 7HJ,51.641647644412100,-3.031708173188570
Kākāriki and Kangaroo,NP4 9JD,51.776493736854600,-3.077699973940950
Prion and Fulmarine petrel,NP19 7FB,51.593812135141300,-2.982478596124500
Prion and Eagle,NP16 5EA,51.636158682935500,-2.673204046393640
New World blackbird and Fox,NP16 5DP,51.638309432227000,-2.672889100379230
Peafowl and Cloud rat,NP18 2EQ,51.597198847900000,-2.890081009500000
Bronzewing pigeon and Mole,NP18 3EH,51.615136563918100,-2.966676219624130
Grosbeak and Flameback,NP25 4SB,51.776967482955500,-2.698503754831490
Black cockatoo and Vulture,NP26 4JZ,51.587094109644400,-2.762472000000000
Chickadee and Old World quail,NP4 6DT,51.707324219999800,-3.049700615304840
Night heron and New World blackbird,NP4 0YW,51.689324490602600,-3.017891323127650
Darwin's finches and Mamo,NP20 5QT,51.607889756849100,-2.998840671383580
Towhee and Ice seal,NP26 5FG,51.609516257550000,-2.758820622534700
Coati and Kākāriki,NP16 6BJ,51.648811759567400,-2.703498193554990
Masked owl and Rat,NP26 4NF,51.594168000000000,-2.756247212838780
American sparrow and Meadowlark,NP18 1JQ,51.612173000000000,-2.910202000000000
Civet and Petrel,NP10 9PX,51.582939000000000,-3.051557000000000
Fulmarine petrel and Skunk,NP19 9DJ,51.594260833270800,-2.946483851555440
Nukupuʻu and Rabbit,NP16 6RD,51.646688000568400,-2.791338821149430
Eagle and Perching duck,NP4 7JX,51.731967010957200,-3.069950370494780
Viscacha and Tattler,NP26 5BW,51.585628515521100,-2.755783000000000
Black cockatoo and Kangaroo,NP4 5SN,51.695538560569400,-3.034250169351410
Boto and Civet,NP44 7PE,51.643801684732600,-3.028057310131760
Egret and Minke whale,NP4 0NU,51.683618541230700,-3.005988916667410
Jay and Kangaroo,NP4 6UF,51.704159562816800,-3.070582047601210
Coati and Eagle,NP16 5QL,51.629219742119700,-2.668059192422810
Pratincole and Asiatic leopard,NP25 9BR,51.813638000000000,-2.713798000000000
Boto and Viscacha,NP4 6SQ,51.712283231873000,-3.057197216494730
Thrasher and Stint,NP44 3JZ,51.646527524220500,-3.019649480316990
Moluccan boobook and Egret,NP16 5UF,51.636927000000000,-2.682012597444560
Elephant and Guillemot,NP16 9BZ,51.640740000000000,-2.672945000000000
Asiatic leopard and Egret,NP4 6PN,51.709839614942400,-3.058963864346120
Francolin and Jay,NP26 3AX,51.598373143378300,-2.819388120050660
Tahr and Recurvebill,NP44 7PA,51.643619346643700,-3.030394434403590
Bunting and Crow,NP7 5NA,51.822334090420900,-3.014793247787800
Wader and Capuchin,NP7 8PT,51.859456245363000,-2.866772349324950
Coati and Black cockatoo,NP7 5HZ,51.817757411321300,-3.009583654513130
Black jay and Condor,NP44 2JJ,51.657061711945200,-3.013872075210940
Marmoset and Argus,NP16 5UG,51.640979731634900,-2.689951937808900
Logrunners and Meadowlark,NP10 8RY,51.581844446263600,-3.067877549722250
Viscacha and Kangaroo,NP10 9JT,51.595977847874100,-3.072973309630330
Darwin's finches and Myna,NP20 1JF,51.586411882720200,-2.997416838230020
Jackal and Snipe,NP20 7XU,51.612763000000000,-3.036397000000000
Fulmarine petrel and Minke whale,NP16 7PT,51.654786398512600,-2.665746461490530
Rat and White ibis,NP18 1PD,51.626401210034000,-2.967984730666780
Scimitar babbler and Fox,NP25 5NY,51.865749317722500,-2.804879871372140
Nukupuʻu and Rat,NP19 7EE,51.598732180900000,-2.961303799600000
Asiatic leopard and Stint,NP44 5JE,51.663522696397300,-3.042051332258210
Hawaiian honeycreeper and Fulmarine petrel,NP18 2JD,51.605226322345200,-2.916604000000000
Solitaire and B,NP25 4DR,51.795163063753500,-2.825140675774860
Flameback and Pratincole,NP44 2AR,51.656304242071300,-3.002608267035820
Francolin and Jay,NP20 2NH,51.575950000000000,-2.995990000000000
Ibex and Tit-tyrant,NP19 9BP,51.591088825661000,-2.952899401415140
Prion and Flameback,NP44 1QT,51.652700452831300,-3.021175712742150
Piping shrike and Moluccan boobook,NP44 3ZG,51.654415000000000,-3.022631000000000
Mouse and Chicken,NP16 5PS,51.639534845598500,-2.678687465911300
Fulmarine petrel and Ice seal,NP18 2HD,51.598097011626900,-2.883471356488240
Snipe and Parrotlet,NP44 2NH,51.666071000000000,-3.005730000000000
Badger and Jackal,NP20 6FE,51.612367574988100,-3.007257689504230
Puffleg and Pitohui,NP19 0PS,51.589326000000000,-2.991395000000000
Puffleg and Myna,NP15 2BJ,51.785074042183900,-2.892919202747310
Treepie and Elephant,NP19 8DG,51.591814854007200,-2.981540483139760
Puffleg and Tit-tyrant,NP26 3SF,51.589187366125700,-2.776553931539920
Kestrel and American sparrow,NP20 2BX,51.575879000000000,-2.980966000000000
Grosbeak and Buzzard,NP18 1BN,51.608837846717900,-2.950729455670890
Macaw and Myna,NP44 1LN,51.658365749993100,-3.030367526238690
Moluccan boobook and Jackal,NP44 1QX,51.658466000000000,-3.016968000000000
Old World vulture and Parrotlet,NP7 9ET,51.766351100557000,-3.043867385162090
Warbler and Ibex,NP44 3NX,51.645698125421800,-3.031222025140240
Kangaroo and Myna,NP16 6RG,51.639647000000000,-2.754743000000000
Skunk and Pitohui,NP7 5RY,51.822594108906600,-3.019035823012160
Masked owl and Logrunners,NP26 3HX,51.584017000000000,-2.834371000000000
Tahr and Polecat,NP44 3BZ,51.636598635228500,-3.009499646642470
B and Polecat,NP7 9LH,51.814148212908900,-3.027650782851400
Perching duck and Grackle,NP20 2EN,51.578735794417800,-2.997089992502620
Marmoset and Wallaby,NP19 4LB,51.580623400154300,-2.956115264484780
Flameback and Gull,NP26 3SG,51.588132706797200,-2.782367407090150
Bronzewing pigeon and Partridge,NP20 7RY,51.606941354139600,-3.032581722096940
Kestrel and Ground sloth,NP19 8FT,51.592303256489200,-2.976888245599470
Cloud rat and Parrotlet,NP44 8RQ,51.650087688718000,-3.003005876638470
White ibis and Mamo,NP44 1BD,51.663172505957600,-3.033859849261300
Treepie and Stilt,NP25 4BH,51.788056851991400,-2.787750000000000
Parrotlet and Capuchin,NP26 3PY,51.577355658862400,-2.812241878026170
Lemming and Shearwater,NP18 3FJ,51.617424255644600,-2.967302588973960
Dorcopsis and Grackle,NP4 0PG,51.695041417701400,-3.014966754199180
Badger and Fox,NP7 5BE,51.822616144126600,-3.021677024566290
Francolin and Kite,NP7 6LR,51.839835224710600,-3.008045469872790
Partridge and Condor,NP25 4QA,51.747975000000000,-2.757552748728340
Elephant and Peafowl,NP44 5TE,51.665002617059900,-3.046509741140350
Quetzal and Mamo,NP25 3TH,51.809341105235400,-2.699105805888300
Chicken and Goose,NP10 9EX,51.594550577954800,-3.058849533768480
Pheasant and Stint,NP20 2EG,51.580573000000000,-2.994778000000000
Rabbit and Piping shrike,NP19 4DL,51.578025000000000,-2.939730000000000
Buzzard and Philippine hawk-owl,NP15 2FD,51.761088715406500,-2.854976010066870
Macaw and Jackal,NP19 9GQ,51.598981318059600,-2.930758081549340
Grackle and Herring gull,NP44 1HE,51.664794692470400,-3.039550213992450
Myna and Grouse,NP16 6RZ,51.655398637736300,-2.774114843906450
Mouse and Ground sloth,NP16 6NB,51.688107315434600,-2.749472915018370
Recurvebill and Siskin,NP10 9NZ,51.584622000000000,-3.054396000000000
Fish eagle and Diving bird,NP19 0BZ,51.587704610829800,-2.981668394428240
Maya and Bunting,NP16 6LN,51.634687679287800,-2.782807210344470
Ibex and Crow,NP10 0BX,51.592011000000000,-3.045408000000000
Viscacha and Stilt,NP15 2AT,51.794003527747500,-2.905696156081970
Night heron and Fish eagle,NP4 7DT,51.726840310393800,-3.064182592565040
Ibex and River dolphin,NP20 2AY,51.580495521661300,-2.987834254571720
Meadowlark and Perching duck,NP4 7QS,51.735382611869900,-3.069089760620660
Parakeet and Asiatic leopard,NP25 3EQ,51.809862761323800,-2.718624000000000
Wader and Petrel,NP4 9LJ,51.771366073782000,-3.076882000000000
Chipmunk and Treepie,NP7 6PL,51.836290149171500,-3.010433617427650
Mockingbird and Civet,NP20 6WD,51.610871757543800,-3.005534890201640
Meadowlark and Old World vulture,NP4 0XZ,51.692288195040100,-3.024163000000000
Quetzal and Darwin's finches,NP7 7AE,51.827301539054600,-3.033914154888860
Parrotbill and Logrunners,NP20 4HX,51.583510812244900,-3.011743050201980
Herring gull and Towhee,NP19 8GW,51.589204187509400,-2.971105562209790
Petrel and Piping shrike,NP25 5LD,51.831377871896000,-2.714147650505760
Shearwater and Goose,NP7 6EJ,51.829314000000000,-3.017249000000000
Warbler and Puffleg,NP44 3JX,51.645127285724800,-3.018331775743640
Logrunners and Perching duck,NP19 0PX,51.589011000000000,-2.991359000000000
Armadillo and Stilt,NP19 9AP,51.584261168085800,-2.958789622299530
Lemming and Duck,NP16 5RB,51.629295906496300,-2.679849307926940
Prion and Condor,NP19 8XD,51.590629917217000,-2.982381054492600
Lemming and Badger,NP26 4HS,51.590757852994000,-2.746541206771770
Tahr and Magpie,NP19 8GH,51.589841000000000,-2.976893000000000
Thicketbird and Meadowlark,NP4 6PJ,51.709386101053100,-3.058403291499810
Snipe and Francolin,NP19 0BR,51.587743324222700,-2.983487959689060
Rabbit and Old World quail,NP7 9LN,51.813607958950600,-3.032050000000000
Philippine hawk-owl and Recurvebill,NP20 7SS,51.609297759004400,-3.034555886584470
Mockingbird and Bunting,NP4 0QH,51.695789803376700,-3.015764813759260
Booted eagles and Grosbeak,NP26 5UN,51.599300263614000,-2.736502650531720
Dorcopsis and Rabbit,NP16 5HU,51.642787095768300,-2.672897597845890
Coati and Buzzard,NP19 8EA,51.590841060185600,-2.988289670455040
Dorcopsis and Armadillo,NP19 7LW,51.603668449792900,-2.973666737187240
Condor and Siskin,HR9 6EB,51.870416000000000,-2.693560000000000
Fulmarine petrel and Myna,NP44 5AT,51.659800000000000,-3.060240000000000
Francolin and Prion,NP20 7TL,51.611411882669700,-3.028292838905980
Parakeet and Hawk,NP10 9JP,51.595834096353200,-3.070992048546270
Asiatic leopard and Puffleg,NP44 4NB,51.646398095516600,-3.039533959778550
Petrel and Siskin,NP44 1LJ,51.661730340962400,-3.022969120578920
Lemming and Parakeet,NP4 5BQ,51.678982022421000,-3.025382803068640
Linsang and Meadowlark,NP18 1PB,51.628637380928200,-2.969404834495740
Civet and Triller,NP20 5QA,51.602360000000000,-3.010574000000000
Piping shrike and Piping shrike,NP25 3EG,51.809568419302400,-2.719546719986000
Kākāriki and Macaw,NP20 6JR,51.615948176681200,-3.002830652637790
Solitaire and Rat,NP4 5FH,51.680681000000000,-3.019346000000000
Francolin and Coati,NP26 3TF,51.590113000000000,-2.774072000000000
Magpie and Black cockatoo,HR9 6HB,51.871273406102300,-2.709347395483320
Songlark and Kestrel,NP10 9PY,51.583641000000000,-3.053551000000000
Capuchin and Hawk,NP20 4HG,51.584001396932600,-3.006976556485790
Jackal and Fish eagle,NP18 3RN,51.610760620955900,-2.981487034422650
Goose and Polecat,NP16 5LZ,51.644843980782200,-2.687235781327170
Maya and Puffleg,NP4 7SJ,51.737500203191300,-3.066605374064650
B and Skunk,NP4 8BS,51.707602728489400,-3.031457174551370
Chickadee and White ibis,NP19 0BQ,51.588274822942000,-2.983369528887630
Cuscus and Skunk,NP4 6AL,51.699269561310600,-3.044464177836450
Dorcopsis and Magpie,NP7 6AL,51.829618779724900,-3.010414877154540
White ibis and Stilt,NP15 1EP,51.708897040572700,-2.828200881248870
Parrotbill and Mink,NP7 8BW,51.830561000000000,-2.944770000000000
Myna and Elephant,NP7 9AS,51.788647886960700,-2.965177169744790
Herring gull and Vole,NP7 6BT,51.831864639563900,-3.014818851266470
Songlark and Mamo,NP7 9DG,51.757864101295000,-2.976835763232870
Recurvebill and Black cockatoo,NP20 7RT,51.607333282284400,-3.028692000000000
Scimitar babbler and Grackle,NP20 6JL,51.613389391136000,-3.001329992912740
Booted eagles and Hawaiian honeycreeper,NP18 1NA,51.612097572813700,-2.960083825890880
Parrotlet and Jackal,NP44 3BT,51.635975601465600,-3.009803703294270
Chipmunk and Pratincole,NP15 2LY,51.806832000000000,-2.895612000000000
Recurvebill and Old World warbler,NP10 0AH,51.594842404714400,-3.053399250680860
Shearwater and Duck,NP20 6NB,51.613087850595900,-3.005049502575270
Linsang and Towhee,NP26 4LU,51.593760589082000,-2.748019620698700
Thicketbird and Stint,NP4 7HB,51.726686617564700,-3.067248461534510
Philippine hawk-owl and Marmoset,NP44 4HE,51.643038047393000,-3.043272419662620
B and Warbler,NP44 3JA,51.644655279519800,-3.025041600357870
Argus and Ibex,NP7 6HP,51.832342365374300,-3.010504872946840
Fox and Minke whale,NP25 5SZ,51.827145356760000,-2.777564420451290
Stilt and Mockingbird,NP25 5UA,51.804280989919100,-2.722580693373210
Marsh harrier and Jerboa,NP16 5HF,51.645107778850200,-2.671168782137160
Flameback and Minke whale,NP7 7RQ,51.822272000000000,-3.031376000000000
Grackle and Triller,NP25 3PF,51.816016215616700,-2.711975265963460
Egret and Black jay,NP25 3GB,51.826487687527600,-2.712503168662870
Bunting and Stint,GL15 6SL,51.724128802384500,-2.671817532867200
Goose and Thrasher,NP44 5AP,51.651666585102100,-3.053718967753730
Grackle and Siskin,NP19 0FZ,51.582575423403400,-2.971339460028870
Elephant and Marmoset,NP7 9NH,51.813977562174600,-3.033783191702130
Parrotbill and Grouse,NP26 4JX,51.586446422294700,-2.761236254901250
Skunk and Bronzewing pigeon,NP7 9AX,51.815775000000000,-3.025758000000000
Parrotbill and Hawaiian honeycreeper,NP44 1PE,51.652399000000000,-3.021782599148420
Jay and Philippine hawk-owl,NP19 9TB,51.595309672077200,-2.940167934032950
Argus and Treepie,NP19 4RN,51.576029873190500,-2.954864396689300
Booted eagles and Eagle,NP16 6TD,51.695500632404000,-2.685803890642860
Herring gull and Viscacha,NP7 9AY,51.780080547930800,-2.947324100875370
Pratincole and Chickadee,NP4 7QT,51.735020395211100,-3.069370837776900
Jerboa and Kangaroo,NP15 1DE,51.724007826402300,-2.817170061632850
Eagle and Dolphin,NP20 2EP,51.578298105028500,-2.996748489305770
Dolphin and Tree warbler,NP7 5BU,51.824356636276000,-3.024183098234710
Stilt and Thicketbird,NP16 5WD,51.640736819086300,-2.672939493146550
New World blackbird and Mamo,NP4 0LZ,51.693898441481600,-3.002527508908780
Jackal and Linsang,NP4 6QE,51.710311888375500,-3.059438046314090
Jay and Thrasher,NP19 7BQ,51.603085660039000,-2.974549500301050
Booted eagles and Duck,NP20 5RA,51.600513352263600,-3.000281444674400
Bunting and Hawaiian honeycreeper,NP19 9AF,51.586149948975800,-2.962019270413620
Songlark and Armadillo,NP7 7NB,51.883420000000000,-2.997183276257270
Hawk and Polecat,NP4 6HR,51.704119961035200,-3.046037516133830
Grackle and Egret,NP25 3LY,51.808921000000000,-2.706521593287210
Parakeet and Gull,NP7 8NR,51.884029628355200,-2.916512917551430
Mamo and Grackle,NP4 5BX,51.679197814650500,-3.033588472967730
Old World warbler and Jackal,NP20 7BP,51.608200686594400,-3.019151380605310
Night heron and Booted eagles,NP4 6QH,51.706192026358600,-3.067576417641830
Flameback and Stilt,NP18 1AA,51.607789000000000,-2.953841000000000
Peafowl and Hawk,NP26 3LA,51.579698472632200,-2.833325043013210
Grosbeak and Kite,NP44 8RF,51.648337605400200,-3.003675469653740
Rat and White ibis,NP19 7BJ,51.602589745606400,-2.976878010168620
Old World quail and Vulture,NP44 6JA,51.642122351726100,-3.058180007319120
Vulture and Condor,NP7 5AQ,51.825393000000000,-3.025002212093270
Coati and Francolin,NP20 6LS,51.612602787631600,-2.997615457603850
Rabbit and Rat,NP10 9PN,51.584721000000000,-3.057430000000000
Night heron and Fox,NP44 3NW,51.646922639392200,-3.031033017838020
Pheasant and Minke whale,NP20 5ER,51.594663881395700,-3.006115216486010
Guillemot and Old World quail,NP15 1PX,51.721448000000000,-2.950846000000000
Macaw and Recurvebill,NP4 0DL,51.734929000000000,-2.984673000000000
Coati and Fulmarine petrel,NP44 5HE,51.652667452944400,-3.051400463644130
Guillemot and Thicketbird,NP20 3FU,51.578705332320900,-3.009067492657360
Kestrel and Magpie,NP16 7AS,51.636458732313700,-2.661547686922700
Parrotbill and Linsang,NP20 5DD,51.591431708560400,-3.012871810156540
Myna and Maya,NP26 3AP,51.593660817068900,-2.848321000000000
Grackle and American sparrow,NP44 1QJ,51.657847266261000,-3.020756529169520
Ground sloth and Prion,NP15 1SG,51.707794775741400,-2.899819337050040
Cloud rat and Argus,NP10 9LS,51.594498486650700,-3.068564150335910
Night heron and Chickadee,NP4 8AD,51.701639748296600,-3.016170786040560
B and Nukupuʻu,NP20 1WR,51.584468532079400,-2.992250436436980
Jay and Black jay,NP4 8AS,51.700399181867300,-3.019254087330990
Treepie and Boto,NP44 1DB,51.667781108746400,-3.033299634046870
Polecat and White ibis,NP4 6DU,51.707022187541100,-3.051300056502910
Snipe and Rabbit,NP25 4QH,51.755867530836000,-2.693541987434000
Pitohui and Duck,NP25 3BY,51.813033838357900,-2.713016200299040
Myna and Dorcopsis,NP25 5ZG,51.813633000000000,-2.713794000000000
Darwin's finches and Logrunners,NP20 2JX,51.578860000000000,-2.981614000000000
Thrasher and Thrasher,NP20 5JU,51.594346145545200,-2.993692000000000
Bunting and Treepie,NP19 9SP,51.589319469201800,-2.949325835293620
Viscacha and Pheasant,NP20 4AU,51.588016080031300,-2.999097507858300
Recurvebill and Wader,NP44 4RG,51.649696000000000,-3.039774170924480
New World blackbird and Petrel,NP26 5JQ,51.584729031054600,-2.734433936670010
Grackle and Marmoset,NP19 7HD,51.601504199862200,-2.980897553618050
Ibex and Gull,NP18 1JA,51.655475742267900,-2.956417906222540
Marsh harrier and Quetzal,NP44 3GH,51.636827185300000,-3.005589175000000
White ibis and Recurvebill,NP7 9YE,51.759178961531700,-2.944684170874700
Mouse and Tree warbler,NP20 7XY,51.612646809872100,-3.034256000000000
Thrasher and Night heron,NP7 8RW,51.863210892756200,-2.930786225759660
Chickadee and Petrel,NP16 5EL,51.641339000000000,-2.676301000000000
Gull and Parrotlet,NP10 9HU,51.585331624276200,-3.047102652407230
Bunting and Crow,NP18 1BS,51.610121566558100,-2.949875353067610
Myna and Nukupuʻu,NP19 4TP,51.576185000000000,-2.933568000000000
Chickadee and Treepie,NP7 9EB,51.781123258469200,-3.005793828378810
Hawk and Cloud rat,NP26 3SA,51.587148700232900,-2.782956727688100
Fox and Puffleg,NP10 9AQ,51.590680926547000,-3.048469000000000
Hawk and Tree warbler,NP20 7AG,51.613685421242300,-3.030496183620410
Argus and Prion,NP10 9HZ,51.597229382538500,-3.077694989652820
Condor and Lemming,NP4 7RX,51.743443468180000,-3.066615011563760
Chickadee and Petrel,NP20 3NB,51.579734211928000,-3.023161355672350
Coati and Cloud rat,NP4 8BQ,51.705723407111800,-3.037593942714960
Crow and Argus,NP10 9FB,51.592781143542700,-3.057639059691270
Diving bird and Rat,NP19 7FZ,51.596614488344400,-2.980691121076910
Parakeet and Kākāriki,NP10 0DE,51.592865740356000,-3.047203750030060
Argus and Badger,NP44 5HN,51.651326691244800,-3.051513979960170
Logrunners and Shearwater,NP19 8HH,51.588444476927300,-2.968375658244990
Stint and Kestrel,NP19 8AS,51.588588734839800,-2.962864700850840
Tit-tyrant and Moluccan boobook,NP4 6RJ,51.713145782418000,-3.064237390198580
Guillemot and Civet,NP4 0PT,51.690761440878200,-3.008707989011660
Tattler and Booted eagles,NP20 5AR,51.586217270376100,-3.019020141660610
Songlark and Macaw,NP4 9HG,51.773665882837800,-3.080154500948650
Kestrel and Nukupuʻu,NP19 7DR,51.599325857767900,-2.984402365583650
Siskin and Goose,NP4 6AZ,51.700711255148400,-3.058375000000000
Moluccan boobook and Jay,NP20 2RH,51.578840223305600,-2.991132044127070
Mink and Wallaby,NP20 7AH,51.613851768896100,-3.032030878123090
Old World warbler and Partridge,NP19 0NQ,51.585718263000000,-2.985523072000000
Meadowlark and Francolin,NP19 0HW,51.581860571175000,-2.965349162064680
Thrasher and River dolphin,NP19 8DZ,51.588333284987500,-2.974204850075850
Egret and Ground sloth,NP19 9BY,51.592826066494600,-2.948229643607160
Perching duck and Fox,NP19 0FG,51.584493000000000,-2.975566000000000
Meadowlark and New World blackbird,NP16 7DS,51.639603749737900,-2.661896929722970
Hawk and Hawk,NP19 7AJ,51.593663030726300,-2.990588551082800
River dolphin and Mouse,NP7 5EQ,51.820660459138400,-3.017193000000000
Old World quail and Civet,NP4 8RJ,51.729753606588300,-2.999686408688290
Lemming and Eagle,NP18 3SB,51.612174277099400,-2.976939381702210
Pheasant and Myna,NP44 7PD,51.644104504239200,-3.025303770137750
Argus and Fish eagle,NP7 9AR,51.787010224744600,-2.968607199336680
Ibex and Greenbul,NP44 5LJ,51.660129789112900,-3.039356687508120
Rabbit and Guillemot,NP25 5DJ,51.814844538470700,-2.732918827795290
Grouse and Warbler,NP7 9RL,51.816292457105700,-3.063561767854550
Fulmarine petrel and Pratincole,NP4 4BX,51.708622312000000,-3.061034406200000
Buzzard and Kangaroo,NP44 6UD,51.642502433664500,-3.053911116016600
Grouse and Marsh harrier,NP15 1PN,51.665454158100500,-2.912629302558100
Wallaby and Stint,NP19 0PD,51.584653000000000,-2.972761000000000
Kestrel and Stilt,NP26 4HA,51.591956612990600,-2.757315316342390
Boto and Kestrel,NP7 8SG,51.820338000000000,-2.925622000000000
Tattler and Ground sloth,NP26 3BT,51.616126796068300,-2.843150000000000
Piping shrike and River dolphin,NP4 5HT,51.685867027565200,-3.025668578453190
Tahr and Jay,NP26 3JY,51.584747391463800,-2.825031696338980
Songlark and Viscacha,NP20 5BZ,51.589752016200000,-3.012199000000000
Polecat and Thicketbird,NP44 3QB,51.649512717437100,-3.020684895064900
Civet and Armadillo,NP25 3SA,51.813558425240100,-2.699026025612720
Hawk and Petrel,NP20 7SA,51.606670310200900,-3.034770515847780
White ibis and Eagle,NP44 3ND,51.646967989207900,-3.027912150994150
Quetzal and Triller,NP20 5AD,51.585760644739700,-3.023960710126350
Macaw and Warbler,NP44 5AG,51.665603376530000,-3.051728889288720
Buzzard and Diving bird,NP7 8PH,51.876951866991100,-2.863259268020110
Tree warbler and Chipmunk,NP20 9NX,51.591363129300000,-2.997047000000000
Recurvebill and Tit-tyrant,NP19 0FJ,51.583573005147500,-2.974651470306200
Badger and Piping shrike,NP19 7AL,51.594642716155200,-2.989570436615400
Ground sloth and Triller,NP19 7JU,51.598880019989600,-2.979657091666080
Black jay and Triller,NP44 3NS,51.648508911528800,-3.027527854919260
Pheasant and Quetzal,NP44 6LD,51.643822188098400,-3.058132876205790
Black cockatoo and Black cockatoo,NP26 3SY,51.587955838136100,-2.775147238871780
Elephant and Jackal,NP15 2AR,51.785539115781000,-2.911977900993390
Warbler and Perching duck,NP25 5UY,51.805820000000000,-2.737780000000000
Linsang and Kangaroo,NP4 5HE,51.689949021320900,-3.027742829170680
Prion and Thrasher,NP19 0DF,51.583387534528600,-2.980723787564020
Partridge and Mockingbird,NP26 5PX,51.588594926500000,-2.735014000000000
Pheasant and Gull,NP26 5UB,51.595397566171500,-2.714755763807420
Macaw and Piping shrike,NP7 6AR,51.835191770637800,-3.014777557995820
Stilt and Nukupuʻu,NP25 3DE,51.811759943937300,-2.712546415911430
Snipe and Pitohui,NP25 5NJ,51.837976032103200,-2.786227259438300
Pratincole and Kākāriki,NP20 1JG,51.586027644468800,-2.997134179031200
Eagle and Rat,NP18 1QL,51.606818013685300,-2.949214333082410
Pratincole and Fulmarine petrel,NP7 6AX,51.835772859537800,-3.014122999374280
Coati and Darwin's finches,NP26 9AX,51.588005579600000,-2.760180105300000
Zebra and Songlark,NP4 0SS,51.680357012390200,-2.966083291740810
Polecat and Dolphin,NP7 9NW,51.814935861593800,-3.032165846209420
Puffleg and Piping shrike,NP44 8TY,51.644143689874900,-2.999911952300140
Old World warbler and Dorcopsis,NP19 7HJ,51.601590848509700,-2.984509111422630
Eagle and Stint,NP18 2BL,51.602328000000000,-2.919333000000000
Tit-tyrant and Black jay,NP16 6EB,51.665063387317100,-2.701291989266400
Black jay and Thicketbird,NP20 6ER,51.608566000000000,-3.009311000000000
Argus and Mole,NP44 1BH,51.664186256380600,-3.035140837383440
Marsh harrier and Mamo,NP26 5SQ,51.591172810206000,-2.729167973966040
Pheasant and Fish eagle,NP4 6JW,51.702488640320300,-3.041412601938530
Parrotlet and Rabbit,NP26 3AS,51.611177000000000,-2.825987000000000
Cloud rat and Fox,NP44 2AZ,51.658835447354800,-3.002071407509500
Egret and Grosbeak,NP25 3EW,51.810537652687800,-2.718372732896010
Tattler and B,NP4 7BR,51.720345449381600,-3.059542307394750
Vulture and Chipmunk,NP19 4NJ,51.576954561336500,-2.955042520384680
Marsh harrier and Cloud rat,NP4 0RJ,51.691995240900000,-3.007100987600000
Tit-tyrant and Ice seal,NP7 7DW,51.826041870971200,-3.025802971127480
Viscacha and Booted eagles,NP7 6DE,51.833908601638100,-3.018638187439530
Fulmarine petrel and Goose,NP19 0PL,51.585334000000000,-2.971938000000000
Black cockatoo and Elephant,NP4 5EE,51.676414741052200,-3.024890926717520
Towhee and Triller,NP25 3XP,51.810862672943300,-2.712242154416330
Tree warbler and Buzzard,NP20 4DA,51.585742000000000,-3.001314000000000
Fox and Cloud rat,NP7 8BY,51.824667716104900,-3.001641591460290
Cuscus and Puffleg,HR9 6DP,51.851719481894100,-2.664744000000000
Grosbeak and Boto,NP15 1TA,51.688725074494800,-2.904359638430280
Thrasher and Magpie,NP25 4JP,51.761784829837400,-2.757444828813390
Ice seal and Songlark,NP15 2BW,51.781996408994700,-2.871708480874440
Ice seal and Zebra,NP25 5FH,51.809911931113100,-2.728008616006420
Eagle and Coati,NP16 5XQ,51.641792013071000,-2.675369000000000
Shearwater and Eagle,NP4 6EL,51.705822986361600,-3.052676034605340
Flameback and Stilt,NP4 8JH,51.714394831735400,-3.035143558166620
Jackal and Vole,NP20 3HX,51.577602300791800,-3.019130457826590
Kākāriki and Pratincole,NP25 3NJ,51.828848000000000,-2.683126000000000
Capuchin and Puffleg,NP44 2LW,51.664672555744000,-3.006089641652930
Buzzard and Puffleg,NP20 9SB,51.588651099235500,-3.005809132141230
Parrotbill and Chicken,NP16 6LQ,51.628481266038000,-2.699138386532060
Diving bird and Old World quail,NP20 7RR,51.607467197584100,-3.025936505184380
Prion and Darwin's finches,NP44 4LP,51.645963385656600,-3.036835773068780
Mink and Duck,NP26 5DF,51.586707860894800,-2.752767958016670
Booted eagles and Jerboa,NP44 1SZ,51.665609740783200,-3.037877151659290
Bronzewing pigeon and Jackal,NP25 4JE,51.783145360811700,-2.738072960996900
B and Jay,NP16 7PS,51.650953912968600,-2.669289384440720
Ibex and Wallaby,NP7 5TL,51.828689880507100,-3.016996730292980
Snipe and Jerboa,NP20 1FW,51.589330000000000,-2.996914835798670
Gull and Rabbit,NP19 4LR,51.581285560205300,-2.952088122282210
Shearwater and Philippine hawk-owl,NP25 3DR,51.813051572521600,-2.710086265438640
Songlark and Tahr,NP4 5XF,51.689189209503400,-3.053620971688410
Fulmarine petrel and Asiatic leopard,NP16 6DG,51.663976266271300,-2.770039215370450
Triller and Treepie,NP16 7AQ,51.637860580552700,-2.660094190869440
Jay and Ibex,NP19 0RQ,51.577071000000000,-2.964272000000000
Minke whale and Pratincole,NP4 7QL,51.737336564051900,-3.071742659417480
Dolphin and Grackle,NP19 7RY,51.595190352134300,-2.971377626085750
Peafowl and Piping shrike,NP18 3BX,51.616023904729100,-2.971374715087550
Coati and Black cockatoo,NP19 7RX,51.596316000000000,-2.974520000000000
Booted eagles and Bunting,NP20 5PB,51.598149490313800,-3.000171744648710
Triller and Darwin's finches,NP20 6QN,51.618470350262000,-3.007551718436500
Triller and Pheasant,NP10 8LB,51.577966236478500,-3.041175225834750
Armadillo and White ibis,NP20 5GD,51.596389095700300,-3.008347792788830
Crow and Lemming,NP10 9FN,51.591686859713100,-3.061323613000710
Siskin and New World blackbird,NP26 4HP,51.589420646208600,-2.746143978216840
Macaw and B,NP7 9AF,51.783452007737300,-2.970502527860390
Parakeet and Mouse,NP7 7RS,51.833233532858900,-3.021830274924210
Minke whale and Parrotlet,NP7 7DS,51.828482819551000,-3.028397909208320
Duck and Skunk,NP26 4RQ,51.588106798939300,-2.757539967144240
Chickadee and Prion,NP15 1LJ,51.683592628444600,-2.879276724046960
Mouse and Mamo,NP44 2JH,51.663661853481200,-3.013831470436770
Ice seal and Hawaiian honeycreeper,NP26 4PG,51.598706219133000,-2.747970960390850
Myna and Snipe,NP44 2QJ,51.665118899122900,-3.010654108708760
Grackle and Herring gull,NP20 7RS,51.607477096150700,-3.026860931416190
Logrunners and New World blackbird,NP4 5RU,51.694936931665400,-3.041282614854690
Goose and Cloud rat,NP20 4DZ,51.584134000000000,-2.996823383516170
Old World warbler and Ibex,NP44 1JY,51.662480546489800,-3.037892381833820
Civet and Ice seal,NP7 5DH,51.821786768258200,-3.023994222806090
River dolphin and Ice seal,NP20 2LB,51.577026306284200,-2.996157851234960
Ice seal and Dolphin,NP26 5DD,51.587235806482500,-2.748951673906600
Flameback and Songlark,NP18 2LH,51.604440481104000,-2.919188091281070
Fish eagle and Fulmarine petrel,NP4 7LR,51.735654139417200,-3.065924712002720
Moluccan boobook and Solitaire,NP44 8HU,51.645410007335600,-3.006400174384220
Cuscus and Black cockatoo,NP4 6EA,51.706379465655600,-3.050778627554300
Treepie and Scimitar babbler,NP44 1UD,51.668607051679800,-3.018005180899980
Stint and Perching duck,NP4 8DU,51.716959771003400,-3.045031030184460
Skunk and Magpie,NP20 3EL,51.579829990729600,-3.015240394659230
American sparrow and Kestrel,NP18 1BU,51.613624915792900,-2.959133965843310
Tahr and Tahr,NP20 6WN,51.610565313732900,-2.999303775575030
Scimitar babbler and Scimitar babbler,NP10 9AX,51.596156585950400,-3.049228464104100
Kākāriki and Linsang,NP20 7DF,51.611134681406100,-3.020906797676680
Marsh harrier and Pheasant,NP4 6BH,51.701393116628100,-3.054353081862620
Mole and Skunk,NP19 4EE,51.582243000000000,-2.953095000000000
Ice seal and Capuchin,NP4 5HZ,51.687110515782100,-3.025363970560640
Cloud rat and Chickadee,NP25 3EX,51.811753201078900,-2.718261000000000
Crow and Pheasant,NP44 1RP,51.666802463962000,-3.022866498960450
Parakeet and Hawaiian honeycreeper,NP20 5QQ,51.605763227193700,-3.000425723909000
Vole and Elephant,NP20 5LB,51.595082955874200,-2.993867708365610
Ground sloth and Armadillo,NP44 3NJ,51.647866335392600,-3.028004742148720
Coati and Mamo,NP10 9GT,51.585170599226000,-3.046001994717080
Old World quail and Fox,NP19 8ES,51.588625995074300,-2.975770054243020
Pheasant and Towhee,NP25 3BX,51.812574371816400,-2.714648109061110
Elephant and Kākāriki,NP16 5HQ,51.644754003597500,-2.671712740390730
Dorcopsis and Cuscus,NP7 8RB,51.866866000000000,-2.907275000000000
Kākāriki and Kestrel,NP4 9JH,51.774325763443200,-3.075851068408370
Booted eagles and Hawk,NP26 4JY,51.587293870715900,-2.762275239331950
Egret and Quetzal,NP16 6JY,51.629518989725100,-2.693967733327500
Pheasant and Grouse,NP4 7RT,51.746694000000000,-3.064209452850610
Recurvebill and Vole,NP16 6SH,51.696537970101200,-2.675922980882250
Piping shrike and Marmoset,NP26 5BL,51.614386099800000,-2.765791344300000
Darwin's finches and Masked owl,NP15 2HS,51.746075254953500,-2.880272400238110
Boto and Parrotlet,NP4 5JD,51.687385005121000,-3.024820462574210
Nukupuʻu and Darwin's finches,NP44 7HW,51.642538557300400,-3.028549000162420
Tahr and Armadillo,NP16 7EE,51.645534975284400,-2.664035579141050
Bronzewing pigeon and Nukupuʻu,NP19 8GY,51.591620976567200,-2.976758121011540
Fulmarine petrel and Minke whale,NP20 6PF,51.617099000000000,-3.015581000000000
Old World vulture and Boto,NP10 9HJ,51.596213300120300,-3.046905394724750
Wallaby and Kākāriki,NP20 9PE,51.591274000000000,-2.997053000000000
Old World quail and Boto,NP19 8JP,51.587205378764500,-2.965982100100500
Jay and Thicketbird,NP18 1AY,51.609689000000000,-2.956841000000000
Egret and Parakeet,NP44 5UB,51.659374080979300,-3.048505247890600
Rat and Bunting,NP7 6NG,51.836004183367900,-3.008134057041790
Wader and Tree warbler,NP44 5TB,51.663326712637500,-3.044880689532510
Wader and Chickadee,NP25 4SA,51.778692000000000,-2.694399000000000
Black jay and Chickadee,NP7 5RS,51.825240498800500,-3.012449883233870
Philippine hawk-owl and Vole,NP19 9AS,51.587134923682400,-2.955919998512710
Chickadee and Bunting,NP11 6PH,51.606153865867400,-3.082065149436280
Kite and Buzzard,NP16 5RG,51.627925273141400,-2.678976447084150
Towhee and Kestrel,NP44 4QY,51.645401927825200,-3.046405125941390
Boto and Parrotlet,NP4 6DY,51.705507007273900,-3.051814856733640
Night heron and Vulture,NP20 6FH,51.613514994465700,-3.008712909417450
Towhee and Mockingbird,NP26 5JH,51.585441350195900,-2.738414618576040
Songlark and River dolphin,NP4 0JJ,51.718346000000000,-2.997451000000000
Ice seal and Pratincole,NP15 1NE,51.690626694551900,-2.855774025709890
Jackal and Vulture,NP19 8DR,51.591670312842400,-2.985911358595850
Old World warbler and Jackal,NP25 5NW,51.868133729241300,-2.801988639686470
Dolphin and Kestrel,NP16 5JS,51.633994808405200,-2.677520000000000
Perching duck and Dorcopsis,NP20 4JR,51.586638341678300,-3.005649200641580
Philippine hawk-owl and Parrotbill,NP25 4BU,51.743664540996300,-2.791975260202300
Coati and Viscacha,NP19 9FA,51.594924169084800,-2.944376000000000
Treepie and Philippine hawk-owl,NP44 1NE,51.655969698691000,-3.023663374723550
Grosbeak and Kākāriki,NP15 1NP,51.664916670938600,-2.907731419768580
Parakeet and Egret,NP19 8NL,51.588738904743400,-2.973001015820470
Kite and Partridge,NP25 5QQ,51.852850520347300,-2.774915007450040
Jackal and Jerboa,NP20 2EY,51.580690739012800,-2.993467024461890
Black cockatoo and Grouse,NP19 0RZ,51.578619936921600,-2.962509638687720
Herring gull and Darwin's finches,NP4 0HH,51.721012095082900,-2.985002295345580
Triller and Piping shrike,NP19 4LX,51.582274110470700,-2.955471586107620
Marsh harrier and Duck,NP7 6DF,51.832298401591900,-3.017687560906200
Armadillo and Tit-tyrant,NP16 6AB,51.637478075950000,-2.695201896899650
Polecat and Zebra,NP19 9BL,51.589849397363800,-2.954937667705710
Shearwater and Magpie,NP26 4NG,51.594976686995600,-2.757481051780640
Jackal and Minke whale,NP44 2PG,51.660765000000000,-3.002620000000000
Ice seal and Shearwater,NP16 5YS,51.635727588304300,-2.684005772200840
Pheasant and Towhee,NP7 9UP,51.787205139353000,-2.946893471094220
Solitaire and Skunk,NP7 9BS,51.807139110385900,-3.010579212345500
Dorcopsis and Duck,NP7 7EU,51.833536633561800,-3.057713013216860
Tit-tyrant and Francolin,NP4 6UT,51.697509229073400,-3.060296509796400
American sparrow and Greenbul,NP44 2NU,51.663217198334700,-3.008038193766730
Hawk and Grouse,NP16 5SR,51.623505261264200,-2.664176079072310
Ground sloth and Darwin's finches,NP4 8PH,51.724248899521400,-3.058417440008870
River dolphin and Darwin's finches,NP10 8NP,51.578722441402600,-3.046128109523140
Jay and Treepie,NP10 9AD,51.587913417321000,-3.038876628329880
Logrunners and Fulmarine petrel,NP10 9DS,51.579535966999000,-3.037545424203200
Chickadee and Parrotbill,NP7 5HD,51.822183536425600,-3.017648180455250
American sparrow and Puffleg,NP20 2DZ,51.583176704964300,-2.985496545023280
Old World vulture and Grouse,NP26 5RA,51.585528878676900,-2.751536056208340
Jay and Buzzard,NP7 9RQ,51.815231543170500,-3.068512698640260
Pheasant and Kākāriki,NP4 7HH,51.727711000000000,-3.066444724972520
Greenbul and Dolphin,NP25 3AB,51.826833000000000,-2.713655000000000
Old World warbler and Quetzal,NP7 6AJ,51.826469396420200,-3.005454317871350
Linsang and Peafowl,NP25 5QH,51.843009940595000,-2.767342971567930
Jerboa and Myna,NP44 4TB,51.651474220376200,-3.047079809134850
Linsang and Old World vulture,NP15 2ER,51.759926528871100,-2.841595108966080
Flameback and Thrasher,NP44 3EY,51.640001147869600,-3.014286243668660
Darwin's finches and Darwin's finches,NP19 9GN,51.597949423343300,-2.933884368166400
Parrotlet and Parrotbill,NP20 7BD,51.610024705846600,-3.033691485535320
Condor and B,NP15 1ES,51.711711934875800,-2.854478605484880
American sparrow and Pheasant,NP4 6QR,51.709675635381200,-3.062187565554220
Kite and Darwin's finches,NP4 8JG,51.712714383949500,-3.032991953239340
Cuscus and Songlark,NP4 9HD,51.774156281736100,-3.082557702793260
Moluccan boobook and Eagle,NP4 8TT,51.735873866737600,-3.020935592942550
Greenbul and Grouse,NP20 7TN,51.612216000000000,-3.029102441968040
Old World vulture and Masked owl,NP26 4NR,51.595631547176500,-2.756322578586240
