name,postcode,lat,lon
Kestrel and Francolin,LU7 9BG,51.832821254914900,-0.646539321083746
Mole and Mole,LU1 1EH,51.884397208427200,-0.426781937557108
Bronzewing pigeon and B,LU1 2NR,51.880935248604800,-0.413522000000000
Petrel and Chickadee,AL5 2EZ,51.821940100000000,-0.365419434000000
Francolin and Ground sloth,LU6 9ET,51.887760732647600,-0.523993199429666
Dolphin and Grosbeak,LU1 5SF,51.877702572624600,-0.439248048323370
Cloud rat and Jackal,LU4 9DL,51.899169598898500,-0.454536071013525
Gull and Parakeet,AL3 8DL,51.815867000000000,-0.437187611000000
Vulture and Wader,MK45 2EE,52.031615311080600,-0.464886709343856
Old World vulture and Asiatic leopard,MK17 8PH,52.012289146870900,-0.650398490623262
Badger and New World blackbird,LU5 5TZ,51.906139742180000,-0.510453014902413
Diving bird and Thicketbird,LU4 0UB,51.905765000000000,-0.491495000000000
Mockingbird and Marmoset,AL3 8RR,51.834584700000000,-0.462945487000000
Petrel and Buzzard,MK45 4LR,51.971327552093300,-0.426738322922959
Tree warbler and Elephant,LU4 0NP,51.895184528658000,-0.487620040979633
Petrel and Pheasant,LU6 9HU,51.887761000000000,-0.523968000000000
Stint and Philippine hawk-owl,LU7 3XE,51.922013110819600,-0.643102538800169
Shearwater and Chicken,LU7 1BS,51.921907118570500,-0.660541315624371
Tattler and Perching duck,LU3 2DB,51.914399115038600,-0.435984080802036
Grackle and Stilt,LU3 1PB,51.898797415416100,-0.436569517934622
Ice seal and Magpie,MK45 4GG,52.003957821300000,-0.427269929700000
Masked owl and Kite,LU4 9QX,51.900330797460900,-0.460121306503364
Logrunners and Civet,LU6 1PA,51.883013831545800,-0.534115835943646
Greenbul and Myna,LU2 0GE,51.886256000000000,-0.407788000000000
Dolphin and Fulmarine petrel,LU4 0QT,51.897076871608100,-0.494954305259244
Kākāriki and Kite,HP4 1PF,51.809867014812700,-0.560323064310874
Kākāriki and Asiatic leopard,LU1 3DX,51.874078000000000,-0.409507000000000
Pheasant and Vulture,MK45 1DY,52.008312772092900,-0.500040336826398
Goose and Guillemot,LU6 2BZ,51.885915604999300,-0.580111510618955
Grosbeak and Badger,LU5 6FB,51.943373328720400,-0.535509876299411
Elephant and Piping shrike,MK43 0SB,52.041188594020300,-0.561100000000000
Mockingbird and Scimitar babbler,LU4 9EU,51.907709753896600,-0.472298490080779
Coati and Jerboa,LU3 1QB,51.897359510862000,-0.431895822518788
Macaw and Old World warbler,LU5 6PH,51.967809891119600,-0.491173995507531
Hawaiian honeycreeper and Piping shrike,LU4 9FN,51.897774351470000,-0.465411972782645
Cloud rat and Wallaby,LU3 3NB,51.915063400696800,-0.459079393348159
Siskin and Gull,MK45 1JH,51.997198000000000,-0.495605000000000
Herring gull and Goose,LU7 9FJ,51.826929001427100,-0.640838898091022
Fulmarine petrel and Petrel,LU7 1NS,51.916475582412600,-0.655744799476989
Prion and Marmoset,LU3 3BP,51.916301000000000,-0.473243000000000
Marsh harrier and Peafowl,LU7 3EA,51.925529968196100,-0.656535977083120
Bronzewing pigeon and Fish eagle,LU7 4AT,51.914120000000000,-0.652500000000000
Wallaby and Elephant,LU1 3QR,51.868824034929900,-0.412088659324221
Jackal and Marsh harrier,LU5 6BJ,51.948807016344900,-0.537908355526860
Minke whale and Capuchin,LU3 1HL,51.895490583114100,-0.431321407282526
Perching duck and Jerboa,MK45 1EF,52.012402179363400,-0.497790751748055
Macaw and Buzzard,MK45 1EN,52.010520464592500,-0.503244931111131
Marsh harrier and Songlark,LU1 2QH,51.878815000000000,-0.418086000000000
Marmoset and Grouse,LU1 5FJ,51.867532053300000,-0.437000301900000
Quetzal and Warbler,LU5 5ST,51.908549725549200,-0.506215514818905
Asiatic leopard and Jerboa,MK17 7BF,52.035030000000000,-0.650261000000000
Mole and B,LU1 9ND,51.879977550500000,-0.422926408400000
Buzzard and Tahr,LU1 1RW,51.880169592915000,-0.423980198396844
Pitohui and Herring gull,LU1 5PS,51.872368148737000,-0.435093000000000
Quetzal and Recurvebill,LU1 3JG,51.880197385007500,-0.410670970662733
Songlark and Piping shrike,MK17 8WG,52.032792000000000,-0.663784000000000
Buzzard and Ibex,LU6 2DY,51.877064706191400,-0.590312526653292
Mockingbird and Rat,LU6 2DH,51.878623832815100,-0.590409000000000
Crow and Greenbul,LU7 9EA,51.840299800062200,-0.634659171109265
Tahr and Badger,LU4 9LJ,51.900611193756000,-0.470591578841688
Tree warbler and Siskin,LU4 8JE,51.886537456445600,-0.430165517550860
Kangaroo and Asiatic leopard,LU7 3LH,51.919914284247500,-0.648240668918887
Hawaiian honeycreeper and Triller,LU6 1HX,51.886624178925100,-0.522272229790260
Capuchin and Logrunners,LU1 1TF,51.882995893581800,-0.441752693587912
Warbler and Pratincole,LU1 2XW,51.879832182662400,-0.417829000000000
Booted eagles and Dorcopsis,AL5 3PS,51.829978000000000,-0.402571000000000
Pratincole and Ground sloth,LU7 9GF,51.829939802896700,-0.646815000000000
Ibex and Herring gull,LU7 4RS,51.907137065132700,-0.645077233670649
Argus and Tattler,LU3 1HP,51.896243298760400,-0.428679000000000
Old World quail and Pratincole,MK45 4AJ,52.030067000000000,-0.421777000000000
Guillemot and Crow,MK45 4PG,51.969717164640400,-0.427684000000000
Civet and Black cockatoo,LU3 2DA,51.914218917863900,-0.438826000000000
Cuscus and Old World warbler,LU2 0JX,51.875173763914600,-0.394316294620378
Egret and Herring gull,LU1 5FZ,51.877272000000000,-0.419728000000000
Piping shrike and Stint,LU2 7BU,51.904228345087000,-0.419736787738409
Mamo and Dorcopsis,LU7 9FQ,51.910702944800000,-0.577512736900000
Dorcopsis and Egret,LU5 6LF,51.965075042470500,-0.491062048021441
Badger and Kākāriki,MK45 2TS,52.021950578504400,-0.492122073799065
Jackal and Black cockatoo,LU4 0DE,51.891504000000000,-0.479658287039237
Mink and Bunting,LU5 6HU,51.940050503269600,-0.530060813686787
Crow and Fulmarine petrel,LU7 9FS,51.828141460300000,-0.644415880000000
Ibex and Songlark,LU5 4XZ,51.890611776548800,-0.514047198901090
Grosbeak and Towhee,LU7 1AX,51.920491000000000,-0.663245000000000
Badger and Grackle,LU3 3EA,51.916579674834000,-0.466399435500257
Asiatic leopard and Piping shrike,LU3 4EJ,51.924694713737800,-0.430594373249824
Skunk and Tattler,LU6 9NB,51.887762807400000,-0.523993219300000
Buzzard and Asiatic leopard,MK17 8EF,52.011431324648800,-0.636144000000000
Kite and Herring gull,LU3 1NG,51.900988898545400,-0.425591928549821
Kestrel and Mole,MK17 9QD,51.993079428778200,-0.619763623897528
Philippine hawk-owl and Kangaroo,MK45 4DF,52.011651116133600,-0.430526356145457
Parrotbill and Coati,MK17 8FG,52.015467937800000,-0.656131782100000
Ice seal and Puffleg,LU5 5JF,51.913243278078700,-0.512602409074359
Fox and Treepie,LU7 4WW,51.908028323070500,-0.656941915470946
Meadowlark and Hawk,LU1 1ST,51.882167727367500,-0.419435300515634
Mole and Old World quail,LU1 3HH,51.871067544252000,-0.403788075525829
Jay and Grouse,LU2 0NT,51.883636000000000,-0.414796263848050
Armadillo and Parrotlet,LU5 6QG,51.949776000000000,-0.532551000000000
Towhee and Cloud rat,LU6 2HP,51.869341598780500,-0.583625615750214
Hawaiian honeycreeper and Peafowl,MK17 8HE,52.014717319073000,-0.628642492773010
Fulmarine petrel and Jackal,LU1 1BU,51.881741000000000,-0.430478000000000
Herring gull and Cloud rat,LU3 2AU,51.905561000000000,-0.425185000000000
Moluccan boobook and Mink,MK17 8GG,52.015206352050500,-0.652321656485594
Thrasher and Scimitar babbler,LU2 7NQ,51.892706431171300,-0.406799968948171
New World blackbird and Zebra,MK45 1DX,52.009115000000000,-0.498003000000000
Siskin and Francolin,LU3 4AG,51.919392062785000,-0.440245667901061
Gull and Marmoset,LU7 4EB,51.910255000000000,-0.635377000000000
Quetzal and Minke whale,MK45 2AW,52.025977000000000,-0.495412000000000
Parrotlet and Jay,MK45 2DF,52.030899207893300,-0.462374764781081
Recurvebill and Grosbeak,LU2 0GL,51.886194000000000,-0.407253000000000
Capuchin and Kestrel,MK17 9RD,52.008999000000000,-0.671668000000000
Vole and Fox,LU2 9BW,51.894549700565600,-0.387652516384013
Grackle and Mockingbird,LU4 9BS,51.901301023138700,-0.453198348501940
Lemming and Guillemot,MK45 1EY,52.004040777252800,-0.489402368797764
Polecat and Pratincole,LU5 4HP,51.886809919502700,-0.513460573880189
White ibis and Night heron,MK45 4LF,51.961326957027900,-0.427263123013125
Marmoset and Elephant,LU6 1QX,51.872867314669800,-0.565606000000000
Rabbit and Flameback,LU4 9SS,51.895418294019600,-0.459199232949314
Badger and New World blackbird,LU2 9EB,51.893068943145500,-0.393780251875567
Civet and Mink,LU3 1HR,51.896702555260700,-0.424448232274013
Argus and Gull,LU2 7PJ,51.888037709678500,-0.415305971153633
Prion and Vulture,LU3 1DL,51.887947422262300,-0.419959118889532
Francolin and Stint,LU6 3NH,51.876419229998000,-0.513033310837395
Rabbit and Philippine hawk-owl,LU1 5AA,51.877908063128900,-0.419613732791247
Linsang and Gull,MK45 2EN,52.032763000000000,-0.489615000000000
Tit-tyrant and Solitaire,AL5 3BQ,51.823799760000000,-0.369835895000000
Flameback and Treepie,LU4 0PX,51.897963999023200,-0.487003481868423
Night heron and Mouse,LU6 2HD,51.875329000000000,-0.617430000000000
Ground sloth and Stint,LU3 2NB,51.904853800556000,-0.437623932650670
Ice seal and Mamo,AL3 7EB,51.803523380000000,-0.401286947000000
Vulture and Nukupuʻu,MK17 8XJ,52.017227070786600,-0.648195165167399
Perching duck and Fulmarine petrel,LU7 9EY,51.827783603980000,-0.639769000000000
Marmoset and Old World vulture,LU7 1AP,51.918580400005100,-0.666093068458240
Wader and Guillemot,LU2 8BW,51.906260193032500,-0.389864430775593
Triller and Vulture,MK45 2JB,52.036179665479500,-0.525889577079880
Goose and Chicken,LU2 7LS,51.896360621508800,-0.409722838880231
Eagle and Solitaire,LU2 0RU,51.883936521028300,-0.390720318640408
Fox and Partridge,LU3 3DQ,51.916167079322300,-0.462342237252242
Elephant and Partridge,HP23 5ER,51.803946785404300,-0.661240740347445
Meadowlark and Argus,LU7 9SJ,51.902042000000000,-0.656150000000000
Polecat and Mole,LU1 5NB,51.871989000000000,-0.428057000000000
Scimitar babbler and Siskin,LU3 9GF,51.879985000000000,-0.422902000000000
Wader and Rat,LU7 1EF,51.917257100318100,-0.661203137810860
Duck and American sparrow,LU4 0PF,51.900221000000000,-0.486245000000000
Chicken and Pitohui,LU3 2RL,51.905753728003500,-0.457322000000000
Moluccan boobook and Pitohui,LU7 9HT,51.907851622939600,-0.599350554937207
Mouse and Meadowlark,LU4 8AR,51.886228174746600,-0.434622651318870
Rabbit and Boto,MK45 5AY,52.002940028141900,-0.527447971016109
Macaw and Capuchin,LU3 1RW,51.894992420305200,-0.436454515755397
Scimitar babbler and Grosbeak,AL5 3LR,51.829311060000000,-0.377589687000000
Triller and Lemming,LU5 6FD,51.942897208376800,-0.536267366976511
B and Hawk,SG5 3EF,51.986965000000000,-0.371160000000000
Mink and Masked owl,LU1 2LT,51.882477000000000,-0.414281000000000
Fox and Siskin,MK45 2DN,52.030478000000000,-0.473468000000000
Pratincole and Kestrel,LU3 3EL,51.919189000000000,-0.467794000000000
Cloud rat and Mink,MK45 2BJ,52.027697431783600,-0.475457537549156
Chipmunk and Hawaiian honeycreeper,LU7 4UP,51.907864256095500,-0.648108172745658
Capuchin and Grackle,LU2 9TF,51.891445627489200,-0.366648093188005
Eagle and Shearwater,LU6 1AY,51.894224100978200,-0.531774595136443
Triller and Guillemot,LU7 4QR,51.906116367460000,-0.642521000000000
Jerboa and Ground sloth,MK45 4TA,51.964176501998000,-0.424514230685169
Kite and Pratincole,LU4 8AJ,51.886884000000000,-0.435850000000000
Polecat and Triller,MK45 5AT,52.008363593984800,-0.531189283212215
Cuscus and Viscacha,LU7 6DY,51.908030612300000,-0.656941944500000
Coati and Towhee,LU5 5JB,51.910655009234000,-0.520553159216778
Marmoset and Recurvebill,MK45 4GH,52.004705322500000,-0.427360279500000
Jackal and Booted eagles,LU6 9BX,51.887760732647600,-0.523993199429666
Meadowlark and Solitaire,LU2 7BY,51.912844642819800,-0.422589343937448
Myna and Rabbit,MK17 8HL,52.027481431428000,-0.619870886811866
Snipe and Moluccan boobook,LU7 3FP,51.917947726203000,-0.653170791401332
Parrotlet and Bronzewing pigeon,LU7 4PX,51.910329265649400,-0.642756853563797
Capuchin and Old World warbler,LU3 2LP,51.904454000000000,-0.441316000000000
Vole and Vole,HP2 6HY,51.812086878416000,-0.493363000000000
Cloud rat and Ice seal,LU3 3EW,51.919839035972700,-0.465357725175298
Night heron and Greenbul,LU3 1BG,51.888002040717700,-0.428065596553736
Stint and Civet,LU6 9FT,51.887760732647600,-0.523993199429666
Kestrel and Lemming,LU7 2US,51.911917000000000,-0.671354000000000
Mink and Parakeet,LU6 3FL,51.875294000000000,-0.500098000000000
Kākāriki and Tattler,LU3 2ER,51.909329790828300,-0.436131111919235
Dolphin and Myna,LU4 0EZ,51.901981558310700,-0.484077680904698
Badger and Hawk,LU1 5PD,51.869074730130400,-0.430773596226198
Rat and White ibis,LU6 1BG,51.896206366597100,-0.537160101223879
Prion and Grosbeak,LU3 2DR,51.915062000000000,-0.430320000000000
Quetzal and Cuscus,LU1 3BS,51.875845475086400,-0.410010890221631
Bronzewing pigeon and Fish eagle,LU1 5PE,51.870888797599700,-0.433978724845196
Fox and Crow,LU7 4SW,51.910081021500600,-0.659541129461317
Thrasher and Asiatic leopard,MK45 4PE,51.967698208049800,-0.423619219058317
Wallaby and Cuscus,LU1 2AT,51.879529739734500,-0.417842513183285
Elephant and Cloud rat,LU2 7AH,51.920176720307600,-0.424222770983087
Francolin and Flameback,AL3 8RU,51.835282670000000,-0.461310655000000
Flameback and Masked owl,MK45 4JD,52.010943108619100,-0.378255754494887
Flameback and Hawk,LU3 3TJ,51.922526924745300,-0.461179690449343
New World blackbird and Duck,LU4 8SN,51.888565984457000,-0.464650305402004
Darwin's finches and Rabbit,LU1 5QN,51.876955152578800,-0.442557161189439
Perching duck and Lemming,MK17 9QR,51.987485299911300,-0.620401616131969
Tattler and Ibex,LU1 1GZ,51.879038570800000,-0.422639641900000
White ibis and Rat,LU4 8NB,51.889822973133100,-0.435834675455538
Petrel and Civet,LU2 8UU,51.891821903127500,-0.365253863091622
Nukupuʻu and Diving bird,LU4 0HW,51.892131757427700,-0.480281933416317
Logrunners and Ibex,LU3 4DL,51.924629710293000,-0.440587669175938
Songlark and Vole,AL5 3PB,51.830861060000000,-0.384369534000000
Wader and Fox,MK45 9AW,52.024141347837900,-0.507410605002731
Warbler and Perching duck,LU7 9AS,51.834718784144100,-0.635669750863599
Parrotlet and Chickadee,MK43 0QU,52.031130909260100,-0.564845933495313
Bunting and Mole,LU2 8JN,51.896397770216900,-0.378836926539154
Grouse and B,LU7 9LJ,51.932051000000000,-0.587528000000000
Logrunners and Ibex,LU5 5NA,51.905312000000000,-0.516048000000000
Badger and Tree warbler,LU2 8LE,51.910284014582300,-0.374207000000000
Songlark and Recurvebill,LU6 1UD,51.890939073737700,-0.543710000000000
Macaw and Tree warbler,LU6 2RP,51.866642701650400,-0.587994975422640
Vole and Eagle,LU7 3NN,51.920907488709300,-0.642350632755624
Fulmarine petrel and Parrotlet,LU3 4BJ,51.923294817313200,-0.447076272427864
Pratincole and Night heron,LU7 4RZ,51.907580209992200,-0.646081499988561
Parrotbill and Zebra,LU2 8UQ,51.891181280773600,-0.365742142834729
Macaw and Songlark,LU1 1UJ,51.882648388185500,-0.450162706587833
Logrunners and Grosbeak,LU7 3FZ,51.920338000000000,-0.631829000000000
Buzzard and Dorcopsis,AL3 8EW,51.820041070000000,-0.430113000000000
Armadillo and Ibex,LU5 4FH,51.888286000000000,-0.497228000000000
Bunting and Black jay,HP4 1NB,51.815205208794500,-0.571889533919434
Duck and Goose,LU3 9EX,51.879977550500000,-0.422926408400000
Tahr and Hawk,LU7 2RD,51.916833074919500,-0.671509000000000
Ibex and Tit-tyrant,LU7 0AY,51.945874873508100,-0.659463761275375
Mole and Rat,LU4 8SG,51.888975000000000,-0.460047039001471
Bunting and Jackal,LU6 1AZ,51.893543194924200,-0.531971180119892
Shearwater and Fulmarine petrel,LU3 1TF,51.898557418465700,-0.437974000000000
Jay and Bronzewing pigeon,LU6 3AJ,51.880835687156100,-0.523871309077134
Wader and Hawaiian honeycreeper,MK45 4HL,51.992498398880100,-0.413018999624084
Jay and Cloud rat,MK17 8AE,52.025815819590500,-0.667321589102809
Parrotlet and Chipmunk,LU7 0SZ,51.835665395515300,-0.655409172026870
Magpie and Peafowl,LU6 1BW,51.896945702823300,-0.541670659293211
Herring gull and Songlark,MK45 2DS,52.032990096751100,-0.467580304401683
Polecat and Mockingbird,AL5 3EZ,51.827262780000000,-0.379680407000000
Partridge and Solitaire,LU7 9AT,51.833223077990400,-0.640722000000000
Cuscus and Guillemot,MK17 8GB,52.014753216700000,-0.655745183100000
Kite and Guillemot,LU4 9ED,51.911978345651700,-0.477663857115594
Prion and Kestrel,MK45 1LL,51.998118904198700,-0.489674534571183
Jay and White ibis,LU5 6BT,51.948984122991100,-0.530467186180896
Francolin and Rat,LU5 6JB,51.945397328387700,-0.540652691943727
Towhee and Polecat,MK45 1RT,51.996696906957800,-0.505075196421018
Mink and Tit-tyrant,LU7 4DT,51.902209720000000,-0.648786745700000
Mole and Armadillo,LU3 2DT,51.916893950001200,-0.429543199250013
Elephant and Thicketbird,LU6 3LD,51.872856545739200,-0.515010166798441
Mouse and Vole,LU3 1AZ,51.895273833670300,-0.431924829177993
Kangaroo and Pratincole,LU2 8AH,51.894877561996400,-0.383497000000000
Kite and Darwin's finches,LU7 4TT,51.907594163086300,-0.651212694047389
Nukupuʻu and Civet,LU2 0AN,51.881067576711900,-0.405206452327032
Kite and Magpie,MK17 8TQ,52.003870551312800,-0.650943068465370
Goose and Rabbit,LU4 8SL,51.888562413331000,-0.462310889961797
Pratincole and Grouse,MK45 2TX,52.023635201639800,-0.491671896911573
Gull and Songlark,MK45 5EH,52.010121260333500,-0.453543280038059
Chipmunk and Kangaroo,LU2 8TR,51.892101811952700,-0.373774333260390
Parakeet and Stilt,LU1 3PS,51.873239242839700,-0.412775676539731
Buzzard and Hawaiian honeycreeper,MK45 1UR,52.009463440794600,-0.495791024476220
Boto and American sparrow,AL3 8RP,51.834290510000000,-0.465205143000000
Chipmunk and Coati,LU5 6EB,51.943863137023600,-0.535130198579003
Warbler and Pratincole,LU6 2LL,51.851092245580300,-0.533730000000000
Fish eagle and Stilt,LU3 2EH,51.906922106108700,-0.439674604476843
Stilt and Recurvebill,AL3 7RG,51.817211100000000,-0.409406042000000
Eagle and Ice seal,MK45 9ET,52.024163000000000,-0.507445000000000
Meadowlark and Myna,MK45 4PX,51.971659734020200,-0.421325585824164
Parakeet and Peafowl,MK17 8FW,52.017285000000000,-0.653797000000000
Badger and Parakeet,AL5 3NP,51.828376930000000,-0.367914691000000
Polecat and Snipe,LU2 7XD,51.902754456450000,-0.397185093770974
Maya and Minke whale,LU7 4SY,51.911289003493500,-0.642553461862879
Ibex and Quetzal,LU3 1QD,51.897403905142100,-0.429830421490782
Vole and Boto,MK45 1RZ,52.002037409253200,-0.505042967795958
Wader and Elephant,LU1 2AA,51.877966673510700,-0.414278000000000
Triller and Viscacha,AL3 7PW,51.804616820000000,-0.400363500000000
Marmoset and Booted eagles,MK17 7BT,52.033790000000000,-0.652733000000000
Kākāriki and Condor,LU3 3RD,51.923765000000000,-0.426151164719227
Macaw and Flameback,MK45 5HB,51.995498928467000,-0.452007918458142
Black jay and Dorcopsis,AL3 8PN,51.836749610000000,-0.462784686000000
Viscacha and Francolin,LU3 3AL,51.918384000000000,-0.470889000000000
American sparrow and American sparrow,LU4 0DQ,51.889528988020000,-0.472319232155116
Skunk and Thicketbird,MK45 1DN,52.005365033255600,-0.494515230632488
Warbler and Asiatic leopard,LU7 4YU,51.911283068163100,-0.640969000000000
Prion and Booted eagles,LU7 6DH,51.908030612300000,-0.656941944500000
New World blackbird and Macaw,LU3 2RH,51.903754837814100,-0.451078994429025
Triller and Old World warbler,HP23 4LJ,51.818235559552700,-0.667679779312606
Maya and Badger,LU1 5LP,51.873457807907500,-0.437840680789452
Logrunners and Polecat,LU3 2LT,51.905187185379000,-0.438353736693956
White ibis and Wallaby,LU6 1BX,51.897365371217300,-0.539258961228088
Peafowl and Tit-tyrant,LU1 3YT,51.874064000000000,-0.403232000000000
Wallaby and Civet,LU2 8HG,51.902826160734200,-0.391237315367634
Gull and Polecat,LU6 3FR,51.874335000000000,-0.499581000000000
Goose and Warbler,LU5 5LE,51.905034000000000,-0.511783000000000
Condor and Civet,MK17 8UR,52.021734942676400,-0.653189377336437
Jerboa and Jerboa,LU3 1PL,51.896864156000900,-0.435212289089029
Piping shrike and Cloud rat,LU3 3EB,51.917042078686100,-0.464624282395277
Pheasant and Peafowl,LU1 4BH,51.866401233492900,-0.423154286740201
Masked owl and Jerboa,LU2 7QJ,51.887069567128600,-0.413523660205490
Puffleg and Jackal,LU2 7PS,51.889348062517600,-0.413123734517517
Wallaby and Tree warbler,LU6 3EU,51.873808310093700,-0.506379155707739
Mouse and Diving bird,MK45 4HP,52.007558736620900,-0.408319315804011
Partridge and Snipe,HP2 6FA,51.812782000000000,-0.490820000000000
Stint and Parakeet,LU1 2LL,51.879264000000000,-0.413327254921777
Wallaby and Parrotbill,LU3 2EB,51.914908112518600,-0.429641563251126
Bronzewing pigeon and Goose,LU1 2TY,51.879137000000000,-0.415968000000000
Magpie and Hawaiian honeycreeper,MK17 9QQ,51.989957540115500,-0.620705000000000
Masked owl and Songlark,LU2 8BH,51.904148656121100,-0.388660727197804
Armadillo and Civet,LU1 4HQ,51.860543253423100,-0.457413873914243
Argus and Macaw,LU7 1ST,51.914796437728600,-0.658963000000000
Kestrel and Marmoset,LU4 8QU,51.890017318994600,-0.463554561406070
Partridge and Pratincole,MK17 8QJ,52.010098616148900,-0.648337116905462
American sparrow and Grackle,LU2 8QL,51.898312434544900,-0.378143023467378
Gull and Bronzewing pigeon,LU2 8DU,51.901215578006000,-0.380669400271868
Chicken and Petrel,LU2 7EX,51.904954670314300,-0.412354000000000
Chickadee and Coati,LU4 0UD,51.905399958183700,-0.488396292700113
Tree warbler and Prion,MK45 4HJ,51.993141373853100,-0.386880791066967
B and Ground sloth,LU2 9RD,51.892099260339700,-0.378802695548298
Chickadee and Quetzal,LU4 0YS,51.905112632685800,-0.481442908909255
Tattler and Bronzewing pigeon,MK17 8FB,52.012593000000000,-0.645282000000000
Lemming and Pheasant,LU4 9SF,51.894560707612000,-0.454141934659567
Minke whale and Marsh harrier,LU7 9DS,51.877717166360900,-0.645090049524456
Snipe and Goose,LU4 0LR,51.894163630838900,-0.488642563088283
Jay and Stilt,LU3 1RX,51.897244000000000,-0.439356000000000
Polecat and Parakeet,LU7 4US,51.908860792440700,-0.647976490185824
Pheasant and Herring gull,LU4 9LP,51.902361556594800,-0.467595917925182
Marmoset and Jay,LU2 7HY,51.899589811451500,-0.413140807613294
Towhee and Towhee,LU2 7UX,51.901428805338800,-0.400690000000000
Grosbeak and Chicken,LU3 2HX,51.908836939674100,-0.434229231031139
Wallaby and Dolphin,MK45 5AE,51.977859000000000,-0.476189000000000
Mamo and Tit-tyrant,AL5 3PN,51.830862590000000,-0.399607937000000
Eagle and Guillemot,LU2 0LS,51.887597464920600,-0.400904000000000
Thrasher and Chipmunk,MK45 1XG,52.013964383300900,-0.503261158813977
Condor and Chicken,LU5 6DQ,51.942312050271400,-0.527557284319547
Dorcopsis and White ibis,LU3 1TQ,51.899382145690100,-0.442014311881626
Wader and Kestrel,LU7 9JH,51.893965000000000,-0.623340000000000
Herring gull and Jay,AL5 2RW,51.816498190000000,-0.371767853000000
Ibex and Piping shrike,LU4 9AE,51.905850399553300,-0.461400779551531
Mouse and Lemming,LU2 8LX,51.932161183592600,-0.379090213340238
Guillemot and Darwin's finches,LU5 4SY,51.896349360432800,-0.501358926902395
Chipmunk and Polecat,LU6 2NS,51.871887185210100,-0.610098633400754
Flameback and Petrel,LU6 2BL,51.886340870498400,-0.588554793385965
Bunting and Philippine hawk-owl,LU5 4TS,51.894444000000000,-0.509110000000000
Quetzal and Rat,MK45 5JD,51.984126000000000,-0.492927000000000
American sparrow and Boto,LU1 4EN,51.859213893128500,-0.461641626370902
Lemming and Ibex,LU4 0YP,51.904062585753000,-0.482990089685895
New World blackbird and Wader,HP2 6HW,51.810958488199800,-0.489499000000000
Thrasher and Bronzewing pigeon,LU1 3PF,51.872676187032200,-0.413696127791084
Logrunners and Viscacha,LU3 3UA,51.923161864229100,-0.460227260544430
Logrunners and Boto,LU1 4JQ,51.862629137849800,-0.453290628301682
Parrotlet and Grackle,LU4 8QN,51.891620000000000,-0.458137000000000
Coati and Marsh harrier,LU1 1DE,51.885910851300500,-0.448001704684305
Grackle and Myna,MK45 5AP,52.000244861568100,-0.473243783070164
Jay and Treepie,LU1 9JE,51.879977550500000,-0.422926408400000
Rabbit and Ground sloth,SG5 3HT,51.964889000000000,-0.391345000000000
Siskin and Grackle,LU6 3RD,51.850460924770100,-0.491051000000000
Black cockatoo and Badger,LU1 4AX,51.882543990996700,-0.468284398530901
Mockingbird and Parakeet,LU2 0PP,51.888932790043300,-0.393782396261085
Parrotbill and Thicketbird,LU4 0LJ,51.893762122725400,-0.483293382867151
Elephant and Siskin,LU3 4DQ,51.921893070047900,-0.442383925097215
Recurvebill and Lemming,MK17 7AX,52.035243000000000,-0.650065000000000
Moluccan boobook and Warbler,LU2 9SR,51.886950158769300,-0.374468856053846
Armadillo and Hawk,LU2 9SY,51.887625564003500,-0.373892306136230
Tree warbler and Black jay,AL5 3BZ,51.825633890000000,-0.371291000000000
American sparrow and Goose,HP1 3BP,51.803096000000000,-0.522496000000000
Chicken and Kākāriki,MK17 8RJ,52.011132757629000,-0.648349670799162
Night heron and Bunting,LU3 1PY,51.898968114994600,-0.427784635969894
Coati and Fox,LU7 0RH,51.845720452506600,-0.662731138514089
Civet and Tattler,LU5 5TH,51.907793903280700,-0.511852035102818
Petrel and Kestrel,LU7 9HB,51.827329892336100,-0.639738485270132
Boto and Jay,LU4 8BP,51.887017601733400,-0.436513296133823
Gull and Old World vulture,SG5 3JL,51.960821416545500,-0.393297000000000
Chipmunk and Kite,AL5 3HF,51.829077820000000,-0.382198456000000
Old World warbler and Viscacha,LU5 5LN,51.910390488002200,-0.513830642342767
Nukupuʻu and Jerboa,LU3 1QR,51.899040637947900,-0.431197764520046
Cloud rat and Magpie,MK45 2NL,52.025975832581700,-0.495412001868405
Jackal and Shearwater,LU2 9LW,51.882204000000000,-0.382980000000000
Triller and Parrotbill,AL3 8DS,51.814073930000000,-0.440359158000000
Marmoset and Chipmunk,LU4 9BD,51.909012576758400,-0.466002995960245
Ibex and Jackal,MK17 9DU,51.981639949275200,-0.568335623072877
Treepie and Mouse,LU4 9XA,51.896964328529500,-0.465352365888326
Tree warbler and Armadillo,LU7 0SP,51.844726096887900,-0.667812468303400
Hawaiian honeycreeper and Cloud rat,LU1 3ET,51.877345690497100,-0.412019000000000
Skunk and Bronzewing pigeon,HP4 1QZ,51.837511523215300,-0.565105000000000
Booted eagles and Prion,LU1 3SG,51.872870221285500,-0.414749720538152
Solitaire and Prion,LU2 9TP,51.888249437566100,-0.368943666068259
Old World quail and Nukupuʻu,MK17 9HS,51.961550000000000,-0.584316000000000
Black jay and Wallaby,LU6 9NA,51.887762807400000,-0.523993219300000
Buzzard and Marmoset,LU2 7XB,51.902999007232200,-0.397975872602326
Duck and Guillemot,LU4 9NA,51.909742209479000,-0.480661626080842
Old World vulture and Macaw,MK45 2RN,52.020859816983200,-0.499649832399517
Tahr and Thicketbird,LU4 8BX,51.889237175734800,-0.440476043960187
Linsang and Egret,LU4 9HW,51.908115745995600,-0.475177693792719
Viscacha and Crow,LU2 9AS,51.895873768058300,-0.395714962133554
Thicketbird and Warbler,LU1 5AR,51.876112777188100,-0.423076000000000
Tit-tyrant and Petrel,LU7 9FX,51.828580000000000,-0.646710000000000
Philippine hawk-owl and Masked owl,LU3 3PW,51.944474671667800,-0.440772000000000
Goose and Chicken,LU3 1HZ,51.896930047267600,-0.431882000000000
Bunting and Boto,MK45 1PJ,52.003182533960900,-0.505296183283113
Argus and Francolin,AL3 8PR,51.836897050000000,-0.465813225000000
Partridge and Duck,HP4 1NR,51.819118589645000,-0.572055990359775
Kite and Minke whale,LU1 4HH,51.859833529148200,-0.455405062426485
Badger and Lemming,LU7 1LH,51.917387874100000,-0.667771557800000
Pratincole and Warbler,LU6 3TA,51.871964187435400,-0.513412663745652
Diving bird and White ibis,MK45 4GJ,52.003933341300000,-0.428130341000000
Pitohui and Chicken,LU4 8AS,51.886784468526200,-0.437916338077268
Bunting and Thicketbird,LU7 0RQ,51.845461258318700,-0.661287108841017
Pheasant and Tattler,LU3 3QS,51.918551711533400,-0.447414423513198
Kākāriki and Treepie,LU3 1NZ,51.896900859373500,-0.436620814209907
Hawk and Coati,LU7 3GH,51.921730000000000,-0.630944000000000
Vole and Diving bird,LU5 5UZ,51.900405472082600,-0.509218237506262
Bunting and Jerboa,LU6 1BB,51.891865000000000,-0.537156000000000
Flameback and Recurvebill,LU4 9PW,51.893258080428800,-0.454230233285486
Perching duck and Jackal,LU2 8SR,51.893300375974500,-0.372016174959645
Rat and Gull,LU6 3JJ,51.881415906516200,-0.527121304338105
Darwin's finches and Coati,MK45 4LZ,51.971759533689500,-0.422734230269385
Elephant and Ground sloth,LU2 0NE,51.885169000000000,-0.411832000000000
Bunting and Tattler,LU3 1JB,51.890115013914200,-0.432104386530950
Stint and Vole,LU1 3DQ,51.875820046030400,-0.414123001980123
Diving bird and Egret,SG5 3NX,51.996293515704700,-0.365078269177696
Meadowlark and Philippine hawk-owl,LU7 3ND,51.915878772698500,-0.641353654220497
Jackal and Badger,LU4 9XS,51.904524000000000,-0.473297846907126
Skunk and Tattler,LU3 2RJ,51.903177904352900,-0.449601627724972
Night heron and Siskin,LU6 3RR,51.850567000000000,-0.505697000000000
Macaw and Vulture,LU6 1EU,51.884624467849300,-0.532043787818880
Piping shrike and Diving bird,LU4 9US,51.914291931548100,-0.477876408366260
Boto and Perching duck,SG5 3JB,51.964204766883600,-0.390700021646865
Prion and Dolphin,LU4 8LR,51.890346965574800,-0.434668462733176
Goose and Asiatic leopard,LU7 1FN,51.919513808923300,-0.655668603850157
Mouse and Viscacha,HP4 1LY,51.808976755114700,-0.570635833861218
Vole and Black cockatoo,LU5 5DX,51.904838006555500,-0.517022945022771
Cloud rat and Skunk,LU1 5LB,51.870311522072600,-0.430469091425307
B and American sparrow,LU4 0DZ,51.895405000000000,-0.476044000000000
Buzzard and Cloud rat,LU1 5JA,51.875847655230000,-0.428242522036434
Piping shrike and Thrasher,MK45 1ER,52.004884925311800,-0.485819135318951
American sparrow and Diving bird,LU4 0AX,51.889739384110100,-0.469827185413150
Chicken and Triller,LU2 7JG,51.890075738976500,-0.407575000000000
Goose and Maya,LU5 5LY,51.908733901989500,-0.518653693562264
Chicken and Kestrel,LU4 8HZ,51.887084918387900,-0.430088320633958
Parrotbill and Perching duck,MK45 1BU,52.005830996575600,-0.493113000000000
Stint and Philippine hawk-owl,MK45 4ND,51.971264333453700,-0.425372075761741
Flameback and Cloud rat,LU3 1HH,51.892690560557000,-0.425663969953685
Zebra and Civet,LU2 7BF,51.906030000000000,-0.421883000000000
Elephant and Pitohui,LU1 1TQ,51.883713094774900,-0.447714152072917
Darwin's finches and Capuchin,LU6 1HR,51.887701253070900,-0.526421809938540
Ground sloth and Nukupuʻu,LU1 3RQ,51.867881796701100,-0.418236739588471
Civet and Philippine hawk-owl,LU3 2PW,51.904639295343700,-0.445190361642841
Siskin and Asiatic leopard,LU4 0DG,51.890448116560100,-0.471779450798077
Wallaby and Old World warbler,LU6 2DL,51.877303067165300,-0.592949069638157
Songlark and Quetzal,LU5 5ES,51.904957338239500,-0.519359390395970
Snipe and Scimitar babbler,LU5 5BX,51.902040676576500,-0.519804136252030
Grouse and Meadowlark,LU4 0XW,51.904117434200800,-0.485154146919473
Moluccan boobook and Nukupuʻu,LU5 4TB,51.897805195048200,-0.501295955010412
Jay and White ibis,LU3 3RR,51.916101747143400,-0.454975000000000
Logrunners and Asiatic leopard,LU1 1UW,51.884612016859000,-0.454526832079909
Polecat and Night heron,LU3 3NZ,51.931489000000000,-0.475433000000000
Eagle and Thicketbird,LU1 4LH,51.844631660082400,-0.427137892915545
Old World quail and Kākāriki,LU2 7AA,51.917841464498700,-0.425758611783770
Jerboa and Mockingbird,MK45 2GG,52.033197000000000,-0.486948000000000
Diving bird and Ice seal,MK45 4NU,51.964205336891100,-0.421296384526460
Wallaby and Pratincole,AL5 3AT,51.822184530000000,-0.366832574000000
Old World vulture and Bunting,LU3 3PF,51.938423733152100,-0.482631496142609
Linsang and Coati,LU1 4AL,51.864768827033300,-0.459654000000000
Vole and Herring gull,LU2 9TW,51.890923042090400,-0.367219263849224
Ibex and Meadowlark,LU5 6FJ,51.945468785000000,-0.531047749100000
River dolphin and Chipmunk,LU3 4BA,51.919311110644100,-0.434824583629110
Rat and Masked owl,AL5 3AL,51.823391330000000,-0.372157800000000
Jerboa and Puffleg,LU5 6LX,51.959002984610200,-0.493652781562579
Elephant and Hawaiian honeycreeper,LU1 5EY,51.873235845325700,-0.422552075656121
Kestrel and Prion,LU7 0QS,51.885418415322000,-0.669922733850070
Old World vulture and Linsang,AL5 3AY,51.821312960000000,-0.374017413000000
Recurvebill and Pratincole,LU6 1PR,51.881705000000000,-0.537234495882796
Coati and Polecat,LU5 6NN,51.965219735775800,-0.492224000000000
Tree warbler and Recurvebill,LU7 1AL,51.915967014578800,-0.665691000000000
Macaw and Philippine hawk-owl,LU3 2AL,51.905385868352600,-0.430308015026895
White ibis and Magpie,LU1 5ND,51.870792473451400,-0.427431020964017
Kite and Grouse,LU4 0QY,51.900998562386700,-0.492382000000000
Hawk and Darwin's finches,LU7 3BX,51.927358939700000,-0.654299939200000
Logrunners and Mamo,LU1 4DN,51.854368551927400,-0.446676730355060
Snipe and Polecat,LU3 3ER,51.915816382839500,-0.465785677737542
Towhee and Lemming,LU6 1BE,51.895782830451800,-0.534194487128742
Capuchin and Duck,LU2 0BH,51.881877884069700,-0.405947826607985
Parrotlet and Tit-tyrant,LU1 3PN,51.874507684002700,-0.414154644784495
Parrotbill and Wader,MK45 2DX,52.035957804485400,-0.466239615208093
American sparrow and Petrel,LU2 7LG,51.888883496543500,-0.419359565024035
River dolphin and Mink,LU1 5NQ,51.872426062350600,-0.429105000000000
Tree warbler and Stilt,LU3 2UH,51.912990912911100,-0.440990879034485
Dolphin and Bronzewing pigeon,LU6 3HZ,51.883769778542700,-0.521232516491194
Scimitar babbler and Kākāriki,LU3 3RA,51.926099862905300,-0.428756516416885
Prion and Coati,LU6 3SW,51.884431683632600,-0.522387715333680
Fulmarine petrel and Lemming,AL3 8AU,51.814981870000000,-0.471156480000000
Nukupuʻu and Peafowl,LU4 9AR,51.904901309708400,-0.463773595010176
Prion and Chickadee,LU7 9HF,51.891889425500000,-0.631250773040805
Viscacha and Marmoset,LU1 1DJ,51.883789107069700,-0.427704014976516
Civet and Rat,LU4 9DU,51.912305740091700,-0.480037170251526
Fish eagle and Quetzal,LU7 4PZ,51.913872849057000,-0.653016457692555
Mink and Coati,LU4 0PQ,51.898934277571600,-0.491142316691612
Asiatic leopard and Grouse,LU4 9EX,51.908468648210300,-0.477433622343046
Polecat and Guillemot,LU4 0NW,51.895362474577300,-0.485375916225348
Nukupuʻu and Thrasher,MK45 2XE,52.031617000000000,-0.486505000000000
Recurvebill and Logrunners,LU7 9LA,51.941148793979700,-0.629301141999341
Fulmarine petrel and Kangaroo,LU4 9DW,51.900305443549200,-0.455441875642255
Masked owl and Crow,LU5 5GD,51.905459810300000,-0.500648800800000
Shearwater and Skunk,AL5 3HS,51.827732900000000,-0.382478831000000
Francolin and Coati,LU7 9PD,51.916642126240000,-0.611988685213456
Parakeet and Fox,SG5 3NE,51.993859957869300,-0.361423571160584
Treepie and Magpie,LU4 0JA,51.894163564678100,-0.481652163763480
Booted eagles and Kākāriki,MK45 2RQ,52.023316027339100,-0.502599221167340
Night heron and Mole,LU1 4EE,51.864428536888100,-0.458166908581121
Scimitar babbler and Prion,HP4 1LT,51.802819461858400,-0.581651000000000
Mink and Night heron,MK45 5EX,51.994359373809800,-0.456984939158573
Kite and Rat,LU1 1DS,51.882900625991500,-0.426485475010069
Lemming and Cuscus,LU4 0AE,51.901610000000000,-0.495010000000000
Mole and Minke whale,LU7 9PN,51.908469000000000,-0.583180000000000
Armadillo and Wader,LU2 9TA,51.889039000000000,-0.372635000000000
Stint and Treepie,MK17 9PZ,51.988824000000000,-0.619410585828201
Flameback and Marmoset,MK45 2HL,52.030114420292700,-0.471162547670339
Bronzewing pigeon and Macaw,LU5 5DY,51.903182000000000,-0.515391000000000
Asiatic leopard and Maya,MK17 8RW,52.013236324285500,-0.648315430351982
Pitohui and Cloud rat,LU7 3JY,51.919479909383500,-0.651918043027375
Thrasher and Chipmunk,LU6 2JR,51.872556359087100,-0.552250228292259
Myna and White ibis,MK45 1JG,51.997465467503900,-0.492711788126544
American sparrow and Kite,LU7 4WZ,51.905041961200000,-0.646434099900000
Thrasher and Mole,HP4 1RJ,51.834126144064900,-0.548591830422739
Pratincole and Kite,AL5 3LE,51.827236430000000,-0.373862170000000
Condor and Diving bird,LU7 9JL,51.908044657443800,-0.592919032463497
Goose and Bronzewing pigeon,LU7 9QG,51.929804000000000,-0.558656000000000
Rat and Cloud rat,LU1 3DF,51.874979159411800,-0.415779607551227
Macaw and Condor,HP23 5HR,51.803448209568000,-0.657731133337308
Thicketbird and Mamo,LU2 7TN,51.898280965096200,-0.407039000000000
Elephant and Bunting,MK45 4NW,51.964994876868500,-0.419827592389436
Condor and Badger,LU7 6FX,51.908021000000000,-0.656888000000000
Recurvebill and Black cockatoo,LU1 2QT,51.879571000000000,-0.418760842306117
Old World vulture and Peafowl,LU2 7UB,51.915086894009200,-0.419486465039066
Vulture and Songlark,AL3 8RD,51.835106600000000,-0.465728932000000
Logrunners and Ice seal,LU1 9LS,51.879977550500000,-0.422926408400000
Mouse and Chickadee,LU4 0NQ,51.898252402983600,-0.484958981141848
Fulmarine petrel and Dolphin,LU3 2EF,51.918543000000000,-0.430389000000000
Mockingbird and Warbler,LU4 8JN,51.887668948203900,-0.436810377643317
Zebra and Buzzard,MK17 8XQ,52.018464799616000,-0.648711636074691
Solitaire and Francolin,AL5 2QA,51.819401580000000,-0.363276889000000
Jerboa and Logrunners,LU7 3NG,51.916689246180000,-0.639904262594390
Dolphin and Logrunners,LU4 8DG,51.891918405512900,-0.451500514079020
Grouse and Stilt,MK45 1LP,52.000583178723100,-0.489722706204306
Towhee and Booted eagles,LU2 9TD,51.889367203243500,-0.375645908217120
Piping shrike and Darwin's finches,LU2 8LU,51.931589605805700,-0.379372624436186
Grouse and Myna,LU6 2ZT,51.887760732647600,-0.523993199429666
Badger and Tahr,MK45 1LN,51.998606070978800,-0.490503017916633
Argus and Crow,LU3 3XX,51.916572495113000,-0.440532400780201
Towhee and Black jay,LU2 0FR,51.884780502600000,-0.416335999800000
Macaw and Duck,LU5 5LZ,51.909901827787500,-0.516434553357849
Siskin and Skunk,LU5 4SU,51.893735793376100,-0.497362129151389
Myna and Perching duck,LU3 9GA,51.879985000000000,-0.422902000000000
Fish eagle and Thicketbird,LU1 3PL,51.868888505200000,-0.392201684500000
Jay and Warbler,LU2 8EP,51.908007495911600,-0.386138446803457
Black cockatoo and Chickadee,LU1 1FL,51.885175000000000,-0.454178000000000
Magpie and Quetzal,LU2 9AW,51.895828209608900,-0.398972142669999
Philippine hawk-owl and Boto,LU7 1JQ,51.920072519586700,-0.657353233223212
Chipmunk and Bunting,MK45 4ED,52.009311330911400,-0.427679557812171
Thicketbird and Minke whale,LU6 1ES,51.888647973486100,-0.531665677852216
Kestrel and Duck,LU2 0RN,51.881354000000000,-0.395738000000000
Nukupuʻu and Scimitar babbler,HP23 5QW,51.812378916011300,-0.624449072704147
Dolphin and Moluccan boobook,LU4 0BT,51.890031137182500,-0.477068617162083
Jay and Tahr,MK45 5FA,51.983702811700000,-0.492809847800000
Petrel and Francolin,AL5 3NJ,51.835052480000000,-0.395627665000000
Pratincole and Siskin,LU3 2PL,51.903959604332700,-0.448193767881405
Boto and Solitaire,LU1 1SE,51.882668668759500,-0.419911732772370
Philippine hawk-owl and Herring gull,LU2 7QU,51.886609000000000,-0.413996020393273
Rabbit and Grosbeak,LU7 9AG,51.835318675455500,-0.645403000000000
Recurvebill and Armadillo,LU4 8ER,51.889055925010100,-0.447849776590463
Minke whale and Kite,HP23 4LL,51.817826000000000,-0.669549000000000
Kite and Puffleg,LU6 1HW,51.888246081872800,-0.530443632825885
Skunk and Asiatic leopard,LU1 3SD,51.870868102515600,-0.412307179964170
Booted eagles and Moluccan boobook,LU7 9BP,51.889322653799500,-0.642532352616105
Maya and Mole,LU6 2RU,51.851157397072000,-0.503470291399125
Thicketbird and Kestrel,LU6 9QG,51.887762807400000,-0.523993219300000
Masked owl and Jerboa,MK45 4LQ,51.962882303284700,-0.427921900123332
Duck and Cloud rat,LU6 1LT,51.889590550079400,-0.527943956155173
Rabbit and Hawaiian honeycreeper,MK45 1FE,52.011668834851200,-0.498806144794221
Old World quail and Boto,LU2 8JQ,51.893087356258400,-0.376122149853113
Dorcopsis and Solitaire,LU4 0HN,51.892378201051800,-0.476393444154434
Duck and Jackal,LU2 8NE,51.943740619008000,-0.406621918435627
Recurvebill and Mink,MK45 2GX,52.023481128600000,-0.506237525300000
Parrotbill and Treepie,LU2 0LW,51.887047161494100,-0.398049000000000
Mamo and Egret,LU1 3TR,51.879977550500000,-0.422926408400000
Dolphin and Cloud rat,MK45 2AN,52.026834215002200,-0.459555240633555
Marsh harrier and Macaw,SG17 5XG,52.039099000000000,-0.369264118511373
Prion and Songlark,LU4 8RP,51.893744223037900,-0.450856434397289
Dorcopsis and Perching duck,LU2 9PD,51.883344000000000,-0.376284000000000
Mamo and Wallaby,LU2 7EF,51.897249440576400,-0.416289972314551
Dolphin and Zebra,LU6 3PJ,51.874630644670000,-0.514515925654573
Black jay and Perching duck,MK45 1DZ,52.004954000000000,-0.493932000000000
Peafowl and Pitohui,MK45 5HD,51.991910231806000,-0.456035030592726
Pratincole and Grackle,MK45 4PS,51.969702286784700,-0.425557845470054
Tahr and Old World warbler,MK45 2UQ,52.022759805183000,-0.503404829366771
Stilt and Mamo,AL3 8AS,51.819247000000000,-0.462336000000000
Grackle and Mole,LU7 3NY,51.915046164888800,-0.651832726137506
Logrunners and Thicketbird,LU2 9AD,51.900951000000000,-0.396086000000000
Kite and Mink,LU5 6DB,51.945131203392800,-0.535874559600553
Peafowl and Masked owl,LU1 2NG,51.881138000000000,-0.417016000000000
Peafowl and Wader,LU7 9AB,51.841006000000000,-0.654452000000000
Kite and Old World warbler,LU1 3FP,51.876134433200000,-0.407966946400000
Kestrel and Petrel,MK17 9QG,51.991868253393300,-0.619990200767952
Stilt and Thrasher,MK43 0UH,52.015851646230300,-0.583171419799180
Thrasher and Grouse,LU5 5QL,51.906840115549300,-0.513220971467649
Solitaire and Logrunners,LU6 1UG,51.898597644767700,-0.540018390332544
Pitohui and Jackal,LU2 0AZ,51.881022343290600,-0.402534725785036
Stilt and Perching duck,LU6 1DD,51.894464672238700,-0.532319011569160
Cuscus and Scimitar babbler,MK45 1RR,51.997173802712900,-0.507229701536064
Puffleg and Dolphin,LU3 3AT,51.920909693991200,-0.473013788338296
Kestrel and Booted eagles,LU1 5NH,51.872465000000000,-0.429940139254404
Grouse and Civet,LU4 8WL,51.887217243612200,-0.446154878724578
Hawk and Argus,SG5 3NT,51.995131558566400,-0.367523977150591
Minke whale and Mouse,LU1 3SJ,51.865717000087800,-0.417063613500601
Guillemot and B,LU1 3GB,51.877268000000000,-0.413423000000000
Cuscus and Zebra,LU4 9AU,51.903894959361000,-0.463139259259514
Flameback and Eagle,LU7 3GP,51.922518000000000,-0.630600000000000
Wader and Ice seal,LU4 8FX,51.894427000000000,-0.446651000000000
Fish eagle and Viscacha,LU6 1EB,51.887630368312900,-0.533704099270023
Peafowl and Bronzewing pigeon,LU1 3DL,51.875047909680800,-0.409545103746299
Chipmunk and Jay,LU2 7AZ,51.909405260948400,-0.420907127789084
Coati and Mockingbird,MK45 2JX,52.028941108286600,-0.495968434647708
Chipmunk and Stilt,HP23 4NB,51.825706798664600,-0.669998765225052
Bronzewing pigeon and Solitaire,LU5 6DR,51.943814696254300,-0.534127893490592
Stilt and Siskin,LU1 3SS,51.873201573392900,-0.419328413685975
Old World quail and Marmoset,LU7 4EA,51.909394000000000,-0.660568000000000
Old World quail and Gull,LU5 4PX,51.888092938194600,-0.496257053042447
Ibex and Dorcopsis,MK17 9DT,51.983417851470600,-0.569618626941013
Fox and Grackle,LU6 1GP,51.893051000000000,-0.528474000000000
B and Old World vulture,AL3 8HY,51.836581000000000,-0.462195000000000
Skunk and Philippine hawk-owl,LU2 8NA,51.935670651723300,-0.383211364974922
Jay and New World blackbird,LU6 3JE,51.877912726952600,-0.533163097389530
Gull and Magpie,LU4 0BP,51.889589889670000,-0.472854836498943
Night heron and Rabbit,LU5 5US,51.904005221417700,-0.529478800852893
Prion and Asiatic leopard,LU4 8LU,51.893583542083900,-0.440732503823494
Egret and Chickadee,LU6 9SN,51.887761000000000,-0.523968000000000
Civet and Asiatic leopard,MK45 2AR,52.027229000000000,-0.497527000000000
Diving bird and Peafowl,LU2 9AY,51.896951465680400,-0.393641802218700
Coati and Tit-tyrant,MK45 1PX,51.999647378590900,-0.506593870915276
Mamo and B,SG5 3DY,51.995859000000000,-0.366016000000000
Zebra and Kestrel,LU6 2QQ,51.839978574634900,-0.525367524627530
Recurvebill and Kestrel,LU6 3ES,51.874684017390300,-0.512335157256955
Recurvebill and Black cockatoo,LU7 3EU,51.924624704234400,-0.654425234142768
Asiatic leopard and Minke whale,LU4 0LH,51.893668873735500,-0.483732509450822
Rabbit and Towhee,LU6 2GY,51.865171129287200,-0.537455388474980
Lemming and Capuchin,LU1 5QJ,51.877433316584300,-0.441320309924654
Crow and Fox,LU4 9LR,51.903542052331700,-0.468486058668666
Grouse and Polecat,LU2 0AY,51.882437266523600,-0.406087863755499
Goose and Duck,LU1 5QG,51.874459000000000,-0.440697000000000
Kestrel and Egret,MK45 5BF,51.998961924740300,-0.460337350212213
Shearwater and Flameback,MK45 2FW,52.034445234627300,-0.469542393226884
Kangaroo and Shearwater,AL5 3PP,51.831462670000000,-0.400094621000000
Buzzard and Towhee,AL3 8LG,51.836199000000000,-0.458435000000000
Kākāriki and Wader,LU1 9SF,51.879985000000000,-0.422902000000000
Cloud rat and Prion,MK45 1NA,51.997658000000000,-0.502057000000000
Armadillo and Tit-tyrant,LU5 4FD,51.888333602100000,-0.487515875100000
Boto and Ice seal,LU3 2PE,51.903186271350200,-0.443555000000000
Dolphin and Mamo,LU6 2JE,51.864298620448900,-0.582985222171211
Old World warbler and Parakeet,LU6 1JJ,51.888709000000000,-0.524921000000000
Diving bird and Wallaby,LU4 9TL,51.894450823226800,-0.465670527269012
Darwin's finches and Ground sloth,HP23 4JJ,51.808904990346300,-0.660789245837618
River dolphin and Scimitar babbler,LU4 9EA,51.910360343612200,-0.468690278247376
Triller and Minke whale,LU1 5SP,51.876682660293000,-0.433832000000000
Vulture and Piping shrike,LU2 7GG,51.913256404176100,-0.416424777697383
Vulture and Herring gull,LU7 1NR,51.916461689040000,-0.657679034668164
Francolin and Wallaby,LU7 4BQ,51.907923857367100,-0.636127677149620
Cloud rat and Black jay,LU2 9DN,51.894626370318300,-0.398535258655472
Minke whale and Grosbeak,LU7 9HX,51.909601717302400,-0.599078045342601
Recurvebill and Tit-tyrant,LU3 2BF,51.902919214300000,-0.452908000000000
Triller and Old World warbler,LU5 6DA,51.945445288315100,-0.536548161843585
Duck and Bronzewing pigeon,LU5 5SE,51.907132103507600,-0.499386440490929
Masked owl and Old World quail,LU7 3YW,51.924257547547800,-0.639690080900639
Booted eagles and Treepie,LU6 2DJ,51.875393311108900,-0.591149241965520
Black jay and Elephant,LU2 7TH,51.897058007305700,-0.408099463653213
Kite and Perching duck,LU3 1RJ,51.892410000000000,-0.436195000000000
Partridge and Black cockatoo,AL5 3BY,51.825526720000000,-0.375723118000000
Bronzewing pigeon and Chicken,LU6 3QL,51.847987022243700,-0.476430000000000
Old World vulture and Gull,LU3 2LB,51.914016715797900,-0.433598340866687
Myna and Siskin,LU6 3SF,51.884203012412700,-0.517789269579085
Hawaiian honeycreeper and Bronzewing pigeon,LU2 0FP,51.873678157200000,-0.395938519100000
Nukupuʻu and Treepie,HP4 1PX,51.812776868466800,-0.562056000000000
Coati and Tit-tyrant,MK45 5JH,51.982372706172800,-0.495126014103823
Stilt and Thicketbird,MK45 1AF,52.007302421353500,-0.504022496571864
Prion and Diving bird,LU4 0XN,51.904670000000000,-0.484714000000000
Ibex and Triller,MK45 1LZ,51.999164032048500,-0.499690618458987
Black jay and Buzzard,MK45 9AB,52.024141347837900,-0.507410605002731
Moluccan boobook and Mole,LU1 5EQ,51.871264789092700,-0.423754052317347
Marmoset and Dorcopsis,LU5 4QY,51.893688159246100,-0.500677215544617
Old World warbler and Boto,MK17 8PB,52.012622018452800,-0.649820000000000
Mink and Wader,MK45 2HZ,52.024115000000000,-0.523036000000000
Egret and Thrasher,MK45 4QJ,51.970493540770600,-0.420857043318437
Macaw and Linsang,LU3 1EA,51.893379058007300,-0.422806000000000
Treepie and Kangaroo,LU5 4EY,51.886296000000000,-0.510397000000000
Dolphin and Gull,LU1 4BD,51.866834794086700,-0.457213175193632
Chipmunk and Chicken,MK45 2TN,52.023212922896700,-0.487488541672425
Triller and Goose,LU4 9WS,51.879977000000000,-0.422926000000000
Civet and Condor,MK45 1GR,52.010788000000000,-0.510041000000000
Minke whale and Armadillo,LU1 1HT,51.883185028316400,-0.420867112558496
Tree warbler and Rabbit,LU1 5FA,51.876671000000000,-0.417158000000000
Marmoset and Lemming,LU6 1GA,51.888085000000000,-0.524636000000000
Eagle and Darwin's finches,LU2 8SZ,51.893371925931400,-0.372638507761679
Buzzard and Macaw,LU2 7EH,51.902136447774200,-0.416626867063661
Jay and Fulmarine petrel,LU6 2DT,51.876320514661200,-0.584495885951821
Quetzal and Fish eagle,LU7 3DU,51.934384301947100,-0.656344296013598
Chicken and Parrotlet,LU6 3NS,51.877484562928200,-0.514799594181301
Quetzal and Tahr,AL3 8RS,51.834718150000000,-0.461662000000000
Solitaire and Coati,LU3 3PX,51.944784966574500,-0.438259227221579
Asiatic leopard and Rat,LU5 5YG,51.899882453276700,-0.507680318359143
Mouse and Skunk,LU4 9XP,51.903393477502300,-0.463984929959866
Marmoset and Mouse,LU2 9PH,51.857321800511100,-0.377685988864704
Darwin's finches and Scimitar babbler,LU2 8SY,51.888253287705000,-0.363392551400904
White ibis and Mamo,LU1 1QE,51.878359606897000,-0.430508471913885
Rabbit and Mouse,LU7 9AH,51.834190976338800,-0.646019314757789
Partridge and Vulture,LU6 1PZ,51.888609497932200,-0.527147729248359
Dorcopsis and Mockingbird,LU3 2RR,51.905716478855900,-0.456437000000000
Macaw and Mole,LU6 3TU,51.878490078342700,-0.511119944756622
Armadillo and Logrunners,MK45 4DS,52.006188443625100,-0.424102936301282
Jackal and Ibex,LU3 4DH,51.921785429745100,-0.440366305363469
Minke whale and Crow,LU2 9NR,51.882830769538600,-0.378293436421699
Black jay and Logrunners,MK45 5BB,52.002739000000000,-0.484630199196669
Triller and Dolphin,MK45 4BL,52.031541683532200,-0.407846850056170
Vole and Rat,LU6 3LG,51.873874564137100,-0.514453680602196
Greenbul and Mouse,MK17 8HF,52.034295000000000,-0.663097000000000
Partridge and Wallaby,MK45 2FF,52.026912000000000,-0.453737000000000
Ice seal and Macaw,LU1 1BY,51.879586206074200,-0.434838819339378
Maya and Grosbeak,LU4 9SQ,51.895759000000000,-0.455583000000000
Thrasher and Siskin,LU5 4FF,51.887821000000000,-0.512991000000000
Ibex and Snipe,LU3 3WD,51.879977000000000,-0.422926000000000
Ice seal and Night heron,MK45 4RJ,51.975000848029400,-0.442654005391528
Piping shrike and Skunk,AL5 2UB,51.820999000000000,-0.361666000000000
Scimitar babbler and Wader,LU1 2TQ,51.879315000000000,-0.414494000000000
Condor and Booted eagles,LU5 5EE,51.906657041562000,-0.516526925857847
Snipe and Kestrel,LU7 0BN,51.948971474225200,-0.656621391827447
Jerboa and Zebra,MK43 0RW,52.040444954550900,-0.555201653963332
Tree warbler and Mole,MK45 5HS,51.991499000000000,-0.456889909858948
Tree warbler and Fulmarine petrel,MK45 2TL,52.022486809340900,-0.492570429438756
Tree warbler and Tahr,MK45 5BS,52.008744000000000,-0.485878000000000
Mamo and Pitohui,MK45 5RP,52.016292304665800,-0.489106340277491
Masked owl and Grosbeak,LU1 1HP,51.884135360557900,-0.424684240651632
Kangaroo and New World blackbird,LU2 9PB,51.882035144867600,-0.382550099094772
Dolphin and Logrunners,LU1 3LD,51.876086000000000,-0.401794000000000
Hawaiian honeycreeper and Grosbeak,LU7 4DH,51.903938817900000,-0.649025586800000
Goose and Hawk,AL3 8AQ,51.828994690000000,-0.481159792000000
Egret and Booted eagles,LU1 1AA,51.879975639827700,-0.422926394139066
Zebra and Mouse,LU2 8SS,51.893671263620800,-0.372177168185890
Badger and Wader,MK45 4FW,52.007537613900000,-0.430728626200000
Chipmunk and Boto,LU4 0QQ,51.901824326340500,-0.494243306190914
Old World warbler and Ice seal,MK45 1QF,52.004437476683200,-0.507119176546123
Vole and Treepie,LU1 5DX,51.876178591251100,-0.418047304729619
Kite and Mockingbird,LU2 8JP,51.896620497271800,-0.381299694486532
Kestrel and American sparrow,LU4 8QQ,51.889986774200000,-0.461753750000000
Magpie and Parakeet,LU4 8FF,51.887059000000000,-0.443622000000000
Marmoset and Stint,MK45 1JE,51.997358000000000,-0.494041000000000
Parakeet and Kangaroo,LU5 5PW,51.911828404738800,-0.508693000000000
Magpie and Tattler,LU4 8FD,51.888928351991200,-0.454553158115667
Darwin's finches and Kestrel,LU1 5DN,51.875874000000000,-0.419384744892648
Condor and Ground sloth,LU4 9RS,51.897371156844700,-0.448377163117412
Old World vulture and Mole,LU7 0SH,51.857072540544500,-0.660782836413450
Francolin and Greenbul,LU1 4HA,51.866177000000000,-0.454970000000000
Crow and Capuchin,MK45 2BW,52.032211384403900,-0.473394321457680
Quetzal and Eagle,MK45 4HA,52.015656000000000,-0.427341000000000
Pitohui and Peafowl,LU3 1NQ,51.900757019746300,-0.425062229197303
Logrunners and Pitohui,MK45 2BF,52.028043000000000,-0.485460000000000
Siskin and Herring gull,LU3 3JH,51.923217541374100,-0.468630907920054
Skunk and Hawk,LU6 1LE,51.888048403603000,-0.523271755847818
Marmoset and Civet,MK45 2GN,52.033229000000000,-0.487355000000000
Civet and Rabbit,AL5 3LL,51.826036930000000,-0.374253636000000
Crow and Condor,LU4 0RT,51.899473034048000,-0.496705615623141
Triller and Minke whale,LU2 0FD,51.883432046777400,-0.415831178574242
Siskin and Snipe,LU7 3AA,51.922913040434800,-0.659653394063727
Recurvebill and Darwin's finches,MK17 8EL,52.010204394577100,-0.631796524090348
Flameback and Pitohui,MK17 8SU,52.017638000000000,-0.648667773035481
Rabbit and Gull,LU1 3UA,51.874448696608900,-0.418456656147793
Fish eagle and Perching duck,SG5 3JJ,51.960711981679300,-0.393037425885766
Solitaire and Shearwater,LU1 2NJ,51.880761193664700,-0.414472176568121
Coati and Rabbit,LU3 2EJ,51.908844591091400,-0.438866548272716
B and Vole,LU6 3NQ,51.877371936141300,-0.512290030740384
Capuchin and Perching duck,LU5 6RD,51.954624106000000,-0.508323093400000
Songlark and Dorcopsis,LU1 9DT,51.879975639827700,-0.422926394139066
Kangaroo and Siskin,LU5 4NL,51.892488603140400,-0.493349160280408
Ibex and Treepie,LU4 0UN,51.901694000000000,-0.495948000000000
Crow and Old World quail,LU2 0LN,51.886423075993600,-0.394365905992025
Parrotlet and Asiatic leopard,LU6 1AF,51.888261366921300,-0.541791903786620
Grouse and Mouse,LU4 0DS,51.893059114820000,-0.470788000000000
Kestrel and Thrasher,LU3 1UZ,51.903835160929600,-0.433371077431184
Masked owl and Scimitar babbler,LU5 5JN,51.912424295810100,-0.513254641136189
Dolphin and Songlark,LU2 7GY,51.908194271910300,-0.413099241630338
Nukupuʻu and Night heron,LU7 3HD,51.932227053668000,-0.665892125821600
Macaw and Chipmunk,LU7 3DF,51.936456990201100,-0.654391343560314
Capuchin and Grosbeak,LU7 3EE,51.925399710481200,-0.650649993082954
Nukupuʻu and Moluccan boobook,MK45 4QP,52.000246580017000,-0.426234519591452
B and Mink,LU6 1NL,51.891834332518200,-0.526896983492618
Recurvebill and Philippine hawk-owl,HP23 4NA,51.825464000000000,-0.665899000000000
Perching duck and Old World vulture,MK45 1XB,52.013845234960400,-0.499549326357845
Jay and Dorcopsis,LU2 8RU,51.894407917527100,-0.373429480129409
Zebra and Booted eagles,HP4 1PB,51.813489154805400,-0.563877909937657
Black jay and Jay,MK17 7BZ,52.034080000000000,-0.652957000000000
Armadillo and Solitaire,LU2 8AF,51.898062788148600,-0.386145981462869
Viscacha and Perching duck,LU6 1FJ,51.894724912900000,-0.537164698000000
Stilt and Ice seal,LU1 5SH,51.878409742494700,-0.441722385416879
Duck and Hawaiian honeycreeper,MK45 2SP,52.026350503261000,-0.487455574001601
Towhee and Cuscus,LU4 9HG,51.911835730472500,-0.479151634948235
Cuscus and Chicken,LU5 6JT,51.907361376924400,-0.526069240392415
Buzzard and Mockingbird,LU2 0LR,51.884813749768800,-0.397545000000000
Herring gull and Pratincole,LU4 0NS,51.897220125781700,-0.485095440746527
Pheasant and Capuchin,MK45 4EW,52.011049499147700,-0.425870111674576
Triller and Fox,MK45 2XG,52.028377756365400,-0.484982046752704
Argus and Grouse,LU7 1DY,51.915644263972400,-0.664071811880783
Civet and Stint,MK45 5EQ,52.001575000000000,-0.462040000000000
Cloud rat and Peafowl,LU3 2QS,51.901049964560400,-0.450517934107883
Macaw and Mole,LU6 1BN,51.896597873284000,-0.541899926586894
Ibex and Armadillo,LU5 5QW,51.900680605800000,-0.528773476500000
Mouse and Triller,LU7 4QS,51.911203869359600,-0.643748171114476
Vole and Wallaby,LU5 6JS,51.911366000593000,-0.531375553568749
Puffleg and Mouse,LU1 5RR,51.877527325196000,-0.447070051368804
Francolin and Eagle,LU5 4BY,51.882243152935400,-0.511402776847518
Myna and Fish eagle,LU4 9SX,51.896142384694300,-0.460249961283803
Kite and Parrotbill,LU2 7ET,51.917569785608600,-0.424270420217535
Pheasant and Minke whale,LU3 3PD,51.937403395626000,-0.480207468797785
Pratincole and Argus,LU2 0JB,51.882689963688600,-0.404829390197215
Snipe and Boto,MK17 8SD,52.011255878031400,-0.647326009997543
Dolphin and Guillemot,LU1 4NB,51.849829622827500,-0.426521130978959
Moluccan boobook and Fulmarine petrel,MK45 1FD,52.012513744574800,-0.498078442909553
New World blackbird and Logrunners,LU4 9YA,51.904449000000000,-0.475941000000000
Vulture and Parakeet,LU2 0QQ,51.887495339130600,-0.392554906566443
Wallaby and Condor,MK45 2GE,52.020274960800000,-0.502992332700000
Solitaire and Minke whale,LU5 4JD,51.890684554810200,-0.521252613703741
Grosbeak and Warbler,LU4 0GQ,51.898902000000000,-0.494123000000000
Shearwater and Armadillo,LU4 9TX,51.919027947105700,-0.493755066687362
Elephant and Parrotlet,MK17 9EG,51.977965599967000,-0.546568979371063
White ibis and White ibis,LU2 9AT,51.899160533429100,-0.391455463920120
Thicketbird and Jay,LU1 3TS,51.850205643697800,-0.373063000000000
Old World warbler and Thicketbird,LU6 3AE,51.884434968954500,-0.524799564335707
Skunk and Logrunners,LU5 5QQ,51.911666712857600,-0.504556455306171
Bronzewing pigeon and Magpie,LU5 5QH,51.902097000000000,-0.524177000000000
Flameback and Kestrel,LU5 6JW,51.913579665117000,-0.529355076570272
Dolphin and Mink,AL5 3HN,51.827570550000000,-0.381135052000000
Minke whale and Dorcopsis,LU5 4EN,51.875793405285500,-0.497742389742800
Francolin and Warbler,LU2 7LT,51.899163751613900,-0.407559922829376
Parrotlet and Badger,LU5 5TE,51.903678982213500,-0.505010693854774
Treepie and Nukupuʻu,LU4 8SH,51.890956153549700,-0.460398151164620
Badger and Polecat,LU2 9LL,51.886272256792700,-0.386626434107240
Zebra and Recurvebill,LU2 7LJ,51.896920000000000,-0.409078000000000
Petrel and Greenbul,LU3 4AF,51.919202417245900,-0.438827200639919
Vulture and Guillemot,AL5 3ES,51.822975940000000,-0.376583907000000
Kite and Stint,MK45 5LR,51.982198907009200,-0.501946632473358
Booted eagles and Booted eagles,LU7 3PJ,51.917231425883100,-0.647943189714861
Marsh harrier and Moluccan boobook,LU2 7SX,51.907979987250700,-0.414546020292776
Black cockatoo and Fish eagle,LU1 5EJ,51.872993850131200,-0.420599488320799
Civet and Zebra,LU1 3JE,51.878882736372500,-0.411719000000000
Petrel and Buzzard,LU4 9EG,51.910010000000000,-0.467234000000000
Peafowl and Zebra,LU4 0HF,51.893004556306700,-0.476851839648211
Pratincole and Tit-tyrant,LU2 7NN,51.910138357473000,-0.410573737873877
Pratincole and Ice seal,MK45 2PA,52.022956705118700,-0.499798291989307
Dolphin and Coati,LU7 4BU,51.905334302800000,-0.642151603600000
Badger and Shearwater,LU2 7YL,51.905871233952600,-0.409532336317977
Diving bird and Marsh harrier,LU1 5ED,51.874400767840600,-0.421029000000000
Fish eagle and Chipmunk,LU7 9EZ,51.826881534740100,-0.634411883974220
Songlark and Mamo,LU3 3AU,51.920461688343300,-0.471749330290064
Cuscus and Old World quail,LU6 2BN,51.889735520313100,-0.584466832375086
Guillemot and Darwin's finches,LU4 9RA,51.899524339541400,-0.458273886175196
Perching duck and Wader,AL5 3AR,51.822912970000000,-0.367297000000000
Night heron and Greenbul,LU2 8DG,51.917037030769000,-0.393506680100885
Black cockatoo and Viscacha,LU4 0SY,51.903337511527500,-0.498669800098838
Coati and Wader,LU4 8JU,51.890748676653800,-0.443940473568384
Gull and White ibis,LU1 5PX,51.872245493609200,-0.436604395086735
Tattler and Black cockatoo,MK45 1HJ,52.007197000000000,-0.489311000000000
Coati and Tahr,LU6 1GD,51.894689000000000,-0.532229000000000
Songlark and Buzzard,LU5 6GP,51.912081000000000,-0.539658000000000
Hawaiian honeycreeper and Ice seal,MK45 1FP,52.006333514283400,-0.497833687456393
Elephant and Partridge,LU7 2ZS,51.908028323070500,-0.656941915470946
Chipmunk and Mockingbird,LU2 0FN,51.884026829500000,-0.404477019000000
Nukupuʻu and Linsang,LU3 3DN,51.916681132873900,-0.463836874554600
Gull and Badger,LU7 1BW,51.918990731499200,-0.662634736631832
Bunting and Lemming,LU3 2PU,51.905351001971000,-0.444613391266079
Condor and Argus,LU5 5AS,51.896656824546900,-0.526419534890879
Skunk and Zebra,LU7 3BN,51.937448095874900,-0.657722003039514
Chipmunk and American sparrow,LU2 0TS,51.885037644502800,-0.414205468623991
Diving bird and Shearwater,LU6 2HN,51.871972000000000,-0.583964000000000
Old World vulture and Asiatic leopard,LU2 9TJ,51.890271230416700,-0.369495346384745
Old World quail and Mockingbird,LU7 9BL,51.893995647198200,-0.632988847441763
Guillemot and Tattler,LU7 9AY,51.835559496142500,-0.639940472907321
Triller and Lemming,MK17 8LL,52.026722681596700,-0.669597599961857
Mouse and Chipmunk,LU6 1QU,51.878375366359300,-0.560431381606262
Darwin's finches and Fish eagle,MK45 4LS,51.967097276266900,-0.426420642719440
Jay and Kākāriki,LU2 0LB,51.873550689511600,-0.393981889978571
Magpie and Parrotlet,LU3 2QN,51.904165964643900,-0.452256833187802
Triller and Night heron,LU7 0SG,51.855042982831200,-0.664168205569125
Ground sloth and Parrotbill,LU7 1GN,51.916903852979600,-0.659396126427895
Goose and Grosbeak,LU6 1PP,51.884643360441000,-0.534280778881046
Boto and Mink,LU5 4NP,51.892782632567900,-0.498062420875493
Polecat and Chickadee,LU2 7UP,51.902958154829500,-0.395637022886314
Treepie and Tahr,LU3 3FA,51.915267200000000,-0.472492834600000
Mole and Tattler,LU4 9QJ,51.892953534396300,-0.457060030074192
Wallaby and Hawk,LU2 7JW,51.891867816178900,-0.411945046310898
Grosbeak and Ground sloth,LU3 4HG,51.925346234162000,-0.435632689166655
Mamo and Capuchin,LU2 9PA,51.880128000000000,-0.381776000000000
Siskin and Greenbul,MK17 8DH,52.014568498482300,-0.620515954526819
Nukupuʻu and Philippine hawk-owl,LU2 7LH,51.894898970949300,-0.409352972138095
Prion and Parrotlet,MK43 0XB,52.008847664434500,-0.605043683097357
Mole and Fish eagle,LU3 2BU,51.916994943154300,-0.433073022091276
Thrasher and Guillemot,LU6 3JT,51.880700549480000,-0.532319000000000
Pheasant and Wallaby,LU6 3ER,51.876849145139100,-0.510767377180025
Cuscus and Wader,LU1 1JY,51.880198810216400,-0.434250928420225
Skunk and River dolphin,AL5 3QB,51.834389900000000,-0.393198355000000
Parrotlet and Francolin,LU3 1TZ,51.902769672723800,-0.426968728631780
Solitaire and Gull,LU6 2QR,51.887760732647600,-0.523993199429666
Piping shrike and Petrel,MK45 1BD,52.014276000000000,-0.501546000000000
Recurvebill and Elephant,LU3 3PJ,51.945019044076100,-0.445074844954909
Tattler and Wader,MK17 8QB,52.012763070687400,-0.653313046826243
Hawaiian honeycreeper and Grackle,MK17 8GT,52.016927000000000,-0.655636000000000
River dolphin and Tree warbler,LU7 1YX,51.920361087638800,-0.666127543274668
Badger and Polecat,LU2 8DY,51.899462470011400,-0.381342901964862
Buzzard and Pheasant,LU1 3AX,51.875654000000000,-0.413693000000000
Thicketbird and Rabbit,LU2 8DX,51.900498000000000,-0.380681000000000
Hawk and Skunk,LU7 4FF,51.907458946214800,-0.661421784535866
Recurvebill and Recurvebill,LU6 2AG,51.882610100826700,-0.542149113116927
Ground sloth and Duck,LU2 8LQ,51.920380365576600,-0.370498702649058
Fox and Hawaiian honeycreeper,LU5 5AF,51.894859366987300,-0.528643782628548
