name,postcode,lat,lon
Jay and Vulture,KA27 8EZ,55.502282742051100,-5.334269019128230
Perching duck and Grouse,KA27 8AY,55.576607460336500,-5.139106490178730
Chickadee and Old World vulture,KA27 8NU,55.522083449525100,-5.144648239419110
Pheasant and Solitaire,KA27 8JH,55.535026294513300,-5.126167834586890
Grouse and Darwin's finches,KA27 8GA,55.575966777582800,-5.158431217653150
Parrotbill and Guillemot,KA27 8FF,55.485054000660500,-5.096289742367130
Grosbeak and Recurvebill,KA27 8FD,55.633968643521700,-5.139278442323590
Fox and Goose,KA27 8DJ,55.578521245003600,-5.158731707794140
Hawk and Linsang,KA27 8SW,55.539434942202400,-5.120747105940210
Civet and Fulmarine petrel,KA27 8FG,55.483659000000000,-5.095324000000000
Darwin's finches and Bronzewing pigeon,KA27 8EA,55.552264424596700,-5.326941918511810
Greenbul and Wader,KA27 8DY,55.552364296889300,-5.341430901466460
Herring gull and Magpie,KA27 8PF,55.457605000000000,-5.272127000000000
Coati and Chickadee,PA20 9LS,55.775852000000000,-5.008476000000000
Tit-tyrant and Civet,KA27 8HB,55.505681504453400,-5.334920940105900
Fish eagle and Logrunners,KA27 8QS,55.484038812395700,-5.102388000000000
Myna and Flameback,KA27 8HJ,55.699484745644300,-5.279639533293550
Crow and Marmoset,KA27 8PX,55.492700007890700,-5.095780807713000
Armadillo and Quetzal,KA27 8PH,55.444937000000000,-5.224766000000000
Quetzal and Nukupu ªu,KA27 8NG,55.530274000000000,-5.133375648608120
Maya and Peafowl,PA28 6SD,55.588278719263300,-5.472154452516100
Old World quail and Flameback,PA28 6QS,55.536879000000000,-5.504862000000000
Kangaroo and Cloud rat,KA27 8LE,55.541679554663800,-5.118039488280130
Partridge and Wader,KA27 8EE,55.518967461036800,-5.306190292456020
B and Tahr,KA27 8JF,55.707063202519000,-5.285035904275020
Cloud rat and Duck,KA27 8HF,55.578715000000000,-5.159271000000000
Guillemot and Chickadee,KA27 8BY,55.573638628680700,-5.158418710232210
Marmoset and Grosbeak,KA27 8RD,55.503586000000000,-5.096905000000000
Cuscus and Viscacha,PA28 6SQ,55.592031214900000,-5.462197744696170
Polecat and Civet,PA20 9LT,55.765414000000000,-5.027906000000000
Vulture and Black jay,KA27 8DA,55.574609000000000,-5.167875000000000
