name,postcode,lat,lon
CAFFE ITALIA LTD,LE13 0PN,52.7639,-0.8867
Costa Coffee,LE13 0PU,52.7649,-0.8870
Mary's Place Cafe,LE13 1AE,52.7637,-0.8852
Pizza Express,LE13 1AE,52.7637,-0.8852
Amore Restaurant,LE13 1AF,52.7626,-0.8845
Harboro Hotel,LE13 1AF,52.7626,-0.8845
Melton spice ,LE13 1AF,52.7626,-0.8845
PURPLE GARLIC,LE13 1AF,52.7626,-0.8845
Coco cafe,LE13 1BU,52.7649,-0.8851
TRUT LTD (trading as Spice Club),LE13 1NW,52.7658,-0.8873
Time Out,LE13 1PJ,52.7654,-0.8870
CM Restaurants (Holdings) Ltd,LE13 1RB,52.7646,-0.8809
McDonalds,LE13 1RB,52.7645,-0.8815
Soi Indian restaurant ,LE13 1RF,52.7659,-0.8815
54a king street coffee shop,LE13 1XB,52.7650,-0.8861
Caffe Nero,LE13 1XD,52.7644,-0.8862
DESSERT CUPBOARD LTD,LE13 1XD,52.7642,-0.8863
Miss B's Tearooms,LE13 1XD,52.7645,-0.8859
More Coffee Co,LE13 1XD,52.7644,-0.8862
The Glass Pantry,LE13 1XH,52.7647,-0.8842
The Elms Cafe,LE13 1XJ,52.7644,-0.8842
sit and settle,LE13 1XJ,52.7644,-0.8842
Browsers Tea Shop,LE13 1XY,52.7648,-0.8844
TOGA RESTAURANT LTD T/A BELLINI,LE13 1YE,52.7657,-0.8858
The Berkeley Arms  Wymondham ,LE14 2AG,52.7603,-0.7398
Wymondham Windmill Tearooms,LE14 2BU,52.7626,-0.7404
The Kings Arms,LE14 4DW,52.8104,-0.8707
The Plough Inn,LE14 4HW,52.8720,-0.8547
THE THATCH RESTAURANT,NG13 0AA,52.9420,-0.8066
The Poppy Seed,NG13 0AH,52.9421,-0.8032
Little jacks farm & garden centre ltd,NG13 0AU,52.9442,-0.8141
Pauls Restaurant,NG13 0BW,52.9417,-0.8022
Windmill Inn,NG13 0GA,52.9106,-0.8156
Anchor Inn,NG13 0JJ,52.8980,-0.8599
The Orston Durham Ox LTD,NG13 9NS,52.9629,-0.8546
Iuliano's Italian Restaurant ,NG31 6BA,52.9092,-0.6406
Tinel Ltd,NG31 6BA,52.9092,-0.6406
shiva shakti company limited,NG31 6BA,52.9092,-0.6407
Costa Coffee,NG31 6BT,52.9070,-0.6434
Starbucks,NG31 6BT,52.9069,-0.6434
Costa Coffee,NG31 6EE,52.9098,-0.6428
BOMBAY BRASSERIE,NG31 6EY,52.9093,-0.6391
Pizza Hut Restaurant,NG31 6HS,52.9048,-0.6361
McDonalds,NG31 6HT,52.9022,-0.6348
Kitchen and Coffee,NG31 6LA,52.9109,-0.6450
Pizza Express,NG31 6LH,52.9122,-0.6432
Eden Wine Bar,NG31 6LJ,52.9134,-0.6440
Conduit Tea Gardens Ltd,NG31 6LQ,52.9128,-0.6444
Everest Inn Grantham LTD,NG31 6LT,52.9119,-0.6437
The Leaf Restaurant,NG31 6LT,52.9119,-0.6437
HOP SING LTD,NG31 6LU,52.9109,-0.6439
angelos coffee,NG31 6LX,52.9106,-0.6445
KATANA JAPANESE CUISINE GRANTHAM,NG31 6NJ,52.9115,-0.6434
Knightingales,NG31 6NJ,52.9115,-0.6434
Kings Walk Cafe,NG31 6NL,52.9117,-0.6433
Subway Grantham,NG31 6NN,52.9127,-0.6429
The Black Dog,NG31 6NS,52.9138,-0.6436
The Garden Yard,NG31 6NZ,52.9142,-0.6454
Teaspoon tea company,NG31 6PN,52.9130,-0.6426
Prezzo,NG31 6QF,52.9103,-0.6412
Finkins,NG31 6QZ,52.9129,-0.6413
Compass Group at Crown House Restaurant,NG31 6SY,52.9138,-0.6388
Avenue Hotel Grantham LTD,NG31 6TH,52.9113,-0.6379
CM Restaurants (Holdings) Ltd,NG31 7ES,52.9039,-0.6303
Fun Farm Grantham,NG31 7LE,52.9098,-0.6529
Grantham Bowl,NG31 7LE,52.9090,-0.6541
BURGER KING-Grantham,NG31 7SA,52.9020,-0.6509
Burger King,NG31 7SA,52.9023,-0.6510
Costa Coffee,NG31 7SA,52.9023,-0.6510
KFC Grantham DT,NG31 7SA,52.9022,-0.6511
KFC,NG31 7SA,52.9022,-0.6511
Buzz Bingo,NG31 7XQ,52.9070,-0.6650
Urban Hotel Grantham,NG31 7XT,52.9007,-0.6633
Moy Park,NG31 8HZ,52.9221,-0.6514
Recruiting Sergeant,NG31 8JP,52.9349,-0.6663
Miller & Carter Grantham,NG31 8SR,52.9179,-0.6640
Elior (Belton Lane Community Primary School),NG31 9PP,52.9256,-0.6266
The Gregory Arms,NG32 1AD,52.8880,-0.6876
The Chequers Inn,NG32 1LU,52.8981,-0.7563
The Rutland by Belvoir ltd,NG32 1NY,52.9069,-0.7481
The Fuel Tank,NG32 1PA,52.8961,-0.7831
Cafe Allez! Belvoir Castle,NG32 1PE,52.8947,-0.7827
The Geese and Fountain,NG32 1QR,52.8528,-0.7620
The Manners Arms,NG32 1RH,52.8729,-0.7736
The Wheel Inn,NG32 1RU,52.8568,-0.7986
BB's Coffee Shop c/o Boundary Mill Stores,NG32 2AB,52.9480,-0.6784
Downtown Garden Centre Restaurant,NG32 2AB,52.9481,-0.6785
Downtown Grantham Restaurant,NG32 2AB,52.9480,-0.6784
Moto 101 Ltd,NG32 2AB,52.9481,-0.6785
Syston Park Farm Shop Ltd,NG32 2BZ,52.9535,-0.6112
The Welby Arms ,NG32 2EA,52.9533,-0.7260
Burger King,NG32 2HB,52.9192,-0.7400
Moto Hospitality,NG32 2HB,52.9192,-0.7400
Belton Garden Centre,NG32 2LN,52.9432,-0.6271
Belton Woods,NG32 2LN,52.9432,-0.6271
The Stag,NG32 2NB,52.9631,-0.6144
Crown & Anchor,NG32 3LP,52.9339,-0.5509
The Houblon Arms,NG32 3NB,52.9394,-0.5080
The Green Man,NG33 4BE,52.8961,-0.5233
Lily's Lavender Hut,NG33 4NH,52.8132,-0.5195
The March Hare Tearooms,NG33 4NH,52.8131,-0.5191
The Woodhouse Arms,NG33 4NS,52.8108,-0.5167
Fox & Hounds ,NG33 4RZ,52.7545,-0.5380
Stoke Rochford Catering,NG33 5EW,52.8389,-0.6302
CM Restaurants (Holdings) Ltd,NG33 5FF,52.8305,-0.7001
McDonalds,NG33 5FF,52.8305,-0.7001
Cross Swords Inn,NG33 5HB,52.8215,-0.6681
Burger King,NG33 5JN,52.8035,-0.6077
OK Diner OK Diner New Fox,NG33 5LN,52.7657,-0.6106
Starbucks,NG33 5LN,52.7650,-0.6101
The White Lion,NG33 5NE,52.8072,-0.6205
The Angel inn,NG33 5PJ,52.7645,-0.6277
The Blue Cow Inn,NG33 5QB,52.7624,-0.6281
The Tollemache Arms,NG33 5SA,52.7961,-0.6957
