name,postcode,lat,lon
Zebra and Linsang,LE13 0AS,52.756289021185800,-0.882848804974287
Kangaroo and Masked owl,LE13 0QS,52.753606032220500,-0.886251241115960
perentie and Meadowlark,LE13 0RF,52.754324225084600,-0.886144023479066
Kite and diamondback,LE13 1AX,52.765126921577200,-0.877213056517547
Fulmarine petrel and Prion,LE13 1AY,52.763255978044600,-0.882818749306859
terrapin and gavial,LE13 1ET,52.759189223939700,-0.873912948734911
Egret and taipan,LE13 1EX,52.759329353838400,-0.872575635436877
Songlark and Gull,LE13 1LU,52.766228293235800,-0.882461083786363
Rabbit and Tahr,LE13 1ND,52.767506000000000,-0.884393244358955
Moluccan boobook and Flameback,LE13 1RP,52.776699162347800,-0.867975991071749
sand viper and Triller,LE13 1SP,52.765170664601700,-0.879938969822477
Minke whale and turtle,LE13 1YE,52.765471000000000,-0.885919000000000
bandy-bandy and dukite,LE14 2AL,52.760388690657300,-0.745265020708626
Recurvebill and Capuchin,LE14 2AP,52.760088915752100,-0.745821950381431
Maya and Macaw,LE14 2BB,52.760973689760300,-0.748730820598781
White ibis and gopher snake,LE14 2RX,52.771072535334600,-0.784476088484541
black snake and rat snake,LE14 4EJ,52.848566590945700,-0.851332676220910
Argus and black snake,LE14 4EZ,52.873545000000000,-0.853441563913912
American sparrow and Songlark,LE14 4HF,52.869763033247100,-0.853952219284470
pit viper and smooth snake,LE14 4RN,52.826489112532900,-0.738998221117774
Peafowl and Black cockatoo,LE14 4ST,52.817405598141100,-0.875540004561594
Parrotlet and sand lizard,LE15 7RG,52.752785615551100,-0.644180151005737
Cloud rat and anaconda,NG13 0AJ,52.942463655466300,-0.805572393726427
Pheasant and Fulmarine petrel,NG13 0AL,52.939895655968200,-0.806774030213837
Pratincole and Kestrel,NG13 0DW,52.936824740445400,-0.794657249599650
Flameback and Hawk,NG13 0EN,52.944578000000000,-0.798534000000000
Fulmarine petrel and horned toad,NG13 0ER,52.945373347990100,-0.798140307974405
Stilt and horned toad,NG13 0EX,52.942464531332200,-0.806718000000000
Bronzewing pigeon and gavial,NG13 0FT,52.942330197446100,-0.811989970894073
Francolin and diamondback turtle,NG13 0FU,52.936674337289200,-0.805582992555682
Tattler and Kestrel,NG13 9NL,52.960837000000000,-0.856440095424391
box turtle and Siskin,NG13 9NN,52.961230000000000,-0.856217309711836
Cloud rat and rock python,NG13 9NW,52.963268241177800,-0.855143955649057
Argus and copperhead,NG13 9NY,52.960457219029600,-0.856364544252830
Scimitar babbler and harlequin snake,NG31 0TH,52.910858820938800,-0.639487593593744
boa and Recurvebill,NG31 0TT,52.910858820938800,-0.639487593593744
Thicketbird and Wader,NG31 0ZZ,52.909785000000000,-0.640577000000000
Fish eagle and Condor,NG31 6BF,52.908387878854800,-0.641959089417132
Herring gull and Eagle,NG31 6ET,52.908253772296900,-0.638097076852959
Vole and chuckwalla,NG31 6HF,52.908349739989000,-0.635491806152302
Ground sloth and water snake,NG31 6HX,52.906914000000000,-0.638719000000000
diamondback terrapin and diamond snake,NG31 6JZ,52.910225283335500,-0.645411109721348
rattlesnake and jew lizard,NG31 6PG,52.912540300982400,-0.646602963614407
Logrunners and worm lizard,NG31 6PS,52.915337909905900,-0.643600755219754
Kangaroo and swift,NG31 6QU,52.912070930219600,-0.637784024537938
Rat and deaf adder,NG31 6RT,52.916470725311600,-0.642033459835686
Dorcopsis and Vulture,NG31 6SF,52.911823000000000,-0.640465251326605
Duck and Hawk,NG31 6TF,52.911496502735800,-0.638529000000000
Parakeet and sea snake,NG31 7DZ,52.909962415972500,-0.661881049958478
Diving bird and worm lizard,NG31 7EJ,52.910998000000000,-0.649268000000000
snake and deaf adder,NG31 7EN,52.903094826720200,-0.628832361505157
kabaragoya and Masked owl,NG31 7GX,52.900162113457400,-0.625550064647986
Ground sloth and B,NG31 7LQ,52.909963805515600,-0.662802982688970
Lemming and boa constrictor,NG31 7LS,52.909927731600500,-0.669198432202485
death adder and Marmoset,NG31 7PG,52.908427767149800,-0.657333492519461
Komodo dragon and Asiatic leopard,NG31 7QU,52.904634204847100,-0.659740558148089
black snake and thorny devil,NG31 7SS,52.904916684373600,-0.656891890565297
River dolphin and hawksbill,NG31 7SU,52.904051775200000,-0.651582000000000
caiman and Eagle,NG31 7TA,52.900694000000000,-0.612420000000000
Chicken and Siskin,NG31 7TB,52.901434665791300,-0.612827629268394
Partridge and sand viper,NG31 7UJ,52.894070163728600,-0.636757886438337
lizard and king cobra,NG31 7XJ,52.902711380751000,-0.666222904596688
sand viper and bearded dragon,NG31 8BS,52.930384126000900,-0.643338747984072
Mockingbird and gavial,NG31 8BX,52.916948609248800,-0.639014164763743
Guillemot and swift,NG31 8DY,52.929721300520700,-0.642764376208958
Chickadee and constrictor,NG31 8EB,52.926235623611000,-0.638261772936246
New World blackbird and Ice seal,NG31 8ED,52.923809823323800,-0.640747692315945
viper and Meadowlark,NG31 8GQ,52.926481895814000,-0.661520509455507
monitor and turtle,NG31 8LJ,52.933675000000000,-0.668764153108195
Old World quail and Night heron,NG31 8NG,52.929538354931600,-0.632296461762309
boomslang and Rat,NG31 8PS,52.935302022508600,-0.660013427534033
chameleon and Mamo,NG31 8PY,52.929213542633400,-0.636888882805100
asp and python,NG31 8PZ,52.928552734368200,-0.636493084819918
python and milk snake,NG31 8QB,52.928913734957800,-0.650793511975604
Stint and Grackle,NG31 8QJ,52.926876099047200,-0.651065132221519
Hawaiian honeycreeper and turtle,NG31 8RJ,52.915152431764600,-0.670941947058775
Duck and Cuscus,NG31 8SG,52.914973328531600,-0.662990758787407
puff adder and Stint,NG31 8UR,52.918529796400000,-0.666480709400000
River dolphin and leathery turtle,NG31 8US,52.917495446000000,-0.665188000000000
box turtle and diamond python,NG31 8WS,52.920649000000000,-0.662842000000000
Mamo and Hawk,NG31 8XE,52.921258000000000,-0.664161000000000
tree snake and diamondback turtle,NG31 9BG,52.917469873852900,-0.631174524359444
Fish eagle and Moluccan boobook,NG31 9DN,52.912415952755600,-0.626366787163487
gopher snake and Siskin,NG31 9FA,52.926245808800000,-0.628800282400000
Chickadee and adder,NG31 9JN,52.924951215115300,-0.628201433488074
hoop snake and Perching duck,NG31 9LD,52.916335361824100,-0.626346886226678
Parrotlet and Badger,NG31 9LF,52.917228601738400,-0.627404360002628
moloch and Logrunners,NG31 9NE,52.918472694934600,-0.617622843573686
thorny devil and gaboon viper,NG31 9QX,52.920727801859200,-0.615959470689553
Recurvebill and Solitaire,NG31 9RN,52.922395901574600,-0.619476257306113
Songlark and blue racer,NG31 9SP,52.924748000000000,-0.602146000000000
Treepie and water snake,NG31 9UN,52.915174959598800,-0.610053670383655
Grosbeak and Egret,NG32 1AN,52.858425842472500,-0.698564170982482
amethystine python and Macaw,NG32 1AS,52.888497335987500,-0.687125819718231
Black jay and blind snake,NG32 1AW,52.854723000000000,-0.690358000000000
deaf adder and swift,NG32 1DF,52.909893894559400,-0.687980939544796
diamondback and leathery turtle,NG32 1DH,52.903332698283700,-0.697100091557189
thorny devil and bushmaster,NG32 1DJ,52.912144000000000,-0.689700808268318
tortoise and Marmoset,NG32 1DU,52.915744064936300,-0.695121425837436
Civet and cobra de capello,NG32 1HL,52.885946342449600,-0.692211476758373
Lemming and slowworm,NG32 1JQ,52.884459798929300,-0.688449000000000
sidewinder and rattlesnake,NG32 1JW,52.881947458672100,-0.708797690291988
Philippine hawk-owl and giant tortoise,NG32 1LB,52.882700215144300,-0.710231724054047
carpet snake and dugite,NG32 1LH,52.883091000000000,-0.713044000000000
kabaragoya and Treepie,NG32 1LY,52.898554735736200,-0.757111039569787
king snake and Maya,NG32 1NN,52.886032000000000,-0.757885000000000
Logrunners and king snake,NG32 1PF,52.895858000000000,-0.778684000000000
Fox and Badger,NG32 1QY,52.839729528301300,-0.780125315716404
Polecat and Chipmunk,NG32 1RW,52.871411000000000,-0.774884000000000
python and chuckwalla,NG32 2BF,52.952812000000000,-0.729269000000000
Old World quail and Marmoset,NG32 2BP,52.941056000000000,-0.681622000000000
viper and chuckwalla,NG32 2DT,52.952485594306100,-0.723250230647635
Komodo dragon and Mamo,NG32 2DX,52.952133242256500,-0.721414873477488
Masked owl and moloch,NG32 2EJ,52.941033168384200,-0.729182656116661
diamond snake and constrictor,NG32 2FG,52.947865736630100,-0.719992819433154
harlequin snake and Hawk,NG32 2NJ,52.961471188038400,-0.617576866293530
Flameback and flying dragon,NG33 4AB,52.891194514119700,-0.576021000000000
harlequin snake and alligator,NG33 4AH,52.893365836173500,-0.573828000000000
green turtle and Macaw,NG33 4AS,52.902889259965700,-0.543569268293530
Vulture and Kākāriki,NG33 4BL,52.898841043675000,-0.525136136749362
loggerhead and Lemming,NG33 4DG,52.867795247391300,-0.557848133716790
boomslang and water snake,NG33 4EH,52.859303080951700,-0.497230429136773
saltwater crocodile and Moluccan boobook,NG33 4ER,52.859541342594700,-0.502702000000000
sea snake and Guillemot,NG33 4NE,52.822410175775200,-0.503163578211940
deaf adder and taipan,NG33 4QX,52.750733000000000,-0.500436000000000
Fox and leguaan,NG33 4RT,52.756804642164200,-0.536606000000000
Wader and Logrunners,NG33 5AU,52.828657000000000,-0.605573000000000
alligator and Wader,NG33 5ED,52.836370003434500,-0.635803935373163
Towhee and Black jay,NG33 5EH,52.849692847467000,-0.665828798023805
Asiatic leopard and glass snake,NG33 5EL,52.836983000000000,-0.635042000000000
Mamo and harlequin snake,NG33 5EZ,52.820181778142100,-0.668528354644426
Polecat and Chickadee,NG33 5HJ,52.818553000000000,-0.694977000000000
racer and Siskin,NG33 5HZ,52.805011140464600,-0.621683753479934
Rabbit and Coati,NG33 5JU,52.803771545259600,-0.619453289259436
tuatara and wall lizard,NG33 5LU,52.788131639342000,-0.588377266895004
rattlesnake and Ground sloth,NG33 5PG,52.807642468724100,-0.626095756436689
Magpie and Black jay,NG33 5QT,52.795699000000000,-0.659443000000000
