name,id,postcode,lat,lon
crocodile and saltwater crocodile,706246,NG31 8BP,52.914823178056200,-0.655261815970138
Marsh harrier and frill-necked lizard,705083,NG33 4BZ,52.897570244849400,-0.532136832043553
puff adder and saltwater crocodile,706220,NG31 9HJ,52.919333823793300,-0.636128229510559
Herring gull and Solitaire,704686,NG33 5RQ,52.785820641796700,-0.684568720896314
Chickadee and Scimitar babbler,720482,NG13 9PG,52.958243309431700,-0.853311599906973
box turtle and amphisbaena,721017,NG13 0AR,52.943994995739900,-0.808566154609820
Capuchin and Fox,706139,NG31 8AB,52.916262865582200,-0.651409799014515
River dolphin and Rabbit,706632,NG31 6PD,52.915705512716200,-0.646667892071306
Civet and Siskin,704676,NG33 5RA,52.767140635498600,-0.628334360317927
Polecat and bicycle lizard,706329,NG31 7FP,52.899305000000000,-0.648680000000000
rat snake and diamond snake,705909,NG31 9QF,52.922748051349200,-0.622707811663396
chuckwalla and cayman,920266,LE13 1NL,52.767936472106600,-0.885337247015834
turtle and Partridge,706027,NG31 8PH,52.914003371015700,-0.652729228429032
copperhead and Darwin's finches,706254,NG31 8BZ,52.917017678728300,-0.640335698928875
Guillemot and Dolphin,706882,NG31 0SP,52.910858820938800,-0.639487593593744
sea snake and horned viper,704733,NG33 5SG,52.794675097127400,-0.701107000000000
Treepie and Kangaroo,721015,NG13 0AP,52.941592642372100,-0.811950646596962
Philippine hawk-owl and wall lizard,720660,NG13 0FZ,52.941372859424000,-0.807060779782967
tortoise and Stint,706095,NG31 8TR,52.909668000000000,-0.640577093679687
Bronzewing pigeon and Hawaiian honeycreeper,704933,NG33 5BW,52.862583643108200,-0.628653985154198
blue tongue and New World blackbird,706552,NG31 6LU,52.910881825687000,-0.644021000000000
Tit-tyrant and Schneider python,706835,NG31 0AR,52.909668000000000,-0.640577093679687
Philippine hawk-owl and Perching duck,705184,NG33 4LH,52.795472560974200,-0.528101072446168
lizard and Tree warbler,704958,NG33 5ED,52.836370003434500,-0.635803935373163
Songlark and Thicketbird,1796591,NG31 6FA,52.910003840500000,-0.636867504200000
pit viper and green turtle,920594,LE13 1EU,52.759182069962300,-0.874920000000000
saltwater crocodile and frill-necked lizard,919911,LE14 4QS,52.810562000000000,-0.733287000000000
Partridge and milk snake,706453,NG31 7LE,52.909772000000000,-0.652875000000000
whip snake and crocodile,705921,NG31 9QW,52.921146753922400,-0.619515987215933
worm lizard and Rat,706410,NG31 8LT,52.934924353674600,-0.663997820526119
king cobra and Viscacha,2254994,NG13 0EZ,52.943432000000000,-0.803949000000000
galliwasp and harlequin snake,705891,NG31 9PH,52.922932675608700,-0.630124617050891
diamondback terrapin and Ground sloth,705509,NG32 2EY,52.932031566395900,-0.724729975110589
Grackle and Snipe,706915,NG31 6BH,52.909555000000000,-0.644837000000000
Logrunners and Old World vulture,706363,NG31 8HG,52.927147296137300,-0.659937957738004
diamond snake and bandy-bandy,705120,NG33 5NE,52.807039000000000,-0.620532668227276
Capuchin and American sparrow,920359,LE13 1TJ,52.770239774169300,-0.886493879841071
mountain devil and B,920410,LE13 1ZG,52.768344870886000,-0.867703530418370
indigo snake and Guillemot,706255,NG31 8DA,52.917263553388200,-0.640610587240061
milk snake and asp,705136,NG33 4EZ,52.859384053995400,-0.499690000000000
Piping shrike and harlequin snake,706625,NG31 6NR,52.913092903737500,-0.643031408330909
horned toad and Marsh harrier,1796047,NG13 0HX,52.905749372100000,-0.844423702400000
Grosbeak and rock python,705061,NG33 4AS,52.902889259965700,-0.543569268293530
flying lizard and slowworm,705471,NG32 2BZ,52.953485439117900,-0.611073000000000
blue tongue and Diving bird,705917,NG31 9QR,52.921368000000000,-0.617560000000000
garter snake and turtle,705662,NG32 1DQ,52.909230211390500,-0.688937819178429
Skunk and Meadowlark,704955,NG33 5DZ,52.863127215590800,-0.625903600067310
leathery turtle and Wader,920059,LE14 2AU,52.759079761348700,-0.746458514936782
blue racer and kabaragoya,720748,NG13 0JE,52.896670901761100,-0.860630857291428
Jay and Gila monster,707013,NG31 6HR,52.906499000000000,-0.638613000000000
leguaan and puff adder,706666,NG31 6RS,52.915321098716800,-0.642128908747124
blindworm and blue tongue,920644,LE13 0AL,52.750989382770700,-0.881636000000000
White ibis and dugite,704995,NG33 5HU,52.804876736086100,-0.620174858749681
Kite and Marmoset,705403,NG32 3QD,52.959135167790400,-0.543168786763327
brown snake and Tree warbler,919439,LE14 4SQ,52.779983000000000,-0.834710000000000
Grosbeak and Dolphin,920535,LE13 1AA,52.765127633729400,-0.876338608161401
Marsh harrier and cobra de capello,705665,NG32 1DT,52.915909265469700,-0.693972000000000
tuatara and Pheasant,706069,NG31 8RS,52.914006736523100,-0.658588680047214
kabaragoya and Rabbit,705986,NG31 9TN,52.921450767153200,-0.610120451919853
brown snake and alligator,706895,NG31 0TE,52.910858820938800,-0.639487593593744
Tit-tyrant and Tree warbler,705114,NG33 5LW,52.809654613530000,-0.638435521871485
leguaan and Tahr,706879,NG31 0SH,52.910858820938800,-0.639487593593744
Old World quail and Herring gull,705427,NG32 1TB,52.912788510749000,-0.687967832016416
snake and bandy-bandy,706371,NG31 8HS,52.926641672468600,-0.654970011017812
loggerhead and Flameback,704634,NG33 5NY,52.811399294814200,-0.628336396360723
pit viper and Flameback,705708,NG32 1JB,52.886665096054600,-0.686467765971887
amphisbaena and Magpie,705586,NG32 2LX,52.951801000000000,-0.617345000000000
rock snake and mud turtle,1796592,NG31 7EU,52.910832160600000,-0.654580000000000
mud turtle and Quetzal,706909,NG31 6AP,52.909668000000000,-0.640577093679687
Black jay and ringhals,706277,NG31 8ED,52.923809823323800,-0.640747692315945
Warbler and Maya,706513,NG31 7QP,52.905362572414200,-0.658959762114815
Dolphin and Tahr,705324,NG33 4QB,52.767551760636200,-0.501058428897435
Cloud rat and dukite,920599,LE13 1FE,52.778852045567700,-0.879795377418386
jew lizard and viper,720630,NG13 0EJ,52.944015253083700,-0.798966689288289
Parrotbill and crocodile,706003,NG31 9UJ,52.920402924728400,-0.609692902819265
Viscacha and tortoise,920652,LE13 0AW,52.751798523305200,-0.884282312545070
wall lizard and harlequin snake,920407,LE13 1YU,52.768344870886000,-0.867703530418370
terrapin and Bronzewing pigeon,705625,NG32 1AQ,52.872509271988800,-0.690847571462510
flying dragon and Snipe,920047,LE14 2AB,52.759685000000000,-0.739855187935099
diamond python and sea snake,706385,NG31 8JN,52.930465501476000,-0.654449788650042
dugite and Herring gull,705989,NG31 9TR,52.922305133787300,-0.609379098437238
puff adder and Minke whale,706388,NG31 8JR,52.935992911829100,-0.667089607173363
lizard and Skunk,706276,NG31 8EB,52.926235623611000,-0.638261772936246
giant tortoise and Dolphin,720421,NG13 9LH,52.951484988785300,-0.852773000000000
Argus and brown snake,919776,LE14 4HY,52.870648460110600,-0.856276265092463
blindworm and monitor,705680,NG32 1EN,52.908886116125400,-0.689528143930451
indigo snake and Mockingbird,706060,NG31 8RF,52.913854662838000,-0.670654491595470
horned toad and carpet snake,705976,NG31 9SZ,52.919122612416300,-0.607071498978584
fer-de-lance and Thrasher,706243,NG31 8BJ,52.916634550878700,-0.643783336533924
Prion and kabaragoya,705913,NG31 9QL,52.926679947672000,-0.619890404035039
Fulmarine petrel and Flameback,706916,NG31 6BJ,52.909095154246900,-0.644851550860331
flying lizard and gavial,2636137,NG31 8WP,52.921135000000000,-0.663615000000000
Viscacha and Maya,706664,NG31 6RQ,52.913790000000000,-0.642555634899097
Marmoset and galliwasp,920284,LE13 1PR,52.777383075391400,-0.883228013231362
Masked owl and Wader,920374,LE13 1UE,52.773400094816500,-0.880320731637231
Cuscus and Old World quail,706082,NG31 8SH,52.914608000000000,-0.660816000000000
Parrotbill and worm lizard,706228,NG31 8AQ,52.915205291156400,-0.651695480746122
Old World quail and Stilt,706304,NG31 8FQ,52.932238291080800,-0.645899342926602
black snake and anaconda,706168,NG31 9DJ,52.911270112435000,-0.629124443647948
Philippine hawk-owl and Pratincole,920259,LE13 1LY,52.766169424928900,-0.882892405380266
Ground sloth and garter snake,920614,LE13 1HQ,52.757822901066000,-0.872199000000000
American sparrow and rock snake,705875,NG31 9NP,52.919207670285700,-0.615888948760703
bull snake and bearded dragon,706438,NG31 7JF,52.896185133987500,-0.651929054681195
Condor and jew lizard,706794,NG31 7DT,52.910762394452600,-0.659477061831093
puff adder and Minke whale,705191,NG33 4LT,52.813789659207300,-0.520464051070147
diamond snake and brown snake,705317,NG33 4PT,52.752411213566300,-0.496732964665973
boa constrictor and blue tongue,704992,NG33 5HQ,52.822819291335100,-0.669635003008467
Eagle and Grosbeak,704964,NG33 5EL,52.836983000000000,-0.635042000000000
Darwin's finches and New World blackbird,920264,LE13 1NG,52.776537733154600,-0.872738918026625
Kangaroo and amphisbaena,705579,NG32 2LN,52.943179189176100,-0.627104089668864
Duck and kabaragoya,705991,NG31 9TT,52.916359540846100,-0.605271302589755
B and cayman,920645,LE13 0AN,52.755107161347100,-0.884702000000000
Marsh harrier and Stint,706025,NG31 8PF,52.913810770367200,-0.652393151060485
Viscacha and smooth snake,706712,NG31 7AS,52.908362730870000,-0.649216461557651
Scimitar babbler and ringhals,920544,LE13 1AR,52.763749826743600,-0.883710155157457
Bronzewing pigeon and wall lizard,919774,LE14 4HW,52.871999399094300,-0.854665863061536
Gila monster and Marmoset,2655733,NG33 5FF,52.830541000000000,-0.700059000000000
Rat and diamondback terrapin,704626,NG33 5NP,52.808980834823600,-0.633783192202284
Triller and sea snake,705183,NG33 4LG,52.791800281647600,-0.538147000000000
Grosbeak and Snipe,920332,LE13 1RW,52.775546295264100,-0.869636580227774
Chicken and Ground sloth,1788181,LE14 4WD,52.768347392491700,-0.867703578228349
Pratincole and grass snake,705392,NG32 3PQ,52.974999352396100,-0.505253545488118
taipan and boa constrictor,706984,NG31 6DP,52.909011024640800,-0.642207266746041
Stint and flying lizard,920297,LE13 1QH,52.769447806000400,-0.876864759628895
king snake and frill-necked lizard,720628,NG13 0EG,52.940799781083400,-0.789502157399081
green turtle and Black jay,1796568,NG31 0FU,52.909668000000000,-0.640577121500000
cobra de capello and king cobra,920649,LE13 0AS,52.756289021185800,-0.882848804974287
Old World quail and python,920216,LE14 2SH,52.756229879662900,-0.803930324924886
Goose and cayman,705075,NG33 4BP,52.898403023844400,-0.526786361947023
galliwasp and Cloud rat,2258055,NG31 6PF,52.916793000000000,-0.647805000000000
River dolphin and Fish eagle,706205,NG31 9GB,52.924963824924500,-0.616880565352015
boa and bull snake,705676,NG32 1EG,52.924232287093200,-0.691192014616034
caiman and Siskin,706707,NG31 7AJ,52.906963860019700,-0.648739537190215
Tit-tyrant and sidewinder,705221,NG33 4PF,52.789883000000000,-0.491719000000000
slowworm and mud turtle,721105,NG13 0DB,52.942693221563200,-0.798438000000000
giant tortoise and Badger,705679,NG32 1EL,52.916386689244400,-0.687353420098153
indigo snake and skink,705973,NG31 9SW,52.923237866408900,-0.607653439024309
bandy-bandy and glass snake,919767,LE14 4HJ,52.872783252689500,-0.860320000000000
indigo snake and worm lizard,704633,NG33 5NX,52.809615720916100,-0.634267725495727
Argus and Moluccan boobook,706693,NG31 6TL,52.910950141713200,-0.638042250095916
alligator and puff adder,705066,NG33 4AZ,52.892353233309500,-0.539938708441259
