name,postcode,lat,lon
Herring gull and Tree warbler,LE13 0AB,52.753884248405300,-0.882376903975876
horned viper and rock snake,LE13 0AZ,52.750995845429900,-0.877339274248611
black snake and hognose snake,LE13 1AD,52.763779686995000,-0.879248456092718
Kite and Argus,LE13 1BE,52.764019718454000,-0.881628000000000
Partridge and elapid,LE13 1BH,52.763457585880300,-0.881316742864048
Marsh harrier and hognose snake,LE13 1DQ,52.752442059404900,-0.875316685177472
cayman and Puffleg,LE13 1EB,52.779343820007200,-0.880464733448122
Grouse and asp,LE13 1EJ,52.759064483733300,-0.872137910227753
Vole and Marsh harrier,LE13 1EL,52.757652770955400,-0.870218353715536
Black cockatoo and Parrotlet,LE13 1EW,52.759957267936400,-0.875406000000000
Boto and Petrel,LE13 1GY,52.779684900217600,-0.887097933802612
cerastes and Vole,LE13 1JR,52.774978484744300,-0.887425000000000
Parakeet and Cloud rat,LE13 1ND,52.767506000000000,-0.884393244358955
dugite and water snake,LE13 1NL,52.767936472106600,-0.885337247015834
Civet and copperhead,LE13 1NP,52.782639000000000,-0.885355000000000
harlequin snake and Chipmunk,LE13 1QZ,52.767947406090600,-0.876962650843788
Ground sloth and Quetzal,LE13 1RL,52.768344870886000,-0.867703530418370
Recurvebill and boomslang,LE13 1RW,52.775546295264100,-0.869636580227774
Puffleg and galliwasp,LE13 9EE,52.768347392491700,-0.867703578228349
Ice seal and Old World quail,LE14 2RX,52.771072535334600,-0.784476088484541
Cuscus and diamondback,LE14 4BU,52.872831365470800,-0.886379681201360
gopher snake and habu,LE14 4EX,52.886332000000000,-0.881293000000000
Solitaire and worm lizard,LE14 4EY,52.872371962413700,-0.853214881191798
mamba and Mouse,LE14 4PX,52.809304000000000,-0.730036533918784
ringhals and rattlesnake,LE14 4QN,52.813067740935200,-0.840472981531258
tokay and moloch,LE14 4QR,52.826380723693400,-0.737042331897078
Gull and dugite,LE14 4SD,52.777312000000000,-0.852127000000000
Dolphin and Linsang,LE14 4ZH,52.768344870886000,-0.867703530418370
gecko and diamondback,NG13 0AB,52.941058658367300,-0.804420600721805
Mouse and grass snake,NG13 0AD,52.940844309951200,-0.804560437080286
Tit-tyrant and thorny devil,NG13 0AX,52.937187759093900,-0.807473456574969
Petrel and thorny devil,NG13 0BN,52.938965000000000,-0.804419000000000
Grosbeak and Warbler,NG13 0EG,52.940799781083400,-0.789502157399081
Lemming and Maya,NG13 0EQ,52.973749632781600,-0.783563056805479
bandy-bandy and amethystine python,NG13 0ER,52.945373347990100,-0.798140307974405
amphisbaena and rat snake,NG13 0FP,52.942544784331100,-0.812772813664553
Mink and brown snake,NG13 0FW,52.936932109508000,-0.806185959154352
boa and puff adder,NG13 0FZ,52.941372859424000,-0.807060779782967
Jerboa and Darwin's finches,NG13 0GP,52.905555120300000,-0.790588858900000
bearded dragon and Kangaroo,NG13 0HQ,52.894770010611700,-0.816085401632009
Songlark and Snipe,NG13 0WG,52.909690000000000,-0.640635000000000
Dorcopsis and Zebra,NG13 9FA,52.937470737800000,-0.873070522400000
soft-shelled turtle and Petrel,NG13 9LD,52.941230745900300,-0.852898276739023
Lemming and Ice seal,NG13 9NQ,52.970027000000000,-0.843753000000000
Pratincole and Logrunners,NG31 0SD,52.910858820938800,-0.639487593593744
wall lizard and Gila monster,NG31 6DA,52.908890968511000,-0.641928486042888
leguaan and bull snake,NG31 6DY,52.910564064180300,-0.643586302657498
Myna and snake,NG31 6ET,52.908253772296900,-0.638097076852959
carpet snake and Booted eagles,NG31 6HA,52.909870026353400,-0.637927421795749
bicycle lizard and cycling lizard,NG31 6JR,52.906139738285700,-0.636142000000000
turtle and gavial,NG31 6JT,52.903523891874800,-0.634082236521490
Wallaby and agama,NG31 6LE,52.912037000000000,-0.644109660471263
Mockingbird and tokay,NG31 6LU,52.910881825687000,-0.644021000000000
bearded lizard and Jackal,NG31 6PE,52.915901345669400,-0.647286438062318
gavial and mud turtle,NG31 6SU,52.916361645265200,-0.640356245362451
mud turtle and soft-shelled turtle,NG31 6TJ,52.911090263765200,-0.639287018936373
amethystine python and Siskin,NG31 7AT,52.906822991414300,-0.647420532883468
smooth snake and gecko,NG31 7FX,52.899170000000000,-0.647124000000000
Rat and bicycle lizard,NG31 7GQ,52.902830580200000,-0.647946397000000
Towhee and Cloud rat,NG31 7JR,52.897779868266900,-0.657796401662438
Old World warbler and Chipmunk,NG31 7JY,52.899408421305400,-0.656823000000000
Peafowl and black snake,NG31 7NA,52.909551101856900,-0.671693334437075
Moluccan boobook and cobra de capello,NG31 7NQ,52.908659039449500,-0.673118411121259
skink and Shearwater,NG31 7NR,52.909668000000000,-0.640577093679687
Greenbul and green turtle,NG31 7NT,52.905123047558300,-0.652885767327021
Greenbul and Old World quail,NG31 7QB,52.905859123178900,-0.658349662731264
Fox and gecko,NG31 7QY,52.904021655497300,-0.660428544622476
bushmaster and kabaragoya,NG31 7SG,52.900269027969200,-0.654523029990064
indigo snake and Goose,NG31 7WU,52.903376733100000,-0.641446796400000
frilled lizard and flying lizard,NG31 8AL,52.915988210632000,-0.657322773136510
Black cockatoo and Asiatic leopard,NG31 8AN,52.916845487723800,-0.645725104696622
saltwater crocodile and hawksbill,NG31 8BQ,52.916377477093600,-0.642527179181463
Petrel and Piping shrike,NG31 8DP,52.926520847976100,-0.644337223023695
Ibex and Black jay,NG31 8DU,52.927254208505300,-0.636147094814741
anaconda and Ice seal,NG31 8EB,52.926235623611000,-0.638261772936246
hognose snake and chameleon,NG31 8EL,52.925172664220200,-0.644364460586405
worm lizard and Kākāriki,NG31 8ER,52.927643134270800,-0.641847513658675
Jerboa and Prion,NG31 8FL,52.916788687407100,-0.644685770769432
Fox and Jackal,NG31 8FU,52.927287056298800,-0.664366842464203
constrictor and mud turtle,NG31 8GA,52.927785761711600,-0.660751336331581
Magpie and Partridge,NG31 8HG,52.927147296137300,-0.659937957738004
frilled lizard and Jerboa,NG31 8JJ,52.929511950209300,-0.653601597125263
black snake and perentie,NG31 8JL,52.929787219487900,-0.654887388207890
Wader and Francolin,NG31 8LJ,52.933675000000000,-0.668764153108195
green turtle and Badger,NG31 8QB,52.928913734957800,-0.650793511975604
snake and giant tortoise,NG31 8RQ,52.912894003198100,-0.665954745274873
Tit-tyrant and dukite,NG31 8RZ,52.914192557708600,-0.664604000000000
Argus and sea snake,NG31 8SH,52.914608000000000,-0.660816000000000
Scimitar babbler and worm lizard,NG31 8UE,52.918073712486100,-0.654923152613928
gopher snake and Fish eagle,NG31 8UF,52.916560000000000,-0.668103000000000
boa and Masked owl,NG31 8XJ,52.921466000000000,-0.666684000000000
crocodile and thorny devil,NG31 9AZ,52.916669199827200,-0.632687062358917
jew lizard and Crow,NG31 9BL,52.917900939687000,-0.628796069834037
brown snake and bandy-bandy,NG31 9FP,52.923800569031700,-0.609643566866073
king cobra and giant tortoise,NG31 9HX,52.919398079086400,-0.630771622989194
Piping shrike and Moluccan boobook,NG31 9JY,52.915502649597800,-0.624305951673794
amethystine python and Masked owl,NG31 9LJ,52.919043580982800,-0.624208610327882
Booted eagles and adder,NG31 9PP,52.924942000000000,-0.625732000000000
turtle and Chipmunk,NG31 9PR,52.924050251514000,-0.628810053776471
Cuscus and Pheasant,NG31 9RA,52.923051016147300,-0.615513509292127
taipan and Pheasant,NG31 9UF,52.916656516061200,-0.607596816376325
wall lizard and Zebra,NG31 9UL,52.920393459869200,-0.608116536797381
viper and Chipmunk,NG32 1AB,52.896695437424100,-0.679757282825455
Old World quail and Bronzewing pigeon,NG32 1AS,52.888497335987500,-0.687125819718231
cobra and Cloud rat,NG32 1BN,52.917458495614200,-0.685908067831676
Argus and fer-de-lance,NG32 1DD,52.909859277101300,-0.685662187843155
smooth snake and anole,NG32 1DN,52.915333441272400,-0.692932657755260
king snake and Pratincole,NG32 1DR,52.911143718804400,-0.709342428072116
Grosbeak and tortoise,NG32 1HQ,52.884217729438600,-0.695459000000000
bearded dragon and leguaan,NG32 1PT,52.878063000000000,-0.754123200374634
giant tortoise and Meadowlark,NG32 1QF,52.852895543996200,-0.760613478106664
thorny devil and constrictor,NG32 1QY,52.839729528301300,-0.780125315716404
Greenbul and taipan,NG32 1RU,52.856746587651500,-0.799325000000000
Mole and Viscacha,NG32 1SG,52.853080203424200,-0.816611045421255
agamid and copperhead,NG32 2BX,52.958263000000000,-0.617671161312581
jew lizard and Meadowlark,NG32 2DS,52.954096784432400,-0.724274548087988
Booted eagles and diamondback terrapin,NG32 2EE,52.959881258472700,-0.737279827913275
puff adder and Gila monster,NG32 2FT,52.953232120551300,-0.726636984355709
saltwater crocodile and habu,NG32 2NG,52.966830969328800,-0.612328336230579
White ibis and Myna,NG32 3LW,52.935093815835700,-0.551832576704692
tuatara and box turtle,NG32 3ND,52.938783939078300,-0.507126844263089
Mockingbird and alligator,NG32 3PF,52.973690727738300,-0.506996469627219
anole and Argus,NG33 4AP,52.898657609462100,-0.533557047676341
Bronzewing pigeon and Magpie,NG33 4BD,52.893274873571900,-0.519973655264755
Hawaiian honeycreeper and Recurvebill,NG33 4BE,52.896180232254600,-0.523296000000000
Maya and Elephant,NG33 4EG,52.860714798737900,-0.501519028842341
Parakeet and death adder,NG33 4FP,52.818982982108500,-0.547147554699988
milk snake and Triller,NG33 4JA,52.851097000000000,-0.488782000000000
Meadowlark and cayman,NG33 4JU,52.822509697192000,-0.585319329690022
galliwasp and glass snake,NG33 4LP,52.805020523453200,-0.532481350877504
hoop snake and Ibex,NG33 4NR,52.810922555159000,-0.515487145025755
Old World vulture and Grouse,NG33 4NY,52.810043283299400,-0.517787111168749
Mockingbird and gecko,NG33 4PY,52.760029166126400,-0.499819927848022
gavial and ringhals,NG33 5BG,52.852331737330200,-0.605987842840436
diamond python and Polecat,NG33 5DU,52.861318833242100,-0.621905583724898
Chicken and Treepie,NG33 5EU,52.821633005793100,-0.669671230500850
jew lizard and Dolphin,NG33 5FD,52.845888000000000,-0.665256000000000
Puffleg and terrapin,NG33 5JE,52.802594972988300,-0.619072000000000
mountain devil and brown snake,NG33 5JT,52.804983762270000,-0.617011660141122
Stint and Bronzewing pigeon,NG33 5JX,52.804484972773700,-0.618955986402481
chameleon and Schneider python,NG33 5JY,52.787786689247400,-0.627952089158655
frill-necked lizard and moloch,NG33 5JZ,52.787332298251700,-0.628307444433287
loggerhead and rock python,NG33 5LF,52.784261000000000,-0.650340202304733
diamondback terrapin and anaconda,NG33 5LP,52.760936476270700,-0.628885000000000
bearded dragon and box turtle,NG33 5LY,52.786573000000000,-0.599416000000000
garter snake and horned viper,NG33 5NL,52.806997000000000,-0.619221928128244
Lemming and sidewinder,NG33 5PH,52.764359648868000,-0.628851552445932
Darwin's finches and flying lizard,NG33 5PU,52.766699936071400,-0.633772969924921
Night heron and glass snake,NG33 5QB,52.762382087180300,-0.628098547339292
boomslang and thorn lizard,NG33 5RY,52.796740403257500,-0.692411678768432
rat snake and taipan,NG33 5SG,52.794675097127400,-0.701107000000000
