name,postcode,lat,lon
Costa Coffee,LE13 0PU,52.76486100000000,-0.88701500000000
Mary's Place Cafe,LE13 1AE,52.76373900000000,-0.88523700000000
Pizza Express,LE13 1AE,52.76373900000000,-0.88523700000000
Amore Restaurant,LE13 1AF,52.76261700000000,-0.88452400000000
Harboro Hotel,LE13 1AF,52.76261700000000,-0.88452400000000
Melton spice ,LE13 1AF,52.76261700000000,-0.88452400000000
PURPLE GARLIC,LE13 1AF,52.76261700000000,-0.88452400000000
Coco cafe,LE13 1BU,52.76490600000000,-0.88513300000000
TRUT LTD (trading as Spice Club),LE13 1NW,52.76582600000000,-0.88728800000000
Time Out,LE13 1PJ,52.76541000000000,-0.88701700000000
CM Restaurants (Holdings) Ltd,LE13 1RB,52.7645,-0.8809
McDonalds,LE13 1RB,52.76453781127930,-0.88151097297669
Soi Indian restaurant ,LE13 1RF,52.76593480000000,-0.88148380000000
54a king street coffee shop,LE13 1XB,52.76499557495120,-0.88612300157547
Caffe Nero,LE13 1XD,52.76440400000000,-0.88621300000000
DESSERT CUPBOARD LTD,LE13 1XD,52.76420940000000,-0.88632990000000
Miss B's Tearooms,LE13 1XD,52.76454690000000,-0.88589150000000
More Coffee Co,LE13 1XD,52.76440400000000,-0.88621300000000
The Glass Pantry,LE13 1XH,52.76473600000000,-0.88421800000000
The Elms Cafe,LE13 1XJ,52.76439400000000,-0.88416800000000
sit and settle,LE13 1XJ,52.76439400000000,-0.88416800000000
Browsers Tea Shop,LE13 1XY,52.76483600000000,-0.88439300000000
TOGA RESTAURANT LTD T/A BELLINI,LE13 1YE,52.76571200000000,-0.88576400000000
The Berkeley Arms  Wymondham ,LE14 2AG,52.76031650000000,-0.73984960000000
Wymondham Windmill Tearooms,LE14 2BU,52.76262200000000,-0.74038400000000
The Kings Arms,LE14 4DW,52.81036050000000,-0.87074500000000
The Plough Inn,LE14 4HW,52.87201000000000,-0.85468000000000
THE THATCH RESTAURANT,NG13 0AA,52.94198380000000,-0.80657830000000
The Poppy Seed,NG13 0AH,52.94210000000000,-0.80320100000000
Little jacks farm & garden centre ltd,NG13 0AU,52.94415900000000,-0.81412700000000
Pauls Restaurant,NG13 0BW,52.94169300000000,-0.80220000000000
Windmill Inn,NG13 0GA,52.91057205200200,-0.81558001041412
Anchor Inn,NG13 0JJ,52.89797770000000,-0.85989400000000
The Orston Durham Ox LTD,NG13 9NS,52.96294900000000,-0.85455600000000
Tinel Ltd,NG31 6BA,52.90917400000000,-0.64061100000000
shiva shakti company limited,NG31 6BA,52.9092,-0.6406
Costa Coffee,NG31 6BT,52.90695000000000,-0.64343100000000
Starbucks,NG31 6BT,52.90694900000000,-0.64343100000000
Costa Coffee,NG31 6EE,52.90983700000000,-0.64276100000000
BOMBAY BRASSERIE,NG31 6EY,52.90930100000000,-0.63915000000000
Pizza Hut Restaurant,NG31 6HS,52.90482500000000,-0.63610800000000
McDonalds,NG31 6HT,52.90223900000000,-0.63476200000000
Kitchen and Coffee,NG31 6LA,52.91087800000000,-0.64500400000000
Pizza Express,NG31 6LH,52.91224200000000,-0.64317700000000
Eden Wine Bar,NG31 6LJ,52.91339300000000,-0.64397400000000
Conduit Tea Gardens Ltd,NG31 6LQ,52.91281400000000,-0.64443800000000
Everest Inn Grantham LTD,NG31 6LT,52.91187000000000,-0.64366400000000
The Leaf Restaurant,NG31 6LT,52.91187000000000,-0.64366400000000
HOP SING LTD,NG31 6LU,52.91089200000000,-0.64387300000000
angelos coffee,NG31 6LX,52.9106,-0.6446
KATANA JAPANESE CUISINE GRANTHAM,NG31 6NJ,52.9115,-0.6434
Knightingales,NG31 6NJ,52.91153500000000,-0.64343700000000
Kings Walk Cafe,NG31 6NL,52.91169600000000,-0.64334300000000
The Black Dog,NG31 6NS,52.91382900000000,-0.64361800000000
The Garden Yard,NG31 6NZ,52.91416290000000,-0.64538190000000
Teaspoon tea company,NG31 6PN,52.91301700000000,-0.64257200000000
Prezzo,NG31 6QF,52.91026800000000,-0.64118600000000
Finkins,NG31 6QZ,52.91286280000000,-0.64133880000000
Compass Group at Crown House Restaurant,NG31 6SY,52.91381100000000,-0.63884500000000
Avenue Hotel Grantham LTD,NG31 6TH,52.91129200000000,-0.63792700000000
CM Restaurants (Holdings) Ltd,NG31 7ES,52.9039,-0.6303
Fun Farm Grantham,NG31 7LE,52.9098,-0.6529
Grantham Bowl,NG31 7LE,52.90903100000000,-0.65410300000000
BURGER KING-Grantham,NG31 7SA,52.9023,-0.6509
Burger King,NG31 7SA,52.90230560302730,-0.65096598863602
Costa Coffee,NG31 7SA,52.90230560302730,-0.65096598863602
KFC Grantham DT,NG31 7SA,52.90216500000000,-0.65110400000000
KFC,NG31 7SA,52.90216500000000,-0.65110400000000
Buzz Bingo,NG31 7XQ,52.90704200000000,-0.66501900000000
Urban Hotel Grantham,NG31 7XT,52.90073000000000,-0.66334000000000
Recruiting Sergeant,NG31 8JP,52.93487100000000,-0.66629100000000
Elior (Belton Lane Community Primary School),NG31 9PP,52.92558200000000,-0.62660400000000
The Chequers Inn,NG32 1LU,52.89806200000000,-0.75627800000000
The Rutland by Belvoir ltd,NG32 1NY,52.90693800000000,-0.74806800000000
The Fuel Tank,NG32 1PA,52.89614486694340,-0.78311997652054
Cafe Allez! Belvoir Castle,NG32 1PE,52.89474800000000,-0.78266900000000
The Geese and Fountain,NG32 1QR,52.85280300000000,-0.76202600000000
The Manners Arms,NG32 1RH,52.87294769287110,-0.77363198995590
The Wheel Inn,NG32 1RU,52.85675811767580,-0.79856902360916
BB's Coffee Shop c/o Boundary Mill Stores,NG32 2AB,52.9480,-0.6785
Downtown Garden Centre Restaurant,NG32 2AB,52.94805100000000,-0.67849200000000
Downtown Grantham Restaurant,NG32 2AB,52.9480,-0.6785
Moto 101 Ltd,NG32 2AB,52.94805145263670,-0.67849200963974
Syston Park Farm Shop Ltd,NG32 2BZ,52.95349600000000,-0.61119200000000
The Welby Arms ,NG32 2EA,52.95328100000000,-0.72599500000000
Burger King,NG32 2HB,52.91917800000000,-0.73996600000000
Moto Hospitality,NG32 2HB,52.91917800000000,-0.73996600000000
Belton Garden Centre,NG32 2LN,52.94319000000000,-0.62711800000000
Belton Woods,NG32 2LN,52.94319000000000,-0.62711800000000
The Stag,NG32 2NB,52.96308000000000,-0.61435400000000
Crown & Anchor,NG32 3LP,52.93389700000000,-0.55089000000000
The Houblon Arms,NG32 3NB,52.93936157226560,-0.50795501470566
The Green Man,NG33 4BE,52.89613200000000,-0.52331000000000
Lily's Lavender Hut,NG33 4NH,52.81323100000000,-0.51953300000000
The March Hare Tearooms,NG33 4NH,52.81306457519530,-0.51907902956009
The Woodhouse Arms,NG33 4NS,52.81084900000000,-0.51670600000000
Fox & Hounds ,NG33 4RZ,52.75449200000000,-0.53795800000000
Stoke Rochford Catering,NG33 5EW,52.83887100219730,-0.63016599416733
Cross Swords Inn,NG33 5HB,52.82152700000000,-0.66808600000000
Burger King,NG33 5JN,52.80348587036130,-0.60767501592636
OK Diner OK Diner New Fox,NG33 5LN,52.76568600000000,-0.61057900000000
Starbucks,NG33 5LN,52.76496124267580,-0.61014300584793
The White Lion,NG33 5NE,52.80717500000000,-0.62054700000000
The Angel inn,NG33 5PJ,52.76449200000000,-0.62773500000000
The Blue Cow Inn,NG33 5QB,52.76239300000000,-0.62811300000000
The Tollemache Arms,NG33 5SA,52.79612410000000,-0.69572960000000
