name,postcode,lat,lon
Mary's Place Cafe,LE13 1AE,52.7637,-0.8852
Amore Restaurant,LE13 1AF,52.7626,-0.8850
Harboro Hotel,LE13 1AF,52.7626,-0.8850
Melton spice ,LE13 1AF,52.7626,-0.8850
PURPLE GARLIC,LE13 1AF,52.7626,-0.8850
Coco cafe,LE13 1BU,52.7649,-0.8851
Time Out,LE13 1PJ,52.7654,-0.8872
CM Restaurants (Holdings) Ltd,LE13 1RB,52.7645,-0.8809
Soi Indian restaurant ,LE13 1RF,52.7659,-0.8815
54a king street coffee shop,LE13 1XB,52.7650,-0.8861
DESSERT CUPBOARD LTD,LE13 1XD,52.7644,-0.8862
Miss B's Tearooms,LE13 1XD,52.7644,-0.8862
More Coffee Co,LE13 1XD,52.7644,-0.8862
The Glass Pantry,LE13 1XH,52.7647,-0.8842
The Elms Cafe,LE13 1XJ,52.7644,-0.8842
sit and settle,LE13 1XJ,52.7644,-0.8842
Browsers Tea Shop,LE13 1XY,52.7649,-0.8844
TOGA RESTAURANT LTD T/A BELLINI,LE13 1YE,52.7655,-0.8859
The Berkeley Arms Wymondham ,LE14 2AG,52.7603,-0.7412
Wymondham Windmill Tearooms,LE14 2BU,52.7626,-0.7404
The Kings Arms,LE14 4DW,52.8096,-0.8710
The Plough Inn,LE14 4HW,52.8720,-0.8547
THE THATCH RESTAURANT,NG13 0AA,52.9417,-0.8056
The Poppy Seed,NG13 0AH,52.9421,-0.8032
Little jacks farm & garden centre ltd,NG13 0AU,52.9442,-0.8141
Pauls Restaurant,NG13 0BW,52.9418,-0.8021
Windmill Inn,NG13 0GA,52.9106,-0.8156
Anchor Inn,NG13 0JJ,52.8989,-0.8603
The Orston Durham Ox LTD,NG13 9NS,52.9626,-0.8552
Tinel Ltd,NG31 6BA,52.9092,-0.6406
shiva shakti company limited,NG31 6BA,52.9092,-0.6406
BOMBAY BRASSERIE,NG31 6EY,52.9093,-0.6391
Kitchen and Coffee,NG31 6LA,52.9109,-0.6450
Eden Wine Bar,NG31 6LJ,52.9134,-0.6440
Conduit Tea Gardens Ltd,NG31 6LQ,52.9128,-0.6443
Everest Inn Grantham LTD,NG31 6LT,52.9119,-0.6436
The Leaf Restaurant,NG31 6LT,52.9119,-0.6436
HOP SING LTD,NG31 6LU,52.9109,-0.6440
angelos coffee,NG31 6LX,52.9106,-0.6446
KATANA JAPANESE CUISINEGRANTHAM,NG31 6NJ,52.9115,-0.6434
Knightingales,NG31 6NJ,52.9115,-0.6434
Kings Walk Cafe,NG31 6NL,52.9117,-0.6433
The Black Dog,NG31 6NS,52.9138,-0.6436
Teaspoon tea company,NG31 6PN,52.9131,-0.6424
Finkins,NG31 6QZ,52.9125,-0.6413
Avenue Hotel Grantham LTD,NG31 6TH,52.9113,-0.6379
CM Restaurants (Holdings) Ltd,NG31 7ES,52.9039,-0.6303
Fun Farm Grantham,NG31 7LE,52.9098,-0.6529
Grantham Bowl,NG31 7LE,52.9098,-0.6529
BURGER KING-Grantham,NG31 7SA,52.9023,-0.6509
KFC,NG31 7SA,52.9023,-0.6509
Urban Hotel Grantham,NG31 7XT,52.9007,-0.6633
Recruiting Sergeant,NG31 8JP,52.9351,-0.6666
The Chequers Inn,NG32 1LU,52.8981,-0.7562
The Rutland by Belvoir ltd,NG32 1NY,52.9069,-0.7481
The Fuel Tank,NG32 1PA,52.8961,-0.7831
Cafe Allez! Belvoir Castle,NG32 1PE,52.8947,-0.7827
The Geese and Fountain,NG32 1QR,52.8528,-0.7620
The Manners Arms,NG32 1RH,52.8729,-0.7737
The Wheel Inn,NG32 1RU,52.8567,-0.7993
BB's Coffee Shop c/o Boundary Mill Stores,NG32 2AB,52.9480,-0.6785
Downtown Garden Centre Restaurant,NG32 2AB,52.9480,-0.6785
Downtown Grantham Restaurant,NG32 2AB,52.9480,-0.6785
Syston Park Farm Shop Ltd,NG32 2BZ,52.9535,-0.6111
The Welby Arms ,NG32 2EA,52.9533,-0.7260
Belton Garden Centre,NG32 2LN,52.9432,-0.6271
Belton Woods,NG32 2LN,52.9432,-0.6271
The Stag,NG32 2NB,52.9631,-0.6143
Crown & Anchor,NG32 3LP,52.9336,-0.5507
The Houblon Arms,NG32 3NB,52.9392,-0.5081
The Green Man,NG33 4BE,52.8962,-0.5233
Lily's Lavender Hut,NG33 4NH,52.8131,-0.5191
The March Hare Tearooms,NG33 4NH,52.8131,-0.5191
The Woodhouse Arms,NG33 4NS,52.8108,-0.5167
Fox & Hounds ,NG33 4RZ,52.7545,-0.5379
Stoke Rochford Catering,NG33 5EW,52.8388,-0.6301
CM Restaurants (Holdings) Ltd,NG33 5FF,52.8305,-0.7001
Cross Swords Inn,NG33 5HB,52.8212,-0.6681
OK Diner OK Diner New Fox,NG33 5LN,52.7650,-0.6101
The White Lion,NG33 5NE,52.8070,-0.6205
The Angel inn,NG33 5PJ,52.7645,-0.6277
The Blue Cow Inn,NG33 5QB,52.7624,-0.6281
The Tollemache Arms,NG33 5SA,52.7965,-0.6958
