name,postcode,lat,lon
Duck and sand viper,LE13 1AT,52.764181520803300,-0.883581000000000
dukite and perentie,LE13 1DH,52.760209212991400,-0.880999849156483
Masked owl and Flameback,LE13 1DJ,52.758703676655600,-0.882461021033834
massasauga and cobra,LE13 1EA,52.759542745192300,-0.880602112157197
Pheasant and Rabbit,LE13 1HS,52.778593575610600,-0.883849351447348
loggerhead and Capuchin,LE13 1NG,52.776537733154600,-0.872738918026625
Warbler and indigo snake,LE13 1QX,52.769396133919400,-0.875205991678138
boa constrictor and Linsang,LE13 1RZ,52.772282970637500,-0.871529538715515
Recurvebill and Booted eagles,LE13 1SA,52.774740461393400,-0.872814990021452
Hawaiian honeycreeper and horned toad,LE13 1TR,52.772054397763300,-0.881570755806859
Gull and Grouse,LE13 1UQ,52.775316871593700,-0.880523567591649
Philippine hawk-owl and Warbler,LE13 9ER,52.768347392491700,-0.867703578228349
Greenbul and Songlark,LE14 2AA,52.759374898911500,-0.741218904797841
water snake and Dorcopsis,LE14 2RP,52.789569000000000,-0.739058000000000
cayman and gaboon viper,LE14 2RT,52.780881819359900,-0.766173000000000
massasauga and Grackle,LE14 2RZ,52.772616339342100,-0.809054932900490
Maya and rattlesnake,LE14 4AT,52.818072637336600,-0.809341274227393
Jackal and whip snake,LE14 4DW,52.809614000000000,-0.870993000000000
Shearwater and Old World vulture,LE14 4HX,52.870585773221000,-0.854435669833765
lizard and Chipmunk,LE14 4QJ,52.816698518844400,-0.852380659420547
Skunk and gecko,NG13 0AS,52.945226107406800,-0.808517452752548
garter snake and Ground sloth,NG13 0BJ,52.942850260345700,-0.801112140237538
K훮k훮riki and loggerhead,NG13 0BL,52.937241135595900,-0.805626906515694
terrapin and bicycle lizard,NG13 0EH,52.940501840871600,-0.784971813053989
Elephant and alligator,NG13 0FT,52.942330197446100,-0.811989970894073
krait and Black jay,NG13 0GB,52.911641762744800,-0.816770521208076
Black jay and Egret,NG13 0GS,52.922203850731300,-0.841308190406139
Quetzal and soft-shelled turtle,NG13 0WG,52.909690000000000,-0.640635000000000
krait and sand viper,NG13 9DS,52.973582587810200,-0.865398000000000
king snake and bearded dragon,NG13 9EW,52.941285000000000,-0.885888000000000
moloch and saltwater crocodile,NG13 9FA,52.937470737800000,-0.873070522400000
Magpie and thorn lizard,NG13 9NQ,52.970027000000000,-0.843753000000000
Solitaire and giant tortoise,NG31 0GZ,52.909668000000000,-0.640577121500000
cycling lizard and black snake,NG31 0HT,52.909669491600000,-0.640640239600000
milk snake and horned viper,NG31 0HZ,52.909690000000000,-0.640635000000000
Myna and Moluccan boobook,NG31 0JR,52.909690000000000,-0.640635000000000
chuckwalla and Viscacha,NG31 0SA,52.910858820938800,-0.639487593593744
Ice seal and bandy-bandy,NG31 0SN,52.910858820938800,-0.639487593593744
Francolin and iguana,NG31 0TU,52.910858820938800,-0.639487593593744
Polecat and Vole,NG31 6BT,52.906383000000000,-0.642646000000000
asp and Lemming,NG31 6DP,52.909011024640800,-0.642207266746041
Viscacha and River dolphin,NG31 6HL,52.908385063161700,-0.636219329996716
Marsh harrier and Komodo dragon,NG31 6HY,52.901067357299100,-0.633103887396621
anaconda and dugite,NG31 6LT,52.911859348487800,-0.643649938385269
Scimitar babbler and grass snake,NG31 6LU,52.910881825687000,-0.644021000000000
harlequin snake and gavial,NG31 6PB,52.913322000000000,-0.644928000000000
crocodile and Bunting,NG31 6RE,52.913258000000000,-0.641613000000000
horned toad and Tit-tyrant,NG31 6SE,52.912256735344900,-0.640663246347758
Armadillo and Zebra,NG31 7AZ,52.905351372664500,-0.646871603624275
diamondback terrapin and Cuscus,NG31 7DZ,52.909962415972500,-0.661881049958478
agamid and Boto,NG31 7ES,52.903885345172700,-0.630338865330225
Flameback and diamondback,NG31 7FD,52.899227397830700,-0.649084268114570
Viscacha and gecko,NG31 7FW,52.900040151583000,-0.647825015074068
brown snake and bushmaster,NG31 7GT,52.899868252309700,-0.626570330659286
Jerboa and Mamo,NG31 7NG,52.907946228933200,-0.673690375505429
brown snake and Songlark,NG31 7NT,52.905123047558300,-0.652885767327021
Triller and cerastes,NG31 7NU,52.908515000000000,-0.655427000000000
Old World warbler and alligator,NG31 7PA,52.906365130380100,-0.654601823958053
Tahr and blindworm,NG31 7PL,52.907651029326700,-0.658606569644029
Kangaroo and Masked owl,NG31 7PP,52.908639726346800,-0.662576092720372
puff adder and Fish eagle,NG31 7QB,52.905859123178900,-0.658349662731264
glass snake and Linsang,NG31 7YE,52.903019000000000,-0.663592000000000
Old World quail and racer,NG31 8AY,52.918821731503500,-0.645589083206069
Diving bird and anaconda,NG31 8EL,52.925172664220200,-0.644364460586405
cobra de capello and cobra,NG31 8FJ,52.917892425177100,-0.639787734877413
Eagle and massasauga,NG31 8GH,52.925368430153800,-0.658445795845581
whip snake and Grouse,NG31 8HB,52.928560838679500,-0.659328982373446
death adder and saltwater crocodile,NG31 8HR,52.927652244636000,-0.652915464587443
Gila monster and garter snake,NG31 8HW,52.929199152321300,-0.652971583747232
flying lizard and crocodile,NG31 8QQ,52.927773125132600,-0.650100016684698
elapid and Diving bird,NG31 8RS,52.914006736523100,-0.658588680047214
rat snake and box turtle,NG31 8UA,52.918954419960000,-0.654509000000000
turtle and deaf adder,NG31 8XE,52.921258000000000,-0.664161000000000
Vulture and Black cockatoo,NG31 9AB,52.907097372240300,-0.633687320929754
Mamo and Parrotbill,NG31 9AJ,52.905590000000000,-0.632763000000000
Ground sloth and elapid,NG31 9BL,52.917900939687000,-0.628796069834037
B and Thicketbird,NG31 9BY,52.913260823741600,-0.627128261181991
gopher snake and brown snake,NG31 9DX,52.906047906568600,-0.631549422749614
Old World quail and sidewinder,NG31 9EB,52.905854783704100,-0.628834440811993
sidewinder and smooth snake,NG31 9FG,52.925223123748800,-0.610594677971546
asp and Grackle,NG31 9FJ,52.924406608087700,-0.611498478933140
Jay and python,NG31 9FP,52.923800569031700,-0.609643566866073
frill-necked lizard and racer,NG31 9GB,52.924963824924500,-0.616880565352015
Old World warbler and Shearwater,NG31 9HQ,52.919990465932900,-0.610553937262810
sidewinder and Puffleg,NG31 9JU,52.914359316899900,-0.626498640273014
Coati and Pratincole,NG31 9LL,52.918386863547700,-0.624169929720586
Elephant and turtle,NG31 9NH,52.918733689613200,-0.613018571937769
turtle and boa,NG31 9PE,52.925813313542300,-0.624232025482850
goanna and Warbler,NG31 9PZ,52.921311774339500,-0.621340306330289
Tit-tyrant and Polecat,NG31 9QJ,52.927918322648300,-0.622796625245428
Maya and Vulture,NG31 9QQ,52.927504095387000,-0.621961802058195
swift and garter snake,NG31 9QZ,52.921715000000000,-0.616473525124748
Treepie and Marmoset,NG31 9SB,52.925412253758700,-0.615244795782278
monitor and Tree warbler,NG31 9SG,52.925035986470400,-0.606540000000000
gopher snake and habu,NG31 9TX,52.917460698132000,-0.610248204263563
frilled lizard and Kangaroo,NG31 9TZ,52.916819281910800,-0.609212754251759
bull snake and smooth snake,NG31 9UF,52.916656516061200,-0.607596816376325
amethystine python and Badger,NG32 1AS,52.888497335987500,-0.687125819718231
Kite and Siskin,NG32 1DR,52.911143718804400,-0.709342428072116
box turtle and terrapin,NG32 1EA,52.919964460141000,-0.733726241402601
Minke whale and Magpie,NG32 1HW,52.882724453850000,-0.687820330982494
K훮k훮riki and Towhee,NG32 1LU,52.898080869406300,-0.756234000000000
worm lizard and thorny devil,NG32 1NB,52.892521118706400,-0.759557886474249
Pitohui and Mockingbird,NG32 1NW,52.898389419513000,-0.757636095173126
tuatara and Marmoset,NG32 1PN,52.875399498842200,-0.753135000000000
ringhals and Civet,NG32 1SE,52.852774333510200,-0.816589661597943
thorn lizard and king cobra,NG32 1TD,52.912783749298000,-0.687536702450609
Vole and Fish eagle,NG32 2FD,52.909668000000000,-0.640577093679687
Jay and milk snake,NG32 2FH,52.947653000000000,-0.721915887565605
diamondback turtle and Marsh harrier,NG32 2FT,52.953232120551300,-0.726636984355709
garter snake and agama,NG32 2FW,52.952334006411000,-0.729238466027745
coral snake and Piping shrike,NG32 2JX,52.974791295043600,-0.722592962281256
harlequin snake and wall lizard,NG32 2NF,52.964474314158300,-0.613758730853497
Schneider python and deaf adder,NG32 3LR,52.932803763483500,-0.548322000000000
Eagle and mountain devil,NG32 3NA,52.940466557075100,-0.508676110720786
Dorcopsis and whip snake,NG33 4AT,52.907383384151600,-0.540563526913213
boomslang and Condor,NG33 4AU,52.913499000000000,-0.520217653318909
galliwasp and grass snake,NG33 4AZ,52.892353233309500,-0.539938708441259
Piping shrike and Jay,NG33 4EL,52.859224721984700,-0.499565135789320
Marmoset and Goose,NG33 4EY,52.849520321344600,-0.518581272833425
Partridge and Partridge,NG33 4HL,52.877574000000000,-0.482527000000000
glass snake and Triller,NG33 4LT,52.813789659207300,-0.520464051070147
indigo snake and Kestrel,NG33 4NU,52.810046000000000,-0.517307035339915
Francolin and death adder,NG33 4PA,52.790787972489500,-0.493660454258750
anole and flying lizard,NG33 4PX,52.757605431818500,-0.498688056851441
dugite and frill-necked lizard,NG33 4QX,52.750733000000000,-0.500436000000000
water snake and Argus,NG33 4SW,52.759801000000000,-0.558202000000000
jew lizard and python,NG33 5AA,52.882623263179500,-0.599443558032848
garter snake and Ibex,NG33 5EA,52.821890958453600,-0.670227290938776
Siskin and tokay,NG33 5HL,52.825145210411100,-0.703536271385532
Prion and diamondback,NG33 5JH,52.803879417259500,-0.617135703942264
Lemming and Tree warbler,NG33 5LL,52.780850100610500,-0.610511792189925
Quetzal and tree snake,NG33 5NH,52.807992452528300,-0.616752998486136
hognose snake and Grackle,NG33 5NQ,52.807231335104700,-0.616243073499006
Viscacha and bicycle lizard,NG33 5RR,52.764864885867800,-0.629784235289663
Parrotbill and soft-shelled turtle,NG33 5SU,52.806959000000000,-0.624225000000000
