name,postcode,lat,lon
Mary's Place Cafe,LE13 1AE,52.763728084278400,-0.885222388044282
Amore Restaurant,LE13 1AF,52.762595000000000,-0.885019519039184
Harboro Hotel,LE13 1AF,52.762595000000000,-0.885019519039184
PURPLE GARLIC,LE13 1AF,52.762595000000000,-0.885019519039184
Coco cafe,LE13 1BU,52.764895805061000,-0.885118467329268
CM Restaurants (Holdings) Ltd,LE13 1RB,52.764529090970300,-0.880932000000000
Soi Indian restaurant ,LE13 1RF,52.765904365476100,-0.881476361907548
54a king street coffee shop,LE13 1XB,52.764986019250100,-0.886109156340199
DESSERT CUPBOARD LTD,LE13 1XD,52.764393518304200,-0.886198376225926
Miss B's Tearooms,LE13 1XD,52.764393518304200,-0.886198376225926
More Coffee Co,LE13 1XD,52.764393518304200,-0.886198376225926
The Glass Pantry,LE13 1XH,52.764725388962800,-0.884203935745685
Browsers Tea Shop,LE13 1XY,52.764925071510500,-0.884406323062826
TOGA RESTAURANT LTD T/A BELLINI,LE13 1YE,52.765471000000000,-0.885919000000000
The Berkeley Arms Wymondham ,LE14 2AG,52.760345376665900,-0.741176106712179
The Kings Arms,LE14 4DW,52.809614000000000,-0.870993000000000
The Plough Inn,LE14 4HW,52.871999399094300,-0.854665863061536
THE THATCH RESTAURANT,NG13 0AA,52.941718008620000,-0.805622688738765
The Poppy Seed,NG13 0AH,52.942089056933700,-0.803186808872577
Little jacks farm & garden centre ltd,NG13 0AU,52.944150000000000,-0.814098000000000
Pauls Restaurant,NG13 0BW,52.941809000000000,-0.802064000000000
Windmill Inn,NG13 0GA,52.910559970736400,-0.815565742497240
Anchor Inn,NG13 0JJ,52.898869285702700,-0.860321000000000
The Orston Durham Ox LTD,NG13 9NS,52.962560000000000,-0.855237000000000
Tinel Ltd,NG31 6BA,52.909163415615400,-0.640596505765890
shiva shakti company limited,NG31 6BA,52.909163415615400,-0.640596505765890
BOMBAY BRASSERIE,NG31 6EY,52.909290527097600,-0.639135229300319
Kitchen and Coffee,NG31 6LA,52.910867755317700,-0.644989552746958
Eden Wine Bar,NG31 6LJ,52.913382186584400,-0.643959289120704
Conduit Tea Gardens Ltd,NG31 6LQ,52.912803135085400,-0.644260000000000
The Leaf Restaurant,NG31 6LT,52.911859348487800,-0.643649938385269
angelos coffee,NG31 6LX,52.910573734582800,-0.644554000000000
KATANA JAPANESE CUISINEGRANTHAM,NG31 6NJ,52.911524122168400,-0.643422471701187
Knightingales,NG31 6NJ,52.911524122168400,-0.643422471701187
Kings Walk Cafe,NG31 6NL,52.911684865759300,-0.643328222493840
The Black Dog,NG31 6NS,52.913818635765900,-0.643603603424381
Teaspoon tea company,NG31 6PN,52.913141000000000,-0.642420000000000
Finkins,NG31 6QZ,52.912462095941900,-0.641326033037655
CM Restaurants (Holdings) Ltd,NG31 7ES,52.903885345172700,-0.630338865330225
Fun Farm Grantham,NG31 7LE,52.909772000000000,-0.652875000000000
Grantham Bowl,NG31 7LE,52.909772000000000,-0.652875000000000
BURGER KING-Grantham,NG31 7SA,52.902306000000000,-0.650921000000000
KFC,NG31 7SA,52.902306000000000,-0.650921000000000
The Chequers Inn,NG32 1LU,52.898080869406300,-0.756234000000000
The Fuel Tank,NG32 1PA,52.896135866304100,-0.783105961469369
Cafe Allez! Belvoir Castle,NG32 1PE,52.894737811257900,-0.782654566104432
The Geese and Fountain,NG32 1QR,52.852812000000000,-0.761982000000000
The Manners Arms,NG32 1RH,52.872907652814200,-0.773652848441627
The Wheel Inn,NG32 1RU,52.856746587651500,-0.799325000000000
BB's Coffee Shop c/o Boundary Mill Stores,NG32 2AB,52.948040700547500,-0.678477370285675
Downtown Garden Centre Restaurant,NG32 2AB,52.948040700547500,-0.678477370285675
Downtown Grantham Restaurant,NG32 2AB,52.948040700547500,-0.678477370285675
Syston Park Farm Shop Ltd,NG32 2BZ,52.953485439117900,-0.611073000000000
The Welby Arms ,NG32 2EA,52.953270039929500,-0.725980916364234
Belton Garden Centre,NG32 2LN,52.943179189176100,-0.627104089668864
Belton Woods,NG32 2LN,52.943179189176100,-0.627104089668864
The Stag,NG32 2NB,52.963069666553100,-0.614339659827546
Crown & Anchor,NG32 3LP,52.933616000000000,-0.550692000000000
The Houblon Arms,NG32 3NB,52.939184000000000,-0.508125000000000
The Green Man,NG33 4BE,52.896180232254600,-0.523296000000000
Lily's Lavender Hut,NG33 4NH,52.813054000000000,-0.519065000000000
The March Hare Tearooms,NG33 4NH,52.813054000000000,-0.519065000000000
The Woodhouse Arms,NG33 4NS,52.810838723324300,-0.516691794895722
Fox & Hounds ,NG33 4RZ,52.754481638979200,-0.537944073894246
Stoke Rochford Catering,NG33 5EW,52.838831060343000,-0.630144609311569
CM Restaurants (Holdings) Ltd,NG33 5FF,52.830541000000000,-0.700059000000000
Cross Swords Inn,NG33 5HB,52.821220000000000,-0.668072041186958
OK Diner OK Diner New Fox,NG33 5LN,52.764952000000000,-0.610129000000000
The White Lion,NG33 5NE,52.807039000000000,-0.620532668227276
The Angel inn,NG33 5PJ,52.764481434562200,-0.627721331017851
The Blue Cow Inn,NG33 5QB,52.762382087180300,-0.628098547339292
The Tollemache Arms,NG33 5SA,52.796480535989600,-0.695756620918968
