name,postcode,lat,lon
mountain devil and Wallaby,DG4 6BX,55.368795096866400,-3.925367986986580
sand viper and American sparrow,DG4 6EB,55.366908468854100,-3.922467571436730
iguana and turtle,DG4 6LJ,55.356438147541400,-4.080474708094750
crocodile and Night heron,DG7 3TA,55.181975220806300,-4.213501000000000
alligator and deaf adder,DG7 3TH,55.220383721531200,-4.273639304218150
