name,id,postcode,lat,lon
agama and Capuchin,1319677,DG4 6DN,55.364881000000000,-3.929706000000000
Pheasant and agamid,1319837,DG3 4JA,55.196434074566200,-3.943955623146910
puff adder and Ibex,1319840,DG3 4JE,55.213260000000000,-3.974139000000000
boa constrictor and Dolphin,1318128,DG7 3TH,55.220383721531200,-4.273639304218150
Jerboa and Hawk,1318142,DG7 3UF,55.244344218254700,-4.122470000000000
Flameback and terrapin,1319681,DG4 6DS,55.367243122637200,-3.921189859043420
Grouse and Jay,1319684,DG4 6DW,55.365686742601200,-3.928136164452500
Logrunners and dukite,1319663,DG4 6BT,55.369852000000000,-3.925056000000000
fer-de-lance and Civet,1318620,DG7 3SY,55.166441383010900,-4.202862513457880
cerastes and cobra de capello,1319649,DG4 6AX,55.363718576410500,-3.915825000000000
