name,postcode,lat,lon
Mouse and Solitaire,DG3 4JD,55.203862679930600,-4.014533442021300
Jerboa and American sparrow,DG4 6DB,55.368560102405500,-3.931716046426070
moloch and Logrunners,DG4 6DR,55.368480758128100,-3.921928396532760
Perching duck and Hawk,DG4 6JY,55.372763860469000,-3.947718765661800
giant tortoise and cobra,DG4 6JZ,55.366245596025300,-3.936558000056150
frilled lizard and whip snake,DG4 6LF,55.341215487244300,-4.004533148934120
Puffleg and Crow,DG7 3SX,55.166129900239800,-4.199705097920100
boa constrictor and diamond python,KA18 4PR,55.359893417599600,-4.180748984748460
