name,id,postcode,lat,lon
cycling lizard and Viscacha,1319650,DG4 6AY,55.364768892333600,-3.916210084835770
tokay and Rat,1319787,DG3 4ER,55.160547619073800,-3.994483787661670
Kangaroo and galliwasp,1318611,DG7 3SN,55.186580534491100,-4.253207125376320
tree snake and Linsang,1319692,DG4 6EN,55.372935305830900,-3.921560477727880
B and Darwin's finches,1319868,DG3 4NL,55.314649000000000,-3.978608000000000
