name,postcode,lat,lon
gecko and black snake,DG3 4HU,55.197866997619600,-3.922169030511550
Kangaroo and Elephant,DG4 6AS,55.363717419887500,-3.920214304026530
Old World quail and king cobra,DG4 6BG,55.367826610999700,-3.921233918903730
diamondback and Fish eagle,DG4 6BZ,55.369008000000000,-3.928424000000000
New World blackbird and Rat,DG4 6DR,55.368480758128100,-3.921928396532760
boa constrictor and pit viper,DG4 6JX,55.367139000000000,-3.989527000000000
Rat and Mockingbird,DG4 6LB,55.352856157313000,-3.917765000000000
rattlesnake and Treepie,DG4 6LF,55.341215487244300,-4.004533148934120
