name,postcode,lat,lon
Subway Lesmahagow,ML11 0EQ,55.638807650300800,-3.886607309648640
Cairn Lodge Services,ML11 0JU,55.625264794281900,-3.867786054563210
EBI'S,ML11 7ES,55.673486991430300,-3.777133202728220
Costa Coffee,ML11 7LN,55.673843693046100,-3.777324306883350
Prego Lanark ,ML11 7LU,55.673732464478300,-3.779418396672470
INN ON THE LOCH,ML11 9BJ,55.666789309562500,-3.754204302981290
New Lanark Hotels Ltd,ML11 9DB,55.663089000000000,-3.781511000000000
New Lanark Trading Ltd,ML11 9DB,55.663089000000000,-3.781511000000000
Westend restaurant ,ML11 9RW,55.665053396035900,-3.923405469537510
Carmichael Bistro & Tearoom,ML12 6PF,55.630677863537200,-3.670735329302400
