name,postcode,lat,lon
Solitaire and Triller,ML11 0AQ,55.634159666414400,-3.879695511574360
Treepie and deaf adder,ML11 0BE,55.630169521187100,-3.877344038330430
Wader and Mamo,ML11 0EP,55.638403046643800,-3.886619633587140
Egret and Herring gull,ML11 0FJ,55.638950704937200,-3.890157387125290
Piping shrike and water snake,ML11 0JG,55.666267104590700,-3.947871553177630
Dolphin and horned toad,ML11 0QR,55.556245737040300,-3.848749388088050
Crow and Chipmunk,ML11 0QZ,55.551855764172200,-3.840679904340180
Philippine hawk-owl and adder,ML11 7LD,55.672632418140500,-3.769954000000000
fer-de-lance and Francolin,ML11 7PA,55.674416318861500,-3.782455081583580
glass snake and Bronzewing pigeon,ML11 9DG,55.662811074839500,-3.779590384633920
cayman and fer-de-lance,ML11 9DU,55.671998710284800,-3.778131137952320
sea snake and Tattler,ML11 9FL,55.668017943873500,-3.765659700419890
Grosbeak and Macaw,ML11 9LW,55.607487044341500,-3.789561787251180
Mink and snapping turtle,ML11 9NN,55.598715616170800,-3.778323000000000
Darwin's finches and Magpie,ML11 9NQ,55.594790232865300,-3.777096582172560
lizard and Hawaiian honeycreeper,ML11 9RF,55.662826904273000,-3.915792105921090
glass snake and death adder,ML11 9RG,55.663989064492900,-3.915610415649370
Partridge and Black jay,ML11 9SF,55.669294421225300,-3.921164806479910
Cloud rat and krait,ML11 9SU,55.671909872532700,-3.921149899776330
Triller and Ice seal,ML11 9TJ,55.644740437990800,-3.777610556390800
Wader and thorny devil,ML11 9US,55.673491987979100,-3.782365331989320
flying lizard and leguaan,ML11 9WT,55.669958000000000,-3.793065000000000
black snake and chameleon,ML11 9XH,55.659033000000000,-3.879330000000000
Logrunners and Macaw,ML11 9XJ,55.667321000000000,-3.864463000000000
deaf adder and horned toad,ML11 9YX,55.663895404622600,-3.921599761254700
diamond python and Cuscus,ML11 9ZP,55.662836000000000,-3.872119000000000
Parrotlet and horned viper,ML12 6HS,55.555652911312300,-3.643815499835250
perentie and Chicken,ML12 6RU,55.511232000000000,-3.729904000000000
American sparrow and racer,ML12 6SH,55.497687705843100,-3.763980713357840
horned viper and White ibis,ML12 6SZ,55.499204029677900,-3.779674771377240
