name,postcode,lat,lon
Old World quail and Minke whale,ML10 6PN,55.652968900091600,-4.008453544438740
soft-shelled turtle and Kangaroo,ML11 0AG,55.634456769583100,-3.879074264169070
blindworm and blindworm,ML11 0BP,55.627940350914700,-3.880303097308730
mountain devil and bull snake,ML11 0BW,55.627261196483800,-3.881223608292330
Peafowl and Macaw,ML11 0DA,55.639652534665500,-3.886600265750580
Stilt and Pratincole,ML11 0DG,55.643598320368700,-3.886567539575640
Tree warbler and Civet,ML11 0EB,55.637554623461200,-3.888024670447940
Myna and Moluccan boobook,ML11 0FB,55.647200070190100,-3.901250289763510
Pheasant and mountain devil,ML11 0JB,55.656805080108900,-3.943252578329890
Macaw and flying lizard,ML11 0JX,55.625505777480800,-3.894259129260550
viper and sand lizard,ML11 0LL,55.591641924128400,-3.887897741186920
Grackle and Black jay,ML11 0PG,55.551912000000000,-3.842965000000000
Pitohui and Diving bird,ML11 0QB,55.555091735773800,-3.847204838338680
Greenbul and tokay,ML11 0QR,55.556245737040300,-3.848749388088050
dukite and Stint,ML11 0RL,55.594144000000000,-3.830233000000000
diamondback and iguana,ML11 0SE,55.534842256580400,-3.888565847758690
Flameback and Skunk,ML11 7DG,55.673614771847900,-3.768601000000000
Perching duck and Fulmarine petrel,ML11 7ER,55.673424304731400,-3.760909933711210
cobra de capello and Civet,ML11 7EZ,55.673372000000000,-3.778835000000000
whip snake and goanna,ML11 8SQ,55.655871877104500,-3.727504765103970
Crow and Triller,ML11 9AW,55.671027166854900,-3.777578213737930
bushmaster and cerastes,ML11 9BF,55.671572552058100,-3.797511860202540
mamba and terrapin,ML11 9BW,55.666658260310400,-3.773945763926530
snapping turtle and Armadillo,ML11 9DL,55.670398962520800,-3.761314645557690
Gull and Mink,ML11 9FA,55.673879000000000,-3.927309000000000
Treepie and Argus,ML11 9HB,55.674080000000000,-3.783950000000000
Minke whale and grass snake,ML11 9JY,55.671860616095400,-3.823063482579350
frilled lizard and king cobra,ML11 9QF,55.664239361505200,-3.920759000000000
Hawk and leguaan,ML11 9RE,55.667230153282400,-3.915816511959460
cobra de capello and Mockingbird,ML11 9RZ,55.673579275309100,-3.926447907709870
Old World quail and flying dragon,ML11 9US,55.673491987979100,-3.782365331989320
goanna and Duck,ML11 9XB,55.673118000000000,-3.897228000000000
Chipmunk and Argus,ML11 9YB,55.669935854297600,-3.925537348624430
sand lizard and bicycle lizard,ML11 9ZG,55.639901136243800,-3.861507403114290
blind snake and Chipmunk,ML12 6GG,55.458642142090200,-3.642402095793290
alligator and giant tortoise,ML12 6PB,55.626010572380200,-3.639009302084120
anole and Grouse,ML12 6PD,55.622142000000000,-3.644154182517010
bearded dragon and Greenbul,ML12 6RZ,55.491778643557500,-3.691077463633560
Parakeet and slowworm,ML12 6SH,55.497687705843100,-3.763980713357840
carpet snake and Black cockatoo,ML12 6SR,55.496049059029200,-3.772899332671240
sand viper and slowworm,ML12 6UA,55.474246051555800,-3.648873477225470
Marsh harrier and Asiatic leopard,ML8 5YR,55.670328648927000,-3.762331000000000
Elephant and pit viper,ML9 3PD,55.674682000000000,-3.982498000000000
