name,postcode,lat,lon
Subway Lesmahagow,ML11 0EQ,55.638807650300800,-3.886607309648640
Loganbridge II Ltd T/A Route74 Truckstop,ML11 0JN,55.647824000000000,-3.893446000000000
Cairn Lodge Services,ML11 0JU,55.625264794281900,-3.867786054563210
Costa Coffee,ML11 7LN,55.673843693046100,-3.777324306883350
Prego Lanark ,ML11 7LU,55.673732464478300,-3.779418396672470
New Lanark Hotels Ltd,ML11 9DB,55.663089000000000,-3.781511000000000
New Lanark Trading Ltd,ML11 9DB,55.663089000000000,-3.781511000000000
Carmichael Bistro & Tearoom,ML12 6PF,55.630677863537200,-3.670735329302400
