name,postcode,lat,lon
Kākāriki and Chicken,BN5 9JT,50.938337340000000,-0.269635830000000
Capuchin and Black cockatoo,RH15 5EL,50.954047000000000,-0.154038000000000
Hawk and Flameback,RH15 8AX,50.962945113527400,-0.142177428283363
Skunk and Badger,RH16 1XA,51.012261837834000,-0.108416267449839
Partridge and Macaw,BN6 8JH,50.924686320000000,-0.147188077000000
Pitohui and Partridge,RH16 2QA,50.997723056486100,-0.076128880625730
Ice seal and Songlark,RH16 9PL,51.006411000000000,-0.103795000000000
Nukupuʻu and Elephant,BN7 1YR,50.872845200000000,0.006212000000000
Chickadee and Petrel,RH15 9JL,50.947820375744800,-0.137783536603682
Puffleg and Zebra,BN7 9SJ,50.873324210000000,0.012015106000000
Kestrel and Kestrel,BN6 8EX,50.932342710000000,-0.138899902000000
Viscacha and Meadowlark,RH16 1RG,51.002723718959600,-0.106979831606543
Pratincole and Coati,BN7 1TP,50.870790710000000,0.007028000000000
Petrel and Grackle,BN6 8RY,50.931027060000000,-0.078227589000000
Perching duck and Pitohui,RH15 0EH,50.950700825423800,-0.113294238269174
Treepie and Coati,BN7 2QH,50.874653010000000,0.010579834000000
Ice seal and Zebra,RH16 4RJ,50.987509023264700,-0.105433087608448
Meadowlark and Black jay,RH16 4XU,50.983946000000000,-0.112205000000000
Argus and Kite,BN6 8TU,50.919246690000000,-0.111351314000000
Parakeet and Warbler,BN7 1HH,50.869474550000000,0.008907306000000
Viscacha and Chicken,BN7 2DT,50.876178160000000,0.008186324000000
Armadillo and Kangaroo,BN8 4AA,50.971771000000000,-0.018875000000000
Treepie and Kākāriki,RH15 0GS,50.953331132581100,-0.125845363104055
Buzzard and Towhee,RH13 6PB,51.042894202861800,-0.233774614763019
Mink and Prion,BN6 9XE,50.933206000000000,-0.174786643000000
Linsang and Vole,BN6 9BE,50.915196180000000,-0.159557823000000
Dolphin and Warbler,RH16 1LJ,51.004058770053100,-0.116689213977999
Francolin and Rat,BN1 8YD,50.864513270000000,-0.152388285000000
Armadillo and Pheasant,BN1 9QA,50.869301100000000,-0.102157060000000
Old World warbler and Old World quail,RH16 1BB,51.002957864302300,-0.107554685515969
Thicketbird and Asiatic leopard,RH15 0GT,50.952917923583100,-0.099721104279118
Snipe and Prion,BN7 2RZ,50.871951360000000,0.013917444000000
Philippine hawk-owl and Booted eagles,BN7 2SA,50.871612470000000,0.014272384000000
Ibex and American sparrow,BN6 8AP,50.924187620000000,-0.141274345000000
Parrotbill and Dorcopsis,BN6 9ZB,50.937371000000000,-0.174496000000000
Songlark and Bunting,RH16 1BP,51.003497535892000,-0.106449462274541
Treepie and Goose,RH16 4TB,50.993836833182400,-0.118015085115214
Songlark and Ground sloth,BN7 2PZ,50.875796130000000,0.010003588000000
Piping shrike and Grouse,RH15 9XL,50.961395142396000,-0.155596829165453
Boto and Petrel,BN8 4SH,50.971659299836300,0.007373651275739
Grouse and Tahr,RH15 9RG,50.949975876807700,-0.145513506826068
Partridge and Francolin,RH16 4AD,50.997709677362700,-0.113910684919993
Black cockatoo and Quetzal,RH15 8PN,50.963272591486300,-0.145240435755859
Parakeet and Bunting,RH16 4WB,51.006415000000000,-0.103822000000000
Diving bird and Logrunners,BN7 1UU,50.873842650000000,0.006977237000000
Zebra and Kestrel,RH15 8PT,50.964546389791700,-0.138254113543682
Francolin and River dolphin,BN7 2HY,50.883166700000000,0.018580793000000
Partridge and White ibis,RH15 8GB,50.960217630105900,-0.128501756791198
Grouse and Condor,BN5 9YD,50.902507370000000,-0.272599990000000
Chickadee and Buzzard,RH17 5AY,51.009224605858900,-0.142196308246941
White ibis and Zebra,BN7 2TD,50.882362350000000,-0.002622529000000
Bronzewing pigeon and Philippine hawk-owl,RH15 9LR,50.954581542156800,-0.145016932400203
Meadowlark and Warbler,RH16 2JB,51.015556792012700,-0.077771835357287
Skunk and New World blackbird,RH15 9SZ,50.957418647085300,-0.150386076954541
Triller and River dolphin,RH16 1RP,51.011997000000000,-0.094235437030274
Darwin's finches and Cloud rat,RH16 2EH,51.007092402768400,-0.087529803752042
Eagle and Hawk,RH16 2LG,51.010370803433300,-0.079055425424655
Darwin's finches and Chickadee,RH16 4HQ,50.992518115287700,-0.097676559859140
Francolin and Bunting,RH17 5SZ,51.012019382754100,-0.230699516271088
Old World quail and Prion,BN7 2FH,50.881885450827900,0.017857181691438
Warbler and Wallaby,RH15 0AN,50.946754000000000,-0.125028000000000
Eagle and Kākāriki,BN7 2TG,50.882596980000000,-0.002669361000000
Vole and New World blackbird,BN8 4HH,50.973341360000000,-0.008478994000000
Myna and Tattler,BN7 1SY,50.874445510000000,-0.000374039000000
Chicken and Kestrel,RH16 9LS,51.006415192600000,-0.103821954100000
Partridge and Magpie,TN22 3RU,51.011485548305500,-0.001299807398235
Masked owl and Duck,RH17 5LZ,50.973092111597200,-0.197438218341854
Pheasant and Piping shrike,RH16 3HJ,51.003408235468900,-0.087168191117992
Quetzal and Towhee,RH16 1UY,51.010748698675100,-0.106610337037102
Coati and Skunk,RH15 8JU,50.963872556522000,-0.132100341255504
Asiatic leopard and Parrotbill,RH16 4GR,50.987106103539600,-0.116107311386068
Shearwater and Bunting,RH16 4AJ,50.999346818398000,-0.111150638882307
Tit-tyrant and Triller,RH16 3DA,51.003622104341300,-0.098063333153793
Skunk and Peafowl,RH17 5QE,51.008583306085000,-0.204715416367395
Scimitar babbler and Capuchin,RH16 4FS,50.989154157716100,-0.114158000000000
Kite and Eagle,RH15 9DH,50.955578547700000,-0.153092000000000
Stilt and Linsang,RH15 8HG,50.959090354584600,-0.136179586224276
Songlark and Badger,RH16 1QE,51.006188134242600,-0.101008798912201
Viscacha and Guillemot,RH17 5BF,51.007619073391700,-0.132310699572631
Petrel and Rat,RH16 4ES,50.988785859355900,-0.100436713305704
Flameback and Herring gull,BN7 1PG,50.875611930000000,-0.005469780000000
Partridge and Chipmunk,BN8 4HE,50.971116270000000,-0.008260815000000
Elephant and Grackle,RH16 4PP,50.993019503745100,-0.102515393631828
Grackle and Thicketbird,RH16 2QS,51.024657897431900,-0.060354673936135
Fulmarine petrel and Philippine hawk-owl,RH17 7BJ,50.988337956700000,-0.093534000000000
Vole and Ibex,RH16 4PZ,50.990928665590500,-0.108343255528108
Wallaby and Night heron,RH16 9PW,51.006411000000000,-0.103795000000000
Mole and Quetzal,RH15 8AS,50.963385285378600,-0.140450936749890
Stilt and New World blackbird,BN7 1LY,50.875449060000000,-0.010153302000000
Parrotlet and Chipmunk,RH16 1QD,51.006474372355000,-0.098430000000000
Greenbul and Solitaire,RH16 1EA,51.006124945487000,-0.103762452713068
Songlark and Zebra,RH15 0HQ,50.950702746520500,-0.123459568250464
Moluccan boobook and Marmoset,BN5 9YB,50.904984000000000,-0.272764000000000
Wallaby and Myna,BN1 8SL,50.868648840000000,-0.133649442000000
Boto and Piping shrike,BN5 9RN,50.928567870000000,-0.267621904000000
Vole and Fulmarine petrel,RH17 6ED,51.043963000000000,-0.082047000000000
Masked owl and Nukupuʻu,BN6 9LG,50.966390110000000,-0.170125221000000
Gull and Asiatic leopard,RH16 3NA,50.997746043625000,-0.082997266376137
Tree warbler and Masked owl,BN6 9TW,50.933686650000000,-0.182538480000000
Piping shrike and Jay,RH15 8QA,50.957596011350200,-0.141166189177665
Parrotbill and Wader,BN1 9RR,50.865960580000000,-0.083206727000000
Gull and Puffleg,BN6 8BJ,50.924693280000000,-0.128020000000000
B and Pheasant,BN6 9EX,50.936345990000000,-0.189892776000000
Asiatic leopard and Asiatic leopard,RH17 7EU,51.028536263629200,-0.000209864136994
Dolphin and Marsh harrier,RH15 0UX,50.956061000000000,-0.109092000000000
Argus and Towhee,RH15 9EU,50.953248495146800,-0.130789282943989
Tahr and Warbler,BN1 9QU,50.867705030000000,-0.088123589000000
Parrotlet and Tree warbler,RH17 6QJ,51.045476000000000,-0.113483000000000
Pitohui and Prion,RH16 2LZ,51.010773906108500,-0.076772108609818
Chipmunk and Cloud rat,RH15 9QG,50.948735702232600,-0.140480389450321
Logrunners and Rabbit,RH16 2LS,51.010283347586000,-0.075381097911304
Old World warbler and Ice seal,RH16 4XA,50.985779000000000,-0.108467000000000
Quetzal and Shearwater,RH16 3NX,50.999272995356100,-0.105481279375220
Skunk and Dolphin,RH16 1UA,51.008947316717400,-0.099242514725776
Skunk and Philippine hawk-owl,BN5 9BD,50.949231070000000,-0.241541167000000
Kangaroo and Tattler,BN1 8RG,50.867413010000000,-0.137919711000000
Philippine hawk-owl and Badger,RH16 1UD,51.008402761792100,-0.106135668479448
Piping shrike and Chicken,RH16 9PZ,51.006411000000000,-0.103795000000000
Old World quail and Mamo,BN7 2DN,50.876201000000000,0.018393000000000
Parrotlet and Badger,RH16 1YW,51.006411000000000,-0.103795000000000
Perching duck and Minke whale,RH15 8EF,50.957141243937300,-0.131829178743439
Linsang and Greenbul,RH16 2AS,51.011695718589900,-0.091303614054061
Egret and Vole,BN6 9RH,50.932948400000000,-0.177870785000000
Black jay and Tahr,RH16 2DQ,51.016896493143500,-0.093670687804883
Polecat and Treepie,BN7 2EH,50.885362950000000,0.009093095000000
Armadillo and Bronzewing pigeon,RH15 8DH,50.954715090299400,-0.128025129190783
Eagle and Chicken,RH16 4DH,50.994016672989300,-0.097472776002676
Kite and Old World warbler,BN1 9BN,50.869255846429900,-0.102599550011572
Bunting and Prion,RH15 9XU,50.957045347269600,-0.156922428190901
Lemming and Prion,BN6 8NN,50.930628440000000,-0.132920108000000
Linsang and Greenbul,RH16 4GG,50.989298961801200,-0.117129955598263
Macaw and Towhee,RH16 4RL,50.987398209260300,-0.106363753165085
Condor and Capuchin,BN7 1QS,50.874522180000000,0.005115936000000
Condor and Fulmarine petrel,BN6 9AF,50.936408520000000,-0.163374640000000
Grouse and Egret,RH16 2SE,51.004631238348600,-0.081131272611648
Marsh harrier and Logrunners,RH15 9PR,50.957263280023000,-0.148526908050797
Kestrel and Grosbeak,RH16 3EH,51.002548675984000,-0.097864928510522
Kangaroo and Buzzard,RH16 9SP,51.001790457077800,-0.109326792604890
Pheasant and Perching duck,BN6 8BA,50.923520300000000,-0.131582581000000
American sparrow and Zebra,BN8 4JF,50.987481380000000,-0.019728770000000
Vole and Wader,RH15 8QH,50.960142059396500,-0.140096255848099
Kite and Masked owl,BN6 9SJ,50.934247000000000,-0.178593536000000
Grouse and Stint,RH15 0XW,50.955743000000000,-0.113860000000000
Kangaroo and Chickadee,BN6 8TE,50.926580070000000,-0.114924863000000
Maya and Jerboa,BN6 9SS,50.938281920000000,-0.180210086000000
Tit-tyrant and Old World quail,RH16 3SH,50.996473136237200,-0.076137822675277
Petrel and Vole,RH16 3GQ,51.006413695197800,-0.103821949549961
Gull and American sparrow,BN45 7DB,50.888413550000000,-0.191168393000000
Quetzal and Tit-tyrant,RH17 7DU,51.034440197913300,-0.028510455852876
Prion and Stint,RH17 6RZ,51.044928181063100,-0.081021572403103
Old World quail and Black jay,BN5 9RP,50.927537800000000,-0.259435255000000
Philippine hawk-owl and Parakeet,RH15 0SU,50.971614000000000,-0.109541000000000
Capuchin and Herring gull,BN7 1LJ,50.870277950000000,0.000357231000000
Quetzal and Thicketbird,BN6 9TF,50.942220540000000,-0.181337423000000
Logrunners and Kākāriki,RH15 9DB,50.954611215300000,-0.136728000000000
Flameback and Bunting,RH15 0JY,50.958567670571300,-0.121519417525531
Bunting and Old World warbler,RH17 6FT,51.034448000000000,-0.204316000000000
Peafowl and Kestrel,BN7 1QT,50.874938940000000,0.002615000000000
Goose and Chickadee,BN7 1HJ,50.869735170000000,0.008918511000000
Crow and Black cockatoo,RH15 0JA,50.954075140599200,-0.121216465908654
Macaw and Duck,BN7 1SH,50.873833710000000,-0.001935338000000
Nukupuʻu and Wallaby,RH15 0RF,50.951120108530600,-0.115868466763561
Grackle and American sparrow,BN8 4AJ,50.937506180000000,-0.020856287000000
Darwin's finches and Prion,BN5 0EF,50.916221990917900,-0.264594958904916
Stilt and Siskin,RH15 9SJ,50.958600546697400,-0.147024000000000
Perching duck and Diving bird,RH16 2LN,51.008168726554700,-0.077492829943092
Logrunners and Greenbul,BN1 8YL,50.879728460000000,-0.210581883000000
White ibis and Eagle,BN6 9UF,50.937955000000000,-0.183354000000000
Booted eagles and Songlark,BN5 9NJ,50.907176420000000,-0.225741000000000
Siskin and Jackal,RH13 8BL,50.990638195210300,-0.271239647606309
Philippine hawk-owl and Meadowlark,RH17 7RP,50.962120425906000,-0.072971669713983
Cloud rat and Thrasher,RH16 4JJ,50.987987178733100,-0.104971909264808
Parakeet and Pratincole,BN6 9GB,50.948369420000000,-0.201498261000000
Bunting and New World blackbird,RH16 1FB,51.005011127499100,-0.107727698825286
Logrunners and Petrel,RH17 5JX,51.005998547845700,-0.142353704592021
Buzzard and Hawaiian honeycreeper,RH16 9LT,51.006415192600000,-0.103821954100000
Coati and White ibis,BN7 1RP,50.872917010000000,-0.000922725000000
Fulmarine petrel and Meadowlark,RH16 4RZ,50.985204506599900,-0.129847951175058
Recurvebill and Marsh harrier,BN8 4LF,50.975349950000000,0.011806370000000
Mockingbird and Mamo,RH15 0PU,50.962261865157200,-0.117482684951027
Perching duck and Ground sloth,BN7 2XY,50.876716740000000,0.004584676000000
Black jay and Recurvebill,RH17 5GP,51.011085428700000,-0.140354311300000
Civet and Gull,RH13 8GZ,50.985627362678300,-0.272950296091078
Greenbul and Mouse,BN8 4FA,50.977154000000000,0.016085000000000
Armadillo and Kite,TN22 3RB,51.007841000000000,0.010455303187555
Quetzal and Argus,RH17 7BB,51.048221463576200,-0.043704973363333
Moluccan boobook and Solitaire,RH15 8UL,50.964200714406100,-0.150458528923576
Minke whale and Armadillo,BN7 2FJ,50.874023041527000,0.016934791927510
Songlark and Stint,RH15 9LS,50.950600129700000,-0.146214825500000
Diving bird and Darwin's finches,BN5 9AE,50.934262660000000,-0.250872713000000
Elephant and Parrotlet,BN6 9QR,50.930787100000000,-0.170782777000000
Songlark and Fulmarine petrel,RH16 1HS,51.001721544068000,-0.111738334428840
Macaw and B,RH16 1JP,51.001061668508700,-0.115428067575317
Badger and Snipe,BN6 9TN,50.937650850000000,-0.181843070000000
Cuscus and Civet,RH15 0SJ,50.962384000000000,-0.094408000000000
Jerboa and Greenbul,BN5 9LR,50.889256000000000,-0.232554000000000
White ibis and Solitaire,RH15 0DU,50.949509131693100,-0.118026433832076
Guillemot and Peafowl,BN6 9EN,50.930550240000000,-0.149473974000000
Marmoset and Parakeet,BN6 8XJ,50.928679000000000,-0.096270174000000
Thicketbird and Civet,BN6 9JQ,50.948993610000000,-0.209930710000000
Wader and Ibex,RH15 8DN,50.955326000000000,-0.127853219764564
Dorcopsis and Warbler,BN6 9HL,50.960568720000000,-0.179154368000000
Hawk and Rat,RH13 6LT,51.032599977856900,-0.261549327014711
Mockingbird and Civet,RH17 5PG,50.994620432064400,-0.203772238175809
Dorcopsis and Magpie,RH15 9HY,50.952641249432900,-0.137249146011457
Greenbul and American sparrow,BN6 8UJ,50.921231940000000,-0.112878723000000
Chipmunk and Flameback,RH16 1JT,51.003819844760400,-0.115815170591216
Asiatic leopard and Mink,BN5 9DD,50.929227480000000,-0.272079995000000
Pitohui and Kākāriki,RH16 2LA,51.012580521601800,-0.082727780127456
Guillemot and Boto,BN6 9DN,50.935743000000000,-0.200842334000000
Mole and Hawk,BN5 9QL,50.935916960000000,-0.273198395000000
Minke whale and Kestrel,RH17 7AX,51.037196276058900,-0.028222307433406
Warbler and Armadillo,RH17 6EN,51.041143131059700,-0.177138444960560
Guillemot and Guillemot,RH16 1NG,51.008429354112400,-0.117239196726662
Fish eagle and Grouse,RH16 3AL,51.000338118658800,-0.105722943514405
Boto and Linsang,RH16 1RX,51.013696418256000,-0.094315153944905
Crow and Old World vulture,BN45 7FF,50.901999270000000,-0.159893343000000
Perching duck and Fox,BN8 4QA,50.938671820000000,-0.029557000000000
Bunting and Guillemot,RH15 8JJ,50.961056733073800,-0.132042384319903
Duck and Parrotbill,BN8 4JA,50.980011970000000,-0.010971628000000
Prion and Philippine hawk-owl,RH15 0XS,50.953247000000000,-0.110772000000000
American sparrow and Badger,BN6 9DT,50.935100980000000,-0.224781913000000
Philippine hawk-owl and Duck,RH16 2BP,51.014480966805400,-0.090590468861272
Vulture and Marsh harrier,RH15 0RH,50.968558650051200,-0.116459016616099
Night heron and Mockingbird,BN7 2LX,50.873469000000000,0.012015106000000
Marsh harrier and Siskin,RH17 7RG,50.970291000000000,-0.080013000000000
Cloud rat and Linsang,BN7 2SF,50.879548000000000,0.000598000000000
Grackle and Kestrel,RH15 0BD,50.964861007594000,-0.114700199344139
Peafowl and Herring gull,BN6 8PD,50.926896340000000,-0.146474155000000
B and Fish eagle,RH15 0FQ,50.963191000000000,-0.110056000000000
Tattler and Quetzal,RH17 6QR,51.036593957277000,-0.118223111800034
Recurvebill and Piping shrike,RH16 2QZ,51.028235522681700,-0.073297028799639
Vole and Zebra,BN6 9RR,50.937391000000000,-0.179528334000000
Philippine hawk-owl and Dorcopsis,BN6 9QD,50.931034520000000,-0.172224650000000
Jerboa and Ibex,RH16 3NR,50.998427304712200,-0.082313599651337
Kākāriki and Mouse,RH16 1BY,51.003996900260900,-0.106186818059356
New World blackbird and Diving bird,RH15 9AE,50.955242332224600,-0.129498999858427
Warbler and Kākāriki,RH16 4BE,51.000271239577500,-0.115488600103917
Towhee and Duck,BN7 1LB,50.868636030000000,-0.008283152000000
Pheasant and Asiatic leopard,RH16 4SP,50.989061000000000,-0.097376000000000
Mockingbird and Old World warbler,RH15 0RZ,50.966474780082400,-0.118850524922504
Coati and Stilt,RH16 3HG,51.002998884151000,-0.093484999127724
Capuchin and American sparrow,RH15 9TQ,50.951140000000000,-0.150806000000000
Parrotlet and Kangaroo,RH15 0DF,50.947659017440700,-0.129376325820385
Recurvebill and Shearwater,RH16 4GH,50.990244967990100,-0.116678441148602
Grouse and Cloud rat,BN7 2BY,50.878039000000000,0.016668000000000
Parrotlet and Darwin's finches,BN7 1EH,50.869847680000000,-0.014470917000000
Parrotbill and Recurvebill,BN6 8YF,50.929646680000000,-0.136204043000000
Recurvebill and Mole,RH15 0LW,50.950286224900700,-0.117696066643810
Viscacha and Pheasant,RH16 4UT,50.993682969300000,-0.115071537300000
Armadillo and Lemming,RH13 8DS,50.991259988263300,-0.270717815146388
Lemming and Mouse,RH16 1PY,51.005807547548200,-0.102492520611102
Mockingbird and Asiatic leopard,RH16 9TG,51.001790457077800,-0.109326792604890
Hawk and Hawaiian honeycreeper,BN6 9PQ,50.910336170000000,-0.154770814000000
Dorcopsis and Vulture,BN6 8QL,50.922219840000000,-0.131649000000000
Stint and Cloud rat,BN45 7AW,50.903800320000000,-0.212133919000000
Polecat and Guillemot,BN1 8YJ,50.872693400000000,-0.200489799000000
Parrotbill and Viscacha,BN8 4PA,50.972706790000000,0.010523000000000
Nukupuʻu and Viscacha,RH16 1LD,51.005431279772100,-0.117032741470519
Mole and Masked owl,RH15 9RD,50.956131000000000,-0.138904000000000
Wallaby and Kangaroo,RH17 7FT,51.006413695197800,-0.103821949549961
Prion and Shearwater,BN5 9SX,50.918414460000000,-0.245932625000000
Crow and Chipmunk,RH16 1PW,51.009137482859900,-0.111522710008317
Piping shrike and Hawk,RH15 9JR,50.949098177727700,-0.135013251723372
Linsang and Pratincole,RH16 2NA,51.011017946301500,-0.075208129902378
Warbler and Mouse,BN6 9EG,50.929849830000000,-0.179103000000000
Mockingbird and Parakeet,RH16 3SF,50.996429524813200,-0.078405588797103
Jerboa and Dolphin,RH16 4LS,50.997345935198800,-0.103538000000000
Dorcopsis and Buzzard,BN7 2QE,50.874881360000000,0.010376446000000
Old World vulture and Solitaire,RH17 7HA,51.030728506566200,-0.003766570067409
Cloud rat and Tattler,BN6 9UG,50.935631600000000,-0.181537542000000
Pratincole and Snipe,RH15 8AA,50.963508194117400,-0.128440734990387
Francolin and Grouse,BN5 9RW,50.928773280000000,-0.268738468000000
Wader and Gull,RH16 4RB,50.983525733514700,-0.100494704238603
River dolphin and Herring gull,RH16 4DR,50.992904246610900,-0.094881977488946
Siskin and Night heron,BN7 9ST,50.873324210000000,0.012015106000000
Diving bird and Mamo,BN5 9YL,50.902451070000000,-0.271834070000000
Hawaiian honeycreeper and Capuchin,RH15 9LN,50.955168587508600,-0.150137000000000
White ibis and Grosbeak,BN6 8TG,50.925503960000000,-0.113445797000000
Grackle and Fulmarine petrel,RH16 3RY,50.994606340563600,-0.082385612170411
Triller and Mockingbird,BN5 0DF,50.916220220000000,-0.264594951000000
Marsh harrier and Polecat,BN6 9TL,50.942343080000000,-0.179325000000000
Grouse and Stilt,RH16 3DP,51.004296853280900,-0.104164831106932
Warbler and Philippine hawk-owl,RH15 0RY,50.955975000000000,-0.124082629754619
Armadillo and Solitaire,BN6 8EZ,50.926841300000000,-0.141880074000000
Marmoset and Recurvebill,RH15 8JA,50.960627812434300,-0.127160928882776
Egret and Scimitar babbler,RH17 5TB,51.010583245796300,-0.232664392050764
Thicketbird and Chipmunk,BN6 9LE,50.964937500000000,-0.165240484000000
Masked owl and Black cockatoo,RH15 9UZ,50.951276589709100,-0.143041378898444
Magpie and Shearwater,BN7 1RG,50.874574000000000,-0.000524896000000
Cuscus and Recurvebill,BN8 4QD,50.925512220000000,-0.014165112000000
Bunting and Logrunners,RH16 2HP,51.014038327758300,-0.080044418013244
Logrunners and Ice seal,BN6 9FS,50.939308824534200,-0.180212766657614
Booted eagles and Marsh harrier,RH17 6JH,51.050434833389000,-0.135526000000000
Hawaiian honeycreeper and Pratincole,BN8 4HX,50.973634430000000,-0.018836426000000
Kite and Minke whale,RH15 9XH,50.961583189812300,-0.158394766814428
Recurvebill and Buzzard,RH17 7BS,51.040403777602500,-0.015290485992748
Snipe and American sparrow,RH17 5DU,51.006035860465900,-0.130036601479515
Fish eagle and Stint,BN45 7AD,50.898517170000000,-0.199579854000000
Jackal and Duck,BN8 4BZ,50.937653590000000,-0.021063530000000
Philippine hawk-owl and Grosbeak,BN6 9AA,50.928930950000000,-0.166543740000000
Duck and Peafowl,BN6 9RX,50.935099030000000,-0.179679639000000
Towhee and Kākāriki,BN7 3EF,50.930209140000000,-0.063560591000000
Meadowlark and Elephant,RH16 2HA,51.012130383211300,-0.086538476924446
Vole and Macaw,RH16 3EP,50.993649246288100,-0.088738022076570
Minke whale and Kite,BN45 7FE,50.897812330000000,-0.163570985000000
Perching duck and Jerboa,RH16 2QL,51.006985000000000,-0.055347000000000
Black cockatoo and Warbler,RH16 1UG,51.009634318967200,-0.102778265658091
Piping shrike and Triller,RH16 1HN,51.000137014116100,-0.111075791237755
Chickadee and Wader,RH17 5BQ,51.009424173110000,-0.136657310841379
Masked owl and Mole,RH15 0PP,50.960765435467100,-0.116147613880442
Mink and Fulmarine petrel,RH16 3UH,50.999604538235900,-0.091044474464996
Fulmarine petrel and Recurvebill,RH15 8QP,50.958035184338200,-0.142202384831086
Stint and Nukupuʻu,RH17 6TX,51.047820098654300,-0.079689348242252
Solitaire and Magpie,BN7 9NA,50.879363000000000,0.016227000000000
Mole and Parakeet,BN7 1SB,50.872797040000000,-0.001794894000000
Snipe and Philippine hawk-owl,RH17 7SX,50.993034175272200,-0.077562567112641
Elephant and Ibex,BN7 3DQ,50.947059000000000,-0.061636000000000
Condor and Kestrel,RH16 9SS,51.001790457077800,-0.109326792604890
American sparrow and Perching duck,BN5 9NA,50.888664560000000,-0.229832124000000
Songlark and Coati,BN5 9JR,50.937813920000000,-0.271334762000000
Wader and B,RH15 9BT,50.956333934458200,-0.135335861299726
Armadillo and Grosbeak,RH17 7HD,51.027372116339500,0.002649267953143
Bunting and Zebra,RH15 8TX,50.964097502964000,-0.149052738098737
Vole and Fish eagle,BN7 1BP,50.876195970000000,0.000866497000000
Wader and Francolin,BN5 9DW,50.925848670000000,-0.271523000000000
Shearwater and Parrotbill,RH16 3JT,50.999102000000000,-0.096552000000000
River dolphin and Pitohui,BN8 4LG,50.974683220000000,0.017090879000000
Herring gull and Black jay,BN7 1JP,50.869097570000000,0.003632442000000
Black jay and Minke whale,RH17 5AA,51.003558225452700,-0.144418153905722
Vulture and Fish eagle,RH16 9DX,51.006413695197800,-0.103821949549961
White ibis and Macaw,RH16 3QX,50.992755806541100,-0.087449459172009
Dolphin and Coati,RH15 0UR,50.963273947100000,-0.111004856300000
Moluccan boobook and Vulture,RH16 2AR,51.011399419840800,-0.090232329804282
Magpie and Armadillo,BN6 9EY,50.937480830000000,-0.189421718000000
Parrotlet and Dolphin,BN7 2LZ,50.872938520000000,0.013519370000000
Darwin's finches and Stilt,BN6 9UE,50.939018860000000,-0.182487158000000
Moluccan boobook and Elephant,BN5 9YA,50.902730420000000,-0.270657492000000
Recurvebill and Zebra,RH15 0DD,50.947969000000000,-0.123385000000000
Black jay and Guillemot,BN6 8QE,50.926221090000000,-0.137948916000000
Warbler and Booted eagles,BN7 9LX,50.879363000000000,0.016227000000000
Egret and Wallaby,RH15 8RN,50.966053418617300,-0.130132929641137
Kangaroo and Mockingbird,BN7 2PP,50.875518080000000,0.013090397000000
Marsh harrier and Zebra,RH15 9QR,50.953080314170500,-0.138840480893029
Guillemot and Buzzard,BN7 3DB,50.936141260000000,-0.059556694000000
Booted eagles and Civet,BN6 9RG,50.933592640000000,-0.178813378000000
Black jay and Mockingbird,BN45 7FR,50.898779120000000,-0.164428896000000
Towhee and Thicketbird,RH15 9PX,50.957816070269900,-0.149359300140497
Mamo and B,BN6 9FD,50.936298320000000,-0.187146000000000
Shearwater and Tahr,BN8 4FG,50.970885000000000,-0.000653000000000
Tit-tyrant and Thrasher,BN6 9XA,50.934770590000000,-0.177073720000000
Dorcopsis and Petrel,RH16 3JU,50.998975066869000,-0.094904121278120
Marsh harrier and Mink,RH16 2LH,51.008333462326900,-0.076573699396373
Dolphin and Rabbit,BN6 8SH,50.948012730000000,-0.079150107000000
Prion and Mockingbird,RH16 4BA,50.999158500445400,-0.113410120168808
Argus and Puffleg,RH16 2SP,51.002704374071200,-0.081538602327129
Quetzal and Snipe,BN44 3XJ,50.916220220000000,-0.264594951000000
Cuscus and Macaw,RH17 6TB,51.050210000000000,-0.078855369374848
Nukupuʻu and Mouse,BN6 8NB,50.929538780000000,-0.133390663000000
Macaw and Fox,RH17 6EP,51.037590000000000,-0.173555000000000
Old World vulture and Vole,BN6 8UD,50.915715110000000,-0.105419535000000
Siskin and Argus,RH15 0PZ,50.963830454212800,-0.118273756928942
Chipmunk and Fulmarine petrel,BN45 7FA,50.899365830000000,-0.163993402000000
Shearwater and Crow,BN6 9TA,50.939916000000000,-0.180502000000000
Partridge and Magpie,RH17 7GG,50.988253000000000,-0.081752000000000
Chicken and Flameback,RH15 5BU,50.954052012200000,-0.154065127500000
Argus and Puffleg,RH16 2BS,51.014555644384900,-0.085811347773011
Tree warbler and Macaw,RH15 9PY,50.958394626337300,-0.148980325423690
Wallaby and Gull,RH17 5GQ,51.015085000000000,-0.138526000000000
Fulmarine petrel and River dolphin,RH16 4SY,50.988155018260100,-0.107558346273148
Snipe and Petrel,RH15 8NB,50.962873000000000,-0.138691000000000
Treepie and Wader,BN8 4SY,50.904067750000000,-0.008122598000000
Black jay and Asiatic leopard,RH16 3HD,50.995530937531800,-0.093819586234921
Pitohui and Cloud rat,BN45 7AU,50.893728760000000,-0.206917034000000
Argus and Wader,BN5 9JY,50.939073470000000,-0.270761416000000
Old World vulture and Quetzal,RH17 5GS,51.013893000000000,-0.135395000000000
Egret and Logrunners,RH15 8PF,50.964400496025300,-0.136437043617156
Chickadee and Crow,RH16 2EA,51.001299000000000,-0.076409000000000
Badger and Jerboa,RH15 0LJ,50.960405000000000,-0.119380000000000
Greenbul and Stint,BN1 8SN,50.868910190000000,-0.132558870000000
Vulture and Piping shrike,RH16 1NJ,51.009603658826100,-0.108096753994647
Flameback and Goose,BN6 9GY,50.949169000000000,-0.197525000000000
Grosbeak and Grosbeak,RH16 4RQ,50.976876920937200,-0.114754907667506
Wallaby and Quetzal,RH15 0JB,50.955411663280300,-0.125476890201869
Myna and Tattler,BN7 3AF,50.904528010000000,-0.066636000000000
Guillemot and Parrotlet,BN7 9TL,50.873324210000000,0.012015106000000
Fulmarine petrel and Parrotlet,BN7 2DU,50.876195460000000,0.007703766000000
Capuchin and Goose,RH17 7SW,50.988581889634600,-0.086837338540443
Ground sloth and Parakeet,BN7 2SU,50.879944720000000,0.001481985000000
Kestrel and Triller,RH15 5AQ,50.954051799999990,-0.154065100000025
Scimitar babbler and Meadowlark,RH15 0JE,50.955542426132200,-0.122979849731486
Philippine hawk-owl and Dorcopsis,BN1 8UA,50.866022370000000,-0.147169893000000
Jay and Ground sloth,RH16 4UQ,50.985784314200000,-0.107285000000000
Mole and Skunk,RH16 2NT,51.012147483300000,-0.075446552400000
Chipmunk and Jackal,RH17 5HT,51.015612226110700,-0.135012080484374
Solitaire and Greenbul,BN6 8TT,50.920831160000000,-0.113677487000000
Magpie and Wallaby,RH16 3UY,50.995637000000000,-0.098833000000000
Fulmarine petrel and Stilt,BN6 9AJ,50.936533870000000,-0.163910550000000
River dolphin and Eagle,RH16 1SE,51.015061159851900,-0.094729688447324
Diving bird and Cuscus,RH16 3JW,50.999116107945200,-0.099145477791066
Parrotbill and Jerboa,RH16 4JE,50.991912709473600,-0.103030781252771
Goose and Pratincole,RH16 9PX,51.006411000000000,-0.103795000000000
Hawaiian honeycreeper and Zebra,RH15 0PY,50.964074445396600,-0.118904759371452
Grosbeak and Parrotbill,RH16 2RT,51.007899500473300,-0.078074155679463
Prion and Cuscus,BN7 2TQ,50.884121620000000,-0.003997437000000
Parrotbill and Mouse,BN7 1NP,50.880076100000000,-0.010937089000000
Grackle and Puffleg,BN7 1PF,50.874317080000000,-0.004430571000000
Badger and Civet,RH16 4UH,50.994789000000000,-0.113118000000000
Fox and Elephant,RH15 0DG,50.948232068183200,-0.129780416072987
Piping shrike and Dolphin,BN6 9JG,50.949319280000000,-0.200692818000000
Egret and Wallaby,BN7 2BP,50.873822030000000,0.019641057000000
Old World quail and Triller,BN6 8QH,50.923486000000000,-0.135624970000000
New World blackbird and Linsang,BN6 8DJ,50.926887230000000,-0.132358402000000
Parrotbill and Dolphin,BN6 8DE,50.927091010000000,-0.138924511000000
Ground sloth and Argus,BN7 1LR,50.874160410000000,-0.005787603000000
Moluccan boobook and Kākāriki,RH15 8TP,50.966502574628900,-0.145895103457767
Jay and Stint,BN7 1QB,50.878922000000000,-0.008128908000000
American sparrow and Grosbeak,RH16 2FY,50.999574934400000,-0.077634350800000
Stint and Songlark,BN6 8EG,50.930063750000000,-0.143403000000000
Wallaby and Ibex,RH17 5BD,51.007674137803900,-0.135884000000000
Perching duck and Minke whale,RH16 3JQ,50.997026599938900,-0.098404280275428
Bunting and Duck,RH17 7BA,51.047468000000000,-0.036232000000000
Bronzewing pigeon and Chipmunk,BN7 1BY,50.877884340000000,-0.000042000000000
Shearwater and Parrotlet,RH15 9QD,50.951041000000000,-0.141712000000000
Chipmunk and Songlark,RH15 8JY,50.963994951211300,-0.130756749120815
Polecat and Shearwater,RH16 3ST,50.997520887418400,-0.077505402930779
Booted eagles and Kangaroo,BN7 9YW,50.873469000000000,0.012064000000000
White ibis and Pheasant,RH15 9XQ,50.959567278408000,-0.157164398906197
Thrasher and Ibex,BN7 1PL,50.877433130000000,-0.005207224000000
Parakeet and Viscacha,BN6 8SG,50.947566040000000,-0.093048972000000
Elephant and Pheasant,BN7 2PD,50.875908830000000,0.011813700000000
Songlark and Bronzewing pigeon,RH16 4DS,50.993083455009800,-0.094290377299405
Duck and Petrel,RH15 8NW,50.961852335525000,-0.139629221807589
Songlark and Grosbeak,RH17 5BB,51.006936721735200,-0.133506972578676
Kite and Puffleg,BN8 6UP,50.879395070000000,0.016171709000000
Old World warbler and Wallaby,BN5 9DQ,50.930048350000000,-0.272248807000000
Quetzal and Goose,RH17 7TB,50.995005031995900,-0.071096715238553
Greenbul and Old World quail,BN6 9QY,50.936924100000000,-0.169289478000000
Civet and White ibis,RH17 5JQ,51.015242342079600,-0.137193984859049
Towhee and Stint,RH16 1SS,51.001790457077800,-0.109199000000000
Polecat and Dorcopsis,BN8 4EX,50.972930960000000,-0.023495739000000
Black jay and Skunk,RH17 5SY,51.013427150291100,-0.196106000000000
Argus and Vole,BN7 2QG,50.875817270000000,0.013334000000000
Chickadee and Mink,RH16 4TS,50.985463017721500,-0.116273564556558
Logrunners and Parakeet,RH15 9DD,50.954631947300000,-0.135446000000000
Polecat and Diving bird,RH16 2DF,51.015381673587500,-0.092877383119927
Parrotbill and Francolin,BN7 1SE,50.875224480000000,-0.001221991000000
Rat and Francolin,RH16 4ZF,50.986687000000000,-0.105924000000000
Chicken and Duck,RH16 4QE,50.992094931523200,-0.102068603784161
Wallaby and New World blackbird,BN6 8NT,50.926369590000000,-0.131482655000000
Viscacha and Parakeet,RH16 4TA,50.994451646891100,-0.117891000000000
Grouse and Darwin's finches,BN7 2LN,50.873756080000000,0.013455000000000
Old World quail and Siskin,RH16 4JZ,50.987692764636300,-0.109557702258678
Stint and Pitohui,RH16 9SA,51.001790457077800,-0.109326792604890
Herring gull and Bunting,BN7 2HN,50.881372780000000,0.014138845000000
Pheasant and Black cockatoo,RH15 8EJ,50.965641073366900,-0.122928882983495
Chicken and Night heron,RH15 9LH,50.954806000000000,-0.148207539495455
Stilt and Parakeet,RH15 0NZ,50.963037702390000,-0.120983102281455
Quetzal and Egret,BN7 2PA,50.874515940000000,0.011227790000000
Grackle and Songlark,BN8 4QJ,50.946651370000000,-0.031429755000000
Kangaroo and Argus,RH15 0SH,50.958356933315200,-0.104027427875971
Treepie and Pratincole,RH16 4GU,50.987069203547000,-0.116607499300905
Scimitar babbler and Towhee,TN22 3RN,51.015273404401400,0.013790415182930
Darwin's finches and Tree warbler,RH16 3EY,51.002370697692400,-0.095221126716846
Wader and Tahr,BN5 9NH,50.896362000000000,-0.223753000000000
American sparrow and B,RH16 1JR,51.001460147455800,-0.114485488041125
Vole and Magpie,RH15 8UQ,50.962607521043700,-0.152502000000000
Maya and Greenbul,RH16 2PE,51.017454168717400,-0.083781442461563
Chipmunk and Minke whale,RH15 9UY,50.949994000000000,-0.143747000000000
Duck and Asiatic leopard,BN6 9BA,50.924304490000000,-0.166867913000000
Capuchin and Zebra,RH16 2RF,51.019459243810300,-0.078280587717581
