name,postcode,lat,lon
Kangaroo and Quetzal,EH9 3DJ,55.925869459822200,-3.179445756262450
Crow and Kākāriki,EH19 3BG,55.875168204086000,-3.101428624424910
Marmoset and B,EH8 8JF,55.949395512250600,-3.182979451665240
Thicketbird and Dorcopsis,EH10 6DA,55.920833710471600,-3.205824158018720
Marmoset and Vulture,EH11 3UP,55.927411116375700,-3.283187870443830
Old World warbler and Wader,EH11 3HT,55.932783459080100,-3.253624243600940
Armadillo and Peafowl,EH6 4JY,55.978761000000000,-3.193182519491620
Petrel and Parrotbill,EH16 6UX,55.903838523380300,-3.173642517912510
Cuscus and Cuscus,EH9 2ES,55.934469926930000,-3.194226043919270
Scimitar babbler and Peafowl,EH12 6EZ,55.950270958179200,-3.247271223400130
Bunting and Marmoset,EH13 9BN,55.908563261388500,-3.229966705780330
Crow and Perching duck,EH8 7RQ,55.949865003898700,-3.132053460705460
Fox and White ibis,EH6 8AA,55.969318057378500,-3.162967135058630
Crow and Pratincole,EH12 5HG,55.945608668127700,-3.225664777485200
Asiatic leopard and Rat,EH2 2LL,55.954270521157600,-3.194691000000000
Diving bird and Warbler,EH30 9QL,55.984760466297900,-3.388985434226510
Kite and Nukupuʻu,EH11 3TZ,55.928131899732500,-3.278682214530490
Tahr and Peafowl,EH4 1EJ,55.959361795748400,-3.217882264175710
Logrunners and Kestrel,EH14 2EB,55.920065000000000,-3.263763186412190
Parrotbill and Parrotbill,EH17 8HA,55.896693654740100,-3.156699083732410
Black jay and Dorcopsis,EH11 3SL,55.930135000000000,-3.282205000000000
Asiatic leopard and New World blackbird,EH12 6LR,55.947985178337700,-3.274535000000000
Goose and Pratincole,EH8 7EL,55.954895521565500,-3.144836903517660
Condor and Tahr,EH12 8QJ,55.947745486448900,-3.288360205409640
Asiatic leopard and Jay,EH13 9QE,55.905340759261700,-3.227833229935250
Minke whale and Mamo,EH8 9XL,55.944739870437900,-3.182164983430190
Thicketbird and Black cockatoo,EH6 6HP,55.976665743536800,-3.179292812624310
Viscacha and Bunting,EH10 6AA,55.924533998177000,-3.209667917022140
Nukupuʻu and Tree warbler,EH16 5XN,55.941757231034800,-3.172707888339950
Prion and Thicketbird,EH3 5QE,55.968108453852700,-3.207454657911110
Masked owl and Old World vulture,EH20 9AS,55.875541023514500,-3.162495259941500
Greenbul and Fox,EH13 9BR,55.908118117259500,-3.229552690266250
Scimitar babbler and Old World quail,EH4 2QQ,55.966418181389400,-3.248833000000000
Vulture and Tit-tyrant,EH2 4NA,55.953540383102600,-3.204792000000000
Shearwater and Mamo,EH6 7QE,55.967904498522000,-3.151789863403540
Mouse and Mink,EH12 1PP,55.928941000000000,-3.302220000000000
Towhee and Badger,EH7 6EE,55.962051428420100,-3.156966301379150
Meadowlark and Boto,EH4 3QZ,55.958384065958400,-3.255316766310510
Darwin's finches and Tattler,EH7 6PG,55.957907133229100,-3.141770426471160
Herring gull and Warbler,EH26 0BE,55.857574813625100,-3.197585060171500
Quetzal and Puffleg,EH3 5HX,55.961754207055000,-3.207609169162340
Grackle and Logrunners,EH11 3RL,55.929321564460300,-3.277472957136580
Moluccan boobook and Cuscus,EH16 5LT,55.931683535250500,-3.147049317729700
Magpie and New World blackbird,EH10 5BW,55.932755507544100,-3.221737000000000
Badger and Zebra,EH11 4NW,55.922045208149200,-3.283330585277720
Flameback and Boto,EH8 7JX,55.949591341514300,-3.140292566152670
Crow and Zebra,EH14 6AT,55.885866000000000,-3.305814000000000
Asiatic leopard and Lemming,EH9 2AE,55.934115198467800,-3.196520210253130
Booted eagles and Vole,EH4 8BX,55.956873996907700,-3.302117875206400
Chipmunk and Pratincole,EH14 2PL,55.918931786065000,-3.281163503973780
Triller and Flameback,EH12 9EN,55.935003784946000,-3.301191885967710
Cloud rat and Minke whale,EH16 5ER,55.932702459714700,-3.161053402638460
Boto and Old World quail,EH9 2WU,55.934239000000000,-3.195820000000000
Old World quail and Masked owl,EH15 2LH,55.946968206829300,-3.088574677324590
White ibis and Argus,EH19 3QB,55.878001659336300,-3.097065254957010
Linsang and Grackle,EH10 4LL,55.939435034026100,-3.212101614234960
Tree warbler and Philippine hawk-owl,EH26 0EW,55.849542528532300,-3.207608453946850
Fox and River dolphin,EH15 2AS,55.951637450782900,-3.109076221761210
Dorcopsis and Chickadee,EH14 5RH,55.894150622309900,-3.322675503514420
Mockingbird and Crow,EH16 5RZ,55.921141758398600,-3.156851194409550
Mouse and Polecat,EH28 8QN,55.930885000000000,-3.412491000000000
Cloud rat and Duck,EH14 7BG,55.881571000000000,-3.365490000000000
Fulmarine petrel and Petrel,EH8 9DZ,55.946014973894400,-3.182251877518690
Marmoset and Treepie,EH6 8PU,55.967904381937700,-3.171049000000000
Hawk and Snipe,EH8 7QH,55.948684556923800,-3.139241051077610
Civet and Eagle,EH12 9JY,55.938448616430000,-3.314419223655480
Pheasant and Maya,EH3 5HP,55.961597965085100,-3.206130565476640
Philippine hawk-owl and Fulmarine petrel,EH4 8DF,55.953672056740500,-3.298150552426430
Marsh harrier and Recurvebill,EH16 4EY,55.928098919699200,-3.123448000000000
Magpie and Magpie,EH6 6EW,55.975966084008700,-3.173518632485230
Buzzard and Eagle,EH15 2EW,55.949417753498400,-3.099084298856110
Grouse and Thicketbird,EH20 9ED,55.881639360239800,-3.154205068769560
Partridge and American sparrow,EH4 8AR,55.959686132468100,-3.300450301401020
Perching duck and Cloud rat,EH10 5RT,55.915548306711900,-3.221515951042700
Grouse and Philippine hawk-owl,EH7 5PN,55.959614000000000,-3.172479000000000
Ibex and Black jay,EH10 6LP,55.908857499661600,-3.212075200631400
Maya and Ground sloth,EH10 4DY,55.935053907301600,-3.208971293397680
Dolphin and Elephant,EH11 3ES,55.933418932845000,-3.264417727178040
Boto and Elephant,EH14 1PS,55.931601176932400,-3.239932437336730
Tahr and Mockingbird,EH9 1DX,55.937946931772500,-3.202577733517060
Booted eagles and Mamo,EH30 9UP,55.984336689252400,-3.395477899518820
Herring gull and Treepie,EH13 0BE,55.904592410697700,-3.251290893311020
Jackal and Egret,EH12 8TE,55.951474001231900,-3.294409567865210
Scimitar babbler and Capuchin,EH4 2LQ,55.965110168854000,-3.240635574076980
Puffleg and Civet,EH4 1HH,55.959305013557600,-3.213846000000000
Hawk and Myna,EH30 9XT,55.986189114807300,-3.407999569148140
Dolphin and Asiatic leopard,EH5 1BS,55.978982000000000,-3.218371000000000
Macaw and Moluccan boobook,EH6 6EX,55.975692174549800,-3.173975051592400
Jerboa and Grackle,EH29 9BH,55.958359654991000,-3.401750937115650
Peafowl and Greenbul,EH14 2TR,55.915806168684000,-3.296484561714340
Argus and Cuscus,EH15 2HU,55.947130188295500,-3.099676003773560
Wader and Mamo,EH28 8NR,55.915370950964800,-3.381142643371990
Guillemot and Thrasher,EH14 5RN,55.898017010570800,-3.319928364458030
American sparrow and Kite,EH17 8DP,55.899617958887300,-3.155314748636980
Cuscus and Zebra,EH5 3PS,55.975375126806100,-3.206799727640570
Myna and Hawaiian honeycreeper,EH11 3RW,55.929423877249300,-3.278004514413000
Fox and Marmoset,EH4 7PP,55.959691075300800,-3.284560325470750
Zebra and Maya,EH30 9TU,55.981751920668400,-3.373603236978090
Tattler and Rabbit,EH4 7SQ,55.954383764849700,-3.296109000000000
Pheasant and Thrasher,EH6 5RS,55.973527634015600,-3.177643010356750
Marsh harrier and Siskin,EH11 1ED,55.938819864870300,-3.220711517616840
Parrotbill and Guillemot,EH4 2LX,55.960605991202400,-3.247107104721500
Magpie and Treepie,EH16 4LX,55.932460781622200,-3.127095918803140
Night heron and Linsang,EH18 1AW,55.889018284368400,-3.109047901737040
Masked owl and Quetzal,EH12 8QT,55.948398658299300,-3.291200296933630
Logrunners and Puffleg,EH12 9EW,55.934189784054700,-3.301692851320560
Bunting and Coati,EH10 4DE,55.935219574909700,-3.210401166141110
Asiatic leopard and Warbler,EH12 7UZ,55.943037711909100,-3.287435318866560
Black jay and American sparrow,EH4 8BS,55.956822621665100,-3.301026985562380
Dorcopsis and Armadillo,EH15 2JJ,55.946229879233200,-3.094830778165370
Booted eagles and Tahr,EH12 0AE,55.951167494233500,-3.340714219174490
Eagle and Hawaiian honeycreeper,EH4 6EN,55.961658828217300,-3.299138826671760
Ice seal and Tahr,EH4 4RS,55.969941370432700,-3.257773985836500
Kite and Wallaby,EH16 4NL,55.935332403414000,-3.131421402917570
Parrotbill and Gull,EH19 3GT,55.869525991605700,-3.105935666851230
Dorcopsis and Guillemot,EH11 1HG,55.935106126676200,-3.225509151236580
Treepie and Rat,EH3 9BP,55.943564596164300,-3.204240921951970
Mink and Chickadee,EH11 1LR,55.932782512271700,-3.234030000000000
Rat and Thrasher,EH1 2QP,55.945665640448200,-3.191464292246730
Grosbeak and Kākāriki,EH4 3QB,55.956894602303900,-3.263020802400880
White ibis and Scimitar babbler,EH12 1QB,55.928941000000000,-3.302220000000000
Logrunners and Vulture,EH17 8ET,55.898730000000000,-3.156088000000000
Skunk and Duck,EH8 9PX,55.939196297256600,-3.181179599264090
Thicketbird and Thrasher,EH7 6QX,55.962912571932400,-3.131969868473350
River dolphin and Bunting,EH15 2EG,55.952104000000000,-3.105230000000000
Zebra and Fox,EH1 3NZ,55.959544478042800,-3.184394322050510
Flameback and Night heron,EH27 8EE,55.894570371368100,-3.372167712656530
Grackle and Chipmunk,EH10 5AR,55.935611964267800,-3.216176345024280
Chipmunk and Grouse,EH3 6HN,55.955988796487800,-3.203601661747240
Peafowl and Solitaire,EH6 4TY,55.981717857145800,-3.192669421660720
Songlark and Cuscus,EH3 6HW,55.955889267212000,-3.204591596604280
Piping shrike and Cloud rat,EH4 3AF,55.954800707687000,-3.219340629374690
Elephant and Black cockatoo,EH11 2EE,55.944019752700000,-3.219706704200000
Grosbeak and Goose,EH16 4UP,55.930663290472200,-3.121233568337360
Warbler and Ibex,EH20 9QT,55.888988226672400,-3.159123960532760
Zebra and Vole,EH4 8HX,55.954652000000000,-3.302422782496920
Mole and American sparrow,EH22 1NX,55.913496000000000,-3.111954000000000
Asiatic leopard and Coati,EH7 6AA,55.955999000000000,-3.160469000000000
Rat and Parrotbill,EH14 1SS,55.930310692746600,-3.251143469440170
Marmoset and Partridge,EH9 3DF,55.925023984044800,-3.176715441215220
Mockingbird and Triller,EH1 1TD,55.950442258689300,-3.184388600296940
Chipmunk and Wader,EH3 6RA,55.958296980176500,-3.200950332330930
White ibis and Moluccan boobook,EH6 5TA,55.971197648630400,-3.188227369698280
Linsang and Polecat,EH8 9QZ,55.941752156294900,-3.178887834203690
Petrel and Nukupuʻu,EH10 7DX,55.881354000000000,-3.203704000000000
Mamo and Scimitar babbler,EH2 1AU,55.954560722036900,-3.194845080896880
Badger and Rat,EH9 3BF,55.923355000000000,-3.178393000000000
Mole and Puffleg,EH10 6JR,55.914997287148700,-3.206314931720310
Coati and Coati,EH13 0LH,55.907130738714200,-3.258573000000000
Macaw and Minke whale,EH20 9SR,55.883713000000000,-3.143875000000000
Viscacha and Linsang,EH1 2DY,55.947930909870600,-3.205225172491860
Zebra and Eagle,EH29 9AB,55.955987767609300,-3.403475000000000
Parrotbill and Parrotlet,EH20 9ES,55.881306742324600,-3.158047746718180
Pheasant and Booted eagles,EH11 1HW,55.937699254460800,-3.217011000000000
Masked owl and Vulture,EH4 5LQ,55.967159088802000,-3.270596876561560
Argus and Capuchin,EH12 6LJ,55.947172832118100,-3.276907835604320
Eagle and Cloud rat,EH1 1JF,55.947174000000000,-3.189733000000000
Chickadee and Capuchin,EH6 4NN,55.973402652347000,-3.190810000000000
Pheasant and Mink,EH4 3EB,55.952497869389600,-3.232240510542700
Black cockatoo and Vole,EH28 8TY,55.921602325005500,-3.377555628737630
Dorcopsis and Buzzard,EH12 5LL,55.943630984377300,-3.231158291007150
Prion and Hawaiian honeycreeper,EH12 8UA,55.950263267052700,-3.311184301507720
B and Macaw,EH17 8XN,55.896478000000000,-3.143724000000000
Shearwater and Lemming,EH17 7NN,55.914181601819600,-3.137172856739900
Diving bird and Nukupuʻu,EH17 7BF,55.913308000000000,-3.131564000000000
Jay and Herring gull,EH6 5RN,55.973349610549100,-3.178406736891810
Goose and Jay,EH9 3BN,55.927142117578900,-3.179788509340060
Meadowlark and Hawaiian honeycreeper,EH11 1SP,55.932654448892800,-3.230778069428820
Cloud rat and Mink,EH5 1AN,55.978863754320700,-3.220258072646430
Hawaiian honeycreeper and Meadowlark,EH12 7PX,55.936954710884500,-3.289987029301030
Marsh harrier and Jackal,EH17 7LW,55.910946642897600,-3.138166004197100
Darwin's finches and Pheasant,EH11 3TN,55.924930964101100,-3.279745072695810
Vulture and Wallaby,EH9 3BU,55.927087603170400,-3.177034065290350
Vulture and Linsang,EH5 1AG,55.977941921891400,-3.218979038672400
Kangaroo and Perching duck,EH11 4SB,55.923419471414600,-3.275598410143310
Triller and Mink,EH12 6NT,55.941541386788800,-3.274929289774300
Fox and Chickadee,EH7 4FG,55.962764000000000,-3.180730000000000
Viscacha and Masked owl,EH30 9AW,55.984404000000000,-3.380734000000000
Scimitar babbler and Jerboa,EH12 8EP,55.944384337651700,-3.301234291125240
Shearwater and Pitohui,EH22 3JU,55.886359702392200,-3.085742019610780
Tahr and Grouse,EH5 2AX,55.975485144469700,-3.217539657824480
Peafowl and Mockingbird,EH8 8DT,55.951424602459300,-3.178461158098840
Herring gull and Mockingbird,EH6 4UP,55.981979000000000,-3.193351000000000
Piping shrike and Scimitar babbler,EH3 5DT,55.960717330882100,-3.201537894321760
American sparrow and Kākāriki,EH10 5AD,55.934368445409900,-3.212887822279800
Hawaiian honeycreeper and White ibis,EH17 7EX,55.913286778867400,-3.138714541182490
White ibis and Darwin's finches,EH5 1FZ,55.977510646593900,-3.250007335499350
Vulture and Jay,EH7 6TL,55.959140251645800,-3.125917169285890
Cuscus and Fish eagle,EH4 4FD,55.968735000000000,-3.257190000000000
Mamo and Solitaire,EH13 9PN,55.904360076851200,-3.233352617902800
Old World quail and Crow,EH10 6NY,55.913100495621000,-3.210063753981900
Linsang and Flameback,EH10 5QJ,55.922902001557200,-3.211153351125820
Skunk and Old World vulture,EH13 9QA,55.904779589744800,-3.224632392977060
Old World vulture and Night heron,EH28 8NN,55.932523000000000,-3.347241000000000
Polecat and Kangaroo,EH6 6DP,55.973911314365100,-3.170379819962490
Jackal and Rat,EH3 9GE,55.943447504542300,-3.192260784331630
Coati and Black cockatoo,EH3 9DT,55.946292564256000,-3.202772387756540
White ibis and Puffleg,EH15 2LU,55.947931466140800,-3.092428814919940
Tit-tyrant and Thrasher,EH6 4DS,55.978897182554700,-3.185530732903490
Petrel and Puffleg,EH14 1XB,55.927135143495400,-3.252385522156860
Marmoset and River dolphin,EH16 4WE,55.924059000000000,-3.120259000000000
Marmoset and Boto,EH1 1SU,55.950377935028700,-3.183601940424550
Meadowlark and Parrotlet,EH12 7UF,55.941446440645200,-3.294653000000000
Egret and Cuscus,EH15 2EZ,55.949075025060500,-3.102245257863540
Tattler and Diving bird,EH17 7DQ,55.912251642176600,-3.128173265316080
Moluccan boobook and Partridge,EH8 7HN,55.953056600038000,-3.145471273717860
Tit-tyrant and Goose,EH4 7BT,55.957309934625000,-3.282831662435890
Partridge and Mouse,EH10 6PL,55.908963437726300,-3.204943765816500
Vulture and Jay,EH14 5QF,55.896407392480500,-3.313316874271310
Chicken and Wader,EH4 2GH,55.966807715594700,-3.232279257659030
Kite and Viscacha,KY11 1FH,56.010717000000000,-3.396026000000000
Duck and Vulture,EH11 4AE,55.924083228535200,-3.293800280732050
Black jay and Black jay,EH20 9HE,55.880521528552700,-3.156505754502260
Ice seal and Maya,EH13 0NE,55.911243456293300,-3.264319716568750
Snipe and Linsang,EH15 3AN,55.944699153332500,-3.108253403950400
Philippine hawk-owl and Siskin,EH4 3UG,55.952445335389700,-3.219458757485200
Jay and Herring gull,EH12 8BS,55.947749420085200,-3.298256591613320
Lemming and Mole,EH7 6FE,55.962438531868300,-3.162616586214290
Night heron and Tattler,EH14 7HT,55.878663093319200,-3.346350015936950
Mink and Solitaire,EH4 8HW,55.954067757618800,-3.302376001836950
Solitaire and Perching duck,EH19 2JU,55.872788636218000,-3.113235937665960
Greenbul and River dolphin,EH17 8HG,55.900237000000000,-3.156384440708650
Kite and Moluccan boobook,EH5 3EN,55.976574695242100,-3.201741116698690
Kangaroo and River dolphin,EH4 1DJ,55.958274451606300,-3.224239109686570
Mockingbird and Bronzewing pigeon,EH17 8EG,55.898985548611400,-3.159502095937270
Boto and Kākāriki,EH4 1PJ,55.956573007256400,-3.212749375546490
Moluccan boobook and Peafowl,EH3 9BH,55.945410000000000,-3.203914000000000
Lemming and Fox,EH11 4JN,55.919761102484800,-3.295352000000000
Old World vulture and Badger,EH9 3EE,55.929056266977900,-3.176005392407250
Parakeet and Old World quail,EH9 3AY,55.924951906945400,-3.172024175902060
Grouse and Crow,EH3 6LJ,55.957674351759200,-3.195677393215810
Egret and Mockingbird,EH8 9UE,55.949048475240800,-3.183339000000000
Black cockatoo and Snipe,EH3 9AT,55.946699831484900,-3.203393498764190
Mouse and Prion,EH14 1JF,55.914306355151200,-3.253891756949550
Ground sloth and Guillemot,EH19 3DW,55.870492921152400,-3.110741109211000
Rat and Shearwater,EH12 6HJ,55.948257515003600,-3.249112082687910
Prion and Linsang,EH16 5TR,55.920574083492400,-3.155106082540480
Mink and Rabbit,EH4 4QU,55.966912285699500,-3.257867948892270
Wader and Stilt,EH11 2TD,55.944016354373900,-3.222236011288180
Booted eagles and Magpie,EH4 3RU,55.955544556708200,-3.253559131563960
Perching duck and Stint,EH3 8ES,55.948136269158700,-3.209026710549850
Ibex and Thicketbird,EH9 2JA,55.933293029878900,-3.190492175297830
Flameback and Mouse,EH4 3NJ,55.956185637832600,-3.250600740697270
Wader and Minke whale,EH5 3LW,55.975200798206200,-3.211745871663940
Maya and Argus,EH16 6TW,55.906942958821000,-3.170345091477200
Buzzard and Herring gull,EH16 4AG,55.936019814725900,-3.121100178170620
Jerboa and Jackal,EH15 1RT,55.944828217339100,-3.127695378162910
Meadowlark and Bronzewing pigeon,EH7 5BF,55.961155534882300,-3.162962976309110
Partridge and Piping shrike,EH10 4DH,55.934839290079500,-3.209781007577580
B and Thrasher,EH14 1EW,55.915406436264300,-3.243767325163050
Francolin and Buzzard,EH2 1XH,55.954555486434100,-3.194844496874900
Goose and Parrotlet,EH16 6HP,55.915451111480400,-3.164777553161650
Viscacha and Gull,EH4 4RZ,55.972375957793800,-3.258702242748620
River dolphin and Eagle,EH6 8AD,55.969571094466000,-3.160907879373050
Siskin and Pratincole,EH13 0HQ,55.903313552568600,-3.264765449705880
Solitaire and Prion,EH14 1RA,55.929641000000000,-3.245039000000000
Dolphin and River dolphin,EH4 2LY,55.960814060120000,-3.245191560064940
Quetzal and Egret,EH12 7HZ,55.938320744110900,-3.277897281318480
Badger and Badger,EH28 8QX,55.926224659524200,-3.380729000000000
Parrotbill and Jay,EH12 6TX,55.943361020318700,-3.261395331912340
Viscacha and Greenbul,EH24 9AJ,55.851501163727300,-3.135932312401650
Mink and Linsang,EH14 2TU,55.916104242324900,-3.293774459221220
Kākāriki and Myna,EH30 9JW,55.986703522211700,-3.387997153610210
Greenbul and Skunk,EH9 1JR,55.939253607809500,-3.192948409484750
Wallaby and Quetzal,EH2 1EE,55.954030380539600,-3.197297000000000
Shearwater and Dorcopsis,EH2 4QY,55.950855686332500,-3.209351695456870
Shearwater and Stilt,EH5 1LA,55.977286106132900,-3.237003021214980
Macaw and Polecat,EH5 1ER,55.980133682303100,-3.215696000000000
Mamo and Eagle,EH26 0RN,55.846626266420400,-3.208108957140900
Capuchin and Thrasher,EH5 3JD,55.978523728558600,-3.209173470377130
Goose and Grouse,EH16 4GF,55.934801509771400,-3.130943000000000
Wader and Chicken,EH6 6FE,55.977091000000000,-3.177464000000000
Mockingbird and Petrel,EH14 2TF,55.922456203242700,-3.270557862367070
Mockingbird and Zebra,EH10 5SA,55.916525615855400,-3.222634712136950
Magpie and Minke whale,EH4 6SJ,55.968013599907400,-3.280926833301370
Flameback and Piping shrike,EH12 5HT,55.944398082170800,-3.228124375252890
Puffleg and Black cockatoo,EH11 1LL,55.936492962678900,-3.218592000000000
Chicken and Kangaroo,EH15 1DJ,55.952539065365800,-3.122202641298920
Guillemot and Coati,EH17 8JR,55.906935171247000,-3.145374738920010
Civet and Darwin's finches,EH3 9LJ,55.941265562059100,-3.203192925881060
Logrunners and Hawk,EH17 7PF,55.915405827366800,-3.135960727177940
Stilt and Vole,EH28 8NS,55.915697436397700,-3.374450109512210
Mink and New World blackbird,EH20 9RN,55.877306626003600,-3.145732824286640
White ibis and Booted eagles,EH7 6LF,55.958345006585100,-3.149759988525180
Skunk and Puffleg,EH11 3LZ,55.930940176210800,-3.272148084805740
Magpie and Rabbit,EH19 3LF,55.870609571004500,-3.101763011720710
Parrotlet and White ibis,EH5 2PQ,55.975981921306900,-3.239813818239140
Maya and Recurvebill,EH5 2BT,55.975297029879600,-3.223831404642300
Thicketbird and Perching duck,EH12 5JF,55.944712236261600,-3.229959683592940
Mamo and Kite,EH19 3ND,55.869423826956800,-3.099715865160800
Black cockatoo and Quetzal,EH18 1AB,55.882654751474800,-3.113230620942000
Nukupuʻu and Towhee,EH19 3FB,55.869844167442200,-3.091865166994210
Ibex and Jay,EH14 1BY,55.923933900198500,-3.236614906445840
Pratincole and River dolphin,EH11 2BG,55.945727292058500,-3.217326085959800
Scimitar babbler and Bronzewing pigeon,EH15 3EE,55.941746911542400,-3.111803454396330
Mockingbird and Dolphin,EH10 6HT,55.914497410817700,-3.210555260648540
Triller and Mockingbird,EH16 6QT,55.904662041085100,-3.149210574507800
Petrel and Skunk,EH16 5JS,55.932479674051000,-3.164664267625490
Kākāriki and Quetzal,EH14 7NH,55.886853000000000,-3.346857000000000
Night heron and Petrel,EH10 6UG,55.904818267303500,-3.199712659213220
Peafowl and Mockingbird,EH14 5PP,55.900883219714800,-3.313228230199580
Logrunners and Flameback,EH28 8RU,55.922602095223600,-3.378951371544140
Old World vulture and Masked owl,EH10 6BS,55.925179000000000,-3.199814000000000
Towhee and Polecat,EH13 0BP,55.904243545725600,-3.248480476345520
Ibex and Chickadee,EH5 3DA,55.978293750029200,-3.200528398869050
Grosbeak and Minke whale,EH3 9JY,55.942114000000000,-3.201922000000000
Partridge and Thicketbird,EH15 3RT,55.939476112527100,-3.113515448641600
Chicken and Booted eagles,EH5 1HQ,55.979766916836200,-3.227033644983230
Peafowl and Parrotbill,EH8 8BZ,55.952043133723900,-3.176734331253580
Coati and Vole,EH6 7JJ,55.972261350651400,-3.162430552998070
Linsang and Mole,EH14 2AA,55.919612877134100,-3.272673062329130
Parrotlet and Flameback,EH14 1LX,55.922837698668500,-3.243749319142830
Recurvebill and Old World warbler,EH13 0AY,55.903653282376900,-3.248205588685960
Stilt and Marmoset,EH12 5NE,55.943665335171500,-3.232216142172340
Kākāriki and Jerboa,EH14 1JQ,55.920173655590600,-3.247728464403780
Old World quail and Linsang,EH13 0PJ,55.901769539696600,-3.283302000000000
Thrasher and Gull,EH12 7LD,55.938623178149800,-3.280788961980820
Pitohui and Tit-tyrant,EH17 8FQ,55.901097000000000,-3.154719000000000
Magpie and Thicketbird,EH14 2JJ,55.917285768870300,-3.262180319710350
Pitohui and Zebra,EH24 9AR,55.853873601942500,-3.134931256796070
Puffleg and Petrel,EH8 8PJ,55.950965607590300,-3.177598447333030
Darwin's finches and Dolphin,EH18 1BY,55.872422713833200,-3.123837486016150
Pheasant and Pratincole,EH3 6DL,55.954364029533300,-3.206193856336120
Snipe and Tattler,EH6 6JZ,55.977760506837800,-3.180383816005970
Recurvebill and Maya,EH11 2AJ,55.942664302360900,-3.217953000000000
Goose and Tahr,EH4 2ET,55.957412239048300,-3.228712719643660
Tit-tyrant and Jerboa,EH3 5AY,55.958581689462900,-3.206757532013310
Kite and Jerboa,EH14 5QT,55.897922675610500,-3.317830092837800
Coati and Zebra,EH5 1RJ,55.977790000000000,-3.232472990351060
Wader and Mole,EH91 5AL,55.923226983568700,-3.305118057670550
Hawaiian honeycreeper and Buzzard,EH11 3RH,55.928745021578200,-3.277614038200910
Vulture and Argus,EH15 3EF,55.940846325449000,-3.114019064714170
New World blackbird and Old World vulture,EH9 2DY,55.931937000000000,-3.193268000000000
Kangaroo and Jackal,EH3 5QY,55.971015561531400,-3.207881705867750
Logrunners and Partridge,EH10 4SS,55.927093040279800,-3.204354092719550
Elephant and Quetzal,EH16 5BS,55.938667396618800,-3.174471590615720
Jackal and Black cockatoo,EH28 8LY,55.938121743664400,-3.376428995080260
Parrotbill and Magpie,EH7 5FG,55.958941000000000,-3.166134000000000
Perching duck and Darwin's finches,EH3 6JA,55.956926000000000,-3.199658000000000
Tahr and Skunk,EH8 9JD,55.941390416615600,-3.181006236850440
Pratincole and Fox,EH15 1LA,55.943285496273700,-3.117531494688690
Parrotlet and Fulmarine petrel,EH5 1NB,55.978083608157900,-3.230041253126520
Guillemot and Petrel,EH15 3PQ,55.942005191342000,-3.119992271931440
Vulture and Badger,EH15 3ET,55.936512247807000,-3.118328952749110
Warbler and Boto,EH5 3LL,55.974755286698300,-3.213190154531040
Fulmarine petrel and Gull,EH11 2PP,55.937239523951900,-3.235918259876340
Prion and Nukupuʻu,EH5 3JZ,55.978520445960200,-3.205839985399820
Dolphin and Duck,EH6 4AH,55.975052225601900,-3.182640877595890
Shearwater and Pratincole,EH19 3QA,55.880219986782200,-3.093147539294320
Minke whale and Rat,EH12 7SJ,55.942700867369300,-3.283549417083040
Wader and Mockingbird,EH11 3EA,55.933349091045600,-3.263342959474970
Prion and Gull,EH12 5SZ,55.943142080756900,-3.255560072649500
Coati and Grouse,EH4 8BA,55.958613694906400,-3.301599654346770
Argus and Fish eagle,EH15 2BF,55.951864000000000,-3.111853000000000
Egret and Ibex,EH10 5JP,55.923033833118400,-3.217830708128340
Vole and Tit-tyrant,EH5 2PW,55.975777014976700,-3.230673123351730
Capuchin and Philippine hawk-owl,EH12 8UU,55.950302427774300,-3.302409709849580
Bronzewing pigeon and Ice seal,EH5 3JP,55.977566948014400,-3.207781445533510
Fox and Warbler,EH3 5JY,55.965153483673500,-3.202732734208330
Macaw and Duck,EH3 9FB,55.943030000000000,-3.197319896778640
Black jay and Egret,EH16 6AH,55.920962203434200,-3.167058000000000
Ground sloth and Meadowlark,EH12 5BA,55.949756120317800,-3.220623301700300
Logrunners and Skunk,EH28 8RW,55.921135164376100,-3.385556355017110
Towhee and Treepie,EH9 3EH,55.928451530652200,-3.179108073794050
Parakeet and Zebra,EH12 7XR,55.941032860115700,-3.274576358588600
Towhee and Kangaroo,EH15 1SN,55.944551929635400,-3.132346745687400
Flameback and Kākāriki,EH7 9FT,55.956701000000000,-3.124824000000000
Logrunners and Ice seal,EH5 1DW,55.978138771373800,-3.226309000976260
Fulmarine petrel and Dolphin,EH3 5LF,55.962829662679100,-3.199455000000000
River dolphin and Macaw,EH4 3AX,55.954214558703500,-3.220638000000000
Hawk and Tit-tyrant,EH7 6EH,55.961613163893500,-3.151955365085440
Maya and Masked owl,EH4 4BA,55.969162287892200,-3.243344831347080
Pitohui and Partridge,EH19 3BD,55.873746140482000,-3.101692024943540
Stint and Parrotlet,EH12 8EA,55.946576092402900,-3.297897065405330
Viscacha and Egret,EH16 5HR,55.936778676409500,-3.168043021870300
Booted eagles and Chipmunk,EH4 1WQ,55.959483202803200,-3.225574736934310
Jackal and Diving bird,EH17 8HY,55.903447990927400,-3.149318619652090
Treepie and Elephant,EH22 1PR,55.910929785417700,-3.105497997797490
Parrotbill and Mole,EH3 9RF,55.942432000000000,-3.206640000000000
Vulture and American sparrow,EH11 4RL,55.923758726092300,-3.278410155628410
Armadillo and Lemming,EH26 0NY,55.853919293501900,-3.204131000000000
Buzzard and Marmoset,EH4 6DD,55.964294456604000,-3.307365421371660
Eagle and Ice seal,EH8 7PD,55.944887401298800,-3.141755483003680
Logrunners and Polecat,EH10 6NP,55.910341873409200,-3.213721292152470
Piping shrike and Kākāriki,EH24 9DE,55.851161000000000,-3.139231000000000
Old World quail and Grosbeak,EH16 6DD,55.915593952561100,-3.161069881600270
Prion and Partridge,EH4 4GD,55.975238730383800,-3.243123155583940
Siskin and Logrunners,EH4 7PU,55.957134457136600,-3.289312829938870
Macaw and Old World warbler,EH4 4SX,55.971322207294400,-3.265958495044680
Pheasant and Vole,EH3 8AB,55.943971000000000,-3.211427000000000
Perching duck and Chickadee,EH9 2DH,55.931320323347800,-3.173208857969770
Dolphin and Black cockatoo,EH19 2HT,55.880526452517500,-3.102107891633900
Shearwater and Quetzal,EH6 8DN,55.968400905235500,-3.165887590991520
Rat and Pitohui,EH6 5RW,55.973834070007700,-3.178485564179820
Treepie and Recurvebill,EH14 6AS,55.890158000000000,-3.297622953276420
Gull and Fox,EH8 9JN,55.943441088210900,-3.184543119442540
Old World warbler and Snipe,EH8 7AY,55.955265032056900,-3.148579571877670
Kite and Zebra,EH4 4FQ,55.967737000000000,-3.255732000000000
Masked owl and Petrel,EH5 2ER,55.974930075069100,-3.220967467526860
Argus and Meadowlark,EH11 4NQ,55.921060132278100,-3.289890989516280
Bronzewing pigeon and Kangaroo,EH6 5AQ,55.963796272131900,-3.178728000000000
Bunting and Grackle,EH7 5JS,55.959014828076900,-3.182280000000000
Elephant and Diving bird,EH15 2JT,55.947291350831100,-3.091658189569820
Maya and Quetzal,EH11 2QR,55.937128700911200,-3.240685367387890
Tahr and Pheasant,EH15 3DX,55.942415628004000,-3.109086000000000
Parrotbill and Viscacha,EH10 5RH,55.918395524065300,-3.221637512184430
Rat and Stilt,EH9 8BF,55.934235000000000,-3.195820000000000
Stint and Fulmarine petrel,EH15 1SF,55.947602944103100,-3.127888132367990
Pratincole and Mole,EH1 1WG,55.943218000000000,-3.232954000000000
Pratincole and Cloud rat,EH18 1LJ,55.879290949313100,-3.111599793842080
Bunting and Parrotlet,EH4 5DS,55.964779687827700,-3.262556782333110
Diving bird and American sparrow,EH17 8QX,55.903397665587800,-3.137321072033470
Pratincole and Jay,EH10 6JL,55.913115449592600,-3.209456262119900
Condor and Towhee,EH5 1HD,55.980179381213000,-3.221693823457340
White ibis and Kangaroo,EH15 2PU,55.950587196542500,-3.109958995354590
Dolphin and Kite,EH4 4AH,55.968011072611600,-3.245230496608800
Peafowl and Puffleg,EH6 6QS,55.977330000000000,-3.169025000000000
Chickadee and Rabbit,EH13 9AA,55.914241000000000,-3.239122000000000
Thrasher and Ibex,EH17 8HU,55.902565685709600,-3.148540784768030
New World blackbird and Minke whale,EH2 4QW,55.950864376239900,-3.210087000000000
Wallaby and Chickadee,EH6 8AL,55.968927949042900,-3.162826000000000
Perching duck and Tree warbler,EH5 2DA,55.976004000000000,-3.225023000000000
Buzzard and Peafowl,EH3 5HY,55.961722706544300,-3.208072737084620
Coati and Kestrel,EH6 8AZ,55.969138000000000,-3.160202721707900
Flameback and Jackal,EH17 7ET,55.913108653417700,-3.140485178723480
Logrunners and Parakeet,EH28 8RR,55.921635497776400,-3.383413830013780
Pheasant and Boto,EH6 5PE,55.973094057084600,-3.181635727945760
New World blackbird and Vulture,EH16 5LR,55.932398378284100,-3.150367824727580
Jerboa and Marsh harrier,EH8 7HQ,55.953177108289800,-3.148934132473920
Rabbit and Crow,EH9 3HU,55.926564651836200,-3.187517076532110
Francolin and Ibex,EH15 3AB,55.945475950764900,-3.104800988463570
Bronzewing pigeon and Mole,EH5 2AQ,55.972752349642600,-3.217662104787510
Meadowlark and Marsh harrier,EH12 8SU,55.948169464885800,-3.294203211379380
Chicken and Rat,EH12 8PR,55.949214538623600,-3.282772091640560
Bronzewing pigeon and Zebra,EH10 5HF,55.927196000000000,-3.215865000000000
Argus and Linsang,EH4 3BY,55.951767868132400,-3.221631491073400
Bronzewing pigeon and Viscacha,EH26 0QZ,55.847717947258300,-3.191068775585720
Myna and Viscacha,EH16 5RF,55.924121487944200,-3.152427046659420
Tattler and Kākāriki,EH17 8TJ,55.907620572721200,-3.126599095565080
Night heron and Black jay,EH15 2DU,55.951283719218800,-3.102436141520250
Linsang and Kite,EH15 3LU,55.942379029910800,-3.122356645915320
Hawaiian honeycreeper and Treepie,EH11 4EX,55.925341786832200,-3.293490000000000
Dolphin and Old World warbler,EH12 5LB,55.946560116934700,-3.221243306354410
Thrasher and Peafowl,EH1 2QQ,55.946663971548000,-3.191366853614110
Rabbit and Vulture,EH1 2BD,55.948197420163000,-3.209204763425780
Logrunners and Tahr,EH10 5PU,55.921176907328200,-3.221148937809460
Civet and Herring gull,EH14 5RP,55.896647521165800,-3.325287273312920
American sparrow and Buzzard,EH4 1ER,55.958192813367300,-3.217060689982070
Elephant and Condor,EH4 2QJ,55.966116390070200,-3.245105547870520
Myna and Grackle,EH22 1NN,55.914905770412600,-3.109003042395800
Tahr and Grosbeak,EH4 6PG,55.972147999135400,-3.303960972436180
Towhee and Rabbit,EH4 3AW,55.954261428075000,-3.219355705082030
Tahr and Jackal,EH7 4FS,55.962747000000000,-3.180713000000000
Pitohui and Elephant,EH9 2NA,55.930109248024000,-3.181463268443390
Darwin's finches and Night heron,EH4 5NZ,55.967419524520600,-3.267993920981210
Coati and Old World quail,EH3 9NA,55.942275143450900,-3.203784615654320
Bunting and Wallaby,EH4 7AG,55.962406432011400,-3.274878473001990
Peafowl and Chicken,EH19 3DE,55.873779529943100,-3.106983173772910
Duck and Linsang,EH7 5JU,55.959402779919000,-3.182307663651660
Old World quail and Black jay,EH16 5FE,55.939127000000000,-3.171045000000000
Ice seal and Old World vulture,EH19 3AX,55.873911670610000,-3.102272084423840
Zebra and Wader,EH20 9NJ,55.888268654543600,-3.162060389614110
Marsh harrier and Minke whale,EH4 9BR,55.959488483119800,-3.225575331993520
Diving bird and Egret,EH17 8WE,55.900618000000000,-3.139128000000000
Darwin's finches and Shearwater,EH27 8DJ,55.858377139785200,-3.417208203949980
Towhee and Myna,EH30 9UT,55.987566795520800,-3.414028881544950
Francolin and Hawaiian honeycreeper,EH30 9PR,55.990752575572100,-3.397055718089200
Skunk and Buzzard,EH9 2BT,55.934055056046700,-3.174764210072500
Stilt and Kestrel,EH10 5TE,55.918575767077500,-3.215226718692250
Ice seal and Ice seal,EH4 7DJ,55.960336032536800,-3.283027895970960
Lemming and Maya,EH10 6TD,55.904349237333200,-3.214557784965940
Old World vulture and Pitohui,EH11 2AB,55.943525176272600,-3.219210384799300
Warbler and Elephant,EH8 9QD,55.939643264252000,-3.176726483315120
Meadowlark and Skunk,EH6 4HL,55.978852772336000,-3.186410802260460
Old World vulture and Badger,EH3 9ND,55.941904408638800,-3.204941897435690
Old World vulture and Goose,EH6 5NA,55.970162788773300,-3.176210912432380
Lemming and Quetzal,EH3 6JG,55.956257194596000,-3.201880192468210
Myna and Towhee,EH7 5LB,55.958072018370100,-3.181466218154390
Recurvebill and Kestrel,EH3 8JL,55.944328836218700,-3.208779957922690
Grackle and Myna,EH7 5QR,55.962105352538700,-3.167444332898630
B and Kite,EH12 7JJ,55.939705892797400,-3.282089491412720
Chicken and Chickadee,EH13 0FA,55.908712506497000,-3.241953283530290
Warbler and River dolphin,EH4 2LT,55.960312813578400,-3.244999259231040
Capuchin and Wader,EH2 1XA,55.954555486434100,-3.194844496874900
Scimitar babbler and Ibex,EH10 5EE,55.931935985079600,-3.215356866693820
Old World quail and Ibex,EH16 4JW,55.926133000000000,-3.126336000000000
Flameback and Prion,EH3 9LY,55.943477428147700,-3.203966022583960
Skunk and Mamo,EH4 6PL,55.974773033426900,-3.301293082292490
Jerboa and Cuscus,EH4 6QE,55.973286000000000,-3.306867000000000
Capuchin and Towhee,EH15 1BT,55.954179001168500,-3.122121560429880
Rat and Grouse,EH6 7DX,55.979843171598300,-3.169276898627750
Gull and Hawk,EH14 2RU,55.914868276808400,-3.288245357175970
Ibex and Thicketbird,EH3 5JA,55.961641420574500,-3.209031338369530
Lemming and Capuchin,EH4 5PN,55.967389855350600,-3.267384136785320
Thicketbird and Parakeet,EH4 6JW,55.964895101152100,-3.284428378864820
Meadowlark and Duck,EH6 7AS,55.973271201095900,-3.167764660797230
Cuscus and Peafowl,EH7 6SP,55.959718022486900,-3.133462378926130
Darwin's finches and Duck,EH19 3AE,55.875478104750300,-3.103946759378260
Zebra and Vulture,EH13 0BL,55.905973571429900,-3.248008200765150
Flameback and Partridge,EH3 5AD,55.958467631465600,-3.204639660995980
Fulmarine petrel and Chicken,EH4 3DX,55.952061476230800,-3.229151766385910
Philippine hawk-owl and Cuscus,EH17 7NZ,55.914243641212900,-3.132390914312630
Goose and Fox,EH16 4GZ,55.929498000000000,-3.127826000000000
Minke whale and Goose,EH15 3JD,55.938713817026000,-3.124235778801600
Cloud rat and Booted eagles,EH15 1QD,55.946651000000000,-3.124814703344620
Logrunners and Goose,EH16 6LR,55.913660421321700,-3.166947715242620
Mole and Puffleg,EH11 2AS,55.943413944176300,-3.218646490272770
Mink and Old World quail,EH17 8QR,55.902123002386500,-3.134260858556240
Triller and Prion,EH4 5NY,55.967817144405300,-3.268647792017190
Old World vulture and Ibex,EH25 9RN,55.871421794767800,-3.180830977007550
Dolphin and Flameback,EH13 9AT,55.910703612540700,-3.231807000000000
Shearwater and Snipe,EH2 4LS,55.951526521866800,-3.205080667229730
Pitohui and Night heron,EH1 3DX,55.955780589239000,-3.190814066804930
Snipe and Black cockatoo,EH14 1EH,55.914673409536000,-3.243391859304170
Fox and Masked owl,EH12 6JQ,55.944933795013200,-3.252559747973560
Old World warbler and Jerboa,EH17 8TU,55.892757213604000,-3.158293331350170
Quetzal and Old World vulture,EH17 7DU,55.908387116031500,-3.127277192722880
Jerboa and River dolphin,EH16 4UG,55.928688000000000,-3.122073000000000
Old World vulture and Greenbul,EH6 8PX,55.967679802943200,-3.169919292456490
Darwin's finches and Goose,EH30 9RG,55.989936474615000,-3.400873731652290
Treepie and Mouse,EH14 7EH,55.883759000000000,-3.338815730062410
Kite and Ice seal,EH7 4AZ,55.961028000000000,-3.185273000000000
Ground sloth and Maya,EH91 5AN,55.923226983568700,-3.305118057670550
Old World quail and Meadowlark,EH10 7ER,55.900938580155300,-3.196729977462470
Lemming and Stint,EH6 6ST,55.975470000000000,-3.169017000000000
Masked owl and Herring gull,EH14 7HD,55.876780292608000,-3.341026022316040
Warbler and Wader,EH30 9JU,55.985311000000000,-3.379997000000000
New World blackbird and Crow,EH8 9UL,55.948594489028700,-3.179368008201360
Jay and Vole,EH6 6DU,55.973531994887900,-3.175303675770590
Songlark and Maya,EH15 1UB,55.956996465466700,-3.119592352435920
Armadillo and Cuscus,EH7 4BZ,55.961524157632500,-3.190622040020600
Vole and Peafowl,EH4 2EQ,55.956471251454400,-3.236547161919840
Old World quail and Elephant,EH17 8HE,55.895718712732800,-3.156222303387460
Viscacha and Triller,EH6 7PH,55.969721318779700,-3.157355464979330
Solitaire and Eagle,EH17 8DJ,55.899260459434900,-3.152233452110800
Eagle and Pratincole,EH4 7QL,55.959065687059400,-3.294518834471040
Francolin and Mouse,EH4 7PD,55.960291152721800,-3.286470392121050
Snipe and Civet,EH12 7AH,55.940975265915800,-3.279265550291810
Argus and Vulture,EH30 9RS,55.990016914579500,-3.408796007130280
Mole and Philippine hawk-owl,EH19 2EX,55.879611408953800,-3.107948412776310
Tahr and Snipe,EH7 6TB,55.957711714980900,-3.134717135427580
Solitaire and Warbler,EH1 3RL,55.958385420741900,-3.189052048259240
Puffleg and Darwin's finches,EH14 7DN,55.884224954939000,-3.341442642279480
Hawk and Black cockatoo,EH22 1LU,55.911922165247500,-3.108053954049210
Cuscus and Prion,EH4 2PE,55.964060647979500,-3.235091117311220
Jackal and Greenbul,EH28 8RL,55.921234976244800,-3.387864298218750
Old World warbler and Ice seal,EH4 5LP,55.971057335249700,-3.270740698762690
Skunk and Masked owl,EH15 3EU,55.936080740354300,-3.119341040158120
Black jay and New World blackbird,EH16 6FR,55.907133000000000,-3.165008000000000
Duck and Vole,EH22 1NT,55.913484360436400,-3.111186294447640
Solitaire and Viscacha,EH12 6UL,55.954669940288300,-3.279204753209560
Bronzewing pigeon and Kestrel,KY11 1EX,56.013637890726100,-3.392395928207880
Parrotbill and Maya,EH6 5PJ,55.969125025175500,-3.186048931768630
Mouse and Macaw,EH6 5BH,55.969922582123800,-3.182532415967170
Fish eagle and Bronzewing pigeon,EH17 8GW,55.901686000000000,-3.146052000000000
Songlark and Argus,EH2 2DL,55.952474000000000,-3.196451735868900
Petrel and Jackal,EH17 7BY,55.911036976203900,-3.127370089620500
Masked owl and Jackal,EH17 8UD,55.898370032077300,-3.145586079074830
Tattler and Triller,EH4 6BD,55.962532986274300,-3.312464299549380
Elephant and Gull,EH14 1SJ,55.931397047627200,-3.247689067773040
Capuchin and Snipe,EH4 6HA,55.969132588736100,-3.306999878023830
Coati and Hawk,EH14 1HD,55.917578237216900,-3.244924936264810
Peafowl and Nukupuʻu,EH12 8JQ,55.943757422471000,-3.307826111420390
Recurvebill and Dorcopsis,EH19 2BQ,55.875413482775200,-3.117083091497680
Stint and Rat,EH3 8BL,55.944898000000000,-3.206684000000000
Grosbeak and Goose,EH19 3DU,55.870177689182800,-3.108830367908460
Shearwater and Ibex,EH8 7QE,55.950718189529200,-3.136978718123150
Stint and Coati,EH8 7AP,55.954924437374400,-3.155216126874390
Meadowlark and American sparrow,EH28 8TF,55.923790000000000,-3.365500000000000
Rat and Pratincole,EH22 1FL,55.905537000000000,-3.099221000000000
Jackal and Parrotbill,EH7 6LS,55.959498677141700,-3.142618186644390
Linsang and Fox,EH1 2PR,55.948549203505800,-3.196180754568370
Macaw and Magpie,EH11 3RU,55.929955700682300,-3.280438928098110
Fish eagle and Armadillo,EH21 8RP,55.933748624364400,-3.088812134538540
Siskin and Lemming,EH11 3JT,55.932115685663200,-3.258308680635700
Jay and Mink,EH14 5BY,55.905099929888000,-3.286274321154800
Chipmunk and Kangaroo,EH6 4RD,55.973327499574000,-3.194702151664350
Fish eagle and Piping shrike,EH9 1HT,55.937309119329200,-3.194249382108790
Macaw and Mamo,EH7 6RL,55.960362761303900,-3.138575021061430
Marmoset and White ibis,EH19 3NT,55.873173992436600,-3.088234774203650
Polecat and Darwin's finches,EH30 9PX,55.990545524206600,-3.397881876632380
Mamo and Bunting,EH17 7NP,55.915819320497400,-3.136916812456190
Kākāriki and Darwin's finches,EH5 1JN,55.976175000000000,-3.233149019100560
Vulture and Ibex,EH4 6QF,55.974538380157800,-3.295420257935120
Polecat and Armadillo,EH3 7UG,55.951207162708600,-3.212901881090200
Siskin and Ground sloth,EH2 3EE,55.953037376782100,-3.200950000000000
Pheasant and Wader,EH4 9FA,55.959478000000000,-3.225591000000000
New World blackbird and Night heron,EH4 2XU,55.961807000000000,-3.234907000000000
Greenbul and Wader,EH3 7TD,55.952143385896400,-3.209984402342250
Mouse and Pratincole,EH12 7JD,55.937581864058700,-3.278961569616800
Tahr and Ibex,EH11 3UU,55.928384583872900,-3.279442788771550
Chipmunk and Guillemot,EH10 6EP,55.920031929217000,-3.211527881083970
Fulmarine petrel and Herring gull,EH1 3LY,55.957456896358000,-3.187501947983980
Gull and Cuscus,EH8 9QF,55.939003951200900,-3.176867190606210
Mockingbird and Argus,EH3 5AP,55.958070000000000,-3.207622000000000
Hawaiian honeycreeper and Parrotlet,EH22 1NF,55.913522000000000,-3.110108410710120
Diving bird and Chipmunk,EH14 5AW,55.892665088040400,-3.327118349953250
Petrel and Meadowlark,EH7 6JL,55.961161694397700,-3.144477295028160
New World blackbird and Night heron,EH20 9RX,55.878408442853500,-3.144166835778920
Treepie and Old World vulture,EH19 2NP,55.870213969529400,-3.114760366748510
Black cockatoo and Armadillo,EH15 2JU,55.946914343216100,-3.091311000000000
Tattler and Kestrel,EH11 3DA,55.934606105701500,-3.260806612289380
Tit-tyrant and Mockingbird,EH14 7BJ,55.879596029261300,-3.332459034844700
Mockingbird and Marsh harrier,EH4 1EN,55.958745113981500,-3.218455550265730
Warbler and Thrasher,EH4 7FB,55.957505417699200,-3.270553259797280
Mink and Skunk,EH4 4SB,55.973313234378700,-3.259309543905680
Jackal and Grouse,EH2 2QA,55.952807358642700,-3.196280055025410
Logrunners and B,EH12 8YE,55.950025341160100,-3.304818568264670
Grackle and Chipmunk,EH16 4GS,55.929029000000000,-3.130487000000000
Parakeet and Cuscus,EH6 8HX,55.969258947104600,-3.169213925343530
Quetzal and Meadowlark,EH25 9RZ,55.870248858657200,-3.180395845335140
Flameback and Rat,EH16 4FP,55.929811031775200,-3.129516262571350
Stint and Jerboa,EH27 8BQ,55.901690685902200,-3.409238735253110
Crow and Snipe,EH24 9DB,55.851161000000000,-3.139231000000000
Old World vulture and Fox,EH12 7TW,55.941874045895400,-3.286147853608170
Jackal and Flameback,EH20 9HT,55.872306000000000,-3.171125000000000
Cuscus and Scimitar babbler,EH19 2LH,55.872796230043100,-3.121307119961700
Minke whale and White ibis,EH7 9SW,55.951875996880500,-3.183471914947110
Crow and Grackle,EH1 1JN,55.948541372885800,-3.190495734962430
Egret and Greenbul,EH12 9FR,55.931347000000000,-3.290953000000000
Shearwater and Solitaire,EH17 7NL,55.914276000000000,-3.137668433831130
Maya and Francolin,EH10 7AN,55.898270229924900,-3.195768206561530
Darwin's finches and Old World vulture,EH11 3JG,55.930452267378500,-3.258224000000000
Siskin and Jerboa,EH5 1BE,55.977991000000000,-3.223163000000000
Tahr and Asiatic leopard,EH1 2JN,55.948984463575500,-3.193920239568130
Tit-tyrant and Grouse,EH4 4GS,55.967354177185300,-3.260222000000000
Petrel and Grackle,EH4 3HS,55.953695981488700,-3.239998137819270
Jackal and Prion,EH11 4DU,55.922136036348800,-3.305465454822930
Pheasant and Flameback,EH9 1HX,55.937929223941300,-3.195164974987360
Meadowlark and Maya,EH20 9TB,55.883035000000000,-3.150090000000000
White ibis and New World blackbird,EH13 9BL,55.909100685955700,-3.231935389984570
Tit-tyrant and Guillemot,EH4 2UR,55.955435954317100,-3.226856265483020
Kestrel and Greenbul,EH3 7LJ,55.948610831651900,-3.213765492952800
Zebra and Mole,EH6 6TL,55.974693916183100,-3.176893266256740
Marmoset and Lemming,EH6 5EH,55.967079876643300,-3.175364370941310
Peafowl and Nukupuʻu,EH18 1AJ,55.884763078270600,-3.105617217347090
Moluccan boobook and New World blackbird,EH11 1PJ,55.934827753023400,-3.229998574113970
Darwin's finches and Macaw,EH4 1PX,55.955729072729300,-3.215413749868190
Asiatic leopard and Greenbul,EH14 1HT,55.923034032652700,-3.241211123928790
Snipe and Black cockatoo,EH1 2AP,55.947189000000000,-3.198862000000000
Pitohui and Recurvebill,EH19 3WF,55.868492000000000,-3.103429000000000
River dolphin and Nukupuʻu,EH12 6NX,55.941433674903400,-3.273180583342570
Cloud rat and Ground sloth,EH19 3JW,55.867787413919100,-3.105422826917580
Kākāriki and Petrel,EH10 6TN,55.908440654862100,-3.202352041741110
Tattler and Myna,EH16 6LB,55.915077562453200,-3.166270312706380
Snipe and Herring gull,EH1 1TF,55.950187000000000,-3.184706321393820
Black cockatoo and Myna,EH12 5LZ,55.945308057260100,-3.233277089186480
Macaw and Fulmarine petrel,EH7 5HZ,55.959591481881800,-3.179494250504590
Jay and Black jay,EH10 6XE,55.906540775774700,-3.197222461138140
Minke whale and Rat,EH5 3HY,55.975314228072800,-3.209345734964620
Piping shrike and Argus,EH7 4RF,55.964991404653200,-3.181404751640880
Ice seal and Parrotbill,EH16 5WJ,55.927919146298800,-3.155644729236730
Perching duck and Tattler,EH16 6HX,55.915166317983800,-3.163537040144140
Grosbeak and Warbler,EH17 7DZ,55.907189776984900,-3.128506155838680
Petrel and Tattler,EH8 7HW,55.952438611798200,-3.146221739812640
Stint and Stint,EH5 3JB,55.978263407439400,-3.210062789713870
Pheasant and Diving bird,EH10 6LL,55.916845380172900,-3.210276439619480
Ice seal and Jerboa,EH10 7BG,55.901562639906300,-3.206441629769910
Chicken and Warbler,EH13 9BY,55.907038495574400,-3.231486082297150
Old World quail and Kangaroo,EH30 9JL,55.985361083394000,-3.387516262154880
Treepie and Mole,EH7 5SJ,55.956809779221200,-3.169671402684930
Pratincole and Duck,EH4 5AD,55.965712903168500,-3.270549473175090
Old World warbler and Skunk,EH16 5PH,55.929739000000000,-3.168535000000000
Recurvebill and Zebra,EH16 6JQ,55.914372838184900,-3.158744000000000
Pitohui and Zebra,EH6 4JD,55.979512486447900,-3.190677959197900
Old World quail and Parrotlet,EH4 6BR,55.964206831699800,-3.311383534879550
White ibis and Peafowl,EH29 9FP,55.959329672593000,-3.407182000000000
Parrotbill and Francolin,EH6 8BW,55.969171366272000,-3.164228465038930
Old World vulture and Herring gull,EH11 3NB,55.931318000000000,-3.270416000000000
Kite and Fox,EH12 8XB,55.951977288130100,-3.309704793964270
Marmoset and Quetzal,EH8 7DX,55.953277456467900,-3.152620629859080
Marsh harrier and Tattler,EH16 6XQ,55.918393695606300,-3.162417664882260
Stint and White ibis,EH4 2HY,55.960602882278100,-3.229534666428910
Ice seal and Tahr,EH17 8JE,55.904545081553700,-3.148263396581350
Maya and Fox,EH4 2TJ,55.965814114964000,-3.254532042261730
Jay and Guillemot,EH10 6LH,55.916887097132800,-3.208773698234380
Cuscus and Kestrel,EH18 1DN,55.870208051710000,-3.129207071120400
Crow and Egret,EH9 1NB,55.939100928959500,-3.183626155847320
Thrasher and Eagle,EH14 5DW,55.903316940744500,-3.286982617900440
Mink and B,EH4 9EZ,55.959478000000000,-3.225591000000000
Hawk and Old World vulture,EH25 9LX,55.858622752147400,-3.168971573473230
Egret and Old World warbler,EH11 4PN,55.921871236772400,-3.281916601151930
Diving bird and Flameback,EH3 5NG,55.968645427488200,-3.203081415437010
Cloud rat and Logrunners,EH15 2QD,55.950076299269500,-3.106821661577230
Eagle and Stint,EH10 6SH,55.903010326569200,-3.214563917027030
Dorcopsis and Moluccan boobook,EH17 7BN,55.911227026348700,-3.129183372433030
Herring gull and Booted eagles,EH7 6UB,55.957016759758500,-3.130164036095220
Grackle and Buzzard,EH19 2NX,55.869596737208400,-3.117427453942220
Quetzal and Treepie,EH7 6SE,55.955352132449200,-3.131396813699190
Rat and Badger,EH12 7LU,55.932929915736900,-3.279576616001950
Condor and Towhee,EH10 5QU,55.919958160652600,-3.219910480779230
Black jay and Myna,EH10 4EH,55.929756587646500,-3.204501180054240
Partridge and Wallaby,EH8 9HZ,55.942942831580600,-3.180284958659450
Piping shrike and Triller,EH8 9AW,55.943135545744200,-3.180803179828040
Dorcopsis and Bronzewing pigeon,EH3 1DB,55.943315666956300,-3.232954000000000
Ice seal and Egret,EH7 5NQ,55.959811156473000,-3.177194329505130
Kākāriki and Kestrel,EH9 2HP,55.927268124836300,-3.188178782635450
Tit-tyrant and New World blackbird,EH10 5AT,55.935531724815200,-3.217022262003950
Linsang and B,EH10 5PX,55.920277997285000,-3.221184675986760
Magpie and Ground sloth,EH15 2HD,55.948421522137600,-3.091882154347510
Mole and Tit-tyrant,EH3 5NQ,55.968292349733700,-3.204065000000000
Kangaroo and Kākāriki,EH10 4QP,55.928681189909400,-3.209172943522280
Solitaire and Pitohui,EH10 5ER,55.930139918473800,-3.211603264375100
Marmoset and Warbler,EH14 6AY,55.898532000000000,-3.297699000000000
Mamo and Myna,EH16 6RU,55.906481443698600,-3.151631804381750
Black cockatoo and Gull,EH6 6PL,55.977305763083400,-3.170594526306390
Mamo and Viscacha,EH12 8PY,55.950150002585800,-3.287847543932990
Darwin's finches and Kangaroo,EH2 4PY,55.950236070981600,-3.211141980176290
Asiatic leopard and Recurvebill,EH20 9FD,55.884495000000000,-3.152467000000000
Tit-tyrant and Cuscus,EH7 4PA,55.962594000000000,-3.180322000000000
Jackal and Stilt,EH12 5EG,55.946589476013400,-3.217369154633650
Booted eagles and Kangaroo,EH4 4SU,55.972046353635300,-3.263690813814680
Piping shrike and River dolphin,EH9 3HA,55.925423243208900,-3.188474405452820
Greenbul and Jerboa,EH13 0QD,55.899843027673000,-3.257951201119530
Old World vulture and Mole,EH7 6PX,55.958313000000000,-3.137685364921180
Chickadee and Quetzal,EH14 5DP,55.904279651189500,-3.285143042014470
Linsang and Jackal,EH4 3ED,55.952787829117000,-3.230199765458600
Old World quail and Moluccan boobook,EH30 9UX,55.986549343453400,-3.416556488158970
Booted eagles and Asiatic leopard,EH6 5RX,55.972330668832400,-3.176901614389950
Wallaby and Solitaire,EH16 5NU,55.926904509601800,-3.168898232873610
Coati and American sparrow,EH1 2LP,55.949801433208100,-3.193993428703710
Mouse and Puffleg,EH7 5DR,55.957353940907800,-3.171033249155970
Puffleg and Black cockatoo,EH20 9SL,55.879527315922800,-3.142697169964040
Mockingbird and B,EH12 8QH,55.947626725206100,-3.285105562560720
American sparrow and Grosbeak,EH17 7JX,55.914198313730100,-3.139253239692880
Magpie and Darwin's finches,EH19 2AP,55.874821131547800,-3.109058630734470
Siskin and New World blackbird,EH6 6DW,55.974272001713800,-3.171191915524750
Peafowl and Goose,EH5 1HR,55.980069596436600,-3.230921660156880
Tit-tyrant and Eagle,EH8 9BU,55.945661024950500,-3.186356239220120
Chipmunk and Cuscus,EH30 9TS,55.983911512427100,-3.364431377878420
Grackle and Hawk,EH5 3RS,55.980099811493200,-3.209719482306420
Old World vulture and Petrel,EH11 2JA,55.941704703499700,-3.223380002803020
Francolin and Mole,EH12 5RR,55.940153827224000,-3.248098715953320
Pheasant and Wader,EH11 4PQ,55.922046686821900,-3.284050757206400
Booted eagles and Vole,EH17 7EZ,55.912202345910700,-3.138410777353990
Chicken and Tahr,EH9 1EG,55.939224553169200,-3.196550000000000
Fulmarine petrel and Nukupuʻu,EH3 5PP,55.961296524670700,-3.202454000000000
Scimitar babbler and Triller,EH13 0NZ,55.906071980074600,-3.272629360732080
Viscacha and Coati,EH4 6NL,55.975111977218600,-3.300679502033160
Jackal and Snipe,EH16 6QG,55.903980030297400,-3.160610838914220
Stint and Black jay,EH15 3EH,55.935428380156300,-3.114984086319440
Fish eagle and Old World quail,EH4 9EA,55.959483000000000,-3.225591000000000
Petrel and Tree warbler,EH3 9LS,55.941792891859600,-3.201640230789640
Buzzard and Flameback,EH11 3JF,55.930657893291700,-3.257637178747850
Minke whale and Armadillo,EH7 6HU,55.961552312099100,-3.147884797071210
Wallaby and Old World quail,EH20 9RW,55.877861493024100,-3.146164000000000
Prion and Guillemot,EH11 4QR,55.921925952501400,-3.278381816087270
Gull and Lemming,EH10 4DB,55.933727805915700,-3.210418671118520
Masked owl and Jay,EH22 1SS,55.910960000000000,-3.110099808139750
Stilt and Mamo,EH14 7BB,55.881504910768100,-3.346959962888360
Chipmunk and Black cockatoo,EH26 0NU,55.853008611306400,-3.192189091059590
Tree warbler and Bronzewing pigeon,EH10 5QD,55.921329234087200,-3.222097863984480
Pitohui and Shearwater,EH4 6DB,55.964376000000000,-3.308217000000000
Dolphin and Recurvebill,EH13 9AZ,55.908836417453300,-3.229607419432490
Rat and Kestrel,EH6 4HF,55.976449240155700,-3.185936584612950
Old World quail and White ibis,EH10 6HQ,55.911126000000000,-3.210738000000000
American sparrow and Tattler,EH21 8SZ,55.934418000000000,-3.086786000000000
Hawaiian honeycreeper and Grosbeak,EH10 7HN,55.899516320074200,-3.215334344076570
Egret and Triller,EH10 5LT,55.924440921113900,-3.219107120015210
Condor and Stilt,EH16 4EN,55.930489071025300,-3.124573761368020
Parrotbill and Parakeet,EH17 7LN,55.911057359333100,-3.138825161726200
Gull and Magpie,EH11 3LE,55.930137000000000,-3.254963000000000
Ice seal and Puffleg,EH19 3WE,55.868554000000000,-3.101593000000000
Treepie and Songlark,EH7 5NS,55.960640915726900,-3.165526084408690
Fulmarine petrel and Asiatic leopard,EH26 0NW,55.847261954990700,-3.217456227936670
Solitaire and Argus,EH10 5AN,55.935115000000000,-3.213776000000000
Kangaroo and Siskin,EH13 0AF,55.906769122038300,-3.243090883196070
Egret and Marmoset,EH4 4QR,55.971036000000000,-3.252634000000000
Hawaiian honeycreeper and Buzzard,EH19 3RU,55.865936000000000,-3.113394000000000
Tattler and Badger,EH12 8RN,55.945703386652300,-3.289445284345260
Argus and Chicken,EH16 5HX,55.936383047226000,-3.161419652410860
Chicken and Skunk,EH30 9HP,55.989811265260400,-3.393687314406380
Jackal and River dolphin,EH5 3DD,55.977700817428100,-3.201439507668410
Pheasant and Parrotbill,EH5 1EF,55.977833020650900,-3.229039708117860
Old World quail and Night heron,EH7 4JS,55.963044570954800,-3.190428442148670
Solitaire and Snipe,EH6 5JB,55.972542814305900,-3.175385839837530
Lemming and Grackle,EH7 5XW,55.957047893201900,-3.169198077586510
Masked owl and Darwin's finches,EH28 8LZ,55.933225000000000,-3.401947000000000
Fulmarine petrel and Scimitar babbler,EH20 9HP,55.873002000732500,-3.172504211094990
Black cockatoo and Jay,EH30 9BB,55.984260000000000,-3.381897000000000
Chicken and Chickadee,EH5 2DX,55.973658399902900,-3.219629465110010
Tahr and Jay,EH10 9BP,55.928905000000000,-3.208812000000000
Zebra and Bunting,EH1 3PR,55.955952493111000,-3.193478087476650
Pratincole and Jerboa,EH9 3FD,55.921424000000000,-3.174546420732140
Fish eagle and Moluccan boobook,EH9 1YX,55.934239000000000,-3.195820000000000
Triller and Mamo,EH19 2AN,55.879502028252000,-3.108121129929960
Hawaiian honeycreeper and Treepie,EH15 3QE,55.938192000000000,-3.143896000000000
Francolin and Snipe,EH15 3RN,55.937401611136100,-3.114384425040240
Skunk and Booted eagles,EH13 9BU,55.905901249974500,-3.232889671479370
Grackle and Maya,EH6 7JS,55.973566087975600,-3.159922333484310
Boto and Moluccan boobook,EH11 2EG,55.941525049157500,-3.223374338125210
Ice seal and Wallaby,EH14 5HD,55.902298356224300,-3.299264740351920
Scimitar babbler and Tit-tyrant,EH26 0NZ,55.855139614199500,-3.210449921339750
River dolphin and Wallaby,EH19 2LU,55.871887298128300,-3.117509229976300
Gull and Fulmarine petrel,EH12 6BT,55.950182837482500,-3.239085109200010
Fulmarine petrel and Kestrel,EH15 1SE,55.946876124025600,-3.129740478025620
Dolphin and Linsang,EH17 8AB,55.899517820070700,-3.164987647666370
Old World quail and American sparrow,EH19 2HS,55.880011261769600,-3.102444962368690
Armadillo and Vulture,EH4 8DU,55.960320368731100,-3.302505932746340
Treepie and Greenbul,EH14 2SA,55.913562462483500,-3.288522030640640
Piping shrike and Crow,EH7 5HH,55.962208454861600,-3.178324379077750
Petrel and Kite,EH3 5JJ,55.960670065864400,-3.210955305390330
Armadillo and Warbler,EH15 1RH,55.944223956168400,-3.130880122141380
Old World quail and Meadowlark,EH11 4NU,55.921807021729400,-3.287211354196810
Skunk and Duck,EH3 9BX,55.945641665215500,-3.202255826063460
Perching duck and Chipmunk,EH9 1SU,55.933711465220000,-3.177811204987760
Perching duck and Crow,EH20 9EL,55.882400331923700,-3.156417755867730
Crow and Nukupuʻu,EH4 6BW,55.962198133084700,-3.308464141306560
Ice seal and Mole,EH6 7QR,55.971119983313200,-3.156724278436720
B and Hawaiian honeycreeper,EH12 6UN,55.954016045663300,-3.279007009072000
Masked owl and Rabbit,EH14 2BZ,55.922857153485500,-3.264777885594500
Fulmarine petrel and Crow,EH6 7NR,55.968181916712300,-3.152871546490130
Vulture and Old World quail,EH9 1UU,55.934829000000000,-3.179414000000000
Scimitar babbler and Nukupuʻu,EH13 0HU,55.902912705165400,-3.269662810411050
Chickadee and Grouse,EH15 1AA,55.955552000000000,-3.121764000000000
Rabbit and Moluccan boobook,EH13 9NB,55.907380960691600,-3.227785733763000
Marsh harrier and Grackle,EH15 1NB,55.949560466522200,-3.121139215924710
Bronzewing pigeon and Ground sloth,EH29 9HA,55.957573212490400,-3.409250820948590
Rat and Perching duck,EH4 7SD,55.956660764968800,-3.292358000000000
Armadillo and Piping shrike,EH12 8QN,55.947663000000000,-3.291083482522490
Masked owl and Solitaire,EH15 2QJ,55.947813953954200,-3.102593734951070
Chipmunk and Scimitar babbler,EH17 7PH,55.914444642212300,-3.135932614455450
Philippine hawk-owl and Nukupuʻu,EH27 8EQ,55.915444000000000,-3.409610000000000
Solitaire and B,EH4 2ER,55.957429415776300,-3.226086442392010
Minke whale and Songlark,EH4 5JH,55.974270806587500,-3.256662000000000
Old World vulture and Ground sloth,EH11 2PT,55.937970160815300,-3.236533870556670
Songlark and Wader,EH9 3EZ,55.925152101398900,-3.185841482234720
Pratincole and Viscacha,EH4 4BU,55.969331107991600,-3.244423731630830
Duck and Francolin,EH4 4PH,55.968805000000000,-3.250239000000000
Chickadee and Boto,EH14 7HP,55.881368272356800,-3.334757815201200
Snipe and Minke whale,EH14 1BU,55.923836520716900,-3.237363963007720
Shearwater and Mouse,EH4 3DG,55.949813308086500,-3.223011194400160
Recurvebill and Kite,EH2 1JX,55.954500607280300,-3.199567504876760
Cloud rat and Perching duck,EH12 8UH,55.951068569094400,-3.308969458179790
Flameback and Parrotbill,EH20 9FF,55.885134000000000,-3.151447000000000
Towhee and Pratincole,EH14 1HZ,55.920462485240900,-3.244937396039300
Parrotbill and Zebra,EH28 8RB,55.922068025650000,-3.379300472330350
Perching duck and Asiatic leopard,EH11 3EL,55.934332335404900,-3.262094345960000
Solitaire and Civet,EH3 6TJ,55.956702813525100,-3.203175352129840
Kestrel and Parrotbill,EH9 1JQ,55.937933136179600,-3.191979288075690
Old World quail and Jackal,EH4 5NW,55.969392295771700,-3.269260128160670
Tit-tyrant and Treepie,EH14 5LF,55.897589793977000,-3.306064148948990
Goose and Mockingbird,EH10 6LG,55.917228810282400,-3.210576399554150
Partridge and Black cockatoo,EH14 5SA,55.893097219307800,-3.322032003380750
Duck and Elephant,EH16 6TB,55.912137966634400,-3.156886988090890
Francolin and Parakeet,EH4 7DR,55.956943270207900,-3.284389211123520
Linsang and Boto,EH13 9NL,55.903405920669400,-3.230827120045170
Tit-tyrant and Boto,EH12 5UG,55.941226500008900,-3.258363977821520
New World blackbird and Grackle,EH15 2QP,55.946388793487700,-3.102200955007190
Parakeet and Mink,EH16 5UB,55.922671373006700,-3.164258019682730
Solitaire and Recurvebill,EH1 2NQ,55.948549203505800,-3.196180754568370
Kite and Masked owl,EH1 1HN,55.948941492514100,-3.187209210687330
Black cockatoo and White ibis,EH16 4RS,55.935116353739100,-3.122626832803140
Tahr and Bronzewing pigeon,EH6 7HS,55.973859665510000,-3.162142412445970
Snipe and Songlark,EH7 9SN,55.951875996880500,-3.183471914947110
Fox and Nukupuʻu,EH8 7LD,55.949833595779800,-3.144207075892020
Peafowl and Solitaire,EH7 5LJ,55.962731843438300,-3.176209721921280
Logrunners and Black cockatoo,EH14 2NN,55.921177386759300,-3.273444446644680
Dolphin and Vulture,EH10 4NP,55.935883198936500,-3.210533922254710
Linsang and Vole,EH3 7UH,55.951207162708600,-3.212901881090200
Treepie and Quetzal,EH26 0PH,55.859666000000000,-3.208881000000000
Cuscus and Night heron,EH7 6QB,55.957911072232400,-3.136484862031490
Marmoset and Boto,EH14 1BB,55.924302362102600,-3.233922041865280
Tahr and Treepie,EH4 2PA,55.965863751081200,-3.235388877878750
Jackal and Kestrel,EH14 7DW,55.883030045993800,-3.342248720970640
Mockingbird and Night heron,EH14 1PF,55.932594870438000,-3.240300329170640
New World blackbird and Chicken,EH8 7QZ,55.950485860574700,-3.131959482566330
Thicketbird and Treepie,EH7 5JD,55.958749000000000,-3.180166847144710
Lemming and Fish eagle,EH3 7LP,55.949133407624500,-3.213621707920310
Mamo and Vole,EH12 5HJ,55.945200558968100,-3.225139494730290
Booted eagles and Buzzard,EH3 5HS,55.962172390467200,-3.206196493459410
Duck and Francolin,EH6 7QW,55.970178222621100,-3.151745276410540
Mole and Zebra,EH24 9BP,55.853153842733400,-3.138919768176260
Ibex and Recurvebill,EH17 7DF,55.913362565974000,-3.127549581643740
Prion and Philippine hawk-owl,EH17 8UH,55.899530000000000,-3.148362280856010
American sparrow and Old World quail,EH4 2RL,55.965478542243200,-3.245982212103780
Meadowlark and Chipmunk,EH11 4RY,55.922257535960500,-3.274825000000000
Wader and Mole,EH14 1XQ,55.928923147889900,-3.232804490438720
Parakeet and Prion,EH17 8AS,55.897748802340700,-3.158201793345230
Scimitar babbler and Solitaire,EH14 1RT,55.932146553576400,-3.242879104717990
Goose and Kite,EH10 6DB,55.919918299229400,-3.206627818996210
Pheasant and Grosbeak,EH25 9QP,55.852514970197000,-3.174379027749140
Buzzard and Wader,EH6 6EZ,55.976831000000000,-3.173643000000000
Myna and Mouse,EH13 0QE,55.900524600085500,-3.251911612830780
Mamo and Goose,EH3 7JF,55.950287770777500,-3.213193414912240
Maya and Wader,EH15 1DL,55.955295606335400,-3.122842562601010
Old World warbler and Booted eagles,EH16 6FG,55.905845976185400,-3.155756289523110
Marmoset and Bronzewing pigeon,EH11 4HN,55.923038367667100,-3.295749855689380
Marmoset and Greenbul,EH13 9HE,55.909339969804800,-3.225064107343820
Duck and Asiatic leopard,EH29 9FX,55.960006607380300,-3.402804099617230
Goose and Old World vulture,EH16 6UP,55.903504784517800,-3.171296000000000
Pratincole and Gull,EH4 6HP,55.961691610533100,-3.292604123228170
Viscacha and Mamo,EH6 4SP,55.973066257979500,-3.192915479251500
Bronzewing pigeon and Siskin,EH10 7HG,55.900588686442100,-3.223188826847060
Rat and Skunk,EH12 5DD,55.948791000000000,-3.221041000000000
Black jay and Goose,EH5 2AE,55.972912521790700,-3.216000685274080
Recurvebill and Civet,EH16 6JF,55.913867000000000,-3.157418000000000
Tahr and Parakeet,EH4 5EQ,55.963317803308000,-3.267539364764470
Ice seal and Zebra,EH16 5PG,55.930822000000000,-3.170793000000000
Recurvebill and Snipe,EH15 1PT,55.946231109966200,-3.120674708750690
Fish eagle and Jerboa,EH18 1DD,55.872278567697200,-3.128787715163180
Nukupuʻu and Wallaby,EH6 8ET,55.966269830244600,-3.159383165760040
Puffleg and Tree warbler,EH3 9PT,55.944763000000000,-3.205756426188990
River dolphin and Boto,EH11 1EQ,55.935606990844300,-3.226645541470400
Parrotbill and Dolphin,EH15 3PX,55.941617360179000,-3.147487074521840
Polecat and Guillemot,EH7 5FN,55.960123000000000,-3.176981000000000
Kite and Goose,EH7 6DN,55.960760831783800,-3.152779017042210
Mink and Petrel,EH3 5RE,55.969924493365100,-3.206437738290240
Meadowlark and Fulmarine petrel,EH14 1AX,55.925339029508000,-3.231794453626250
Fox and Moluccan boobook,EH15 1GB,55.942277701110400,-3.129510512087000
Philippine hawk-owl and Kestrel,EH1 2JR,55.947854450239900,-3.195440000000000
Dolphin and Songlark,EH3 9GT,55.942994714900000,-3.195945873500000
Thicketbird and Rat,EH5 3DX,55.977814982529400,-3.198943058800230
River dolphin and New World blackbird,EH9 2LG,55.930252979711100,-3.186141364317950
American sparrow and Meadowlark,EH5 2NE,55.970360181304000,-3.236814003818740
Kangaroo and Prion,EH11 3JD,55.931446404773300,-3.256974446102440
Darwin's finches and Francolin,EH30 9XY,55.987333812584700,-3.406117581877930
Kite and Petrel,EH14 5NA,55.900804937911800,-3.309610929083140
Dolphin and Old World warbler,EH14 5SU,55.892389542175200,-3.334320718550640
Hawaiian honeycreeper and Wallaby,EH5 3AP,55.972018150955500,-3.204596154171160
Condor and White ibis,EH10 4RP,55.925884371026900,-3.208493677874120
Diving bird and Warbler,EH12 9UR,55.928946000000000,-3.302221000000000
Marmoset and Stilt,EH14 1HS,55.922084238450600,-3.241836870370730
Hawk and Jay,EH11 1RN,55.930295702180900,-3.231231475236790
Mouse and Jerboa,EH10 5JR,55.924061903146600,-3.219271256386020
Macaw and Grouse,EH1 3LU,55.957723000000000,-3.186036000000000
Pratincole and Macaw,EH6 7HZ,55.974565000000000,-3.162083000000000
Old World warbler and Bronzewing pigeon,EH4 2DX,55.956747969421200,-3.234041326374180
Guillemot and Siskin,EH20 9EY,55.881383188535400,-3.154693022559570
Philippine hawk-owl and Mink,EH4 4BH,55.972941721536600,-3.241127000000000
Tree warbler and Capuchin,EH4 1JH,55.958994395047500,-3.214138570754780
Skunk and Mink,EH14 7AL,55.888487207967700,-3.337864259403060
Ground sloth and Puffleg,EH17 7HW,55.910602709717700,-3.132588728860930
Moluccan boobook and Petrel,EH9 2PW,55.928509380673900,-3.186184117271050
Parrotbill and Mouse,EH14 1LW,55.924567218574300,-3.243324614146200
Flameback and Crow,EH16 5XL,55.942120179404400,-3.174223870691770
Pratincole and Zebra,EH4 5JE,55.967795856671900,-3.270713879574700
Chipmunk and Hawaiian honeycreeper,EH9 1RG,55.936588780741700,-3.176665878174640
Petrel and Siskin,EH12 0AZ,55.951081219892100,-3.349439334555070
Maya and Black cockatoo,EH8 9LY,55.940670560355700,-3.181112407423970
Philippine hawk-owl and Civet,EH14 7DH,55.888207998511000,-3.342875177544500
Puffleg and Argus,EH10 7HU,55.901448083774000,-3.229309000000000
Marsh harrier and Badger,EH26 0PF,55.867854621335100,-3.217701010642020
Stilt and Zebra,EH8 8ES,55.953887872007600,-3.167949681892890
Parrotbill and Buzzard,EH5 1JR,55.977035109877700,-3.234254677455960
Coati and Fox,EH4 5HF,55.968676258783300,-3.272473113903830
Vole and Kangaroo,EH12 8NR,55.943099019636300,-3.319011957447520
Cloud rat and Grosbeak,EH13 0DF,55.905461690259100,-3.253286376882610
Greenbul and Coati,EH11 1AF,55.941939266544600,-3.217365000000000
Mole and Old World quail,EH16 6GX,55.902152000000000,-3.162939000000000
Parakeet and Logrunners,EH6 6PA,55.985372331780400,-3.193326494274890
Bronzewing pigeon and Thicketbird,EH8 8DL,55.953109000000000,-3.186456000000000
Bunting and Ground sloth,EH9 1AG,55.935098582572400,-3.193332937770470
Mouse and Kākāriki,EH12 7HF,55.940703000000000,-3.282133693078750
Boto and Mink,EH12 7LX,55.933292209227300,-3.279300428028460
Perching duck and Kite,EH8 8AP,55.949756135155200,-3.177225434627080
Black cockatoo and Bronzewing pigeon,EH7 6RT,55.955452278976000,-3.134186551675840
Kangaroo and Herring gull,EH16 6FA,55.906602047701900,-3.155618820639770
Towhee and Myna,EH12 9GN,55.944938000000000,-3.364179000000000
Fish eagle and Bunting,EH20 9AL,55.876174314838900,-3.157271571982450
Puffleg and Siskin,EH12 5JR,55.946760902090300,-3.218366000000000
Cloud rat and New World blackbird,EH19 2LR,55.871639383206700,-3.118093428764820
Elephant and Armadillo,EH6 8LU,55.969467397614100,-3.171863852542560
Buzzard and Cloud rat,EH1 2EN,55.947481868437400,-3.204282464021570
Fish eagle and Polecat,EH2 2HB,55.951932562993700,-3.200131000000000
Crow and Civet,EH12 8XP,55.951388298089700,-3.303807000000000
Petrel and Piping shrike,EH14 5NX,55.896403000000000,-3.309511000000000
White ibis and Lemming,EH7 4HB,55.964697642056600,-3.196022170546280
American sparrow and Logrunners,EH6 8EG,55.967234332552400,-3.162872574321240
Argus and Zebra,EH6 8LY,55.968760184337700,-3.172129000000000
Old World warbler and Mouse,EH4 2AR,55.962479475205100,-3.256394513354710
Vole and Armadillo,EH4 2TF,55.965746830653800,-3.258486979247450
Mole and Ground sloth,EH22 1FS,55.910863000000000,-3.101468000000000
Greenbul and Grackle,EH12 0AW,55.952678197331600,-3.351304655899930
Condor and Thrasher,EH16 6XE,55.918113694186000,-3.164473392849930
Chipmunk and Stint,EH13 0AL,55.908486000000000,-3.237675000000000
Mouse and Civet,EH5 2HP,55.973031361315300,-3.226676157376710
Flameback and Jackal,EH3 8FE,55.944363000000000,-3.211715692827480
Hawaiian honeycreeper and Pheasant,EH3 5DG,55.959697981315200,-3.202755000000000
Philippine hawk-owl and Crow,EH8 9BY,55.944756892111700,-3.184134962804170
Hawaiian honeycreeper and Linsang,EH4 7RJ,55.958586616553000,-3.293077252807070
Tahr and Condor,EH18 1AS,55.898286622465200,-3.107569191747660
Chipmunk and American sparrow,EH1 2NT,55.949582912559100,-3.193362160290180
Chickadee and Fulmarine petrel,EH3 6HG,55.955603788950700,-3.203605000000000
Tahr and Ground sloth,EH10 5LW,55.924671145430700,-3.223979466492230
Diving bird and Marsh harrier,EH1 1DF,55.951259905567300,-3.190177000000000
Chickadee and Jackal,EH9 2BX,55.932219685756000,-3.172179602025820
Warbler and Dolphin,EH4 7DT,55.955722453828800,-3.285133590704160
Rat and New World blackbird,EH12 1LU,55.928950983700000,-3.302221858900000
Warbler and Civet,EH12 9JT,55.938662000000000,-3.314619000000000
Buzzard and Greenbul,EH10 5UY,55.924668784033200,-3.229628693153500
White ibis and Quetzal,EH4 6BJ,55.963450766178800,-3.308121942846560
Grouse and Zebra,EH16 4AX,55.936186449199700,-3.141115279808910
Kangaroo and Warbler,EH14 5EP,55.901161174526700,-3.291611000000000
Linsang and Puffleg,EH3 5QP,55.969989139820200,-3.207065000000000
Boto and Argus,EH1 1JU,55.948016337305800,-3.193808000000000
Minke whale and Kākāriki,EH9 1LE,55.938322334028000,-3.190758532028670
Warbler and Diving bird,EH4 8HB,55.958834803689300,-3.312098845943870
Ibex and Eagle,EH10 4TD,55.928719975794800,-3.209798359078280
Grackle and Grackle,EH14 1SY,55.927942146488400,-3.253262000000000
Old World warbler and Old World warbler,EH10 4JQ,55.937777538865000,-3.207951522650060
Mink and Ice seal,EH9 3BT,55.927527458970300,-3.177079411344990
Quetzal and Lemming,EH4 4BX,55.969425305482600,-3.245772620927560
Argus and Fish eagle,EH7 4JU,55.963224523310800,-3.189472796922860
Polecat and Old World quail,EH7 5QJ,55.961953312397900,-3.170211032186570
Minke whale and Fulmarine petrel,EH16 4FH,55.930309346090100,-3.141182585389050
New World blackbird and Ground sloth,EH14 1QT,55.929278000000000,-3.244052000000000
Condor and Macaw,EH7 9ST,55.951875996880500,-3.183471914947110
Darwin's finches and Armadillo,EH12 5YT,55.943750128785500,-3.256732587692920
Capuchin and Meadowlark,EH17 7SA,55.909163000000000,-3.139688479122400
Towhee and Towhee,EH8 7LH,55.948197141254500,-3.141420544896150
Prion and Magpie,EH4 5NR,55.969871906586700,-3.269804575264240
Condor and American sparrow,EH15 3BR,55.943255923262300,-3.111862708769840
Linsang and Capuchin,EH11 4HX,55.920178384334200,-3.298550779049580
Dorcopsis and Piping shrike,EH10 5ST,55.914687495684700,-3.219520931724240
Grosbeak and Boto,EH4 3LQ,55.951656316384500,-3.246226764102820
Parrotbill and Booted eagles,EH2 4LH,55.952092845528300,-3.204137366765330
Diving bird and Francolin,EH3 5AJ,55.958111449630000,-3.207063246003040
Guillemot and Greenbul,EH6 7BS,55.975704728437600,-3.166027214535430
Mink and Thicketbird,EH14 7JE,55.877263570843300,-3.372180449059570
Chipmunk and Tahr,EH4 2BN,55.957240234776600,-3.248504468593330
Perching duck and Vole,EH12 5EF,55.946997652894400,-3.217128000000000
Parrotbill and Kangaroo,EH2 4PH,55.950436821073300,-3.209915149265460
Tattler and Treepie,EH18 1DA,55.871603352064900,-3.125987317646530
Kākāriki and Booted eagles,EH3 5NL,55.967074854081500,-3.202888477861840
Viscacha and Cuscus,EH4 3JW,55.954402734099200,-3.244761468513620
Kākāriki and Greenbul,EH6 7BH,55.974590000000000,-3.165057808680210
Meadowlark and Cuscus,EH16 4NA,55.932737823891700,-3.125295195824150
Grackle and New World blackbird,EH11 4LW,55.918548665999000,-3.291553000000000
Pheasant and Night heron,EH10 4SU,55.927862803321800,-3.205578345736960
Bronzewing pigeon and Maya,EH6 7QF,55.968679573595200,-3.151540526812280
Tattler and Argus,EH16 4QN,55.936121368703700,-3.123760470748700
Snipe and Puffleg,EH30 9AB,55.983274953619400,-3.383835000000000
Ibex and Armadillo,EH17 7QW,55.910735487335800,-3.151213996873220
Parakeet and Jerboa,EH14 5SF,55.893969474843900,-3.323644806422270
Elephant and Armadillo,EH26 0PR,55.852444567966500,-3.224676000000000
Duck and Thicketbird,EH16 4FD,55.932243208892500,-3.144840935583270
Cloud rat and B,EH4 1EP,55.958422725502900,-3.217436311090740
Tahr and Diving bird,EH15 2XZ,55.951636833713600,-3.112134985869710
Tattler and Nukupuʻu,EH11 1HF,55.938555140139300,-3.220222907784660
Recurvebill and Diving bird,EH16 4ZB,55.928714000000000,-3.125565000000000
Macaw and Cuscus,EH7 5NH,55.959802577070900,-3.174326834159160
Pheasant and Masked owl,EH15 3NE,55.939749336429100,-3.125962808183340
River dolphin and Pheasant,EH14 1HY,55.921643810430600,-3.243631063904670
Tree warbler and Wallaby,EH16 4LA,55.933031054262700,-3.123686999141450
Bronzewing pigeon and Chicken,EH5 2QJ,55.972631000000000,-3.227224000000000
Parrotlet and Cuscus,EH12 8BD,55.944357247363800,-3.288423812930180
Snipe and Ground sloth,EH6 7PT,55.967298444596800,-3.153181713236770
Nukupuʻu and Chicken,EH12 6XJ,55.946822552486400,-3.281219799822630
Darwin's finches and Kestrel,EH12 7PP,55.938267057682500,-3.289086099555080
Logrunners and Magpie,EH10 7DN,55.900709319528000,-3.207326782121280
Perching duck and Hawk,EH4 6NY,55.979451000000000,-3.300809000000000
Ground sloth and Fulmarine petrel,EH7 6UE,55.957511000000000,-3.130242000000000
Crow and Rat,EH13 0EY,55.903442542408000,-3.253029307531460
Perching duck and Lemming,EH11 3UH,55.927784419941300,-3.280991506892430
Booted eagles and Buzzard,EH10 6UY,55.905916000000000,-3.195907000000000
Greenbul and American sparrow,EH7 5SB,55.958064780929200,-3.169036531734500
Eagle and Parrotbill,EH10 6XD,55.907345301825000,-3.198574962408850
Pitohui and Goose,EH13 9AX,55.909631921072800,-3.230928397070650
Gull and Meadowlark,EH8 7BT,55.955718176301200,-3.144300618878070
Rat and Chipmunk,EH12 1PS,55.928941000000000,-3.302220000000000
Badger and Stint,EH7 4FF,55.961084000000000,-3.181688000000000
Capuchin and Marmoset,EH17 7QD,55.914078044000300,-3.150257124298560
Quetzal and Chipmunk,EH8 9SQ,55.942878000000000,-3.176760000000000
Chipmunk and Condor,EH4 3AZ,55.952602046257800,-3.218150439214240
Snipe and Mole,EH1 3BJ,55.954515892043700,-3.185922409604180
Guillemot and Cuscus,EH12 5SG,55.944602867530000,-3.251524297634210
Stint and Mole,EH13 9JJ,55.909732963507300,-3.218965447588270
Diving bird and Coati,EH30 9PE,55.982292710661000,-3.391878135644360
Elephant and Boto,EH12 8HA,55.943448449000000,-3.300514402198080
Recurvebill and Mole,EH22 1RY,55.911603662563200,-3.086718000000000
Dorcopsis and Quetzal,EH10 5GG,55.915231841953300,-3.230737879845930
Hawk and Bronzewing pigeon,EH7 6HH,55.965869867127000,-3.151248791908790
Polecat and Lemming,EH5 3BW,55.980091610659100,-3.199526358840670
Argus and Triller,EH4 6JG,55.966645068587900,-3.282916293315760
Grosbeak and Grackle,EH15 1PN,55.944342522714900,-3.122829750392200
Nukupuʻu and Wallaby,EH6 5PB,55.972399186090800,-3.184755106424400
Siskin and Skunk,EH8 7SU,55.951176019923600,-3.129209131188540
Magpie and Partridge,EH4 7HA,55.953059462505000,-3.285445733620180
Jerboa and Minke whale,EH11 1UJ,55.934737000000000,-3.232829000000000
Elephant and Old World quail,EH1 3QP,55.957703063730200,-3.190857088617420
Elephant and Macaw,EH9 2PX,55.928749445510300,-3.183646614079580
Rabbit and Marmoset,EH17 8XY,55.896645000000000,-3.166213000000000
Bronzewing pigeon and Pratincole,EH13 9HZ,55.908026736543600,-3.225198659966640
Warbler and Kite,EH7 4BN,55.959303075014200,-3.189865066376960
Black cockatoo and Jerboa,EH14 5RU,55.893981000074000,-3.316704990293970
Capuchin and Black jay,EH10 5RS,55.914765537032200,-3.221619328678200
Pratincole and Kite,EH19 2LP,55.870613415928300,-3.118271697827330
Pheasant and Treepie,EH16 6GG,55.907752166361800,-3.148342190407240
Jackal and Siskin,EH5 1JF,55.981590102995100,-3.234319656769060
Petrel and Linsang,EH14 5HE,55.902474496745900,-3.300454238709000
Greenbul and Lemming,EH14 7ER,55.878569530827500,-3.340927867631060
Scimitar babbler and Thicketbird,EH10 6BT,55.924768108712400,-3.199512875941600
Vole and Prion,EH17 8BY,55.901284027310600,-3.153956819551350
Crow and Thicketbird,EH19 2JW,55.874533721296800,-3.110041370064370
Hawaiian honeycreeper and Parakeet,EH14 5AZ,55.890443305892600,-3.333982086886990
Maya and Ice seal,EH11 1UW,55.935829561448900,-3.233151944169210
Fish eagle and Puffleg,EH14 5JW,55.900395893539900,-3.305822589394970
Siskin and Vole,EH12 9FL,55.929827000000000,-3.298809000000000
Argus and Marmoset,EH13 0HB,55.900333152503800,-3.258350916865280
Vole and Parrotbill,EH3 6HB,55.955802054000300,-3.206158502861100
Egret and Philippine hawk-owl,EH16 5NH,55.928799318660200,-3.173740864224130
Badger and Night heron,EH3 8EY,55.947887893654500,-3.208698704583460
Asiatic leopard and Mink,EH14 1XS,55.926112692158900,-3.236188174460610
Goose and Rat,EH10 6QA,55.908272269518800,-3.208537624325650
Chickadee and Stint,EH11 3JR,55.931331099331600,-3.257707011058500
Wader and Grouse,EH13 9AE,55.912588869529600,-3.238029545728540
Logrunners and Minke whale,EH12 7SQ,55.941432019951500,-3.282867011915460
Viscacha and Elephant,EH6 5AE,55.970567107332500,-3.172441868799590
Masked owl and Cuscus,EH6 7DW,55.976936183107400,-3.157537000000000
Argus and Petrel,EH3 6SE,55.959245850170900,-3.199474039888090
Old World warbler and Pheasant,EH14 5EG,55.902320056187400,-3.289508738751640
Perching duck and Chipmunk,EH2 3QA,55.953365203846600,-3.203584299150500
Fox and Triller,EH4 4EB,55.971751492631200,-3.251199133596860
Black jay and Grackle,EH11 2DW,55.943707950590600,-3.219808554981960
Goose and Warbler,EH19 3QH,55.879945338522600,-3.092708224283450
Parakeet and Old World warbler,EH20 9NE,55.882888262027600,-3.159949261240070
Ice seal and Snipe,EH12 5RN,55.941407235892600,-3.249435896945060
Darwin's finches and Moluccan boobook,EH30 9SW,55.985615994661000,-3.415672800502920
Shearwater and Marsh harrier,EH1 1RE,55.949579820653100,-3.190895926785790
American sparrow and Songlark,EH4 7QH,55.959467709909100,-3.294740493493010
Black cockatoo and American sparrow,EH14 5NZ,55.896842385886800,-3.305367350642470
Chickadee and Night heron,EH17 8DQ,55.900145000000000,-3.151903270173230
Songlark and Myna,EH16 6YY,55.905950239585700,-3.175513840997470
Piping shrike and Prion,EH12 5JD,55.945529423125700,-3.228208227906080
Maya and Gull,EH14 5DJ,55.903844845606500,-3.284616812683170
Duck and Buzzard,EH30 9AF,55.982718000000000,-3.378847000000000
Myna and Chickadee,EH10 5TW,55.931043453977500,-3.220917000000000
Stilt and Wallaby,EH5 1BH,55.978571968503100,-3.223405991315990
Jackal and Masked owl,EH5 3EL,55.976208902047300,-3.201473373515750
Triller and Capuchin,EH9 2HN,55.926922624725800,-3.195098172847290
Pratincole and Wallaby,EH7 5FB,55.960248000000000,-3.163416000000000
Grackle and Meadowlark,EH16 6AG,55.917521569368100,-3.167223742932330
Puffleg and Philippine hawk-owl,EH19 3FN,55.865051000000000,-3.099400000000000
Chicken and B,KY11 1JB,56.010185756222100,-3.395720192374530
Capuchin and Darwin's finches,EH6 5JG,55.971801943759700,-3.175812015088680
Jay and Asiatic leopard,EH6 4RR,55.976543000000000,-3.196650841367090
Wallaby and Pitohui,EH8 8BX,55.952714927334300,-3.175073124127240
Macaw and Condor,EH8 7SQ,55.952855753636400,-3.134158661832310
Cuscus and Grouse,EH4 8HL,55.956409067451300,-3.300196245736460
Old World vulture and Buzzard,EH13 0BU,55.905548808603800,-3.246474950162890
Pheasant and Songlark,EH8 9EU,55.943168928832700,-3.183878349794230
Pratincole and Argus,EH12 7NQ,55.935572942213100,-3.279455652830060
Chickadee and Kite,EH11 1TS,55.937242407350400,-3.232940698625670
Recurvebill and Myna,EH4 2UB,55.965931885143200,-3.256202014914490
Hawaiian honeycreeper and Kestrel,EH4 5DF,55.962857000000000,-3.263471000000000
Fulmarine petrel and Myna,EH12 8QP,55.947039034301300,-3.292323993544060
Capuchin and Thicketbird,EH10 7DQ,55.900059178212100,-3.209481700419380
Kākāriki and Mouse,EH3 7TH,55.951911424882900,-3.210729865373590
White ibis and Buzzard,EH11 2BA,55.944930799546000,-3.217909549605480
River dolphin and Tree warbler,EH16 5BH,55.940277163433100,-3.174328195889930
Kangaroo and Moluccan boobook,EH1 3NH,55.958018374887100,-3.185180609116400
Maya and Magpie,EH2 3JD,55.951873914941300,-3.201712326318000
Vulture and Boto,EH2 9AF,55.943214000000000,-3.232955000000000
Magpie and Tit-tyrant,EH8 9RZ,55.944049930384300,-3.179149794677260
Hawaiian honeycreeper and Capuchin,EH7 4FL,55.962747000000000,-3.180713000000000
Puffleg and Marmoset,EH12 7BT,55.935057826007100,-3.271930880535000
Ground sloth and Booted eagles,EH4 2NW,55.965132205298400,-3.239338625713320
Treepie and Nukupuʻu,EH3 6RQ,55.958902570804300,-3.200584663186260
Kite and Pratincole,EH3 5JD,55.961610071914400,-3.209478889725270
American sparrow and Capuchin,EH10 5AP,55.935993189423200,-3.215788083826760
Jackal and Duck,EH3 5BL,55.960383000000000,-3.203642000000000
Tree warbler and Partridge,EH17 8FB,55.899092866489000,-3.156690529159620
White ibis and Maya,EH11 4RB,55.925464608147900,-3.271600559984340
Thicketbird and Polecat,EH7 4NG,55.961916000000000,-3.185370432740660
Linsang and Quetzal,EH17 7JP,55.913116171020100,-3.144517083218380
Treepie and Prion,EH15 1AB,55.955868000000000,-3.122638000000000
Linsang and Marsh harrier,EH12 9GL,55.934507000000000,-3.293812000000000
Skunk and Marsh harrier,EH6 5ER,55.967130790841300,-3.177560805664930
Quetzal and Songlark,EH10 5NW,55.921727551790900,-3.220894213656100
Minke whale and Old World quail,EH3 9DJ,55.945131000000000,-3.201247000000000
Chicken and Darwin's finches,EH15 2LG,55.947225221668700,-3.085923782164600
Wallaby and Old World quail,EH5 2ET,55.970556769199100,-3.226133177814900
Tattler and River dolphin,EH5 1HF,55.983102727460800,-3.223196462160220
Minke whale and Lemming,EH4 7LT,55.954408978935600,-3.288725716454110
Thicketbird and Eagle,EH11 3DN,55.933312661537700,-3.258123385307620
Warbler and Guillemot,EH17 8NH,55.905845359038600,-3.135953106622930
Tree warbler and Grouse,EH5 1JY,55.976449776709400,-3.236175067683030
Parakeet and Gull,EH11 3PZ,55.929466997512800,-3.269490864284940
Macaw and Eagle,EH3 8DG,55.943783608390500,-3.210316088578140
Partridge and Bronzewing pigeon,EH14 2DE,55.923340440357500,-3.260584782268310
Diving bird and Guillemot,EH25 9SH,55.868830370304400,-3.179330049423340
Fox and Scimitar babbler,EH17 8EX,55.897235000000000,-3.154620000000000
Vole and Snipe,EH14 7FG,55.888038000000000,-3.348223000000000
Songlark and New World blackbird,EH16 6NG,55.905701831450700,-3.166676670003660
Marsh harrier and Jay,EH9 1QY,55.938751143749700,-3.180749804535190
Kangaroo and Marsh harrier,EH7 9SA,55.951870777342000,-3.183471334971850
Logrunners and Fox,EH8 9SY,55.946854444212000,-3.182789869580080
Asiatic leopard and Old World quail,EH14 4AB,55.905834344579500,-3.327472186184020
Viscacha and Rat,EH5 2JR,55.974499113136400,-3.232667620960040
Grosbeak and Tree warbler,EH4 3JP,55.953328376909000,-3.244374643238300
Moluccan boobook and Armadillo,EH11 3QU,55.931398945642300,-3.265296000000000
White ibis and Parrotbill,EH7 5TT,55.956929062517300,-3.163716726736550
Stilt and Scimitar babbler,EH7 4HQ,55.965440063590600,-3.197294671633270
Parrotlet and Philippine hawk-owl,EH5 3ED,55.979963479680800,-3.205291918530240
Treepie and Asiatic leopard,EH13 9ND,55.906879000000000,-3.226810000000000
Bunting and Eagle,EH4 6HJ,55.962600764981600,-3.298433493943840
Lemming and Dorcopsis,EH17 7NH,55.916213953150900,-3.137968365744730
Duck and Scimitar babbler,EH11 3BP,55.937572439731800,-3.251889880918260
Skunk and Thrasher,EH6 8JZ,55.964053617115500,-3.169505480335490
Dorcopsis and Thrasher,EH13 0JD,55.909462016923700,-3.268037148016040
Darwin's finches and Stilt,EH30 9SB,55.989766427522900,-3.414974868632320
Coati and Chipmunk,EH10 6RG,55.906320643632400,-3.208716855621140
Philippine hawk-owl and Thicketbird,EH5 2QW,55.972157982823300,-3.227386012431300
Parrotlet and Quetzal,EH4 4BB,55.968610757523600,-3.241901193690560
Kangaroo and Treepie,EH1 2HP,55.946877745324600,-3.197122005168530
Linsang and Gull,EH30 9LT,55.986932309313100,-3.397174396122830
Skunk and Kestrel,EH7 6JS,55.961050529259500,-3.145803550933720
Perching duck and Diving bird,EH16 5UR,55.917230792911200,-3.153262587481660
Armadillo and Minke whale,EH8 7HY,55.951618969030800,-3.147398613770970
Chipmunk and Wader,EH16 4BX,55.932142470846900,-3.141172455784140
Asiatic leopard and Francolin,EH8 7NW,55.946165261622900,-3.137661902772820
White ibis and Bunting,EH27 8AU,55.890033561777900,-3.418841766654380
Hawk and Ground sloth,EH5 2HZ,55.975214080678600,-3.228556027628880
Badger and Black cockatoo,EH11 1DT,55.937368274393000,-3.223019164179570
Viscacha and Fish eagle,EH7 5AT,55.957669710801900,-3.170898630786740
Duck and Macaw,EH11 2DD,55.943295000000000,-3.216193000000000
Stilt and Towhee,EH12 7SX,55.939832465670100,-3.282878166879580
Argus and Pratincole,EH13 0HX,55.903957902865900,-3.268513316247260
Pitohui and Tit-tyrant,EH17 7JA,55.912182644977500,-3.146345386683290
Kangaroo and Marsh harrier,EH12 6BH,55.948949000000000,-3.235827000000000
Fulmarine petrel and Thicketbird,EH19 3GG,55.868174138028400,-3.101374847363960
Grackle and Pheasant,EH12 8XS,55.948567279914800,-3.301646844656510
New World blackbird and Armadillo,EH4 4EH,55.971926724621900,-3.248096281352050
Boto and Booted eagles,EH13 9BA,55.908246493879900,-3.227493150191270
Tattler and Darwin's finches,EH14 1RR,55.931292177547700,-3.241171069131470
Kestrel and River dolphin,EH19 3NE,55.869288658181800,-3.098753206493290
Wallaby and Crow,EH7 6RG,55.963816428090000,-3.136273504957790
Polecat and Pitohui,EH18 1LR,55.877281115054600,-3.116241630840120
Fox and Kite,EH16 6RS,55.902514835176600,-3.154937041489120
Asiatic leopard and Kestrel,EH9 1HF,55.937143000000000,-3.193780000000000
Lemming and Ice seal,EH4 9BQ,55.959488483119800,-3.225575331993520
Cloud rat and Old World quail,EH3 6LQ,55.957250762280200,-3.195808485271770
Piping shrike and Mouse,EH24 9DA,55.846726000000000,-3.140810000000000
Ibex and Hawaiian honeycreeper,EH25 9JZ,55.858160485553500,-3.164261104210810
Kestrel and Wallaby,EH3 6AR,55.953818598183900,-3.210501123249060
Piping shrike and Macaw,EH14 5BR,55.905673977107900,-3.284133427945230
Minke whale and Wader,EH3 9NY,55.941560260186600,-3.208885829793580
Grouse and Siskin,EH6 8LX,55.969172937932700,-3.172591958717010
Ice seal and Pratincole,EH16 6FE,55.904324699379500,-3.156046935256020
Chickadee and Darwin's finches,EH10 5NH,55.921856932855400,-3.217809797332590
Armadillo and Tahr,EH14 7LU,55.877541121158800,-3.347877663955680
Pratincole and Jerboa,EH16 4TS,55.929170437197300,-3.119397852128900
Tahr and Rat,EH8 8FG,55.950372082620900,-3.179134222926980
Minke whale and Greenbul,EH10 4AQ,55.929167711270700,-3.206291103517480
White ibis and Macaw,EH12 5LQ,55.946110438872700,-3.222189900959190
Old World vulture and Ibex,EH4 1QY,55.961826626037200,-3.226869000000000
Myna and Mink,EH4 5AL,55.965120000000000,-3.267038000000000
Old World vulture and Pheasant,EH5 1DX,55.977391935798700,-3.226413567703790
Asiatic leopard and Argus,EH7 5TB,55.955863839643200,-3.164822000000000
Hawaiian honeycreeper and Mamo,EH20 9AR,55.875803470111900,-3.160393290360100
Armadillo and Mink,EH17 8FU,55.905846000000000,-3.139377000000000
Rabbit and Scimitar babbler,EH20 9AT,55.875241334857400,-3.163780943002290
Snipe and Black jay,EH3 8HQ,55.947704366593900,-3.212744313360970
Darwin's finches and Marsh harrier,EH30 9NA,55.985639850783500,-3.401792295833090
Fulmarine petrel and Marsh harrier,EH3 1BD,55.943214000000000,-3.232955000000000
Thrasher and Pheasant,EH7 9TB,55.951875996880500,-3.183471914947110
Partridge and Kangaroo,EH11 4HH,55.918634681826900,-3.300931365232280
Mockingbird and Tree warbler,EH3 6HZ,55.956489541678900,-3.199244628973440
Skunk and Philippine hawk-owl,EH1 9AS,55.943214000000000,-3.232955000000000
Maya and Grackle,EH7 5FF,55.960332000000000,-3.163008170481920
Vole and Chipmunk,EH26 0QJ,55.846792954289200,-3.204855918008920
Fulmarine petrel and Parrotlet,EH12 1NQ,55.928941000000000,-3.302220000000000
Civet and Bunting,EH15 2SR,55.945027733658300,-3.096638209477060
Flameback and Old World vulture,EH4 8DL,55.954342118939600,-3.301071895587330
Quetzal and Zebra,EH9 2NX,55.933355365460800,-3.182154347282910
Myna and Parakeet,EH15 3RU,55.938223703103800,-3.113895744620730
Night heron and Moluccan boobook,KY11 1HW,56.009695000000000,-3.401797000000000
Tit-tyrant and Duck,EH7 6TG,55.956539339062500,-3.130294271380950
Nukupuʻu and Vulture,EH10 4AF,55.928490000000000,-3.207689447194310
Civet and Partridge,EH19 3EE,55.871048853066700,-3.107880334440840
Philippine hawk-owl and Boto,EH6 6HR,55.976937463671300,-3.180006189612990
Jackal and Viscacha,EH10 9BN,55.928923783544800,-3.208796795900930
Shearwater and Chicken,EH14 7JX,55.874385607269500,-3.335653005585380
Vole and Myna,EH11 1LQ,55.935998750579500,-3.221583276950060
Wallaby and Philippine hawk-owl,EH8 7LU,55.947153040464300,-3.143551547476350
Songlark and Towhee,EH7 6PR,55.956814739485900,-3.139415830633120
Magpie and Black jay,EH13 0PS,55.911298126359000,-3.247507343156410
Piping shrike and Jay,EH29 9DA,55.955833616051500,-3.408146496317370
Viscacha and Puffleg,EH17 7JZ,55.914155127964600,-3.140035932143070
Tree warbler and Warbler,EH16 6JB,55.913104884680300,-3.159171614655930
Old World quail and Kite,EH12 8SN,55.945146577046000,-3.293702055574430
Jerboa and New World blackbird,EH10 6TS,55.908435136302000,-3.199232467445620
Egret and Black jay,EH22 1RT,55.901255000000000,-3.095278166451930
Petrel and Tattler,EH8 7EH,55.954892489025600,-3.147095067310730
Goose and Bunting,EH14 6AP,55.893884753163600,-3.307186962935330
Tit-tyrant and Diving bird,EH7 6HZ,55.960785534380800,-3.151097816635420
Piping shrike and White ibis,EH9 2HG,55.929072651875300,-3.191130998236890
Old World warbler and Kākāriki,EH12 5UQ,55.940928443719500,-3.255872690015710
Coati and Condor,EH10 7AZ,55.902788386435400,-3.220650942454870
Condor and Mockingbird,EH12 7JN,55.936077293870200,-3.279344212980040
Puffleg and Cloud rat,EH10 6RH,55.904308924112800,-3.207485000000000
Recurvebill and Mockingbird,EH15 2JH,55.946732957488300,-3.096862552879110
Darwin's finches and Marsh harrier,EH3 8DF,55.944495110003900,-3.209233469756250
Old World warbler and Perching duck,EH12 8PZ,55.950472702545900,-3.287922316693420
Linsang and Viscacha,EH9 1BW,55.937376737501600,-3.196540729609110
Armadillo and Tree warbler,EH6 5EW,55.966278994313200,-3.176429497633760
New World blackbird and Chipmunk,EH7 5UG,55.958333351916200,-3.162493494488180
Recurvebill and Fox,EH12 7US,55.940713290402100,-3.298293330758460
Badger and Herring gull,EH11 1LG,55.936239538331700,-3.221766949442230
Jay and Armadillo,EH4 4GB,55.976328229633600,-3.244680488596550
Asiatic leopard and Mink,EH11 2RW,55.935991564582600,-3.241177289249190
Hawaiian honeycreeper and Guillemot,EH15 1DU,55.958135599659000,-3.118824380205990
Greenbul and Badger,EH3 5PE,55.968245530128700,-3.218177405981950
Shearwater and Egret,EH4 3QU,55.957941255483300,-3.252915826679980
Ground sloth and Towhee,EH3 9LL,55.941026153113500,-3.202865294211410
Warbler and Zebra,EH16 5RR,55.922904737230400,-3.153783175290670
Capuchin and Linsang,EH28 8LQ,55.921973644205400,-3.421577015293470
Condor and Peafowl,EH19 3DR,55.870755115989400,-3.109565982271600
Booted eagles and Old World warbler,EH9 3HB,55.924869270280200,-3.185352733026180
New World blackbird and Tit-tyrant,EH17 8GS,55.896645000000000,-3.166213000000000
Polecat and Buzzard,EH4 3RW,55.956676000000000,-3.253644000000000
Black jay and Rat,EH30 9RT,55.989814093647700,-3.405309896389280
Herring gull and Piping shrike,EH13 9ET,55.912697855936200,-3.224434070635130
Parrotbill and Booted eagles,EH14 2QR,55.921072224948900,-3.270576584981000
Civet and Old World warbler,EH18 1JJ,55.871050300373800,-3.130446106136300
Tit-tyrant and Puffleg,EH7 6DX,55.963155760170800,-3.156102170922160
American sparrow and Diving bird,EH11 2TW,55.943955445755200,-3.221129290007110
Quetzal and Boto,EH16 5HE,55.927914000000000,-3.155662000000000
Maya and Chipmunk,EH4 5EZ,55.970766582627200,-3.273663341200480
Stilt and Quetzal,EH16 4DR,55.931032896638100,-3.142612397345180
Nukupuʻu and Cloud rat,EH19 3SB,55.865302000000000,-3.112034000000000
Skunk and Civet,EH17 8LW,55.907183671263000,-3.142806660036820
Zebra and Jackal,EH14 7HN,55.883622811707300,-3.338975849971530
Old World vulture and Pheasant,EH13 9JZ,55.907755349691100,-3.223574433056450
Tit-tyrant and Tit-tyrant,EH30 9XN,55.988162233533500,-3.410684245861950
Buzzard and Pratincole,EH4 3SA,55.958415355241900,-3.261052109220910
Philippine hawk-owl and Black cockatoo,EH6 7DN,55.977121000000000,-3.161663000000000
Prion and Jerboa,EH29 9FH,55.959713205884500,-3.410402309726860
Tit-tyrant and Recurvebill,EH19 2AL,55.879961321241900,-3.108006336680990
Myna and New World blackbird,EH13 9DS,55.913094181257200,-3.236029785774840
White ibis and Hawk,EH30 9LX,55.984501789964600,-3.398353002926740
Thrasher and Tree warbler,EH2 3BB,55.951531000000000,-3.202775000000000
Prion and Greenbul,EH8 7RG,55.950106482824500,-3.130218901572200
Nukupuʻu and Fish eagle,EH14 1DE,55.921328113881400,-3.236611928193300
Fox and Argus,EH7 5DN,55.956648250502500,-3.170595502266090
Bronzewing pigeon and Darwin's finches,EH13 9NG,55.902982777310300,-3.221888644293080
Siskin and Triller,EH4 2QW,55.966660435088200,-3.243729191368960
Darwin's finches and Greenbul,EH11 3RR,55.929570615862900,-3.280314184534330
Grackle and Parrotbill,EH16 4GB,55.931602455669700,-3.138355466161810
Piping shrike and Solitaire,EH1 3JT,55.957162778167900,-3.187252685728010
Tattler and Grackle,EH6 8ED,55.968408228158400,-3.161305633145870
Skunk and American sparrow,EH6 6EB,55.974366543295900,-3.172768000000000
Jackal and Nukupuʻu,EH17 7HR,55.911619640764900,-3.129482751619800
Marmoset and Ibex,EH6 4RT,55.976752000000000,-3.194583000000000
Recurvebill and Old World warbler,EH11 1RP,55.930021326716900,-3.229013957977880
Mockingbird and B,EH28 8TP,55.931032188321100,-3.413697300005290
Peafowl and Boto,EH1 2PB,55.949378776013900,-3.194028459600110
Perching duck and Lemming,EH6 5JF,55.972351118925000,-3.175700491018540
Viscacha and Myna,EH4 3EH,55.952984675069500,-3.231182947445500
Ibex and American sparrow,EH29 9DD,55.955443728670100,-3.408452674704110
Duck and Condor,EH13 0AQ,55.907794222117000,-3.241236065747120
Kangaroo and Stint,EH10 6RN,55.903596300484800,-3.207976310545790
Minke whale and Snipe,EH16 4PY,55.934241000000000,-3.127051000000000
Armadillo and Chicken,EH15 3EA,55.942663693951900,-3.109780335636740
Snipe and Parrotlet,EH13 0HY,55.907834771662000,-3.264624696922200
Fish eagle and Philippine hawk-owl,EH5 2HR,55.974571733607200,-3.224481518101420
Viscacha and Shearwater,EH17 7DS,55.908357576391400,-3.128540079241190
Lemming and Ibex,EH5 2AZ,55.975119893257300,-3.216310320129230
Duck and Darwin's finches,EH3 9AR,55.946394000000000,-3.204425000000000
Buzzard and Zebra,EH10 5TY,55.924891482161700,-3.221697874008060
Bunting and Piping shrike,EH5 2JX,55.973135834700400,-3.232415948899230
Grackle and Ibex,EH4 7QD,55.960377628755700,-3.294961000000000
Pitohui and Argus,EH4 4TB,55.971592955703200,-3.264092631473430
B and Siskin,EH5 1FT,55.984792253729900,-3.228219080486060
Songlark and Meadowlark,EH10 5AJ,55.934381347440200,-3.215225344173180
Petrel and Flameback,EH6 8SH,55.963218100564000,-3.177041468610920
Fish eagle and Dolphin,EH3 6PH,55.957913030889200,-3.195044000000000
Guillemot and Piping shrike,EH16 6XA,55.918541698428700,-3.164822248759360
Condor and Wallaby,EH7 5BE,55.958087322758200,-3.169501714484780
Herring gull and Wallaby,EH10 4SB,55.930745532159800,-3.203907204528820
Grouse and Kangaroo,EH12 5NS,55.944820901920400,-3.236159777209160
Lemming and Maya,EH10 5AY,55.934613394137300,-3.218114007603570
Dorcopsis and Stilt,EH15 1QR,55.943540921280500,-3.124023405654060
Cloud rat and Peafowl,EH4 2RW,55.964751091083200,-3.247721060526080
Mamo and Pratincole,EH14 3JE,55.912467979161200,-3.283190121800880
Philippine hawk-owl and Herring gull,EH5 2LR,55.974223353836100,-3.236873203572300
Night heron and Elephant,EH5 3LF,55.972936202483600,-3.210521000000000
Linsang and Moluccan boobook,EH8 7BP,55.955889379481800,-3.141342639414970
Chipmunk and Fulmarine petrel,EH17 7EP,55.912085476983900,-3.140359146448950
Songlark and Grackle,EH5 3HQ,55.977248660527600,-3.205415797827220
Parrotbill and Parrotlet,EH4 5EY,55.968696869230100,-3.275694205795610
Chipmunk and Stint,EH8 9SL,55.943707049479300,-3.179299487680550
Marmoset and Puffleg,EH4 8AT,55.957927912404300,-3.299318155375390
Tree warbler and Mockingbird,EH3 9LQ,55.941871316404100,-3.202811442676080
Asiatic leopard and Tit-tyrant,EH12 7AN,55.940511578154600,-3.275455813166970
Scimitar babbler and Grouse,EH20 9DY,55.881237807394800,-3.151027991812500
Tahr and Lemming,EH18 1LW,55.878003902562100,-3.111834740158060
Fish eagle and Puffleg,EH6 8BY,55.965916482793400,-3.163505903900640
Meadowlark and Pheasant,EH4 2EF,55.956990877994000,-3.239382732498860
Kestrel and Capuchin,EH22 1LT,55.911130455877000,-3.110159085150510
White ibis and Minke whale,EH9 1TW,55.937172383166500,-3.191667762511190
Buzzard and Snipe,EH12 6NQ,55.943572203053000,-3.278390484411230
Vulture and Night heron,EH20 9AU,55.875427918562600,-3.167798331357220
Tattler and Rabbit,EH4 1RA,55.963316000000000,-3.230534000000000
Greenbul and Linsang,EH6 8AR,55.968576336561800,-3.161583038259030
Maya and Buzzard,EH17 8HX,55.902929961052100,-3.148983405549610
Vole and Triller,EH30 9AS,55.983108000000000,-3.382064000000000
Parakeet and Chickadee,EH4 2AB,55.958820054897300,-3.252207403042350
Quetzal and Eagle,EH6 7WW,55.956737000000000,-3.124486000000000
Fulmarine petrel and Marsh harrier,EH15 2EX,55.949659964533700,-3.101140919175730
American sparrow and Tree warbler,EH14 7EE,55.880918491717700,-3.343886333847980
Chipmunk and Marmoset,EH11 3JW,55.931079728952300,-3.259443563541810
Stint and Dorcopsis,EH9 2JG,55.934770892449300,-3.186327466242300
Marmoset and Jackal,EH14 5SS,55.891496679311400,-3.322968964372440
Kākāriki and Guillemot,EH25 9RJ,55.871145939091100,-3.184290603658150
Songlark and Skunk,EH3 9RN,55.941659592066800,-3.208457062243740
Night heron and Scimitar babbler,EH11 4RE,55.925208834271900,-3.270263849727930
Hawk and Snipe,EH6 5AL,55.964870626419900,-3.179943234777880
Chipmunk and Maya,EH3 5BG,55.959329375544800,-3.202888443170050
Mink and Minke whale,EH5 3BL,55.979456074556300,-3.198352792631210
Civet and Bunting,EH11 1BZ,55.939573042301200,-3.219966741110560
Shearwater and B,EH25 9RS,55.871300000000000,-3.177615000000000
Night heron and Tree warbler,EH20 9DT,55.880319604843200,-3.152167739755600
Parrotbill and Parrotlet,EH15 3BY,55.941387000000000,-3.115844000000000
Prion and Pheasant,EH10 6QP,55.908111000000000,-3.211252000000000
Black cockatoo and Kangaroo,EH14 5AX,55.892573000000000,-3.328187000000000
Tree warbler and Stilt,EH7 4AH,55.959798177918300,-3.182303702529080
American sparrow and Peafowl,EH6 6LU,55.977168000000000,-3.171859889300860
Triller and Ice seal,EH5 2NY,55.973297607000800,-3.238686391656740
Myna and Skunk,EH6 5QW,55.969294000000000,-3.187240000000000
Chicken and Solitaire,EH11 2EN,55.941511212094800,-3.224766826257820
Egret and Fish eagle,EH19 2HB,55.880184526974400,-3.105167344134940
Partridge and Zebra,EH12 9GG,55.929658399963700,-3.307030919901700
Capuchin and B,EH17 7RU,55.917998429996700,-3.139332717837090
Bronzewing pigeon and Mockingbird,EH4 4GL,55.969031125546700,-3.264185321036060
Thicketbird and American sparrow,EH2 1XR,55.954555486434100,-3.194844496874900
Capuchin and Francolin,EH12 6LQ,55.946590339651900,-3.279354639695310
Greenbul and Eagle,EH30 9XL,55.985227873979300,-3.411122367448390
Wallaby and Kite,EH91 5AP,55.923226983568700,-3.305118057670550
Hawaiian honeycreeper and Chickadee,EH25 9NG,55.857532701201200,-3.167373192721320
Mink and Parrotbill,EH4 8EB,55.961441380113800,-3.314557880599280
Civet and Pratincole,EH11 1GX,55.934078762217800,-3.235337805303900
Petrel and Tattler,EH17 7AR,55.907289122666000,-3.131388379197120
Quetzal and Vulture,EH16 4BD,55.931692217435300,-3.142247652897740
Hawk and Stint,EH10 6AN,55.922751921542400,-3.209052295051440
Buzzard and Herring gull,EH11 3HQ,55.929900877119300,-3.263999013367070
Prion and Mouse,EH7 6BE,55.959284036830300,-3.153119537340430
Bunting and Duck,EH15 3LW,55.941239112275700,-3.121234971484330
