name,postcode,lat,lon
cayman and iguana,LN11 0AF,53.376964797541900,-0.000185748042067
chameleon and taipan,LN11 0BQ,53.375477031019400,0.006975829294694
worm lizard and snake,LN11 0DW,53.373215315596300,0.006749218568055
Vulture and bearded lizard,LN11 0GX,53.369906257800000,0.001497829900000
Partridge and habu,LN11 0HT,53.375412231090000,-0.007399455334219
gaboon viper and box turtle,LN11 0JJ,53.368908498749100,-0.003404047483123
Ground sloth and Treepie,LN11 0JQ,53.375612480623600,-0.001632168411719
worm lizard and Black jay,LN11 0JR,53.369411727470400,0.000903495540544
Linsang and Eagle,LN11 0NB,53.368487221453100,0.000815070471386
rat snake and Parrotbill,LN11 0NY,53.369600540596500,0.005722483851134
Gull and constrictor,LN11 0PL,53.420521571459000,0.028029368951844
Nukupuʻu and blue tongue,LN11 0PS,53.371019858305300,0.003113443161523
Treepie and lizard,LN11 0RF,53.378884000000000,-0.124524000000000
diamondback and Macaw,LN11 0SF,53.395014000000000,-0.067654504148697
diamondback and Puffleg,LN11 0TA,53.390305548855900,-0.016915269976806
Eagle and Jackal,LN11 0UR,53.411795588232500,-0.011190974855746
Solitaire and Dolphin,LN11 1BQ,53.367022674700000,-0.006693844200000
massasauga and Cuscus,LN11 1SG,53.360873836127600,0.096056078940511
flying lizard and wall lizard,LN11 1UF,53.360873836127600,0.096056078940511
Night heron and king cobra,LN11 7DQ,53.412714592977000,0.162450181173919
pit viper and Snipe,LN11 7HJ,53.378180000000000,0.031128000000000
garter snake and Mockingbird,LN11 7SB,53.418396483859800,0.188111775697196
Linsang and mountain devil,LN11 7WA,53.371190498418100,0.008472931331162
Marmoset and Partridge,LN11 8BS,53.367582562854700,0.017171479130262
Capuchin and rattlesnake,LN11 8BY,53.370960573965300,0.014114213882181
brown snake and cobra de capello,LN11 8JD,53.331653943386900,0.076075119317065
Treepie and terrapin,LN11 8JW,53.340470817546600,0.115124168731506
diamondback turtle and black snake,LN11 8LU,53.335471000000000,0.042000000000000
Chicken and Solitaire,LN11 8NH,53.338429615392900,0.048165025125034
Lemming and Komodo dragon,LN11 8PD,53.298782587779300,0.078802256796924
Shearwater and Thrasher,LN11 8QR,53.261020000000000,0.061916000000000
tree snake and Tree warbler,LN11 8RA,53.240288652054500,0.058207103562899
Kestrel and Kangaroo,LN11 8ST,53.366999159891900,0.095504000000000
box turtle and Partridge,LN11 8UY,53.365540169283300,0.084230715925138
turtle and American sparrow,LN11 9AF,53.367393959164800,0.002747912914009
Magpie and Myna,LN11 9AH,53.368265749816300,0.001691531981347
Stint and terrapin,LN11 9AW,53.366181209396100,0.004299285265940
mamba and perentie,LN11 9BS,53.366272921719200,0.000440750211333
box turtle and Black cockatoo,LN11 9DQ,53.364992673258000,-0.006863713356122
jew lizard and indigo snake,LN11 9HX,53.362322717896500,-0.002569785465340
Elephant and cobra de capello,LN11 9JW,53.363802832779400,-0.006137714644848
moloch and amethystine python,LN11 9LW,53.364835000000000,-0.011350000000000
Gila monster and krait,LN11 9LX,53.365651000000000,-0.006938000000000
Vulture and Night heron,LN11 9PR,53.366205992111400,-0.000930159180678
amethystine python and leguaan,LN11 9QF,53.366946000000000,-0.003287000000000
Ibex and sidewinder,LN11 9RH,53.324661551883100,-0.114634884944963
Meadowlark and taipan,LN11 9ST,53.328940565187500,-0.013785901841496
thorny devil and deaf adder,LN11 9SW,53.323080439084800,-0.086476299197835
Egret and diamondback turtle,LN11 9TW,53.327469187287200,-0.145204852173744
elapid and Ground sloth,LN11 9TZ,53.297632708703000,-0.125174397884741
Mockingbird and Gull,LN11 9UB,53.297702805505200,-0.118612000000000
Snipe and Rat,LN11 9XY,53.361519100594100,-0.006124118505424
carpet snake and Chicken,LN11 9YA,53.362718676861800,-0.006894712904078
skink and worm lizard,LN11 9YW,53.365524000000000,-0.016578000000000
Magpie and Duck,LN12 1PR,53.354679000000000,0.200023000000000
Recurvebill and Grackle,LN13 0AL,53.257178000000000,0.142136000000000
Songlark and Gila monster,LN13 0AZ,53.272189000000000,0.068498000000000
bicycle lizard and bearded dragon,LN13 0BQ,53.270796723515600,0.076664215942640
Duck and asp,LN13 0BT,53.251813103437700,0.101048614475984
Egret and bearded dragon,LN13 0DS,53.284501758670200,0.114818861126214
Elephant and Polecat,LN13 0EH,53.261661233658300,0.171089176652425
agama and Lemming,LN13 0EX,53.245961292589600,0.129254000000000
blind snake and Stilt,LN13 0NL,53.325437685468500,0.128206000000000
amphisbaena and Tattler,LN13 0NP,53.338529441199300,0.146301993726008
agamid and tuatara,LN13 3AQ,53.255849000000000,0.167363000000000
Mink and anaconda,LN13 9AD,53.260163000000000,0.179815000000000
Tahr and Old World quail,LN13 9BJ,53.257244143251500,0.182559734023640
Stint and Mamo,LN13 9DN,53.262721180506600,0.178040398096966
king cobra and green turtle,LN13 9ET,53.255822273278900,0.167360206984585
Puffleg and Skunk,LN13 9HL,53.256216319044600,0.175341055981310
diamondback terrapin and Rabbit,LN13 9JJ,53.263878492008300,0.207984393050930
Cuscus and snapping turtle,LN13 9PU,53.264901089067700,0.202278829854080
rock snake and bushmaster,LN8 6BL,53.410986909449400,-0.150889000000000
mountain devil and Myna,LN8 6LF,53.384753804138700,-0.199253192308731
Ibex and anaconda,LN9 5BB,53.206092017814500,-0.124411159156417
tokay and Armadillo,LN9 5BG,53.206346689949400,-0.129745797503996
Kestrel and Mink,LN9 5DF,53.209013000000000,-0.111225000000000
Lemming and bandy-bandy,LN9 5ED,53.211301432467200,-0.113281189241719
Maya and gopher snake,LN9 5ER,53.213390159662100,-0.108366936180018
Nukupuʻu and Elephant,LN9 5JP,53.207212000000000,-0.133272000000000
gopher snake and snake,LN9 5JS,53.211460460392500,-0.137100870367285
cycling lizard and death adder,LN9 5NA,53.235473710477100,-0.156212130728111
American sparrow and garter snake,LN9 5PE,53.233988182064300,-0.171106000000000
goanna and sand lizard,LN9 5QA,53.245927985891900,-0.091029736287139
hoop snake and Ibex,LN9 5RF,53.212134826698300,-0.149801296937615
snapping turtle and Old World warbler,LN9 5RG,53.212914851936500,-0.146547000000000
rat snake and python,LN9 6BN,53.203165050473000,-0.106365000000000
diamondback turtle and mud turtle,LN9 6DD,53.201606501427100,-0.108526567173352
asp and python,LN9 6DL,53.208013000000000,-0.112376000000000
Argus and lizard,LN9 6DZ,53.206570967285800,-0.117157697991774
Quetzal and python,LN9 6EE,53.206448486876600,-0.115665649682718
Darwin's finches and Bunting,LN9 6EX,53.202124484740200,-0.112276874633914
boomslang and tokay,LN9 6HA,53.204579480584900,-0.112318710164234
Guillemot and lizard,LN9 6HB,53.204857246038700,-0.111692582973438
Schneider python and Gull,LN9 6NJ,53.209125326073900,-0.099318000000000
cycling lizard and garter snake,LN9 6QJ,53.254172782571800,-0.005423678129780
dugite and Pratincole,LN9 6QT,53.242513345961100,-0.018420185050785
kabaragoya and Capuchin,LN9 6RG,53.207059921969400,-0.104902171317729
flying lizard and Solitaire,LN9 6RX,53.204318324495400,-0.106625302270648
Logrunners and Nukupuʻu,PE23 4AR,53.206076000000000,0.017949000000000
Old World vulture and gavial,PE23 4JP,53.212066322257800,0.077446760243258
Ground sloth and American sparrow,PE23 4LG,53.201085871226700,0.030694776375427
black snake and Diving bird,PE23 4NP,53.228752000000000,0.018445000000000
Tit-tyrant and soft-shelled turtle,PE23 4NT,53.239077171891000,0.019185454598237
frill-necked lizard and ringhals,PE23 4QD,53.205654558540000,0.144506794493510
