name,postcode,lat,lon
Mouse and agama,LN11 0AS,53.377555244410800,-0.000548976617919
Wallaby and terrapin,LN11 0BZ,53.375863808552100,0.006963949416536
Grosbeak and bushmaster,LN11 0EN,53.368912343786500,-0.006861093758971
Grouse and diamond python,LN11 0HB,53.372841035857800,-0.004708352545044
Parrotbill and Maya,LN11 0HG,53.373431226093100,-0.002906867904608
frilled lizard and blind snake,LN11 0JF,53.375797764832400,-0.011109846592057
perentie and Prion,LN11 0NN,53.368358200847500,-0.002753378698241
Egret and sand viper,LN11 0NU,53.407707000000000,0.020285421102679
Mink and Mouse,LN11 0RY,53.374920511069100,-0.049471038727248
elapid and Kite,LN11 0TG,53.414908000000000,-0.028019000000000
slowworm and Coati,LN11 0TH,53.420225551627000,-0.034984000000000
adder and perentie,LN11 0UB,53.370690000000000,0.002497000000000
Chipmunk and gaboon viper,LN11 0YH,53.373047599427000,-0.010080463734279
sand viper and diamondback turtle,LN11 0ZW,53.382847000000000,-0.004784000000000
death adder and viper,LN11 1TB,53.360873836127600,0.096056078940511
Siskin and worm lizard,LN11 1TE,53.360873836127600,0.096056078940511
Logrunners and Vole,LN11 1TN,53.360873836127600,0.096056078940511
coral snake and Chipmunk,LN11 1TS,53.360873836127600,0.096056078940511
Parrotbill and Thicketbird,LN11 7BY,53.369968000000000,0.019041000000000
horned viper and indigo snake,LN11 7DJ,53.398279000000000,0.132837000000000
ringhals and Pheasant,LN11 7ES,53.396229000000000,0.065409000000000
massasauga and Lemming,LN11 8AH,53.369214341711700,0.013175025467556
Vulture and bicycle lizard,LN11 8BE,53.364456000000000,0.015491000000000
jew lizard and tortoise,LN11 8EJ,53.358598760655400,0.008797392893384
Stint and sand lizard,LN11 8FB,53.336653236749800,0.035868484057397
Quetzal and Shearwater,LN11 8FS,53.331449344870900,0.038414054604707
Peafowl and Gila monster,LN11 8HD,53.357607000000000,0.062249000000000
B and Guillemot,LN11 8HN,53.350703479058000,0.100785800366554
Night heron and Francolin,LN11 8NH,53.338429615392900,0.048165025125034
Tree warbler and Prion,LN11 8NY,53.344777048474500,0.019670144007225
agama and Quetzal,LN11 8PF,53.306449516295000,0.098927510076872
Elephant and diamondback turtle,LN11 8QY,53.240917418124300,0.054070986458613
Pratincole and mud turtle,LN11 8RP,53.359780323030800,0.007500431178783
rock snake and Tit-tyrant,LN11 8SD,53.359865734494600,0.039048861949539
Boto and Komodo dragon,LN11 8TA,53.370858987386900,0.090082445730960
tree snake and giant tortoise,LN11 8TF,53.374596000000000,0.086717000000000
box turtle and Thrasher,LN11 8TU,53.362804079061500,0.100298988102101
thorn lizard and Lemming,LN11 8XA,53.359001496060500,0.009973490079921
Hawaiian honeycreeper and Moluccan boobook,LN11 8YN,53.358482573784900,0.014622709862598
Skunk and tuatara,LN11 9AF,53.367393959164800,0.002747912914009
Pitohui and Bronzewing pigeon,LN11 9AP,53.365805000000000,0.001095000000000
Parrotlet and Francolin,LN11 9DA,53.363907492920300,-0.000571853371920
Armadillo and swift,LN11 9DU,53.364840410049800,0.001696273215816
Masked owl and Crow,LN11 9HY,53.361444275697000,-0.000040951210901
brown snake and carpet snake,LN11 9JB,53.366481000000000,-0.006721000000000
tuatara and rock python,LN11 9JR,53.364001263709600,-0.006714606310959
Kite and bearded dragon,LN11 9PB,53.366043998271300,-0.004544000000000
Flameback and dukite,LN11 9QE,53.367681741875500,-0.001011367917527
constrictor and Vole,LN11 9QZ,53.335887461440300,-0.139087136372903
Ground sloth and Myna,LN11 9RE,53.333791520531300,-0.155071000000000
ringhals and moloch,LN11 9RP,53.338935813185700,-0.052390492612671
copperhead and Magpie,LN11 9RR,53.343659898727300,-0.034013065795876
pit viper and Parrotlet,LN11 9RW,53.347380140479200,-0.041732000000000
ringhals and skink,LN11 9TQ,53.329489590155500,-0.148526105882986
frilled lizard and Kangaroo,LN11 9TX,53.328697000000000,-0.142584000000000
chuckwalla and Recurvebill,LN11 9TZ,53.297632708703000,-0.125174397884741
rock snake and Chicken,LN11 9YP,53.365230729210800,-0.010354616583467
blind snake and White ibis,LN13 0AE,53.261014000000000,0.170142000000000
Francolin and Stint,LN13 0AU,53.264912937499400,0.084748000000000
horned viper and elapid,LN13 0AW,53.272975000000000,0.103736000000000
coral snake and Stilt,LN13 0BQ,53.270796723515600,0.076664215942640
harlequin snake and Civet,LN13 0DJ,53.283856000000000,0.116399928566058
elapid and Linsang,LN13 0EE,53.269634584784500,0.153316856178955
tuatara and Vulture,LN13 0EH,53.261661233658300,0.171089176652425
Puffleg and puff adder,LN13 0ET,53.243290000000000,0.166892000000000
flying dragon and Polecat,LN13 0HF,53.229717284385300,0.128748605771024
flying lizard and death adder,LN13 0JJ,53.308451920968700,0.196414323007300
python and Parakeet,LN13 0JW,53.309818995782600,0.198826258771814
Pheasant and Pitohui,LN13 0LP,53.317212183643800,0.181039696561875
sand viper and chameleon,LN13 0NB,53.317410250521900,0.146833436045934
Peafowl and python,LN13 0NF,53.315483234367800,0.144004338811327
krait and Triller,LN13 0PN,53.259553195830300,0.168358526088987
snake and rock python,LN13 9HY,53.257662283346100,0.168022977348645
asp and Ibex,LN13 9JB,53.257908355164600,0.167345750741462
flying lizard and diamond snake,LN13 9LR,53.260451000000000,0.174881000000000
tiger snake and habu,LN13 9LZ,53.226642335025200,0.188314095683282
Cloud rat and diamondback,LN13 9PD,53.254858016283800,0.183247799089959
bushmaster and carpet snake,LN8 5LN,53.290311000000000,-0.156027000000000
rock snake and Guillemot,LN8 6AA,53.387131000000000,-0.195860000000000
galliwasp and snake,LN8 6AS,53.390306000000000,-0.185319000000000
pit viper and cobra de capello,LN9 5BE,53.206487202068900,-0.128961022084418
tortoise and Logrunners,LN9 5DH,53.208423789032800,-0.115609000000000
Myna and Dorcopsis,LN9 5DL,53.210506000000000,-0.121043000000000
kabaragoya and diamondback turtle,LN9 5EB,53.209353130400500,-0.114579782268763
Cloud rat and puff adder,LN9 5EE,53.209498000000000,-0.112327000000000
puff adder and Treepie,LN9 5EQ,53.209922677095400,-0.109672794216078
Tit-tyrant and Hawk,LN9 5HP,53.208423789032800,-0.116073147187628
tiger snake and Maya,LN9 5NN,53.255786506111300,-0.199790000000000
Gull and bicycle lizard,LN9 5QA,53.245927985891900,-0.091029736287139
soft-shelled turtle and Puffleg,LN9 5QR,53.230538699685500,-0.106367476202006
rock snake and krait,LN9 5RE,53.212255177183000,-0.149275000000000
sidewinder and king cobra,LN9 6AD,53.207730245949200,-0.112015497221778
amethystine python and Rat,LN9 6BE,53.206132094230300,-0.113283679681536
sand viper and diamondback terrapin,LN9 6DF,53.201894000000000,-0.106747000000000
alligator and Tattler,LN9 6EN,53.203313985381700,-0.114156125876443
alligator and leathery turtle,LN9 6EU,53.201471711167200,-0.111931250747150
American sparrow and Peafowl,LN9 6LG,53.260261986737300,-0.062279367073254
Pheasant and copperhead,LN9 6LP,53.261521934485900,-0.063466869452359
Mamo and New World blackbird,LN9 6QL,53.255907000000000,-0.002615000000000
Condor and Peafowl,LN9 6QU,53.225251813600500,-0.013554493639135
Nukupu ªu and snapping turtle,PE23 4LW,53.201707000000000,0.011125000000000
Ice seal and tokay,PE23 4LY,53.207876000000000,-0.017428000000000
