name,postcode,lat,lon
Woolpack inn,LN11 0DA,53.3717,0.0088
Beaumont's (Louth) Limited,LN11 0DR,53.3675,-0.0091
The Millers Daughter,LN11 0LT,53.3679,-0.0045
Brackenborough Limited,LN11 0SZ,53.3908,-0.0173
Louth Tennis and Sports Centre Ltd,LN11 0WD,53.3854,-0.0105
Shelly s kitchen,LN11 7RZ,53.4213,0.1877
RILEY BAR AND RESTAURANT LTD T/A THE WAGGON AND HORSES,LN11 8JQ,53.3265,0.1065
The Queens Head,LN11 8LL,53.3390,0.0555
Louth Garden Centre,LN11 8LQ,53.3505,0.0227
ROYAL OAK INN,LN11 8LZ,53.3345,0.0382
Kenwick Park Hotel Limited,LN11 8NR,53.3356,0.0216
Aquavita (Catering) Limited,LN11 8NY,53.3449,0.0197
Tai Pan Cantonese Restaurant  Louth,LN11 9AA,53.3673,-0.0016
The Panacea ,LN11 9AU,53.3664,-0.0034
The Wick,LN11 9AU,53.3664,-0.0034
Wonderland Gifts & Tea Shoppe,LN11 9AU,53.3664,-0.0034
Mr. Chips of Louth,LN11 9BA,53.3656,-0.0035
The Ranch Steakhouse & Grill,LN11 9BA,53.3657,-0.0036
The Turks Head,LN11 9BA,53.3656,-0.0035
The Brown Cow,LN11 9EG,53.3631,-0.0000
ISTANBUL BBQ RESTAURANT,LN11 9ER,53.3663,-0.0071
via italia restaurant ,LN11 9ER,53.3665,-0.0073
Il padrino,LN11 9ET,53.3660,-0.0071
Millie May's,LN11 9ET,53.3660,-0.0071
The Greyhound Inn ,LN11 9EX,53.3652,-0.0065
Montebello ristorante,LN11 9HD,53.3646,-0.0057
The Boars Head Louth,LN11 9HH,53.3638,-0.0028
The Old Warehouse Larders,LN11 9JG,53.3662,-0.0059
Cafe Nero,LN11 9JQ,53.3658,-0.0054
Siam Orchid,LN11 9JQ,53.3659,-0.0064
The Kings Head,LN11 9JQ,53.3658,-0.0054
R c brassiere ,LN11 9NJ,53.3670,-0.0043
Ye Olde Whyte Swanne,LN11 9NP,53.3672,-0.0039
Cooplands Secret Garden Louth,LN11 9PG,53.3669,-0.0035
Bar Castillejar,LN11 9PU,53.3669,-0.0052
Cobbles Bar,LN11 9PU,53.3669,-0.0052
Masons Arms Louth Ltd,LN11 9PY,53.3665,-0.0055
The Auction House,LN11 9PY,53.3665,-0.0055
Tinas cafe,LN11 9PY,53.3665,-0.0055
Davenport’s Fish & Chips,LN11 9QE,53.3677,-0.0010
parkinsons fish and chips ltd,LN11 9QE,53.3677,-0.0010
The Three Horseshoes,LN11 9WA,53.2936,-0.1207
Greenman Scamblesby Ltd,LN11 9XG,53.2927,-0.0855
Woodthorpe Garden Centre,LN13 0DD,53.3019,0.1578
Woodys Bar,LN13 0DD,53.3019,0.1579
Claythorpe Watermill,LN13 0DU,53.2903,0.1166
The Stables Bar & Restaurant,LN13 0JP,53.3147,0.2037
The Half Moon Hotel & Restaurant,LN13 9DG,53.2606,0.1770
george inn,LN13 9DS,53.2617,0.1801
The Windmill Family & Commercial Hotel,LN13 9EB,53.2613,0.1797
Tanya’s,LN9 5BJ,53.2090,-0.1161
Costa Coffee,LN9 5BN,53.2090,-0.1161
Montebello ristorante,LN9 5DX,53.2102,-0.1144
The Admiral Rodney Hotel,LN9 5DX,53.2102,-0.1144
Myers Cafe Tea Room,LN9 5HU,53.2085,-0.1146
The Bull Hotel,LN9 5HU,53.2085,-0.1146
School House Coffee Bar,LN9 5HW,53.2081,-0.1164
the bridge,LN9 5HZ,53.2092,-0.1182
Horncastle Garden Centre,LN9 5LY,53.2179,-0.1314
Walled Garden Baumber,LN9 5NL,53.2637,-0.1880
Durham Ox,LN9 5RB,53.2131,-0.1376
Bluebell Inn,LN9 6LQ,53.2603,-0.0633
rachels cafe,PE23 4LE,53.2033,0.0237
JJ Cafe ,PE23 4LS,53.2068,0.0126
The George & Dragon,PE23 4NA,53.2066,0.0141
Blacksmith Arms welton Limited,PE23 4QE,53.2051,0.1450
