name,postcode,lat,lon
Woolpack inn,LN11 0DA,53.371652309452400,0.008810341314574
The Millers Daughter,LN11 0LT,53.367950880168000,-0.004200387216838
Brackenborough Limited,LN11 0SZ,53.390797131143700,-0.017283433309941
Louth Tennis and Sports Centre Ltd,LN11 0WD,53.384157839382300,-0.010524690457440
Shellys kitchen,LN11 7RZ,53.420931000000000,0.187219000000000
RILEY BAR AND RESTAURANT LTD T/A THE WAGGON AND HORSES,LN11 8JQ,53.326462961407300,0.106532282811825
Louth Garden Centre,LN11 8LQ,53.350783000000000,0.022373000000000
ROYAL OAK INN,LN11 8LZ,53.334446570712900,0.038211541496295
Kenwick Park Hotel Limited,LN11 8NR,53.335558000000000,0.021563000000000
Aquavita (Catering) Limited,LN11 8NY,53.344777048474500,0.019670144007225
Tai Pan Cantonese Restaurant Louth,LN11 9AA,53.367323997756900,-0.001659414867668
The Panacea ,LN11 9AU,53.366399939470000,-0.003386086703525
The Wick,LN11 9AU,53.366399939470000,-0.003386086703525
Wonderland Gifts & Tea Shoppe,LN11 9AU,53.366399939470000,-0.003386086703525
Mr. Chips of Louth,LN11 9BA,53.365611181186100,-0.003781000000000
The Ranch Steakhouse & Grill,LN11 9BA,53.365611181186100,-0.003781000000000
The Turks Head,LN11 9BA,53.365611181186100,-0.003781000000000
The Brown Cow,LN11 9EG,53.363079709800200,0.000005589512593
ISTANBUL BBQ RESTAURANT,LN11 9ER,53.366310000000000,-0.007073000000000
via italia restaurant ,LN11 9ER,53.366310000000000,-0.007073000000000
Il padrino,LN11 9ET,53.365984834963900,-0.007057882758090
Mansion House,LN11 9ET,53.365984834963900,-0.007057882758090
Millie May's,LN11 9ET,53.365984834963900,-0.007057882758090
The Greyhound Inn ,LN11 9EX,53.365220215130600,-0.006330000000000
Montebello ristorante,LN11 9HD,53.364550392126000,-0.005681969048029
The Boars Head Louth,LN11 9HH,53.363978508667700,-0.003739792021717
The Old Warehouse Larders,LN11 9JG,53.366127715897900,-0.005923930781675
The Kings Head,LN11 9JQ,53.365795035627200,-0.005383346747805
Ye Olde Whyte Swanne,LN11 9NP,53.367217467579800,-0.003888963621650
Cooplands Secret Garden Louth,LN11 9PG,53.367075000000000,-0.003451414346982
Bar Castillejar,LN11 9PU,53.366897704839200,-0.005196554940568
Cobbles Bar,LN11 9PU,53.366897704839200,-0.005196554940568
Masons Arms Louth Ltd,LN11 9PY,53.366498483219500,-0.005515819112584
The Auction House,LN11 9PY,53.366498483219500,-0.005515819112584
Tinas cafe,LN11 9PY,53.366498483219500,-0.005515819112584
Davenport’s Fish & Chips,LN11 9QE,53.367681741875500,-0.001011367917527
The Three Horseshoes,LN11 9WA,53.293290778593600,-0.120623115054837
Greenman Scamblesby Ltd,LN11 9XG,53.292048394424100,-0.086033067830903
Woodthorpe Garden Centre,LN13 0DD,53.301910090577300,0.157822226193483
Woodys Bar,LN13 0DD,53.301910090577300,0.157822226193483
Claythorpe Watermill,LN13 0DU,53.290268136726000,0.116649125660730
The Stables Bar & Restaurant,LN13 0JP,53.313023000000000,0.201648000000000
The Half Moon Hotel & Restaurant,LN13 9DG,53.261109795845800,0.178153424333547
george inn,LN13 9DS,53.261725299751500,0.179455000000000
The Windmill Family & Commercial Hotel,LN13 9EB,53.261252801332700,0.179675097723630
Tanya’s,LN9 5BJ,53.209036829578700,-0.116181028642832
Montebello ristorante,LN9 5DX,53.210195729668800,-0.114422982379482
The Admiral Rodney Hotel,LN9 5DX,53.210195729668800,-0.114422982379482
The Bull Hotel,LN9 5HU,53.208517146827800,-0.114586536092584
School House Coffee Bar,LN9 5HW,53.208060177397100,-0.116388593340142
the bridge,LN9 5HZ,53.209218881676600,-0.118029960290878
Horncastle Garden Centre,LN9 5LY,53.217852436533300,-0.131356493430826
Walled Garden Baumber,LN9 5NL,53.263694652383300,-0.187940202255343
Durham Ox,LN9 5RB,53.213130939411200,-0.137567546832103
Bluebell Inn,LN9 6LQ,53.260268828616300,-0.063253610488786
rachels cafe,PE23 4LE,53.203245990258100,0.023684532101560
JJ Cafe ,PE23 4LS,53.206787096405100,0.012306000000000
The George & Dragon,PE23 4NA,53.206544822127100,0.014705504063492
Blacksmith Arms welton Limited,PE23 4QE,53.205607853968700,0.145103444696920
