name,postcode,lat,lon
chuckwalla and chuckwalla,LN11 0AF,53.376964797541900,-0.000185748042067
Capuchin and thorny devil,LN11 0GJ,53.423419000000000,-0.032818000000000
dukite and coral snake,LN11 0GU,53.374849000000000,0.003759000000000
Recurvebill and puff adder,LN11 0JU,53.372627010366500,0.000558132755079
mud turtle and Rat,LN11 0SH,53.399069316076400,-0.071696663521288
Egret and Fox,LN11 0YY,53.373813984385000,-0.011292484220429
bearded dragon and snake,LN11 7AF,53.372024801069500,0.011248112298106
White ibis and Meadowlark,LN11 7AQ,53.371486063023100,0.009073100285732
Shearwater and diamond python,LN11 7AS,53.373434986025000,0.016759000000000
milk snake and Mole,LN11 7BX,53.373748000000000,0.020392000000000
Perching duck and blindworm,LN11 7DD,53.419864587319200,0.149358487957125
fer-de-lance and B,LN11 7HF,53.381820142563000,0.017874552502666
Capuchin and Songlark,LN11 7RP,53.424352851390200,0.187364100344655
tokay and boomslang,LN11 7TX,53.371610000000000,0.163539000000000
Wallaby and worm lizard,LN11 7UA,53.377637000000000,0.154884000000000
Fulmarine petrel and tiger snake,LN11 8AT,53.366346946966300,0.014212199649999
dugite and tortoise,LN11 8ET,53.357762979556100,0.005572245947256
sea snake and saltwater crocodile,LN11 8HW,53.351999634046400,0.091999388716990
Polecat and Kestrel,LN11 8JL,53.323166000000000,0.117091000000000
coral snake and Black cockatoo,LN11 8JN,53.333338181965500,0.124413549983075
Boto and perentie,LN11 8NY,53.344777048474500,0.019670144007225
Petrel and Old World vulture,LN11 8PY,53.313258506500600,0.022775366976372
box turtle and Viscacha,LN11 8QL,53.323976000000000,0.010497960523561
cobra and Fulmarine petrel,LN11 8SA,53.361749813711400,0.010132909938329
Vulture and habu,LN11 8UQ,53.356199770537700,0.100094406439154
bull snake and Fox,LN11 9AW,53.366181209396100,0.004299285265940
Jerboa and thorny devil,LN11 9AZ,53.363208499600000,-0.014642099700000
Scimitar babbler and mamba,LN11 9BD,53.366070000000000,-0.002460077601639
Black jay and Tree warbler,LN11 9BX,53.365279722823400,-0.000913407536706
Marsh harrier and Warbler,LN11 9ES,53.366427518251600,-0.007187524121812
Gila monster and Macaw,LN11 9HZ,53.361119716307300,0.001086028446837
cobra de capello and hognose snake,LN11 9JE,53.362722794001400,-0.005526860365278
snapping turtle and Siskin,LN11 9JQ,53.365795035627200,-0.005383346747805
Magpie and Towhee,LN11 9JZ,53.365048455788800,-0.008589565094141
garter snake and Asiatic leopard,LN11 9LN,53.364434848470200,-0.013156000000000
Ice seal and Old World quail,LN11 9NR,53.366673823573400,-0.004833000000000
taipan and tokay,LN11 9PG,53.367075000000000,-0.003451414346982
bull snake and Tit-tyrant,LN11 9QQ,53.367758158579700,0.000329971273945
mamba and snake,LN11 9TL,53.329761021131600,-0.146321828488453
Kestrel and Chipmunk,LN11 9TP,53.327532072199700,-0.144045853368460
Rat and amethystine python,LN11 9UR,53.295701760474700,-0.121297547117802
Stilt and Stilt,LN11 9YW,53.365524000000000,-0.016578000000000
rock python and Guillemot,LN13 0AA,53.260155926127200,0.172782175717944
diamond python and dukite,LN13 0BA,53.272077825460700,0.068132688179128
Tree warbler and Shearwater,LN13 0BG,53.261868488498600,0.166121570569216
Vole and Chicken,LN13 0DJ,53.283856000000000,0.116399928566058
tortoise and Armadillo,LN13 0HY,53.283274708837500,0.183391223114449
Black jay and Hawk,LN13 9AS,53.255435069669700,0.181193291389039
Parrotlet and Pitohui,LN13 9BF,53.258801012476800,0.181004750666584
blue tongue and Fulmarine petrel,LN13 9BJ,53.257244143251500,0.182559734023640
gavial and goanna,LN13 9BN,53.259103000000000,0.182318468974180
python and rat snake,LN13 9DG,53.261109795845800,0.178153424333547
Skunk and Puffleg,LN13 9ED,53.261181821327600,0.179236000000000
python and Elephant,LN13 9EZ,53.259855279115100,0.174970993470244
Kangaroo and tuatara,LN13 9FX,53.259521000000000,0.176514000000000
kabaragoya and hoop snake,LN13 9JA,53.256369000000000,0.166503000000000
Mockingbird and Thrasher,LN13 9PL,53.250404561668000,0.195163176850437
puff adder and horned viper,LN8 6AB,53.386884000000000,-0.195620216735308
Puffleg and Treepie,LN8 6AD,53.385762000000000,-0.197511000000000
Kite and asp,LN8 6JT,53.332677218766000,-0.175056000000000
Moluccan boobook and Ibex,LN9 5BU,53.209437086384800,-0.115908891165837
habu and Minke whale,LN9 5DS,53.210789159775500,-0.114995951846751
Shearwater and Buzzard,LN9 5GB,53.208838068997300,-0.127525823128957
cobra de capello and dukite,LN9 5GE,53.210352326888300,-0.127774279342666
Chickadee and Jay,LN9 5HZ,53.209218881676600,-0.118029960290878
grass snake and Logrunners,LN9 5JA,53.209171125127000,-0.117852351715312
diamondback turtle and slowworm,LN9 5PG,53.215326000000000,-0.111307000000000
Marmoset and Peafowl,LN9 5QJ,53.284342379541600,-0.109044704805977
turtle and skink,LN9 5QN,53.262285819330500,-0.095818924711477
python and Gila monster,LN9 5RH,53.214071673863600,-0.165757924041888
slowworm and puff adder,LN9 6BY,53.200344708891600,-0.108327602237066
bearded lizard and king cobra,LN9 6DA,53.202683707032800,-0.109557179169423
cobra de capello and Parakeet,LN9 6DQ,53.200514732967800,-0.106014406407985
tuatara and Crow,LN9 6DU,53.207506219067800,-0.115203000000000
Francolin and krait,LN9 6LD,53.258272000000000,-0.058126000000000
hawksbill and wall lizard,LN9 6NJ,53.209125326073900,-0.099318000000000
jew lizard and Ice seal,LN9 6QD,53.249869087309000,-0.006658170952944
tiger snake and tuatara,LN9 6QH,53.253873031818700,-0.004703063902901
bicycle lizard and green turtle,LN9 6QW,53.254006000000000,-0.007215000000000
lizard and leguaan,PE23 4JP,53.212066322257800,0.077446760243258
dukite and water snake,PE23 4LD,53.203286000000000,0.049291000000000
snake and Old World warbler,PE23 4NF,53.218973466137800,0.039314981970568
Jay and constrictor,PE23 4PU,53.214757000000000,0.084047000000000
sand viper and tuatara,PE23 4QG,53.207871000000000,0.137789000000000
