name,postcode,lat,lon
Viscacha and Mouse,HR1 3DN,52.123765275034600,-2.700087956831710
Peafowl and Shearwater,LD8 2LA,52.267314453822200,-3.002240821553620
Cloud rat and Pitohui,HR6 9PA,52.265946745679800,-2.881845416018580
Duck and Moluccan boobook,HR6 8AQ,52.226110032931700,-2.736218864493060
Thrasher and Grouse,HR5 3JT,52.187842471984800,-2.962697644577760
Tattler and Eagle,HR1 1XW,52.050606261708700,-2.677273518929760
Kite and Badger,HR1 4NN,52.008986859566400,-2.618630059834740
Moluccan boobook and Polecat,HR5 3EB,52.200813161941200,-3.027008517871130
Partridge and Snipe,HR6 9DA,52.220618552563100,-2.780702207341290
Pheasant and Nukupuʻu,HR1 3SJ,52.079808710129900,-2.604447728643770
Snipe and Jay,HR1 1PH,52.061192669746800,-2.693536909885460
Herring gull and Chipmunk,HR1 3JJ,52.151643181978500,-2.667902880787040
Herring gull and Egret,HR2 7SB,52.040979076782400,-2.719409010583830
Piping shrike and Magpie,HR4 0NA,52.062826063490100,-2.738402055674210
Night heron and Fox,HR4 0SY,52.063559000000000,-2.753456875705490
Recurvebill and Mole,HR4 7JE,52.083207329645800,-2.848043899728060
Hawk and Pitohui,HR2 7XJ,52.044911405249900,-2.736327785500150
Moluccan boobook and Buzzard,HR2 9DQ,51.977554116555700,-2.836918230408620
Wader and Kākāriki,HR4 9LL,52.063886008118600,-2.715240548456520
Booted eagles and Old World warbler,HR4 9UD,52.069693023535200,-2.722919000000000
White ibis and Myna,HR4 8PF,52.143881012999300,-2.793212544004350
Fox and Logrunners,HR5 3JS,52.185880617824000,-2.968418406199820
Jackal and Fox,HR3 6LS,52.149062000000000,-3.011611000000000
Coati and Greenbul,HR2 7EP,52.040543960685100,-2.735993560038190
Macaw and Fox,HR3 6QQ,52.150082658031700,-2.946989528461140
Shearwater and Rat,HR6 9DF,52.212799666663400,-2.823902138293140
Skunk and Hawk,HR4 9UF,52.073771955153700,-2.736306591069320
Shearwater and Parakeet,HR2 7DQ,52.035830085704200,-2.732096676371850
Badger and Chicken,HR1 4DA,52.066692000000000,-2.635328000000000
Boto and Grouse,HR6 0RB,52.240820000000000,-2.632321000000000
Scimitar babbler and Tattler,HR1 1YG,52.050166265987300,-2.678739711855640
Old World warbler and Vulture,HR4 9WE,52.076675000000000,-2.732358000000000
Goose and New World blackbird,HR1 2TX,52.056837782768800,-2.701695291926220
Armadillo and Bunting,HR1 2SW,52.052701503446000,-2.704795086231550
Nukupuʻu and Cloud rat,HR1 9TG,52.053115832638400,-2.694068057435090
Asiatic leopard and Parrotbill,HR2 6LY,52.001010398010900,-2.639131840744680
Magpie and Ice seal,HR1 3AX,52.108149583984700,-2.687680166255760
Fox and Pratincole,HR4 0LG,52.052722816859500,-2.732256181368160
Herring gull and Ground sloth,HR2 9QY,52.043368262078600,-2.815022625978520
Ice seal and Wader,HR1 3RL,52.085379000000000,-2.626151000000000
Condor and Eagle,HR6 8SS,52.227143596171400,-2.753365492366040
Skunk and Cloud rat,HR2 7QN,52.036420000000000,-2.722701602839480
Night heron and Chickadee,HR2 9JG,52.059894723726100,-2.845458049085380
Recurvebill and Greenbul,HR3 6LP,52.160810804990500,-3.022110786930060
Tattler and Kestrel,HR1 3AL,52.083969000000000,-2.697787000000000
Coati and Bronzewing pigeon,HR1 2EP,52.058181678412100,-2.709667000000000
Night heron and Tattler,HR6 8LS,52.228332519553600,-2.740237993696300
Guillemot and Logrunners,HR4 8PE,52.138663000000000,-2.788561000000000
Bunting and Greenbul,HR1 3AP,52.081769086474100,-2.692586331551810
Rabbit and Petrel,HR2 9ST,52.032713000000000,-2.804753776753650
Maya and Parakeet,HR3 6QS,52.168742410999600,-2.934094713895880
Recurvebill and Kestrel,HR2 8AR,51.980592000000000,-2.723318000000000
Snipe and Greenbul,HR1 3DE,52.134962018395500,-2.668354000000000
Booted eagles and Argus,HR5 3RX,52.219977114458000,-2.983183792935770
Goose and Black jay,HR1 2SD,52.053483265891000,-2.703363600742930
Triller and Stint,HR4 8NT,52.131541691648800,-2.784417651896350
Fish eagle and Grosbeak,HR4 9HT,52.058763715696500,-2.718586000000000
Prion and Jackal,HR4 8BL,52.151933134676500,-2.785682307700720
Diving bird and Mamo,HR2 7JL,52.048618011020000,-2.719940023657890
Jay and Viscacha,HR2 6JX,52.036978686215500,-2.690785721512570
Cloud rat and Rabbit,HR1 2LX,52.058460267862200,-2.714468342608080
Fish eagle and Asiatic leopard,HR1 4AY,52.069102797304000,-2.638163658606730
Triller and Kite,HR1 1GW,52.062974840276900,-2.699282565219790
Jerboa and White ibis,HR6 8FJ,52.221699000000000,-2.738678000000000
Thicketbird and Warbler,HR4 9AB,52.056129562269300,-2.717771025169270
Parakeet and Puffleg,HR4 7LG,52.102811728152100,-2.890113359714150
Night heron and Fox,HR6 9BZ,52.250455000000000,-2.884482000000000
Moluccan boobook and Parrotlet,HR4 7BG,52.119790451642600,-2.908431096575530
White ibis and Tahr,HR6 0PA,52.193835496139900,-2.719943842457640
Fulmarine petrel and Parrotbill,HR6 8RA,52.227706653281900,-2.749656260013200
Pratincole and Kākāriki,HR4 7FE,52.086022700217200,-2.800300436920960
Wallaby and Viscacha,HR4 9RE,52.074995560109600,-2.726025636396460
Zebra and Crow,HR1 2HL,52.055502068179400,-2.710045808421770
New World blackbird and Coati,HR4 0AY,52.053625506711600,-2.722937301906170
Tree warbler and B,HR1 3BU,52.121339730769800,-2.672825000000000
Cloud rat and Kite,HR4 8EP,52.168219636991100,-2.807652660127260
Kite and Cuscus,HR1 4AH,52.069230665356300,-2.657422752194430
Darwin's finches and Civet,HR4 7PY,52.071070000000000,-2.781942000000000
Viscacha and New World blackbird,HR1 4EP,52.049868804905800,-2.620171740782400
Treepie and Gull,HR5 3FT,52.231206000000000,-2.981427000000000
Polecat and Greenbul,HR4 0TF,52.065664802811000,-2.752978292831520
Philippine hawk-owl and Towhee,HR4 8EX,52.185805457065500,-2.815475056848710
Gull and Mouse,HR1 1JR,52.071495000000000,-2.709030000000000
Bronzewing pigeon and Prion,HR1 3LU,52.155603000000000,-2.670488751201490
Argus and Chickadee,HR4 9DT,52.070967000000000,-2.734962000000000
Mink and Skunk,HR2 7SY,52.041437068678200,-2.748357376341970
Diving bird and Parrotlet,HR6 8HY,52.223172123639900,-2.740210707505430
Mole and Asiatic leopard,HR5 3RD,52.206319000000000,-3.043233000000000
Kangaroo and Perching duck,HR2 6HG,52.041962983113200,-2.718768712401130
Tattler and Ice seal,HR7 4TL,52.200189000000000,-2.600228000000000
Francolin and Fox,HR1 1PF,52.061575395575800,-2.692667657270460
Viscacha and Stilt,HR4 0PG,52.064825036848000,-2.739354046193110
Shearwater and Peafowl,HR1 3NF,52.078022137909200,-2.662498541184700
Booted eagles and New World blackbird,HR2 8EE,52.009876270638100,-2.735985497056270
Perching duck and Solitaire,HR4 0QP,52.061755513198300,-2.748478237089970
Parrotbill and Magpie,HR1 9ZZ,52.060637000000000,-2.709996000000000
Jackal and Hawaiian honeycreeper,HR1 1AN,52.071280237960700,-2.702651236958590
Scimitar babbler and Towhee,HR4 0AQ,52.055538339258800,-2.721991000000000
Greenbul and American sparrow,HR2 9LP,52.044862000000000,-2.846866000000000
Black jay and Peafowl,HR2 7YN,52.044578893927100,-2.734864231169920
Warbler and Prion,HR1 2QU,52.051287630264500,-2.706683209478070
Thrasher and Meadowlark,HR1 2JY,52.055419777305600,-2.705785862743710
Boto and Dorcopsis,HR1 1SP,52.052517347596100,-2.688808746030010
Capuchin and Scimitar babbler,HR2 0AS,51.991040928877200,-2.937119801568210
Mink and Masked owl,HR3 6ND,52.151967591895100,-3.027886222765380
Duck and Partridge,HR6 8JB,52.226136676331000,-2.739147362034690
Jerboa and Greenbul,HR2 7PR,52.038283846610800,-2.722019072215600
Armadillo and Lemming,HR1 1PT,52.061164620032700,-2.687585287899780
Crow and Vole,HR6 9QY,52.237721906981700,-2.802983240435490
Solitaire and Masked owl,HR6 9EG,52.192318000000000,-2.912191000000000
Parrotlet and Kestrel,HR4 7BW,52.133745000000000,-2.916590000000000
Mouse and Minke whale,HR4 9QG,52.064367974277200,-2.723183746804910
Perching duck and Mouse,HR6 0NS,52.204103209475900,-2.730104192588740
Condor and Grosbeak,HR2 9NZ,52.040630076358000,-2.880668882580950
Mouse and Scimitar babbler,HR6 8SL,52.224546641889400,-2.761666000000000
Old World quail and Night heron,HR4 0SQ,52.070454310096000,-2.743473705585230
Jackal and Armadillo,HR2 6HQ,52.041671801726700,-2.716387513373500
River dolphin and Parrotbill,HR2 7BE,52.049111881848500,-2.728814028975900
Tattler and Capuchin,HR4 7QZ,52.086408127710400,-2.754130202577750
Dolphin and Mole,HR2 7XP,52.044573582126500,-2.737153341596770
White ibis and Recurvebill,HR2 7EW,52.040655481398700,-2.735412208324630
Ice seal and Cuscus,HR6 8QL,52.228209350257200,-2.745521334489170
Maya and Capuchin,HR1 9SE,52.053115832638400,-2.694068057435090
Grosbeak and Argus,HR4 8AT,52.128774000000000,-2.745511000000000
Chipmunk and Chipmunk,LD8 2NJ,52.271705122033700,-3.010297840892170
Grackle and Tree warbler,HR4 8HQ,52.184756669888900,-2.858254000000000
Recurvebill and Night heron,LD8 2LG,52.254407555945500,-3.015486255472030
Dorcopsis and Duck,HR4 0QF,52.060193408731400,-2.743857536475850
Asiatic leopard and River dolphin,HR2 9NE,52.019893630994500,-2.854277869968270
Bronzewing pigeon and Kite,HR6 0HW,52.267821636982300,-2.656166440815560
Mink and Recurvebill,HR5 3ED,52.204292331412700,-3.028069188866090
Macaw and River dolphin,HR4 0JA,52.057504939757700,-2.736739095410690
Capuchin and Maya,HR3 6LR,52.158071000000000,-3.008365000000000
Diving bird and B,HR2 6BE,52.045028000000000,-2.714608422719810
Marsh harrier and Nukupuʻu,HR1 4DL,52.069474652255800,-2.642531047579240
Viscacha and Grosbeak,HR2 7XH,52.043445830954300,-2.737776323453110
Chicken and Warbler,HR4 7QL,52.087235248216100,-2.752728455813890
Dolphin and Skunk,HR1 3NP,52.101723454375100,-2.660572288796280
Hawaiian honeycreeper and Warbler,HR4 7JT,52.084586000000000,-2.862649000000000
Bunting and Coati,HR4 9NB,52.066804499475400,-2.723179355462840
Vulture and Cloud rat,HR3 6AU,52.074357776709900,-2.994425598289660
Chipmunk and Zebra,HR4 0TL,52.068044955584600,-2.770043168398260
Puffleg and Old World vulture,HR1 2UA,52.058982000000000,-2.704208000000000
Chickadee and Fulmarine petrel,HR1 2TB,52.055107955993700,-2.699276358232810
Pitohui and Kangaroo,HR2 0AU,51.981452000000000,-2.931095000000000
Eagle and Mole,HR1 1JF,52.067582772994400,-2.700011043022200
Masked owl and Stilt,HR3 6PW,52.141739000000000,-3.008967657208590
Hawk and Polecat,HR4 9TB,52.073737869196500,-2.737444079506770
Stilt and Perching duck,HR4 0LU,52.059618104153400,-2.736686359343060
Mole and Old World quail,HR1 1AE,52.076103994369700,-2.711904000000000
Fulmarine petrel and Jerboa,HR1 1LJ,52.076995778196400,-2.716515304829180
Diving bird and Grouse,HR6 8NG,52.227497955709100,-2.738555065399000
Snipe and Peafowl,HR2 7PA,52.042190311452300,-2.727141332221290
Goose and Vulture,HR1 1AQ,52.065979431855700,-2.696908276187680
Songlark and Rabbit,HR4 8RU,52.158351170306300,-2.871589034599660
American sparrow and Tree warbler,HR6 0DL,52.265217478014700,-2.714476672649280
Peafowl and Hawk,HR5 3JB,52.216781000000000,-2.955406840233250
Armadillo and Egret,HR1 2LP,52.054648920782500,-2.712861600639460
Dorcopsis and Vulture,HR2 6NJ,51.985136340463400,-2.619932149602110
Viscacha and Songlark,HR6 8DU,52.230507908751800,-2.740288830906340
Cloud rat and Herring gull,HR1 1JN,52.074162701738900,-2.704753764853640
Elephant and Songlark,HR1 1UW,52.053685651229000,-2.682716105771010
Diving bird and Perching duck,HR1 3JH,52.155364837844500,-2.666394583579930
Rat and Polecat,HR2 9RB,52.034155858435800,-2.802770255235000
Armadillo and Mole,HR1 3HW,52.148782000000000,-2.658960000000000
Zebra and Maya,HR2 8AW,51.983400000000000,-2.727113630380840
Piping shrike and Old World warbler,HR1 1GX,52.076974438733100,-2.718543169981460
Hawaiian honeycreeper and Puffleg,HR4 8NP,52.120028630980400,-2.766031577481230
Buzzard and Mockingbird,HR1 1SJ,52.047943049867300,-2.679172636739470
Nukupuʻu and Myna,HR5 3BP,52.204475042024900,-3.027488000000000
Black jay and Jay,HR4 8LG,52.105711934447700,-2.776181947441130
Myna and Cuscus,HR4 7PF,52.048685888055000,-2.756454985383790
Logrunners and Myna,HR5 3AL,52.202554732195000,-3.033720000000000
Darwin's finches and Tit-tyrant,HR2 0UW,52.060745000000000,-2.709995970488630
Pratincole and Herring gull,HR4 0NX,52.067239369502100,-2.741450878180470
Flameback and Mockingbird,HR4 7ER,52.086073766283200,-2.803366186114970
Kite and Boto,HR2 8AE,52.018949000000000,-2.712658000000000
Old World quail and Mamo,HR1 1GS,52.076272000000000,-2.709912346996670
Rat and Scimitar babbler,HR1 1XD,52.051937296578600,-2.684979014985480
Meadowlark and Black jay,HR1 1NS,52.057777006722900,-2.696575000000000
Civet and Marmoset,HR4 7LF,52.098692323633600,-2.887943724727900
Viscacha and Prion,HR1 1AR,52.070508174522200,-2.705469436943530
Coati and Chickadee,HR1 4JY,52.039167215118800,-2.644108144050360
Triller and Argus,HR4 7AY,52.073231000000000,-2.771883000000000
Darwin's finches and Peafowl,HR1 1TS,52.050075767242900,-2.694268840356550
Bunting and American sparrow,HR2 6EU,52.038080182108200,-2.706548000000000
American sparrow and Mink,HR2 0PJ,51.982777000000000,-3.018649000000000
Jay and Viscacha,HR2 0AN,51.991600712687900,-2.908134909698640
Parakeet and Booted eagles,HR1 2QB,52.053278189165000,-2.709312000000000
Booted eagles and Kestrel,HR6 8RL,52.224980207797800,-2.754251179326350
Masked owl and Snipe,HR4 8QX,52.174188896813200,-2.878172056817490
Wallaby and American sparrow,HR4 8DB,52.107347000000000,-2.727395193989250
Capuchin and Mouse,HR5 3JL,52.208395000000000,-2.966157000000000
Grosbeak and Meadowlark,HR2 6EQ,52.036497373321500,-2.678649568917050
Fulmarine petrel and Philippine hawk-owl,HR6 0PJ,52.174311736227000,-2.716367507991340
Wader and Marsh harrier,HR1 1NF,52.060121339263100,-2.692251337095890
Thrasher and Civet,HR2 9LY,52.033512122827300,-2.864508419027540
Old World warbler and Dorcopsis,HR1 3BN,52.116329000000000,-2.680431000000000
Diving bird and Viscacha,HR4 8JW,52.189831978034300,-2.847541139837250
Old World quail and Viscacha,HR1 1AP,52.070467495609900,-2.706256617067280
Parrotlet and Stint,HR1 3AJ,52.082605163087000,-2.706229363622850
Polecat and Thrasher,HR2 6NZ,52.019498223937600,-2.648503309862780
Ice seal and Rabbit,HR5 3AB,52.205784005365900,-3.031249910467590
Kangaroo and Diving bird,HR4 8DQ,52.107546939893600,-2.719355894748030
Dorcopsis and Tree warbler,HR2 8DW,51.979631347177400,-2.762760044459810
Argus and Boto,HR4 0TN,52.066941680104600,-2.751540959254610
Wader and Diving bird,HR2 6DF,52.042295266108000,-2.712912836629180
Polecat and Guillemot,HR1 3LS,52.154478339665800,-2.668939264589410
Peafowl and Boto,HR4 8NJ,52.111622787079500,-2.759009552527080
Dorcopsis and Wallaby,HR2 7PT,52.037064250248500,-2.724434013140860
Parrotlet and Civet,HR6 0RG,52.246858000000000,-2.636245000000000
Prion and Bronzewing pigeon,HR4 7JQ,52.090034683285600,-2.855047992408170
Wader and Eagle,HR2 7PD,52.042347000000000,-2.731039000000000
Old World vulture and Fulmarine petrel,HR6 0QU,52.231318340418500,-2.662774000000000
Solitaire and Pheasant,HR4 0RQ,52.064525301648100,-2.749793659019010
Zebra and Tit-tyrant,HR4 0AW,52.056712081937900,-2.722491260162800
Parrotbill and Francolin,HR1 1HD,52.068144067963200,-2.714345759968950
Egret and Kākāriki,HR1 3QB,52.089088718243600,-2.648125550479010
Mole and Minke whale,HR1 1LQ,52.073585689871500,-2.705021891531560
Zebra and Treepie,HR4 0RW,52.065307382906500,-2.745561758812890
Scimitar babbler and Bronzewing pigeon,HR4 9PH,52.073188162611400,-2.736209442548590
Kākāriki and Asiatic leopard,HR4 7AD,52.078163428689000,-2.783101937662070
Gull and Capuchin,HR2 6NB,51.991629929475500,-2.664047630559590
Linsang and Rabbit,HR4 9WB,52.060745000000000,-2.709995970488630
Argus and Flameback,HR3 6DX,52.095854877256200,-2.959737546708230
Guillemot and Warbler,HR1 4AA,52.065005000000000,-2.662422000000000
Linsang and Black cockatoo,HR4 7PP,52.053909000000000,-2.788190000000000
Rat and Towhee,HR4 7RJ,52.092880000000000,-2.764238000000000
Vole and Dolphin,HR6 9HT,52.248678652051900,-2.923791230386910
Pitohui and Thrasher,HR5 3AX,52.203563955554800,-3.030144914368990
Grackle and Greenbul,HR6 0FA,52.217907000000000,-2.737371000000000
Gull and Gull,HR6 9SW,52.255681214451900,-2.809256000000000
Old World warbler and Ice seal,HR1 1FA,52.077660000000000,-2.713958000000000
New World blackbird and Francolin,HR1 4PW,52.006270277625300,-2.612007698501990
Capuchin and Tit-tyrant,HR4 0HW,52.058588938984300,-2.734481606872870
Mamo and Logrunners,HR2 6HR,52.039390000000000,-2.710330000000000
Capuchin and Cloud rat,HR1 2BE,52.058236000000000,-2.711622323545190
Stint and Badger,HR6 6BZ,52.217430000000000,-2.731683000000000
Puffleg and Fulmarine petrel,HR6 9DH,52.213088453612800,-2.836642000000000
Condor and Ground sloth,HR2 9PL,52.045732901693900,-2.851868948372710
Black cockatoo and Siskin,HR1 3PR,52.082601477579200,-2.637495249772950
Viscacha and Bronzewing pigeon,HR3 6DT,52.106750664574000,-2.957664507741470
Warbler and Asiatic leopard,HR4 7LZ,52.105163185003400,-2.944927770457040
Hawaiian honeycreeper and Eagle,HR4 9SS,52.073174553677400,-2.720772000000000
Piping shrike and Stilt,LD8 2NN,52.269290350253800,-3.061109709382530
Towhee and Mink,HR5 3BE,52.203758073413700,-3.032490000000000
Macaw and Marmoset,HR2 7FL,52.042306000000000,-2.730396000000000
Masked owl and Dolphin,HR5 3GB,52.199349990429600,-3.024341461492700
Herring gull and Coati,HR1 2TZ,52.058203696231700,-2.698785059644650
Chicken and Buzzard,HR2 0JW,51.997083293847400,-2.993017875442070
Civet and Mockingbird,HR1 1LR,52.061201919424200,-2.699575764929900
Logrunners and Francolin,HR1 1AL,52.071276943218700,-2.704708311585510
Flameback and Asiatic leopard,HR1 2JH,52.054415254682400,-2.709868147685310
Cuscus and Dolphin,HR6 9EU,52.219996788166400,-2.893670098951860
Jay and Linsang,HR2 7BF,52.035190221519300,-2.739535488427450
Linsang and Kite,HR1 3BY,52.107942252666300,-2.683135909292290
Crow and Myna,HR1 1UN,52.051261652254000,-2.682110408543120
Mole and Bronzewing pigeon,HR5 3JA,52.211605988051700,-2.969008000000000
Nukupuʻu and Peafowl,HR2 0RH,52.027091867005000,-2.934083815170510
River dolphin and Night heron,HR1 2BP,52.057922395651600,-2.711236428011710
Tahr and Greenbul,HR1 1UD,52.050710673439400,-2.685645643946580
Lemming and Jackal,HR4 7QJ,52.083181668983600,-2.822490124026670
Argus and Fox,HR6 0QY,52.232996000000000,-2.637803000000000
Partridge and Meadowlark,HR1 4PJ,52.001400173538100,-2.609712535706630
Rat and Songlark,HR2 9RZ,52.038879279592100,-2.755634000000000
Pheasant and Night heron,HR6 9PT,52.264487839004400,-2.800169924375650
Vole and Parrotlet,HR4 9XE,52.063879934109000,-2.736654395382800
Parrotbill and Macaw,HR1 1ED,52.067982136290300,-2.708405663402240
Hawk and White ibis,HR2 9EH,52.009894000000000,-2.876670000000000
Herring gull and Partridge,HR4 0EE,52.061296508954900,-2.728472712256970
Armadillo and Tree warbler,HR1 1XN,52.050754207225500,-2.676561197344530
Parrotbill and Quetzal,HR2 7RD,52.051200072426400,-2.718187826413200
Chicken and Macaw,HR4 7SW,52.076504000000000,-2.755117753395320
Kākāriki and Tit-tyrant,HR1 2LL,52.055575568771900,-2.714247292697540
Grosbeak and Bunting,HR6 8HU,52.226513865601900,-2.740646949631970
Philippine hawk-owl and Kākāriki,HR4 9RR,52.074507136790500,-2.725040138911110
Stint and Puffleg,HR4 0ES,52.056995000000000,-2.733566000000000
New World blackbird and Gull,HR1 2SQ,52.053278984270200,-2.701435345305090
Condor and Diving bird,HR4 0QS,52.062929265045500,-2.746280661853370
Pitohui and American sparrow,HR1 4LS,52.032183406484400,-2.618571284206800
Kite and Old World quail,HR2 9RU,52.025455402957000,-2.753831000000000
Argus and Kite,HR6 9NP,52.248447000000000,-2.908611000000000
Ice seal and Philippine hawk-owl,HR4 8BH,52.132808910232600,-2.774972828288130
Capuchin and Kite,HR4 8AS,52.131568540505700,-2.749896378017780
Skunk and Philippine hawk-owl,HR5 3HY,52.211502000000000,-2.979689000000000
Flameback and Jay,HR6 8EE,52.231468792369800,-2.734711562130190
Chicken and Cloud rat,HR1 1BB,52.061587008513600,-2.710346540951330
Armadillo and Snipe,HR4 0PD,52.063784136383500,-2.739030521416410
Chickadee and Vulture,HR1 3PY,52.083945312594300,-2.646620833142820
Darwin's finches and Scimitar babbler,HR6 0ST,52.216684717620700,-2.736736267045390
Warbler and Philippine hawk-owl,HR2 6RD,52.041466140310400,-2.698232319923210
Mamo and Fish eagle,HR4 7DG,52.088973873819000,-2.794661047873850
Philippine hawk-owl and Black cockatoo,HR4 0HS,52.059186165347300,-2.735308201358940
Parrotlet and Skunk,HR1 1HL,52.068988702436600,-2.711456070096140
Buzzard and Goose,HR4 0JP,52.057234545649000,-2.735407410696760
Tit-tyrant and Old World warbler,HR5 3NQ,52.206793525854300,-3.034039156290820
Cloud rat and Peafowl,HR4 8BS,52.153819492510400,-2.785934777144310
Maya and Petrel,HR4 8BD,52.137321481262200,-2.734359090073230
Vole and Recurvebill,HR5 3HQ,52.177948052732100,-3.034393609996310
Wallaby and Mamo,HR6 8ER,52.216611725989700,-2.738345145528040
Macaw and Bronzewing pigeon,HR5 3JR,52.191491033124000,-2.969125903619770
Scimitar babbler and Goose,HR5 3BB,52.204867000000000,-3.033394000000000
Prion and Diving bird,HR1 4BG,52.077485000000000,-2.617636000000000
Partridge and Meadowlark,HR2 7JH,52.047577509283400,-2.725406069479960
Grosbeak and Vulture,HR1 4FJ,52.067312000000000,-2.661524000000000
Chipmunk and Argus,HR4 7EH,52.082688000000000,-2.806910000000000
Tattler and Pratincole,HR1 1QU,52.060301000000000,-2.684757000000000
Cuscus and Grouse,HR1 4PS,52.004439730571900,-2.607845481725220
Perching duck and Vulture,HR6 8SN,52.226355836109800,-2.758447003465100
Marsh harrier and Thrasher,HR6 9LL,52.250436798566900,-2.969135505579950
Lemming and Crow,HR4 0JG,52.059472379219100,-2.744137269603670
Linsang and Cloud rat,HR2 6PQ,51.998705457170100,-2.705942000000000
Darwin's finches and Solitaire,HR4 8SJ,52.158869759061800,-2.874405885315350
Tahr and Wader,LD8 2HU,52.258437713812400,-2.928975429755960
Mockingbird and Treepie,HR4 8DS,52.114452747997800,-2.729441383506130
Civet and Hawaiian honeycreeper,HR4 0DD,52.054574000000000,-2.719512619450580
Marsh harrier and Fish eagle,HR6 9NX,52.254019656328900,-2.858213405125480
Herring gull and Peafowl,HR4 7QG,52.077729000000000,-2.830970000000000
Chicken and Asiatic leopard,HR1 1ST,52.052621749086800,-2.692470800931520
Old World warbler and Treepie,HR4 8BQ,52.130230741332300,-2.739647727854240
Darwin's finches and Moluccan boobook,HR2 8AH,51.988968775926400,-2.730807721426940
Siskin and Piping shrike,HR2 6SB,52.038747728735500,-2.715247329125170
Siskin and Crow,HR4 7AH,52.078692753204800,-2.792683578556690
Mouse and Grouse,HR6 9SS,52.246966000000000,-2.822569505942130
Boto and Partridge,HR1 3BE,52.109573646079700,-2.668310591546470
Moluccan boobook and Thicketbird,HR6 9SN,52.250438799226900,-2.812866170525600
Perching duck and Herring gull,HR1 1NX,52.061191774053500,-2.695214315362730
Vulture and Flameback,HR6 8HP,52.223338555678600,-2.752276317000950
Ice seal and Greenbul,HR1 1XE,52.052195121860200,-2.685478792069620
Kākāriki and Kākāriki,HR6 9YP,52.217380646787800,-2.731684000000000
Herring gull and Armadillo,HR2 6RH,52.039650042926700,-2.716194808628960
Black jay and Mamo,HR4 8DX,52.126577454648600,-2.731494589649970
Rat and River dolphin,HR1 2PJ,52.055483129181300,-2.713181155980880
Badger and Thicketbird,HR1 1BH,52.062155587098100,-2.705498233452970
Gull and Mole,HR4 8QG,52.142397554693300,-2.858666503352790
Parakeet and Herring gull,HR4 9EU,52.059293000000000,-2.715311264456470
Tree warbler and Zebra,HR3 6BT,52.097155000000000,-2.970247000000000
Wader and Fulmarine petrel,HR2 7HU,52.039352651794400,-2.730944171622240
Pitohui and Warbler,HR6 8BP,52.232805493005200,-2.743782690866300
Guillemot and Old World warbler,HR2 9HW,52.020546481914000,-2.846041902900090
Chicken and Chicken,HR6 8RB,52.227414799650200,-2.750310174801220
Wallaby and Hawk,HR2 7TD,52.035296290970800,-2.736956958096280
Grosbeak and Macaw,HR6 0NL,52.191327524326600,-2.616741072235910
Philippine hawk-owl and Rabbit,HR2 9NG,52.021933000000000,-2.840781000000000
Chipmunk and Ibex,HR4 0RF,52.071818461959000,-2.743861116070570
Pratincole and Civet,HR3 6BN,52.066591451300600,-3.009016381990760
Magpie and Fox,HR2 6LR,52.035572000000000,-2.688665000000000
Mink and Hawaiian honeycreeper,HR2 7PP,52.037505000000000,-2.723037815257600
Argus and Civet,HR4 7NH,52.093292714218600,-2.905163003966350
Stilt and Eagle,HR4 8QJ,52.151517000000000,-2.863314000000000
Viscacha and Bronzewing pigeon,HR4 8LE,52.102921529022900,-2.780761666236460
Tit-tyrant and Marmoset,HR2 9HX,52.015038962549200,-2.873827595155150
Old World warbler and Jerboa,HR1 1DG,52.065800129872700,-2.701937919501390
Puffleg and Tit-tyrant,HR4 9RP,52.074813330610200,-2.724957556740890
Old World warbler and Maya,HR6 9DS,52.217995396317000,-2.893205420044830
Triller and River dolphin,HR6 9BP,52.221325159555900,-2.850175558126220
Old World warbler and Cuscus,HR2 6FJ,52.038188000000000,-2.682467000000000
Shearwater and Fox,HR4 8ED,52.148710017812500,-2.727531371772460
Asiatic leopard and Ibex,HR2 7ET,52.039392070471400,-2.736164164213060
Maya and B,HR5 3JQ,52.226124496699300,-2.961637031168160
Ice seal and Shearwater,HR2 7DB,52.041835000000000,-2.733886000000000
Duck and Badger,HR2 9FG,52.034766000000000,-2.799081000000000
Eagle and Jerboa,HR4 7EQ,52.083383498133700,-2.807608375663580
Kangaroo and Greenbul,HR2 9HF,52.016654152241900,-2.843432943067820
Guillemot and Partridge,HR1 2TD,52.053729845602900,-2.705730055279460
Grosbeak and Zebra,HR4 9DW,52.052792445612500,-2.719496719216560
Mink and Kite,HR1 2PU,52.054187000000000,-2.710725000000000
Black cockatoo and Tattler,HR2 8BS,52.016074802129600,-2.733930647584390
Quetzal and Parrotlet,HR6 0LL,52.193940391026700,-2.699522503393250
Moluccan boobook and Old World warbler,HR3 6LB,52.158410279674100,-2.978437000000000
Wallaby and Eagle,LD8 2DN,52.271453766774600,-3.004986843408770
Ice seal and Prion,HR1 3AY,52.108913683207800,-2.692306100789840
Herring gull and Songlark,HR1 4PE,52.007181238142000,-2.615603000000000
Gull and Old World warbler,HR3 6PH,52.136849391554000,-3.004087411194560
Lemming and Rat,HR5 3FG,52.204830630856900,-3.026135352309550
Magpie and Francolin,HR6 9JF,52.196925221763200,-2.921912853643700
Partridge and Dolphin,HR2 6DE,52.043008955692800,-2.715315373502780
Triller and Cloud rat,HR1 3NE,52.077707952288200,-2.654366360247390
Myna and Solitaire,HR3 6AH,52.083231392004800,-3.049422382776630
Badger and Capuchin,HR1 2QH,52.051883697534200,-2.709230099682160
Skunk and Kite,HR1 1TD,52.049724158740400,-2.691376050044100
Old World warbler and Treepie,HR4 7LB,52.085490303574100,-2.890790184043280
Masked owl and American sparrow,HR1 3PW,52.137225475899500,-2.620889000000000
Logrunners and Tree warbler,HR5 3AP,52.203010229389400,-3.035882863441900
Fish eagle and Grackle,HR1 3RE,52.115341635729500,-2.600722000000000
Hawk and Guillemot,LD8 2DL,52.271790000000000,-3.005899378046460
Maya and Marmoset,HR1 4DX,52.062414476021000,-2.631343863124600
Ground sloth and Lemming,HR6 9FD,52.184577000000000,-2.909883000000000
New World blackbird and Kite,HR4 8HX,52.185905000000000,-2.857369000000000
Stint and Boto,HR1 1EN,52.062745035313100,-2.710642068136450
Minke whale and Philippine hawk-owl,HR4 7EU,52.084147301494400,-2.808979393971910
Darwin's finches and Old World quail,HR2 7UE,52.041815512139100,-2.736816351671730
Shearwater and Skunk,HR1 1BT,52.064898209754700,-2.705424766419250
Chickadee and Parrotlet,HR4 0LB,52.055712532751100,-2.728586032695120
Fulmarine petrel and Jackal,HR2 8BW,52.016312260700600,-2.734779692481410
Peafowl and Rat,HR5 3JD,52.215704668507200,-2.944901318557180
Elephant and Tattler,HR5 3BL,52.204182102677400,-3.027305709991200
Warbler and Condor,HR1 1HY,52.064155000000000,-2.696077000000000
Ibex and Chicken,HR4 8DP,52.108143000000000,-2.713204000000000
New World blackbird and Flameback,HR3 6LU,52.141903326206600,-3.027259882158280
Civet and Night heron,HR2 9EX,52.017448374829600,-2.843010719980180
Jay and Grackle,HR1 1RD,52.077728828107600,-2.715170366530750
Fulmarine petrel and Diving bird,HR2 0LR,52.032358337740800,-3.006394055716690
Snipe and Asiatic leopard,HR2 9SW,52.031455719944200,-2.807138611545760
Night heron and B,HR2 8BE,52.030745000000000,-2.734652000000000
Ibex and Elephant,HR1 2QL,52.051112494786800,-2.708897058849310
Grouse and Solitaire,HR4 8HP,52.192495563376300,-2.863332972774550
Polecat and Magpie,HR6 8TD,52.227708030494000,-2.743537000000000
Mole and Pitohui,HR4 9RU,52.067610632499500,-2.723673798775280
Mamo and Songlark,HR4 8HB,52.183550928774800,-2.845812779251790
New World blackbird and Mole,HR1 3BJ,52.103222814588800,-2.676785789323260
Capuchin and Herring gull,HR1 2ER,52.056940734417300,-2.705709000000000
Fulmarine petrel and Mole,HR6 8DW,52.228529994753900,-2.741530000000000
Stint and New World blackbird,HR3 6PX,52.169194652857900,-2.983525841257150
Grosbeak and Jay,HR2 0JX,52.009790000000000,-2.986422000000000
Towhee and Stint,HR5 3NG,52.207167656847000,-3.039550356613170
Quetzal and Badger,HR4 8FE,52.128306707844300,-2.741982734683480
Jerboa and Prion,HR1 3HT,52.153436000000000,-2.667433000000000
Night heron and Viscacha,HR2 7JS,52.046482536655700,-2.725096703738070
Capuchin and Rabbit,HR2 7NX,52.041362521774700,-2.725786550643740
Peafowl and Coati,HR6 0RW,52.217678000000000,-2.731915806172210
Ground sloth and Black jay,HR4 9PJ,52.071885597529100,-2.737471910286620
Bronzewing pigeon and Goose,HR1 1EU,52.069808526122600,-2.709689237603820
Eagle and Black cockatoo,HR6 8AY,52.223197749415100,-2.731778888031430
Thicketbird and Flameback,HR2 6RZ,52.040963281678900,-2.716099167926150
Stint and Skunk,HR2 9EP,52.016778422186700,-2.842400673954670
Crow and Mouse,HR2 6SL,52.038575005689700,-2.714078258779910
Grouse and Fish eagle,HR1 1SD,52.057408773777900,-2.691801009981360
Masked owl and Moluccan boobook,HR1 3NZ,52.103371062177400,-2.652084849881840
Nukupuʻu and Partridge,HR6 9PY,52.256833030700600,-2.809965112413100
Tree warbler and Capuchin,HR4 0EG,52.059017506832500,-2.726262374454160
Kite and Buzzard,HR2 7SU,52.039071147327600,-2.747151524463260
Capuchin and Chipmunk,HR1 1BX,52.066260545220700,-2.707634427718160
Peafowl and Hawaiian honeycreeper,HR5 3FB,52.199733753967100,-3.021891732813180
Cloud rat and Snipe,HR3 6NZ,52.134256579985000,-2.985663447775740
Ice seal and Duck,HR6 8NR,52.226932964148900,-2.736891305481690
Scimitar babbler and Treepie,HR4 0LF,52.053276652922500,-2.732834003572060
Skunk and Macaw,HR1 1UZ,52.053035209965900,-2.681699920012190
Hawaiian honeycreeper and Buzzard,HR5 3DL,52.203067000000000,-3.028540880344280
Rat and Puffleg,HR2 9HL,52.022621825704200,-2.842365000000000
Logrunners and Kite,HR2 9AU,52.007795703927600,-2.810486100448280
Marmoset and Pitohui,HR2 9PD,52.033880000000000,-2.885288000000000
Petrel and Macaw,HR7 4RP,52.160337087831600,-2.593975231570990
Wallaby and Black jay,HR6 8UQ,52.226484118015900,-2.760864858752200
Buzzard and Jay,HR6 8AF,52.226544515540800,-2.732858758028240
Darwin's finches and Jackal,HR4 9HS,52.059563591066900,-2.716002000000000
Old World quail and Songlark,HR1 4AT,52.066275559566900,-2.656912527258120
Goose and Badger,HR5 3LE,52.167976174681600,-3.023181552306400
Lemming and Rat,HR2 9FD,52.042481000000000,-2.847900000000000
Mockingbird and Wader,HR6 0EG,52.256067435752300,-2.741798571137870
Wader and Solitaire,HR6 8NT,52.226023846470700,-2.739936061128270
Skunk and Guillemot,HR3 6AW,52.070135164180800,-3.000430148458210
Wallaby and Argus,HR3 6PG,52.140460344161200,-3.009034182524580
Kite and Parakeet,HR2 6PG,52.016381102514600,-2.704384263626730
Wallaby and Magpie,HR1 3AS,52.086778000000000,-2.689570000000000
