name,postcode,lat,lon
Nukupuʻu and Chickadee,WR2 5AD,52.188951969986300,-2.233062995331940
Grackle and Wader,HR9 5JA,51.913804287250700,-2.588069397718190
Piping shrike and Songlark,WR14 9SF,52.110912908486600,-2.324883270740140
Songlark and Zebra,HR7 4HZ,52.128728000000000,-2.529629000000000
River dolphin and Ground sloth,HR7 4AR,52.187844091366300,-2.514489959739270
Rat and Night heron,HR8 2JQ,52.028131078269900,-2.435127825839890
Warbler and Moluccan boobook,GL18 1DH,51.951036445242800,-2.404538090374450
New World blackbird and Wallaby,WR14 3EN,52.109098000000000,-2.321614000000000
Tattler and Eagle,HR1 1XW,52.050606261708700,-2.677273518929760
Pratincole and Tattler,GL18 2BS,51.961849020621700,-2.488378252356630
White ibis and Vulture,WR14 2EB,52.112530892133200,-2.304816195732150
Puffleg and Chipmunk,WR14 3FD,52.100080000000000,-2.301865000000000
Kite and Badger,HR1 4NN,52.008986859566400,-2.618630059834740
American sparrow and Vole,WR13 6SJ,52.059095929661800,-2.306304380930210
Kestrel and Mouse,WR14 1AE,52.127345037630700,-2.315916905417670
Philippine hawk-owl and Night heron,HR7 4AL,52.187229000000000,-2.511411000000000
Vole and Petrel,HR9 7SZ,51.906816621811100,-2.593778006019900
Elephant and American sparrow,HR7 4AN,52.187556335471900,-2.512672000000000
Pheasant and Nukupuʻu,HR1 3SJ,52.079808710129900,-2.604447728643770
Shearwater and Chickadee,WR13 6HU,52.084208248776300,-2.368542823154720
Towhee and Buzzard,WR13 6EF,52.073746000000000,-2.365245881210360
Bunting and Jackal,HR8 2FW,52.034696343362000,-2.439419064190680
Fulmarine petrel and Solitaire,WR6 5LP,52.190882870647900,-2.297847827680400
Herring gull and Chipmunk,HR1 3JJ,52.151643181978500,-2.667902880787040
Viscacha and Mamo,HR8 1RD,52.031024000000000,-2.392520000000000
Pheasant and Mockingbird,HR1 3TB,52.080435479606500,-2.574410334321630
Wallaby and Coati,HR8 1EP,52.029440422996000,-2.367509067195950
Mole and White ibis,HR9 7TD,51.905513262316900,-2.602554913199360
Mamo and Egret,WR14 3SG,52.102303807395700,-2.303198868785780
Cuscus and Moluccan boobook,WR2 4EF,52.174333803758300,-2.241848045625580
Bronzewing pigeon and Armadillo,WR2 4SL,52.153701031090200,-2.274520339156030
Recurvebill and Rabbit,WR2 4QS,52.163052859815700,-2.245193120945060
Vulture and Zebra,HR8 1JQ,52.065801238313300,-2.410301289538130
White ibis and Thrasher,GL19 3HY,51.968664113359600,-2.367156925999250
Bunting and Cuscus,WR14 1RG,52.125715478772800,-2.329869768003530
Piping shrike and Magpie,HR8 2AR,52.035691009307600,-2.433029168787250
Ibex and Prion,HR8 1AP,52.042639285988100,-2.426054187464830
Civet and Badger,WR2 4XU,52.175207359812200,-2.245479363933810
White ibis and New World blackbird,HR8 1PB,51.994706467095000,-2.376924339214260
Rabbit and Warbler,HR8 2QL,52.033235949543200,-2.507479408497220
Fulmarine petrel and Asiatic leopard,WR2 5QR,52.192994000000000,-2.253009000000000
Night heron and Eagle,WR14 3JS,52.100780434742900,-2.304736019500820
Mamo and Rat,WR6 5LW,52.192610370864600,-2.314638866305490
Scimitar babbler and Logrunners,HR9 5HR,51.913936164609500,-2.585061668943170
Linsang and Argus,WR14 4HR,52.069378756526200,-2.330489943999250
Badger and Chicken,HR1 4DA,52.066692000000000,-2.635328000000000
Scimitar babbler and Tattler,HR1 1YG,52.050166265987300,-2.678739711855640
Booted eagles and Stint,WR14 9HQ,52.111299000000000,-2.329262000000000
Scimitar babbler and Rat,WR2 4ET,52.185831424325400,-2.242407796257260
Hawk and Fox,HR9 5JD,51.901403704991900,-2.590276494614900
Songlark and Grackle,HR8 2LZ,52.045381000000000,-2.431417000000000
Asiatic leopard and Parrotbill,HR2 6LY,52.001010398010900,-2.639131840744680
Coati and Guillemot,HR8 1NY,51.997231000000000,-2.380762000000000
Magpie and Ice seal,HR1 3AX,52.108149583984700,-2.687680166255760
Black cockatoo and Pitohui,WR2 4BU,52.170862086573200,-2.242531049457950
Civet and Civet,HR9 7NN,51.914992000000000,-2.562409000000000
Ice seal and Wader,HR1 3RL,52.085379000000000,-2.626151000000000
Zebra and Ice seal,WR2 4RP,52.161050818245100,-2.248558000000000
Masked owl and Thicketbird,GL19 4HU,51.926901889665400,-2.274863724571290
Scimitar babbler and Pitohui,WR2 4EL,52.188150933044800,-2.233512255779000
Piping shrike and Triller,HR9 5BN,51.915144763123300,-2.565900706266030
Snipe and Greenbul,HR1 3DE,52.134962018395500,-2.668354000000000
Jay and Kākāriki,HR8 2AG,52.036940000000000,-2.426173188588030
Quetzal and Macaw,GL18 1DN,51.954045545537200,-2.410545767834000
Rabbit and Philippine hawk-owl,WR6 5HT,52.159591000000000,-2.367104000000000
Ground sloth and Rabbit,HR9 7DS,51.920374444256800,-2.583095187506580
Dolphin and Vole,WR2 5FH,52.187948000000000,-2.258071000000000
Logrunners and River dolphin,HR8 1HX,52.109453322083200,-2.483127254856240
Tree warbler and Francolin,WR2 4JP,52.180553075292200,-2.242876318375440
Kestrel and Bronzewing pigeon,WR14 2WB,52.123363288969500,-2.301793614121730
Puffleg and Jay,WR13 6BZ,52.041871093925800,-2.329164225725690
Fish eagle and Asiatic leopard,HR1 4AY,52.069102797304000,-2.638163658606730
Grackle and Kestrel,WR14 4DL,52.101068000000000,-2.347323000000000
Pitohui and Solitaire,WR14 1SH,52.126422038700800,-2.321446553928840
Kākāriki and Moluccan boobook,GL19 3JG,51.967370629662000,-2.336696066176830
Fulmarine petrel and Parrotbill,HR9 5UT,51.906999000000000,-2.589885000000000
Old World vulture and Thicketbird,WR2 4DZ,52.173182769118800,-2.241973400622070
Duck and Triller,WR13 6AH,51.998905972030500,-2.344375908326470
Pitohui and Condor,WR1 2EJ,52.192964889178400,-2.222097541690770
Linsang and Prion,HR9 6PZ,51.925289857067100,-2.606731636840310
Duck and Old World vulture,WR2 5EY,52.188429793163600,-2.250935221333990
Stint and Recurvebill,HR8 2DU,52.044070361622900,-2.433022711500890
Condor and Cuscus,HR7 4BZ,52.187938637218400,-2.507191890768430
Tree warbler and B,HR1 3BU,52.121339730769800,-2.672825000000000
B and Buzzard,WR14 1AA,52.128132508693500,-2.313935805209280
Greenbul and Wader,WR14 2DQ,52.110689861959800,-2.300525188394590
Kite and Cuscus,HR1 4AH,52.069230665356300,-2.657422752194430
Logrunners and Asiatic leopard,WR8 0SJ,52.057880419935900,-2.232408674819290
Wallaby and Jackal,HR2 8NP,51.919125188425700,-2.672326250787080
Rabbit and Magpie,HR1 4NF,52.030550000000000,-2.568334000000000
Myna and Triller,WR2 5HE,52.188247990131700,-2.251870361214210
Viscacha and New World blackbird,HR1 4EP,52.049868804905800,-2.620171740782400
Rabbit and Flameback,HR8 1AA,52.038417000000000,-2.422909941808600
Civet and Tattler,HR9 7GW,51.914923000000000,-2.579987000000000
Guillemot and Prion,WR5 3BX,52.177098000000000,-2.222077000000000
Egret and Stint,WR14 3DG,52.104761228423200,-2.325656145317900
Greenbul and Solitaire,HR1 4QX,52.024076056495600,-2.586483779761160
Parrotbill and Grackle,HR8 2JW,52.043416226944300,-2.467717540849900
Bronzewing pigeon and Prion,HR1 3LU,52.155603000000000,-2.670488751201490
Meadowlark and Night heron,HR9 7FX,51.923144082985900,-2.582288012334120
Piping shrike and Eagle,HR7 4TY,52.188439967266100,-2.522103268842170
Siskin and Partridge,GL18 2BW,51.960223000000000,-2.475117000000000
Buzzard and Hawaiian honeycreeper,WR14 4LY,52.122025155883900,-2.337700478098850
Mole and Polecat,WR13 5EQ,52.155692140437900,-2.319919000000000
Vole and Stint,HR7 4EW,52.185950355690900,-2.511674348893260
Linsang and Pitohui,GL19 3HU,51.973077490000800,-2.361704868149110
Wader and Prion,WR13 6AQ,52.002546101805400,-2.338562502299520
Coati and Peafowl,WR2 4JG,52.183363097685100,-2.240434481258370
Grouse and Francolin,HR8 1PQ,51.995299965048900,-2.390678358098400
Badger and Parrotbill,HR8 2HE,52.032238103298900,-2.430561000000000
Philippine hawk-owl and Marmoset,HR8 2HA,52.033569766126000,-2.422979616183680
Fish eagle and Capuchin,WR2 4BP,52.188121437012200,-2.232678602341010
Argus and Capuchin,GL19 3PS,51.995240639633600,-2.297129301863270
Coati and Pitohui,WR2 4SJ,52.156826000000000,-2.264687000000000
Magpie and Piping shrike,HR7 4AU,52.187964281906400,-2.517841065429480
Ice seal and Jay,HR8 2FP,52.040713088720800,-2.434039968388320
Shearwater and Peafowl,HR1 3NF,52.078022137909200,-2.662498541184700
Egret and Parrotbill,WR14 1GE,52.122557026998200,-2.327640912568210
Badger and Ice seal,WR5 3FT,52.179628078400000,-2.222002044300000
Grouse and Guillemot,WR6 5TD,52.186828724115100,-2.473580573971610
Pratincole and Stilt,WR14 4LL,52.065236141292600,-2.323267766664920
Thrasher and Cuscus,WR2 4UP,52.151104000000000,-2.241561829301920
Vulture and Bunting,GL19 3BZ,51.945311896718000,-2.294747653137970
Snipe and Moluccan boobook,WR14 1LN,52.131943726094100,-2.327432245892230
Dorcopsis and White ibis,GL19 3RD,51.958459000000000,-2.304846000000000
Old World quail and Elephant,WR13 5EW,52.135554000000000,-2.385447000000000
Bunting and Asiatic leopard,HR1 4SY,51.973455858037700,-2.553460665918820
Mouse and Wallaby,WR2 5RQ,52.190326000000000,-2.255905000000000
Buzzard and Jerboa,WR2 5NQ,52.193567011606600,-2.244907640595260
Kestrel and Stilt,WR13 5HE,52.137917070869200,-2.354155957692320
Night heron and Vole,WR14 1YA,52.135182965981100,-2.306388101254930
Jay and Chipmunk,WR14 3LB,52.094662731107100,-2.309759443513170
Wader and Quetzal,WR2 5RT,52.193642022532700,-2.251974023895290
Warbler and Ground sloth,HR8 1BG,52.044809250200600,-2.427649556023830
Ground sloth and Old World vulture,WR1 2ES,52.191678554416200,-2.222471469798090
Partridge and Kite,HR9 6NB,51.925881354343100,-2.670187000000000
Black cockatoo and Logrunners,GL19 3JU,51.986440777965000,-2.363647370824600
Night heron and Vole,GL18 2AZ,51.978512165636700,-2.439684142359910
Macaw and Marmoset,WR13 6JA,52.048049910732400,-2.311828186643360
Parrotbill and Shearwater,WR2 4TL,52.141160497331200,-2.241098252942510
Armadillo and Lemming,HR1 1PT,52.061164620032700,-2.687585287899780
Badger and Shearwater,WR13 6NY,52.106462382597900,-2.263790324736370
B and Elephant,WR8 0AH,52.099855336545300,-2.259284124579650
Rat and Vulture,HR9 5JE,51.910576346873300,-2.575379739291340
Macaw and Stilt,WR1 3LH,52.192964889178400,-2.222097541690770
Lemming and Asiatic leopard,WR14 1EF,52.129865287046200,-2.311743000000000
Duck and Chickadee,HR9 7XX,51.921342628360300,-2.587280949207440
Towhee and Triller,HR8 2HH,52.032072969782800,-2.421682741440980
Zebra and Grouse,WR14 3AP,52.111450035207900,-2.319148416769640
Linsang and Grosbeak,WR14 1HX,52.125733135041800,-2.323501196115710
Fulmarine petrel and Eagle,HR9 5LP,51.912297945348400,-2.576332176636830
Mink and Francolin,HR7 4DF,52.187159017219500,-2.506597922621700
Shearwater and Marmoset,HR8 1EU,52.038717198828600,-2.344244616504430
Coati and Warbler,WR14 3HS,52.102206503671200,-2.326163102673890
Towhee and Stint,WR2 4AG,52.185284261058900,-2.232634000000000
Fish eagle and Solitaire,WR14 3EL,52.105458037219700,-2.324011369708750
Black cockatoo and Ice seal,WR14 1AP,52.131387472010900,-2.310394115340410
Pratincole and Dolphin,WR1 2NS,52.185025787339100,-2.222394349325360
Chipmunk and Rabbit,HR1 4QL,52.008148862669500,-2.574634885468490
Jerboa and Zebra,WR13 5PH,52.098824849717200,-2.369218095460600
Old World quail and Parrotlet,WR14 4BN,52.114089495493800,-2.345964357007280
Fox and Old World warbler,HR7 4LL,52.191903000000000,-2.509665000000000
Cuscus and River dolphin,WR14 2QU,52.118469001274200,-2.310041414512930
Petrel and Warbler,WR13 5LZ,52.113322876105700,-2.413658296818530
Condor and Armadillo,GL2 9NT,51.908437374227500,-2.257801331010110
Herring gull and Philippine hawk-owl,WR8 0SG,52.059582000000000,-2.231630000000000
Flameback and American sparrow,WR14 4AS,52.093683565578200,-2.326115493360790
Boto and Goose,HR9 7RU,51.921226994396800,-2.488693197388430
Kite and Old World vulture,HR9 7NG,51.915423000000000,-2.568201000000000
Pitohui and Jerboa,WR2 5DJ,52.187936572834000,-2.241731765934100
Masked owl and Wallaby,WR14 3AT,52.109093802356600,-2.319409012182410
Hawk and White ibis,HR8 1AE,52.041113123869000,-2.422934222738490
Rat and Marsh harrier,HR9 5AA,51.912923886787700,-2.582504341910830
Chicken and Old World warbler,WR8 0BA,52.064472484054600,-2.277210735079820
Fox and Grackle,GL19 3BP,51.924555309379100,-2.297040025724160
New World blackbird and River dolphin,GL18 1DP,51.953647029009200,-2.406205879375820
Triller and Minke whale,HR8 1DJ,52.037912272686800,-2.420469385248720
Stint and Skunk,HR9 7NR,51.912714819812700,-2.543525235428940
Francolin and Dolphin,WR5 3GE,52.181587000000000,-2.220724000000000
Ibex and Meadowlark,WR14 2UQ,52.118188217551600,-2.320890716146130
Diving bird and Maya,WR14 1PU,52.128141749098600,-2.333365000000000
Buzzard and Macaw,WR2 4LG,52.185825624750800,-2.236410788534130
Asiatic leopard and Herring gull,HR9 5ND,51.911812000000000,-2.574814000000000
Egret and Grosbeak,HR8 2EZ,52.035001302266200,-2.424917372719540
Jay and Condor,HR8 2UD,52.110119464784400,-2.569505914247830
Stint and Perching duck,WR14 1RR,52.126973105102200,-2.330244249810800
Scimitar babbler and Ground sloth,HR1 3SX,52.091843937987100,-2.576396015145930
Grosbeak and Dorcopsis,WR14 2BZ,52.110099926063700,-2.306362000000000
Guillemot and Myna,GL18 1TY,51.932020317225700,-2.407479000000000
Marsh harrier and Nukupuʻu,HR1 4DL,52.069474652255800,-2.642531047579240
Mole and Elephant,WR13 5LT,52.118298678370300,-2.402108238815610
Meadowlark and Egret,HR9 5NJ,51.912522885757400,-2.574459661595070
Hawaiian honeycreeper and Zebra,WR6 5JR,52.171362128188000,-2.297220465972770
Scimitar babbler and Myna,WR14 3HH,52.106283235537400,-2.327959560220290
Snipe and Marsh harrier,WR14 4JR,52.069021378041900,-2.326460848838990
Parakeet and Partridge,HR9 5AJ,51.910880770040500,-2.582943092925300
Dolphin and Old World quail,HR9 6AD,51.915924131764600,-2.599161331112820
Dolphin and Skunk,HR1 3NP,52.101723454375100,-2.660572288796280
Scimitar babbler and Guillemot,WR8 0SW,52.056479152136700,-2.261789148318610
Tahr and Fish eagle,WR2 4ND,52.183500081770500,-2.234921215946620
Shearwater and Scimitar babbler,HR9 7GA,51.922643218730700,-2.589697232321200
Badger and Snipe,HR9 7HW,51.923118000000000,-2.590271000000000
Dolphin and Guillemot,WR14 1HS,52.125899690880000,-2.325050763092770
Badger and Wader,WR14 1FE,52.125100857825100,-2.331033779065130
Argus and Ice seal,WR6 5HW,52.174889123345600,-2.367815341021150
Dorcopsis and Scimitar babbler,HR7 4JW,52.117930000000000,-2.509478000000000
Dorcopsis and Prion,WR14 1BS,52.125952000000000,-2.305828000000000
Philippine hawk-owl and Pratincole,WR1 3NH,52.192402636804600,-2.224538000000000
Kākāriki and Zebra,HR8 2PB,52.017660234247900,-2.530763939478150
Jerboa and Chickadee,WR2 5SL,52.184204669660700,-2.254948256548240
Jay and Skunk,GL19 4NS,51.971105000000000,-2.281028480996920
American sparrow and Night heron,WR14 1QG,52.120198936789500,-2.331771515232630
Marsh harrier and Argus,HR9 5PP,51.904553401690000,-2.584300147467310
Wader and Duck,HR9 7EJ,51.918813283574000,-2.580617694992060
Fish eagle and Dolphin,HR1 3QY,52.131553636375200,-2.576791687836680
Shearwater and Chicken,HR8 1QR,52.094199771268600,-2.462074245566700
Meadowlark and Pheasant,HR9 7DX,51.915063907490900,-2.571468038332490
Hawk and Thicketbird,HR8 1JN,52.093048618543800,-2.413791769454240
Crow and Kite,WR2 4BA,52.173705245498500,-2.232529912863830
Grouse and Night heron,WR14 1PJ,52.126072000000000,-2.331392746968750
Badger and Black cockatoo,HR8 2BL,52.035084442045700,-2.429262284867540
Dorcopsis and Vulture,HR2 6NJ,51.985136340463400,-2.619932149602110
Vulture and Pitohui,WR8 0BU,52.080965727390100,-2.242597495728450
Tattler and Marsh harrier,WR2 4JN,52.181292898028700,-2.241607953065940
Elephant and Songlark,HR1 1UW,52.053685651229000,-2.682716105771010
Diving bird and Perching duck,HR1 3JH,52.155364837844500,-2.666394583579930
Gull and Civet,HR8 2FQ,52.040966859690100,-2.433488406401460
Pitohui and Parrotbill,HR9 7AF,51.914762136350300,-2.568803628334620
Armadillo and Mole,HR1 3HW,52.148782000000000,-2.658960000000000
Wader and Prion,WR14 2DT,52.108548438483500,-2.308132758097800
Puffleg and Pheasant,WR14 4PS,52.080972769406200,-2.328664017562100
Mink and Egret,WR13 6AX,52.006360000000000,-2.302083000000000
Chickadee and Petrel,GL19 3LR,51.968890785213200,-2.375004000000000
Triller and Mockingbird,HR8 2UQ,52.102539000000000,-2.553131000000000
Buzzard and Mockingbird,HR1 1SJ,52.047943049867300,-2.679172636739470
Diving bird and Masked owl,WR14 2GE,52.112378583047600,-2.324178000000000
Moluccan boobook and Prion,WR14 1PL,52.127513457775100,-2.333111356689320
Siskin and American sparrow,WR14 4PA,52.092292496439800,-2.334848462871130
Coati and Prion,HR8 2AW,52.036144490152300,-2.431954785027450
Siskin and Badger,GL18 1QW,51.929489430805400,-2.416269747438260
Parakeet and Triller,WR13 5ET,52.121024479197400,-2.401621588348560
Lemming and Stint,WR14 2NE,52.121589085301600,-2.309902419001090
River dolphin and Old World vulture,WR13 6WR,52.111287333815300,-2.329266712693720
Parrotlet and Pratincole,WR13 6DA,52.037743000000000,-2.329921000000000
Shearwater and Night heron,WR2 4PR,52.178474853383400,-2.239179647406350
Chicken and Tattler,WR14 1JB,52.125728145800000,-2.322040448709590
Vulture and Triller,WR1 1UW,52.193966411612600,-2.220186082405940
White ibis and American sparrow,GL18 1HJ,51.914476243481500,-2.340298077729820
Rat and Scimitar babbler,HR1 1XD,52.051937296578600,-2.684979014985480
Buzzard and Chicken,WR14 4LB,52.065741366590200,-2.322629566044920
Pitohui and Moluccan boobook,WR14 1WQ,52.111287333815300,-2.329266712693720
Coati and Chickadee,HR1 4JY,52.039167215118800,-2.644108144050360
Bunting and Lemming,WR2 4RX,52.158711859937800,-2.261278151108740
Wader and Mockingbird,WR2 5EQ,52.185918294198900,-2.248185856369900
Minke whale and Petrel,WR13 6DP,52.068110000000000,-2.343727000000000
Minke whale and Jay,WR14 2EN,52.116636422242700,-2.309473732623320
Diving bird and Boto,GL18 2AS,51.986921523506500,-2.480336181363780
Tree warbler and Petrel,WR13 5PF,52.100007000000000,-2.371487000000000
Armadillo and Dolphin,WR1 2EY,52.191134000000000,-2.220904251878390
Wallaby and Shearwater,HR1 4UB,51.952273663381500,-2.631963289792000
Perching duck and Meadowlark,HR8 1DD,52.039726929360900,-2.425880690330140
Puffleg and Pheasant,WR14 4HE,52.080171953045300,-2.332101899647780
Jerboa and Philippine hawk-owl,HR7 4HT,52.193014052650500,-2.506079341315300
Grosbeak and Meadowlark,HR2 6EQ,52.036497373321500,-2.678649568917050
Black cockatoo and Grosbeak,WR13 5FB,52.153475000000000,-2.322779000000000
Mole and Parrotlet,HR2 6QL,51.967995000000000,-2.678167000000000
Old World warbler and Dorcopsis,HR1 3BN,52.116329000000000,-2.680431000000000
Thicketbird and Booted eagles,HR9 5BJ,51.910590686829400,-2.590629586358530
Vole and Booted eagles,HR7 4RQ,52.154050570108200,-2.578120304954780
Cloud rat and Myna,WR13 5NP,52.134385424908800,-2.401332727629040
Bronzewing pigeon and Moluccan boobook,HR2 8LL,51.915282386323900,-2.685426547787950
Meadowlark and River dolphin,WR13 6JB,52.047084600991800,-2.311953000000000
Treepie and Pheasant,WR14 1QR,52.126889728812800,-2.337459736123850
Shearwater and Parrotlet,HR9 7XL,51.922746425636400,-2.574284849438070
Chipmunk and Parakeet,WR14 9GW,52.111292318711500,-2.329267033677330
Polecat and Thrasher,HR2 6NZ,52.019498223937600,-2.648503309862780
Chickadee and Eagle,HR7 4QU,52.182270664550500,-2.520480655478450
Night heron and Vole,GL18 1DF,51.944890437629200,-2.406068528797540
Zebra and Chickadee,WR2 5GP,52.193090699960600,-2.259695373908920
Polecat and Guillemot,HR1 3LS,52.154478339665800,-2.668939264589410
Bronzewing pigeon and Rabbit,HR1 4AX,52.018319543768700,-2.568644919454510
Petrel and Fox,HR2 6QD,51.974227000000000,-2.668478000000000
Old World quail and Parrotbill,WR13 5BZ,52.155234367423300,-2.315632106663280
Minke whale and Minke whale,WR14 1GS,52.127939503017400,-2.301780732767470
Argus and Parrotbill,WR13 6ST,52.055511000000000,-2.292244000000000
Snipe and Thrasher,WR13 5JH,52.123386173198900,-2.412845925279740
Siskin and Gull,WR6 5TE,52.184906687014400,-2.470854230083150
Egret and Kākāriki,HR1 3QB,52.089088718243600,-2.648125550479010
Wallaby and Kākāriki,WR14 3QH,52.105843214131500,-2.300813792618510
Scimitar babbler and Argus,WR14 1QX,52.125069568202200,-2.332567271576500
Parrotbill and Grosbeak,HR8 1BS,52.040917872157100,-2.424725656278010
Gull and Capuchin,HR2 6NB,51.991629929475500,-2.664047630559590
Black jay and Old World quail,WR13 6EQ,52.075736959488600,-2.366460000000000
Thrasher and Vole,WR6 5RH,52.178424682429500,-2.420887215124070
Piping shrike and Chipmunk,WR8 0SN,52.056188455731700,-2.242186014437680
Meadowlark and Philippine hawk-owl,WR2 5NS,52.191619000000000,-2.235052000000000
Guillemot and Warbler,HR1 4AA,52.065005000000000,-2.662422000000000
Gull and Hawaiian honeycreeper,HR9 7GR,51.920883119755700,-2.572152989052060
Solitaire and Old World warbler,WR13 5EH,52.148359577907200,-2.355641857611670
Tattler and River dolphin,WR14 4EP,52.094143272826300,-2.335300233685670
Wallaby and Old World warbler,WR13 6RS,52.058971000000000,-2.299881000000000
Jerboa and Myna,GL19 3LG,51.990377810341600,-2.327198867802510
White ibis and American sparrow,HR7 4SX,52.187378626812900,-2.528263594380940
Parrotlet and Wader,WR14 1FD,52.126839224321800,-2.316789773869580
Elephant and Logrunners,WR14 2NY,52.112866515782200,-2.303664857292800
Myna and Thrasher,WR1 2PW,52.193121402468700,-2.220138015049320
Pratincole and Guillemot,WR14 2AH,52.111835852063300,-2.325999780082340
Viscacha and Darwin's finches,HR9 7NY,51.909718464652400,-2.536205994824160
New World blackbird and Francolin,HR1 4PW,52.006270277625300,-2.612007698501990
Piping shrike and Bunting,WR13 6DB,52.035252949498600,-2.323036718334990
Myna and Maya,HR9 5PN,51.908517594038000,-2.588072999425750
Jerboa and Elephant,GL18 1LG,51.937291205095100,-2.401403381697950
Vole and Parrotbill,HR7 4RL,52.169561663130000,-2.584930379219100
Chicken and River dolphin,WR2 4GA,52.173221664042000,-2.240540593397170
Chickadee and Jackal,WR13 5LB,52.117178276165500,-2.401105055047970
Black cockatoo and Civet,HR8 2UJ,52.102890648650500,-2.546798757036970
Piping shrike and Skunk,GL19 3QT,51.953856611100900,-2.330657868217420
Parrotlet and Perching duck,HR9 5BH,51.906527000000000,-2.592536954828150
Herring gull and Fish eagle,GL19 3HS,51.979172770916500,-2.361855906869640
Minke whale and Kestrel,WR2 4LT,52.178837666321700,-2.233097812890280
Goose and Duck,GL18 2EL,52.004584706401200,-2.442270563172960
Hawaiian honeycreeper and Fulmarine petrel,WR4 4SN,52.191285923886900,-2.220904251878390
Black cockatoo and Siskin,HR1 3PR,52.082601477579200,-2.637495249772950
Solitaire and Elephant,HR8 2DD,52.034449049434900,-2.433367020180380
Dorcopsis and Tattler,GL18 2BB,51.974194000000000,-2.454826000000000
New World blackbird and Cloud rat,WR13 6LZ,52.055539000000000,-2.295264000000000
Polecat and Kite,WR14 3EF,52.104313009541000,-2.318718000000000
Linsang and Egret,WR14 3NS,52.104201535109100,-2.302919747746050
Ibex and Jerboa,WR5 3GD,52.182457354288400,-2.220889704510990
Puffleg and Mink,WR2 4BB,52.174962681444900,-2.233150651365900
Triller and Parrotlet,WR2 4DN,52.174857011182100,-2.240988118848350
B and Fulmarine petrel,GL18 1PA,51.921744473617000,-2.463005089507410
Pratincole and Tattler,WR13 5DW,52.165599419504900,-2.338659158285440
Puffleg and Cuscus,WR14 2TF,52.115126369596200,-2.326009197407340
Treepie and Coati,HR9 7QA,51.906491591739300,-2.537984547621090
Thicketbird and Kākāriki,WR14 3RY,52.101980182630600,-2.320175715609250
Ice seal and Rabbit,WR2 5SQ,52.182232000000000,-2.258502000000000
New World blackbird and Jackal,WR14 1GN,52.124651550999500,-2.337296749261200
Linsang and Marsh harrier,WR14 2SB,52.121515481206900,-2.313933089961070
Boto and Dolphin,GL18 2DQ,51.978835346046400,-2.407336478572920
Linsang and Kite,HR1 3BY,52.107942252666300,-2.683135909292290
Myna and Old World vulture,WR13 5FA,52.152977933258500,-2.327280010557680
Asiatic leopard and Peafowl,HR8 1LN,52.050641035425500,-2.426042838730100
Diving bird and Thrasher,WR2 5PS,52.195379336818700,-2.250959763714910
Stint and Petrel,WR2 4AH,52.184366436872300,-2.233273015480100
Crow and Myna,HR1 1UN,52.051261652254000,-2.682110408543120
Pitohui and Tahr,WR14 3SN,52.101778408217500,-2.304728227494760
Skunk and Tree warbler,WR14 1HJ,52.124492225549200,-2.326837139872070
Night heron and Linsang,WR14 2QR,52.124304983210600,-2.313017881700920
Stilt and Piping shrike,WR8 0AF,52.081260000000000,-2.277382000000000
Tahr and Greenbul,HR1 1UD,52.050710673439400,-2.685645643946580
Boto and Fish eagle,HR8 2LD,52.028557941940700,-2.457534000000000
Rat and Pratincole,WR14 2RY,52.119443902585400,-2.311961446487110
Partridge and Meadowlark,HR1 4PJ,52.001400173538100,-2.609712535706630
Eagle and Buzzard,GL18 1AL,51.930899597357700,-2.411556065848170
Cloud rat and Minke whale,WR14 2QW,52.110488000000000,-2.309358000000000
Goose and Lemming,WR2 4TJ,52.138511220900000,-2.239666640120960
Parrotlet and Snipe,WR2 4DE,52.173063139380800,-2.238916630514240
Masked owl and Viscacha,HR9 7DT,51.919971175131600,-2.582959000000000
Lemming and Jay,HR8 2BU,52.034256688536300,-2.429429280560330
Armadillo and Maya,WR1 3QF,52.193882481369500,-2.221794902399620
Armadillo and Tree warbler,HR1 1XN,52.050754207225500,-2.676561197344530
Rabbit and B,WR13 6AA,52.031433870857300,-2.325589190976880
Puffleg and Tattler,HR9 7BT,51.914624443219800,-2.587673034747070
Flameback and Perching duck,WR14 3FA,52.100073000000000,-2.301179000000000
Gull and Gull,WR13 6EG,52.075841240977400,-2.364607298278640
Dorcopsis and Greenbul,WR14 2JL,52.118071000000000,-2.327796793176990
Mole and Francolin,GL19 3FB,51.950626000000000,-2.325422000000000
Fulmarine petrel and Darwin's finches,WR14 4QZ,52.112130386299700,-2.330003061618630
Goose and Vole,HR8 2FN,52.042551831340200,-2.430325302832580
B and Songlark,GL18 1TU,51.929225000000000,-2.396792910748370
Greenbul and Towhee,WR14 1BY,52.126283326753600,-2.309452968733220
Argus and Guillemot,WR13 5HN,52.128791214530100,-2.351308003412510
Macaw and Dorcopsis,WR14 3QA,52.097273130958700,-2.318696803443650
Pitohui and Lemming,HR8 2NA,51.999380203525700,-2.498254704840810
Pitohui and American sparrow,HR1 4LS,52.032183406484400,-2.618571284206800
Snipe and Perching duck,HR9 9WA,51.911984698706800,-2.571618246024340
Triller and Mouse,HR9 7XD,51.921963412431800,-2.574449344982710
Nukupuʻu and Old World vulture,WR8 0QN,52.053925131290500,-2.232111038686600
Triller and Old World warbler,GL18 1BZ,51.931720504214100,-2.397688539113560
Mink and Moluccan boobook,WR14 1NG,52.129231523796900,-2.316485371928060
Magpie and New World blackbird,GL18 2DH,51.984529000000000,-2.404316000000000
Buzzard and Macaw,WR8 0RJ,52.043786000000000,-2.240748000000000
Thicketbird and White ibis,GL19 4JD,51.930074450419100,-2.274970000000000
Rabbit and Capuchin,HR8 2AJ,52.036576652136000,-2.426856623953810
Skunk and Moluccan boobook,HR7 4UF,52.189862104682500,-2.509393392544970
Crow and Solitaire,HR8 2TF,52.085506488661100,-2.501490487340000
Mink and Thicketbird,WR2 5HS,52.188880000000000,-2.238021000000000
Tree warbler and Siskin,HR8 2NN,51.991174750706500,-2.486760465219650
Ibex and Old World quail,WR6 5JB,52.171731000000000,-2.295687000000000
Badger and Pheasant,GL18 1SQ,51.932067986850800,-2.398622440208270
Warbler and Stilt,HR8 2GA,52.040479990970600,-2.431413425707170
Moluccan boobook and Meadowlark,WR8 0DJ,52.081727932296700,-2.272297825667130
Macaw and Fox,WR8 0RQ,52.030519000000000,-2.225066000000000
Stint and Hawaiian honeycreeper,WR14 4NR,52.120535737187100,-2.350616000000000
Duck and Tit-tyrant,WR14 3ND,52.108299448914700,-2.310511070563700
Recurvebill and Rat,WR5 3JJ,52.140827272309500,-2.223138274129410
Booted eagles and Perching duck,WR14 1TY,52.131202273321000,-2.322445170111050
Chickadee and Vulture,HR1 3PY,52.083945312594300,-2.646620833142820
Perching duck and Prion,HR9 6AY,51.907677000000000,-2.665018000000000
Stint and Flameback,WR14 9ST,52.110912908486600,-2.324883270740140
Boto and Piping shrike,WR6 5HB,52.165291015192500,-2.375192385240540
Ibex and Peafowl,HR9 5AT,51.910056085035000,-2.584255292090020
Myna and Night heron,GL19 3JF,51.965253776307200,-2.350390903429560
Dorcopsis and Boto,WR14 4PE,52.088319816585000,-2.334439235489260
Marsh harrier and Parakeet,WR6 5EG,52.149489303449800,-2.401395528941660
Francolin and Magpie,WR6 5DR,52.154355000000000,-2.387656000000000
Vole and Marmoset,GL19 4JA,51.925180092032500,-2.265095578362650
Treepie and Fox,HR9 5AH,51.910909880855100,-2.584324526612160
Ice seal and Flameback,WR14 1AW,52.130860956286000,-2.308900357196850
Grackle and Rabbit,WR14 9SH,52.110912908486600,-2.324883270740140
Prion and Diving bird,HR1 4BG,52.077485000000000,-2.617636000000000
Grosbeak and Vulture,HR1 4FJ,52.067312000000000,-2.661524000000000
Parrotbill and Grackle,WR14 3PS,52.100289013977500,-2.317200040143450
Viscacha and Parakeet,WR13 6LD,52.054899000000000,-2.302761000000000
Egret and Black jay,WR14 2RR,52.123091000000000,-2.317041000000000
Philippine hawk-owl and Ice seal,WR14 1FZ,52.134008233067900,-2.333598413993270
Tattler and Pratincole,HR1 1QU,52.060301000000000,-2.684757000000000
Old World quail and Argus,HR2 6QN,51.967151566010600,-2.679143786430130
Cuscus and Grouse,HR1 4PS,52.004439730571900,-2.607845481725220
Grosbeak and Philippine hawk-owl,WR14 1TN,52.130405025668700,-2.324659923832170
Partridge and Black jay,WR14 4RJ,52.106208000000000,-2.329504954237050
Pratincole and Masked owl,WR14 3LX,52.104692000000000,-2.328892000000000
Civet and Capuchin,WR5 3BS,52.178081000000000,-2.225387000000000
New World blackbird and Chipmunk,WR2 5SE,52.194379665559700,-2.251773384821140
Old World vulture and White ibis,WR1 2EN,52.192264909446900,-2.221421120827330
Partridge and Bunting,HR9 5UE,51.905207367064200,-2.591968897689790
Francolin and Old World warbler,GL18 1LS,51.959018409920800,-2.417940436841950
Goose and Kestrel,WR14 2NB,52.120770339923000,-2.306698134100720
Hawaiian honeycreeper and Thrasher,HR9 6BD,51.906865754383700,-2.644248182884240
Armadillo and Marmoset,WR13 5DN,52.161843573243700,-2.347182707432270
Mole and Mole,GL19 3DA,51.946452000000000,-2.313174000000000
B and Flameback,HR7 4SY,52.193346148410200,-2.548435115012070
Francolin and Siskin,WR2 4PY,52.154329130557400,-2.263240303595000
Kestrel and Skunk,GL19 3QS,51.959384000000000,-2.318663000000000
Peafowl and Parrotbill,WR2 4HB,52.183473877923400,-2.243404157393760
Ice seal and Towhee,WR14 1JT,52.134215917886300,-2.331510467103430
Thrasher and Jerboa,HR7 4SZ,52.190249000000000,-2.553458000000000
Argus and Marmoset,HR9 5JN,51.909930550505000,-2.578729556638360
Fulmarine petrel and White ibis,WR8 0AA,52.089671000000000,-2.237536000000000
Old World vulture and Parakeet,WR8 0AD,52.104282185294000,-2.240694717645980
Dorcopsis and Solitaire,WR8 0SR,52.058980853970900,-2.268746395841660
Zebra and Gull,GL18 1NJ,51.927137876938100,-2.442264686118600
Viscacha and Flameback,HR7 4HY,52.135745570236200,-2.524321113634970
Peafowl and Warbler,HR8 1PP,52.035483299543800,-2.418361969807840
Herring gull and Peafowl,WR13 6NZ,52.107163000000000,-2.260392000000000
Black jay and Buzzard,WR14 4BQ,52.108532380966700,-2.346286352483010
Perching duck and Bunting,HR9 7QW,51.950238573685900,-2.544444587365250
Shearwater and Rat,HR8 1QS,52.091307000000000,-2.447799000000000
Recurvebill and Dorcopsis,HR9 6AH,51.914128534359300,-2.602175965216990
Boto and Partridge,HR1 3BE,52.109573646079700,-2.668310591546470
Kestrel and Pitohui,WR14 3NL,52.104439455966500,-2.304790180285850
Chickadee and Old World quail,WR14 2JG,52.119462960867500,-2.328114779782580
Rabbit and Philippine hawk-owl,WR14 2TA,52.112716787739300,-2.325626000000000
Pheasant and Fox,HR9 7JF,51.936578123150100,-2.571683275979000
Thrasher and Prion,WR14 4HT,52.078822468906900,-2.329217292366230
Ice seal and Goose,WR14 3JF,52.101277108852000,-2.307352649402420
Ice seal and Greenbul,HR1 1XE,52.052195121860200,-2.685478792069620
Jackal and Magpie,WR2 5RY,52.195398243385800,-2.255320000000000
Quetzal and Ground sloth,WR2 5AG,52.187554984828400,-2.234810963338070
Viscacha and Lemming,WR2 4QA,52.183962629341100,-2.250427386444790
Pratincole and Ice seal,HR9 7FW,51.915897320645900,-2.581205244134180
Eagle and Prion,HR9 6LG,51.917210000000000,-2.654981000000000
Parakeet and Perching duck,GL18 1UF,51.926520000000000,-2.404201000000000
Parakeet and Jerboa,WR13 6BU,52.044121910626900,-2.324792044816280
Solitaire and Mink,HR7 4JH,52.119719718666400,-2.554789372052820
Mockingbird and Viscacha,WR14 9JA,52.111299000000000,-2.329262000000000
Flameback and Wallaby,WR2 4UD,52.147681000000000,-2.257487000000000
Grosbeak and Macaw,HR6 0NL,52.191327524326600,-2.616741072235910
Fish eagle and Civet,WR2 4GD,52.176688113134000,-2.231259000000000
Greenbul and Nukupuʻu,WR14 1NA,52.127492097232000,-2.318065276296970
Prion and B,WR2 5BH,52.189573746722900,-2.232334850218660
Pheasant and Francolin,HR9 6NT,51.903178553749600,-2.663513000000000
Petrel and Meadowlark,GL18 1EP,51.933000000000000,-2.394573000000000
Ice seal and Polecat,WR2 4XQ,52.176088717866300,-2.245337984984930
Recurvebill and Greenbul,WR14 2GD,52.113606791341000,-2.307861274823100
Chickadee and Mockingbird,WR14 2SF,52.122386846542900,-2.314202125732600
Coati and Black jay,GL19 4HE,51.965056111195800,-2.251998795865910
Darwin's finches and Mouse,HR7 4JP,52.152587000000000,-2.486240000000000
Moluccan boobook and White ibis,WR13 6RE,52.082945592286200,-2.358171274324980
Armadillo and Francolin,WR14 1XA,52.127817542702700,-2.330353000000000
Lemming and Siskin,WR13 6JW,52.009408436521900,-2.279711000000000
Old World vulture and Dorcopsis,WR2 4LN,52.180890662735600,-2.236018962974750
Asiatic leopard and Civet,WR13 6AP,52.026710474810500,-2.303255374736690
Boto and Diving bird,WR14 2LN,52.126646213905500,-2.315006300000600
Nukupuʻu and Hawk,HR7 4DR,52.189967743536600,-2.505737540280770
Macaw and Chipmunk,HR7 4UD,52.190179523003100,-2.514970409409310
Puffleg and Pheasant,HR9 7LT,51.903271000000000,-2.484966000000000
Tahr and Grosbeak,HR7 4LE,52.180321821498400,-2.497072396354220
River dolphin and Mamo,HR9 7QH,51.928423000000000,-2.572030000000000
Old World warbler and Cuscus,HR2 6FJ,52.038188000000000,-2.682467000000000
Marsh harrier and Maya,HR8 2DH,52.034302132320800,-2.436630924075890
Fox and Peafowl,WR14 1UA,52.134533444559800,-2.324017898975390
Bunting and B,HR8 9JY,52.044673000000000,-2.423405000000000
Pratincole and Stint,GL18 1RH,51.937584771068600,-2.422832213651520
Fox and Eagle,WR8 0EG,52.084210243502500,-2.275771615727880
Mamo and Fulmarine petrel,WR14 1JH,52.132715111427700,-2.332946000000000
Magpie and Magpie,WR14 3QJ,52.101705952229300,-2.318524033705600
Marmoset and Herring gull,HR1 4HZ,52.065106203145300,-2.557598456326450
Herring gull and Songlark,HR1 4PE,52.007181238142000,-2.615603000000000
Guillemot and Mamo,HR1 4JA,52.068432060428500,-2.550097635989600
Thicketbird and Night heron,WR13 5HA,52.151632000000000,-2.373470000000000
Black jay and Parrotlet,HR8 1PA,51.995223535309200,-2.369806583568620
Condor and Grouse,WR14 2NA,52.122366243114800,-2.308388788984810
Herring gull and Crow,GL19 3JY,51.986556964815000,-2.349028260309880
Maya and Cloud rat,HR7 4LA,52.171310553847600,-2.501972671219270
Triller and Cloud rat,HR1 3NE,52.077707952288200,-2.654366360247390
Mockingbird and Rat,HR8 2QH,52.029085780444300,-2.504560993351680
Quetzal and Treepie,HR8 1NQ,52.067870882813200,-2.442298000000000
Grackle and Black cockatoo,WR14 9SD,52.110912908486600,-2.324883270740140
Jackal and Macaw,WR14 4BB,52.112265000000000,-2.346155628728080
Dorcopsis and Jerboa,WR14 2QH,52.109646621529400,-2.311046103093360
Buzzard and Ground sloth,HR9 7NE,51.912980769960300,-2.567181919625140
Stilt and Black jay,HR8 1HP,52.116224135816600,-2.469560284304100
Vulture and Macaw,WR6 5QS,52.186396000000000,-2.382757000000000
Kangaroo and Tree warbler,WR14 2RS,52.123153284068200,-2.313360356592950
Masked owl and American sparrow,HR1 3PW,52.137225475899500,-2.620889000000000
Fish eagle and Grackle,HR1 3RE,52.115341635729500,-2.600722000000000
Philippine hawk-owl and Mockingbird,WR14 1BN,52.134423811642800,-2.332885632468310
Maya and Marmoset,HR1 4DX,52.062414476021000,-2.631343863124600
Eagle and Marmoset,WR2 4LP,52.182053103472600,-2.234679574489720
Boto and Booted eagles,GL18 2EA,52.002343417571800,-2.463967811000660
Viscacha and Capuchin,WR14 2AU,52.114515702998000,-2.312642000000000
Scimitar babbler and Maya,GL18 1UA,51.927964021353900,-2.398702694545090
Mouse and Piping shrike,WR2 4DD,52.171536031794700,-2.242695561103400
Old World warbler and Grackle,WR14 3QZ,52.109737000000000,-2.286705000000000
Grackle and Thicketbird,HR8 2SF,52.061265882983500,-2.510276824482670
Black cockatoo and Lemming,WR1 3AZ,52.195441032827800,-2.224845692578940
Egret and Vole,HR9 5HL,51.914466812551500,-2.585024952950300
Recurvebill and Pratincole,GL19 3JH,51.969947853513000,-2.350092741789460
Triller and White ibis,HR8 1NF,52.061436000000000,-2.432155000000000
Black jay and Treepie,HR8 2FD,52.040139641000400,-2.435944291745280
Piping shrike and Fox,WR6 5AD,52.155986492169300,-2.449544122113250
River dolphin and Treepie,WR14 2SN,52.108793733866900,-2.307156144959130
Capuchin and Condor,WR14 1QW,52.124213596352400,-2.339528253603810
Goose and Partridge,WR14 2AL,52.111626444151900,-2.323691055863420
Parrotbill and Booted eagles,WR14 3DP,52.106683776571900,-2.322910592969770
Nukupuʻu and Meadowlark,WR14 2JS,52.116786471355200,-2.327145840166140
Pratincole and Night heron,WR14 2UY,52.113737879467000,-2.307409198651450
Old World quail and Gull,WR2 5SU,52.178031646403900,-2.257516035323390
Eagle and Triller,HR8 2AU,52.038414706279200,-2.428244537227910
Recurvebill and Night heron,WR2 4TZ,52.151865000000000,-2.243334000000000
New World blackbird and Mole,HR1 3BJ,52.103222814588800,-2.676785789323260
Wader and Kestrel,HR9 7AA,51.914548838193300,-2.581173287081200
Philippine hawk-owl and American sparrow,GL18 1HN,51.927740542979200,-2.357544376789210
Partridge and Myna,WR14 1DB,52.127273721209700,-2.310789409427430
Tit-tyrant and Zebra,GL18 2EN,51.978027163693300,-2.438529525474120
Capuchin and Mamo,WR14 1PD,52.121935637309900,-2.331229397567930
Mouse and Cuscus,WR14 1AG,52.129172758796800,-2.311547371519770
Masked owl and Moluccan boobook,GL19 3DD,51.923147487802700,-2.326171414659450
Piping shrike and Pratincole,HR9 6QP,51.945467000000000,-2.627256000000000
Crow and Ground sloth,HR8 2QJ,52.027161686791000,-2.517015580572480
Pitohui and Jerboa,HR9 7RQ,51.921118732643200,-2.585170000000000
Parrotbill and Ice seal,GL18 2AR,51.988628785249500,-2.460330981789360
Viscacha and Kestrel,HR9 7PJ,51.914743681994900,-2.514210760432110
Jerboa and Prion,HR1 3HT,52.153436000000000,-2.667433000000000
Kite and Pitohui,WR2 5QB,52.195349168117900,-2.248223802425500
Guillemot and Chicken,WR14 2NU,52.114518205224800,-2.301164297243320
Viscacha and Coati,HR2 8LJ,51.915174355669100,-2.669839225446460
Pheasant and Egret,HR1 4QY,52.021475544392000,-2.583301929030590
Parakeet and Marsh harrier,HR9 7WG,51.931784000000000,-2.477420000000000
Viscacha and Puffleg,WR13 5HW,52.128205000000000,-2.358125000000000
Capuchin and Fulmarine petrel,GL19 3LB,51.991903267507900,-2.350103868439710
Black cockatoo and Herring gull,WR14 4AT,52.093232022683300,-2.326842023360980
Meadowlark and Old World warbler,WR14 4AZ,52.116973424373900,-2.346658495625460
Stint and Lemming,WR2 4LL,52.181447000000000,-2.237205263475520
Moluccan boobook and Gull,WR13 6JG,52.033769233110100,-2.316510041890470
Moluccan boobook and Tattler,HR7 4JZ,52.168494187345400,-2.510889132133070
Masked owl and Moluccan boobook,HR1 3NZ,52.103371062177400,-2.652084849881840
Towhee and Crow,HR8 2FY,52.033769028604900,-2.439759820056180
Darwin's finches and Tree warbler,GL18 1JG,51.916589811252200,-2.405318679326000
Old World vulture and Armadillo,HR9 7SW,51.932358590426100,-2.471798000000000
Piping shrike and Vole,HR9 7JW,51.955022123324100,-2.567203178837570
Prion and Quetzal,WR14 2FL,52.118840000000000,-2.317152000000000
Skunk and Macaw,HR1 1UZ,52.053035209965900,-2.681699920012190
Badger and Elephant,HR9 6LS,51.943127000000000,-2.644346000000000
Wader and Darwin's finches,WR2 4TA,52.144448133017400,-2.242504281372370
Condor and Bunting,HR8 2FG,52.040573066613400,-2.435438232264150
Kite and Jackal,HR8 2XF,52.027350998279600,-2.424699066517930
Duck and Quetzal,HR8 2XD,52.028947966773200,-2.423140039632680
Marsh harrier and Pitohui,HR8 2US,52.042920738875400,-2.435140296508890
Petrel and Macaw,HR7 4RP,52.160337087831600,-2.593975231570990
Parrotlet and Jerboa,HR8 2UF,52.115361303412400,-2.563833430648620
Grouse and Magpie,HR8 2QX,52.045260603059400,-2.434521474431630
Old World quail and Songlark,HR1 4AT,52.066275559566900,-2.656912527258120
Chipmunk and Duck,HR9 7QX,51.961657337519200,-2.530582205411090
Black jay and Gull,WR14 1EZ,52.130221000000000,-2.307285000000000
Peafowl and Thrasher,HR8 1PD,52.004770000000000,-2.384880947370950
Crow and Goose,WR13 6DT,52.069220923213800,-2.356850512842000
Pheasant and Darwin's finches,GL19 4HJ,51.949345498116900,-2.227350723052700
