name,postcode,lat,lon
Royal Hotel Barmouth,LL42 1AB,52.72333908081050,-4.05644702911377
Bendi-gedig ltd,LL42 1AD,52.72330093383790,-4.05604505538940
The Bay Restaurant at Hendre Coed Isaf Caravan Park,LL42 1AJ,52.73958969116210,-4.07172918319702
Tal y Don Hotel,LL42 1DL,52.72224426269530,-4.05430698394775
The Bank Restaurant,LL42 1DW,52.72166824340820,-4.05388021469116
The Barmouth Bar And Grill,LL42 1EG,52.72025299072270,-4.05187416076660
Myrddins,LL42 1EH,52.72009277343750,-4.05127382278442
isis pizzeria,LL42 1ET,52.71948242187500,-4.05179309844971
Bistro Bermo,LL42 1EW,52.72023773193360,-4.05237722396851
Min-y-Mor Hotel,LL42 1HW,52.72531890869140,-4.06312894821167
NORBAR,LL42 1RR,52.75014495849610,-4.07732677459717
Ysgethin Inn,LL43 2AN,52.77539443969730,-4.09261417388916
Nineteen.57 Restaurant and Bar,LL43 2AQ,52.77262496948240,-4.10027885437012
Scooby's Barmouth,LL43 2BJ,52.7711,-4.1045
The Sands Bar And Grill,LL43 2BJ,52.77106857299800,-4.10445880889893
The Dyffryn Country Inn,LL44 2HD,52.78849411010740,-4.11541509628296
Victoria Inn,LL45 2LD,52.82076100000000,-4.10093100000000
Morlyn Guesthouse,LL46 2SB,52.83911514282230,-4.12234401702881
Llew Glas Cafe,LL46 2YA,52.8587,-4.1085
the plas restaurant,LL46 2YA,52.85873794555660,-4.10846185684204
Castle Bistro,LL46 2YB,52.85746383666990,-4.10835599899292
Caffi Castell ,LL46 2YH,52.8594,-4.1081
Y Gwyllt Snowdonia Wilderness,LL46 2YH,52.8594,-4.1081
Gimblet Rock,LL53 5AY,52.88236236572270,-4.40400505065918
Bamboo House,LL53 5DE,52.88889694213870,-4.41743278503418
The Cove,LL53 5DU,52.8899,-4.4194
PEN Y COB / WETHERSPOONS,LL53 5HG,52.88771710000000,-4.41748660000000
COSTA COFFEE,LL53 5HT,52.88958280000000,-4.41461720000000
Whitehall,LL53 5RG,52.88906097412110,-4.41860198974609
The Jewel In The Crown ,LL53 5RT,52.88991546630860,-4.41585493087769
Plas Bodegroes Restaurant,LL53 5TH,52.89006170000000,-4.44786990000000
Plas Heli bar Ltd trading as Glandon Beach Bar,LL53 5YT,52.8897,-4.4034
