name,postcode,lat,lon
Royal Hotel Barmouth,LL42 1AB,52.7233,-4.0564
Bendi-gedig ltd,LL42 1AD,52.7233,-4.0560
The Bay Restaurant at Hendre Coed Isaf Caravan Park,LL42 1AJ,52.7396,-4.0717
Tal y Don Hotel,LL42 1DL,52.7222,-4.0543
The Bank Restaurant,LL42 1DW,52.7217,-4.0539
The Barmouth Bar And Grill,LL42 1EG,52.7203,-4.0519
Myrddins,LL42 1EH,52.7201,-4.0513
isis pizzeria,LL42 1ET,52.7195,-4.0518
Bistro Bermo,LL42 1EW,52.7202,-4.0524
Min-y-Mor Hotel,LL42 1HW,52.7253,-4.0631
NORBAR,LL42 1RR,52.7501,-4.0773
Ysgethin Inn,LL43 2AN,52.7754,-4.0926
Nineteen.57 Restaurant and Bar,LL43 2AQ,52.7726,-4.1003
Scooby's Barmouth,LL43 2BJ,52.7711,-4.1045
The Sands Bar And Grill,LL43 2BJ,52.7711,-4.1045
The Dyffryn Country Inn,LL44 2HD,52.7885,-4.1154
Victoria Inn,LL45 2LD,52.8208,-4.1009
Morlyn Guesthouse,LL46 2SB,52.8391,-4.1223
Llew Glas Cafe,LL46 2YA,52.8587,-4.1085
the plas restaurant,LL46 2YA,52.8587,-4.1085
Castle Bistro,LL46 2YB,52.8575,-4.1084
Caffi Castell ,LL46 2YH,52.8594,-4.1081
Y Gwyllt Snowdonia Wilderness,LL46 2YH,52.8594,-4.1081
Gimblet Rock,LL53 5AY,52.8824,-4.4040
Bamboo House,LL53 5DE,52.8889,-4.4174
Spice of pwllheli Ltd  (t/a polash ,LL53 5DE,52.8889,-4.4171
The Cove,LL53 5DU,52.8899,-4.4194
Pen Y Cob / Wetherspoons,LL53 5HG,52.8877,-4.4175
Costa Coffee,LL53 5HT,52.8896,-4.4146
Whitehall,LL53 5RG,52.8891,-4.4186
The Jewel In The Crown ,LL53 5RT,52.8899,-4.4159
Plas Bodegroes Restaurant,LL53 5TH,52.8901,-4.4479
Plas Heli bar Ltd trading as Glandon Beach Bar,LL53 5YT,52.8897,-4.4034
