name,postcode,lat,lon
Moluccan boobook and cobra,LL38 2EY,52.695589817486100,-4.054571932496900
crocodile and Shearwater,LL38 2SJ,52.688817740491100,-4.052596648457400
Eagle and Chicken,LL42 1DD,52.720224368475400,-4.050827000000000
bull snake and Civet,LL42 1DW,52.721604371829100,-4.053869858664180
Chicken and diamond snake,LL42 1EH,52.720085002300500,-4.051266392637770
Logrunners and Chipmunk,LL42 1HD,52.725724699154400,-4.062534448270840
Fish eagle and Meadowlark,LL42 1LF,52.728537944646700,-4.065840000000000
Piping shrike and Herring gull,LL42 1PE,52.724944563112300,-4.057240423104860
Ground sloth and dugite,LL42 1PF,52.724532844330300,-4.057650494465060
Chicken and Cloud rat,LL42 1PL,52.725324000000000,-4.060294000000000
Diving bird and Coati,LL42 1YN,52.730644894589500,-4.063966440535480
jew lizard and dugite,LL44 2EL,52.787266070128300,-4.096529148204880
gavial and Kākāriki,LL44 2EQ,52.786027000000000,-4.095491000000000
snapping turtle and Dolphin,LL45 2LD,52.820752158520900,-4.100916620662050
goanna and Stilt,LL45 2PX,52.819158000000000,-4.120860000000000
Greenbul and Black jay,LL46 2TH,52.846475000000000,-4.082111000000000
elapid and jew lizard,LL46 2TL,52.843326490250300,-4.074980800313450
flying dragon and monitor,LL46 2UG,52.862096052216000,-4.113907362305740
Puffleg and Quetzal,LL46 2YH,52.859281000000000,-4.108452000000000
Mole and Vole,LL53 5EE,52.891377340080800,-4.415946000000000
bearded dragon and Scimitar babbler,LL53 5HH,52.888605649263900,-4.416220198197870
rock python and Hawaiian honeycreeper,LL53 5NT,52.880691726940100,-4.423345268920370
Grouse and Mole,LL53 5PD,52.880939304006600,-4.420906661921490
Perching duck and cayman,LL53 5SE,52.889753748518800,-4.416358410723390
