name,postcode,lat,lon
Royal Hotel Barmouth,LL42 1AB,52.723295400878300,-4.056422353756010
Bendi-gedig ltd,LL42 1AD,52.723294117681400,-4.055978040211150
The Bay Restaurant at Hendre Coed Isaf Caravan Park,LL42 1AJ,52.739546240079300,-4.071690423867800
Tal y Don Hotel,LL42 1DL,52.722291765970900,-4.054299000000000
The Bank Restaurant,LL42 1DW,52.721604371829100,-4.053869858664180
isis pizzeria,LL42 1ET,52.719464370779600,-4.051799931569060
Bistro Bermo,LL42 1EW,52.720220000000000,-4.052368000000000
Min-y-Mor Hotel,LL42 1HW,52.725311159750700,-4.063048055218840
NORBAR,LL42 1RR,52.750138177505500,-4.077319964372350
Nineteen.57 Restaurant and Bar,LL43 2AQ,52.772607261887800,-4.100272041449950
Scooby's BAR,LL43 2BJ,52.771038272582800,-4.104452000000000
Victoria Inn,LL45 2LD,52.820752158520900,-4.100916620662050
Morlyn Guesthouse,LL46 2SB,52.839108312358200,-4.122337607290690
the plas restaurant,LL46 2YA,52.858639014810800,-4.108455000000000
Y Gwyllt Snowdonia Wilderness,LL46 2YH,52.859281000000000,-4.108452000000000
Gimblet Rock,LL53 5AY,52.882352000000000,-4.403669000000000
The Cove,LL53 5DU,52.889843820372600,-4.419440722318910
PILI PALAS,LL53 5RG,52.888990486278100,-4.418516091348380
Whitehall,LL53 5RG,52.888990486278100,-4.418516091348380
The Jewel In The Crown ,LL53 5RT,52.889821539167300,-4.415846000000000
Plas Bodegroes Restaurant,LL53 5TH,52.895155457361700,-4.450677131496220
