name,postcode,lat,lon
Minke whale and American sparrow,LL37 2QR,52.675492885545400,-4.073760745087410
tortoise and alligator,LL38 2LX,52.698608918638600,-4.056238171875910
blind snake and gaboon viper,LL38 2PJ,52.697227143393700,-4.052961693325030
glass snake and boa,LL42 1BA,52.722037620078400,-4.052735198170410
Scimitar babbler and cayman,LL42 1BL,52.720921010060200,-4.051276020633790
Puffleg and Elephant,LL42 1BQ,52.736513960297000,-4.070791120482880
Dorcopsis and king snake,LL42 1BS,52.720553697516800,-4.051199548549310
Rat and Zebra,LL42 1DP,52.722079231621200,-4.053966218580680
copperhead and viper,LL42 1DU,52.720971379681800,-4.053040494355620
Armadillo and viper,LL42 1LB,52.727243406394900,-4.063613212343740
Tattler and monitor,LL42 1LP,52.722388035219000,-4.055343081846660
Kākāriki and Rat,LL42 1LY,52.722071801160000,-4.057504986779130
perentie and Shearwater,LL42 1YP,52.733132281464000,-4.065180048714920
Recurvebill and Warbler,LL42 1YY,52.736872142652400,-4.069845253930970
black snake and Egret,LL43 2AE,52.778142444564700,-4.095378772301260
elapid and New World blackbird,LL43 2AP,52.774340000000000,-4.092374338878440
boomslang and leathery turtle,LL44 2BE,52.791294000000000,-4.097129450064700
Black jay and Hawk,LL44 2DD,52.796916042618500,-4.102481804374810
smooth snake and cayman,LL45 2DX,52.817381853540700,-4.107936834182150
box turtle and Asiatic leopard,LL45 2LP,52.816042918398800,-4.102452000000000
hoop snake and Grouse,LL45 2NB,52.815758394710400,-4.088907593536690
Skunk and New World blackbird,LL45 2NL,52.824852000000000,-4.098962000000000
Gull and Grosbeak,LL46 2GZ,52.866402716282800,-4.110372759117810
Siskin and Treepie,LL46 2RD,52.843622156840100,-4.117286226571500
bushmaster and cobra de capello,LL46 2SG,52.858956265486000,-4.106936370984260
Skunk and Parakeet,LL46 2WA,52.865117506377000,-4.107814410507550
python and box turtle,LL53 5AL,52.881486329053200,-4.414798598404910
Stint and copperhead,LL53 5BP,52.880685958262500,-4.421829601798380
diamondback turtle and Stilt,LL53 5BU,52.888222241994700,-4.420034197514090
turtle and Puffleg,LL53 5BW,52.886740420798900,-4.428751785749660
Jay and rat snake,LL53 5DE,52.888744941410700,-4.417482000000000
Snipe and monitor,LL53 5ES,52.890208660429300,-4.412117097830150
horned viper and Old World quail,LL53 5NJ,52.885952490258000,-4.419342856061160
turtle and mountain devil,LL53 5NL,52.886338890970000,-4.419795465759670
Nukupuʻu and Black jay,LL53 5NW,52.886109716613700,-4.420451617778300
B and Komodo dragon,LL53 6PJ,52.897339881632900,-4.377612000000000
