name,postcode,lat,lon
Solitaire and Polecat,SA15 2RU,51.676713509470300,-4.163305067089510
Pitohui and Night heron,SA31 1RU,51.859807691137200,-4.310473958838540
Peafowl and Magpie,SA17 4UA,51.739398115456600,-4.299326501026180
Old World quail and Maya,SA16 0EP,51.683450482698900,-4.248893464451410
Puffleg and Masked owl,SA15 4LT,51.697917357301500,-4.146690528777330
Grosbeak and Puffleg,SA15 1ST,51.681702930229100,-4.157033212285660
Black jay and Elephant,SA15 4HE,51.693598920257000,-4.164920758957630
Logrunners and Hawk,SA16 0SL,51.687856380312600,-4.239041993966410
Diving bird and Egret,SA32 8JP,51.852814288532500,-4.083151461415330
Pitohui and Warbler,SA14 7EE,51.814264160465600,-4.113871410349910
Songlark and Kestrel,SA15 4LF,51.696890619802300,-4.150708254201430
Capuchin and Jackal,SA14 9DU,51.681599000000000,-4.121847000000000
Linsang and Pratincole,SA14 8QZ,51.695324579673800,-4.129565054682910
Dolphin and Siskin,SA15 5PG,51.756631580004600,-4.208217881094140
Gull and Kestrel,SA31 2NQ,51.839944073092100,-4.309499962709740
Triller and Meadowlark,SA32 8NX,51.824094287821200,-4.184133014367220
Marmoset and White ibis,SA14 9UY,51.676315641101800,-4.138884699405020
Badger and Capuchin,SA14 8TN,51.694703579491200,-4.083983873829470
Diving bird and Parakeet,SA31 3AZ,51.856383874964000,-4.315381351762700
Herring gull and Solitaire,SA17 4DL,51.722102559758600,-4.252114847290490
Kite and Tattler,SA15 3RE,51.686875955043300,-4.158378742139030
Armadillo and Grouse,SA15 3TE,51.696915792152300,-4.148350684123610
Egret and Pitohui,SA15 2RL,51.674342788692800,-4.161658895324010
Shearwater and Prion,SA32 8BX,51.825370453455000,-4.199606733476280
Vulture and Argus,SA14 6BG,51.757669004678500,-4.116181987510970
Bronzewing pigeon and Stint,SA31 1JU,51.857584701319100,-4.302314364703210
New World blackbird and Bronzewing pigeon,SA17 4AA,51.720057016175300,-4.241994000671250
Pitohui and Marmoset,SA15 3LN,51.689613315758700,-4.156714891180300
Viscacha and Coati,SA17 4GA,51.734848027614000,-4.234613000000000
Mink and Herring gull,SA14 9PL,51.681156000000000,-4.101458000000000
Fish eagle and Ground sloth,SA15 1DJ,51.680510464829800,-4.160752075822320
Condor and Marsh harrier,SA15 2TA,51.678309676676900,-4.169398623455780
Chickadee and New World blackbird,SA4 3LZ,51.636644600844300,-4.096769112508170
New World blackbird and Tattler,SA14 8LP,51.690587800811300,-4.132410047079390
Fulmarine petrel and Prion,SA4 3XL,51.641451441011500,-4.099520229218870
Macaw and Masked owl,SA15 1NR,51.679978921284600,-4.152973224416130
Egret and Parakeet,SA4 3FH,51.641538954015800,-4.109684869436960
Jerboa and Herring gull,SA17 4AG,51.717298986198800,-4.238078858546880
Kākāriki and Minke whale,SA15 5HZ,51.739011497451100,-4.195452116498590
Mouse and Logrunners,SA31 2HG,51.866117000000000,-4.285392000000000
Armadillo and Asiatic leopard,SA15 2LW,51.675539090958600,-4.168470642284380
Dolphin and Rabbit,SA17 5RT,51.768769282662500,-4.367652983149030
Condor and Grouse,SA31 1HT,51.863532655827200,-4.296140146587850
Siskin and Badger,SA17 4RE,51.747839202418800,-4.280573796833900
New World blackbird and Pitohui,SA14 8YY,51.701852289292000,-4.099653191185390
Nukupuʻu and Badger,SA14 8LS,51.688383405568200,-4.129007668380170
Ice seal and Darwin's finches,SA15 4DF,51.689514862711900,-4.180062568514810
Siskin and Gull,SA15 1RP,51.675521327813800,-4.153803151984250
Minke whale and Warbler,SA32 8QL,51.885408851054000,-4.084309929812420
Zebra and Asiatic leopard,SA31 2PA,51.852768802122900,-4.291976159369120
Puffleg and Bunting,SA33 5QF,51.860151647068900,-4.487538029049140
Prion and Francolin,SA15 3AA,51.681054532134900,-4.164900771495300
Boto and Lemming,SA31 2HS,51.853958000000000,-4.285473000000000
Old World quail and Wallaby,SA17 5LR,51.788556117758600,-4.234341131061200
Prion and Fish eagle,SA15 3YD,51.681983171400100,-4.160865612741980
Thicketbird and Old World quail,SA32 8EB,51.813816000000000,-4.279407000000000
Prion and Kestrel,SA15 1PY,51.674801671305100,-4.148909128761270
Linsang and Asiatic leopard,SA14 7EB,51.805240730509500,-4.097028821588220
Booted eagles and Tattler,SA32 8AH,51.846421000000000,-4.200706000000000
Condor and Nukupuʻu,SA33 5JB,51.783760352172500,-4.418866795281250
Booted eagles and Egret,SA31 2LE,51.848747921189500,-4.292497789546810
Snipe and Chipmunk,SA15 2HY,51.671766460894800,-4.153581570602660
Shearwater and Mink,SA31 3QQ,51.845527622841900,-4.336849304197320
Prion and Pitohui,SA14 6EB,51.787151000000000,-4.100945000000000
Ibex and Partridge,SA17 4HD,51.736332653871600,-4.233559168704700
Booted eagles and Philippine hawk-owl,SA17 4UU,51.737239000000000,-4.308117898376270
Minke whale and Chicken,SA14 8SU,51.686471330047600,-4.141186434603360
Solitaire and Grackle,SA33 5BG,51.824851000000000,-4.329367847976170
Logrunners and Fish eagle,SA15 4RU,51.711646787486700,-4.170299192617670
Pratincole and Mockingbird,SA17 4YH,51.736542582775500,-4.308740903100840
Hawaiian honeycreeper and Jay,SA31 2PH,51.845427000000000,-4.272757000000000
Greenbul and Ground sloth,SA17 5AZ,51.739120252982700,-4.307261000000000
Capuchin and Mouse,SA15 5NU,51.759838848250800,-4.203114118381670
Parakeet and Grackle,SA31 2AU,51.866660603714000,-4.289298105390530
Kite and Rabbit,SA14 9TL,51.677792000000000,-4.096471000000000
Myna and Moluccan boobook,SA33 6HY,51.885525535568000,-4.292146083260710
Warbler and Marmoset,SA15 1EZ,51.683157146751300,-4.136024594492910
Black cockatoo and Booted eagles,SA15 1SR,51.681157631721200,-4.155387103146360
B and American sparrow,SA15 5SH,51.762590685613900,-4.226957212847710
Rabbit and Kangaroo,SA31 2AS,51.869293944916200,-4.287064052922660
Macaw and Fish eagle,SA32 7LT,51.873161259975600,-4.190200707643060
Bunting and Crow,SA17 5PA,51.781581348347300,-4.296658067158830
Philippine hawk-owl and Vole,SA14 8BS,51.705232818871800,-4.142506703633470
Coati and White ibis,SA15 3HD,51.685747000000000,-4.163577000000000
Mole and Moluccan boobook,SA15 1DA,51.676296155639400,-4.157152269988790
Elephant and Stilt,SA15 1HZ,51.681682355734800,-4.140468570906260
Ibex and Kangaroo,SA32 8BU,51.821271008233300,-4.190395708069380
Cloud rat and Duck,SA15 3LA,51.687461382161400,-4.165655043528600
Mouse and Parrotbill,SA15 3NU,51.690045281998700,-4.148849957910380
Black cockatoo and Parakeet,SA15 2AP,51.671225971931700,-4.147250165476820
Puffleg and Bunting,SA32 7HF,51.893492397143100,-4.275967931142520
Snipe and White ibis,SA14 8UD,51.694342584566000,-4.081521858517650
Quetzal and Petrel,SA15 2UF,51.678115031200000,-4.164790086300000
Zebra and Stint,SA14 6DE,51.776296438338600,-4.090337080729630
Prion and Prion,SA15 4SA,51.699005728431500,-4.180837249220770
Masked owl and White ibis,SA17 4SF,51.762321924582500,-4.255189036466800
Chicken and Fish eagle,SA15 5UJ,51.751560817129600,-4.212461896244820
Treepie and Zebra,SA31 2JR,51.866368455611300,-4.267712725578700
Buzzard and Mouse,SA31 2NZ,51.852430720337500,-4.295231000000000
Buzzard and Treepie,SA15 2LE,51.675924447931900,-4.169516021362530
Stilt and Linsang,SA15 5YD,51.743716856337600,-4.187963000000000
Darwin's finches and Ground sloth,SA15 1EF,51.683997597644000,-4.151558118630250
Old World quail and River dolphin,SA33 6NF,51.873814755161900,-4.394700291039080
Partridge and Old World vulture,SA15 3PB,51.687787318223400,-4.152331061306800
Marsh harrier and Mouse,SA14 6HT,51.791260000000000,-4.124497000000000
Vulture and Nukupuʻu,SA15 1HN,51.683446982864900,-4.145774280920920
Stint and Songlark,SA14 6BS,51.778861057053300,-4.109359819379420
Egret and American sparrow,SA15 3LJ,51.689399189074500,-4.160046947993350
B and New World blackbird,SA4 3XN,51.641795480341700,-4.101199000000000
Thicketbird and Parrotlet,SA33 5BY,51.831463391426200,-4.411308000000000
Zebra and Towhee,SA17 4TR,51.737197317502200,-4.302529000000000
Pheasant and Bunting,SA14 9EL,51.683807927847500,-4.121458319019400
Vulture and Marmoset,SA17 5BJ,51.740511000000000,-4.308204000000000
Elephant and Mamo,SA14 9LR,51.673369935494400,-4.102327104943000
Siskin and Kite,SA32 8PG,51.829671871861600,-4.150847653786650
Dolphin and Old World warbler,SA15 2LZ,51.674794296955300,-4.175189710690980
Scimitar babbler and Chickadee,SA32 8PH,51.819852000000000,-4.184073000000000
Cuscus and Civet,SA33 5AW,51.802748700697200,-4.403753476365130
Dorcopsis and Tree warbler,SA15 5LD,51.780224556501200,-4.163455915141820
Black jay and Civet,SA16 0XZ,51.680652029706500,-4.166733187109540
Rabbit and Old World vulture,SA17 5HY,51.782253241595600,-4.254066473654270
Meadowlark and Ice seal,SA32 8JU,51.862366297595800,-4.130708496155470
Quetzal and White ibis,SA15 1PQ,51.681231155979400,-4.147448793142260
Tahr and Fulmarine petrel,SA33 4ND,51.821676172416000,-4.467233793434290
Ice seal and B,SA32 8BA,51.878372766560300,-4.092643698031980
Jay and Perching duck,SA31 1LQ,51.857224741112300,-4.303704685809840
Maya and Vole,SA15 4BX,51.686119290700000,-4.174966574600000
Darwin's finches and Fulmarine petrel,SA33 5LX,51.775807588895800,-4.397957308340210
Kākāriki and Diving bird,SA32 8SN,51.886095434590800,-4.123344459805020
Petrel and Parakeet,SA14 9AS,51.684963753584600,-4.113714624121550
Scimitar babbler and Fulmarine petrel,SA33 5JS,51.770711000000000,-4.391327134381570
Dorcopsis and Black jay,SA14 8ER,51.702869406220000,-4.133031094705850
Snipe and New World blackbird,SA33 4RR,51.755810552588700,-4.483927076549690
Nukupuʻu and Grouse,SA15 5PY,51.761748862791900,-4.208192317818090
Recurvebill and Jerboa,SA17 4AP,51.715140444748700,-4.238565800585440
Diving bird and Asiatic leopard,SA17 5DD,51.791465646657600,-4.201682884239260
Mink and Parrotlet,SA15 5SS,51.760126598843500,-4.226488124563850
Tattler and Gull,SA17 4NP,51.757041881185600,-4.278559761048300
Argus and Boto,SA15 5NE,51.773599666011100,-4.155485318154860
Ibex and Scimitar babbler,SA14 9ST,51.670418000000000,-4.096492000000000
River dolphin and Siskin,SA33 5JA,51.814159497924000,-4.440406000000000
Partridge and Myna,SA15 3YW,51.684946568904400,-4.155711792234310
Herring gull and Perching duck,SA15 1HR,51.676774710740300,-4.159981139567170
Minke whale and Diving bird,SA16 0AZ,51.691984000000000,-4.273278000000000
Siskin and Mockingbird,SA33 5AZ,51.816774852849700,-4.385347123668490
Scimitar babbler and Condor,SA15 2SL,51.680485294045100,-4.165047199080630
Grouse and Mole,SA15 3EQ,51.686148000000000,-4.148144000000000
Nukupuʻu and Chicken,SA32 8PA,51.825276862890400,-4.171753330503500
Viscacha and White ibis,SA15 4BZ,51.686045686800000,-4.175541746900000
Towhee and Partridge,SA15 9DA,51.680660066600000,-4.166734205000000
Linsang and Bunting,SA14 9SU,51.667105912286100,-4.096078924236460
Jerboa and Eagle,SA31 1QL,51.857118850794300,-4.308186788811690
Grouse and Mole,SA16 0EA,51.696832676812000,-4.239904873427630
Herring gull and Skunk,SA15 1JX,51.677476456171700,-4.142295230566090
Nukupuʻu and Kākāriki,SA17 5ES,51.819036000000000,-4.212328000000000
Marsh harrier and Macaw,SA15 3PA,51.688456743488000,-4.151133025006970
Linsang and American sparrow,SA17 5SE,51.769425000000000,-4.368658000000000
Masked owl and Songlark,SA14 9SA,51.670307044412800,-4.095084224144670
Elephant and Greenbul,SA17 4GL,51.733821424400000,-4.234580103600000
Crow and Lemming,SA31 2LD,51.849230397038600,-4.298185168856200
Kestrel and Triller,SA17 5PR,51.782009815835000,-4.299579540893330
Vole and Parrotlet,SA17 4JA,51.734227000000000,-4.227068000000000
Crow and Tit-tyrant,SA33 4NF,51.806068000000000,-4.470138000000000
Kestrel and Black cockatoo,SA17 5SR,51.761670202892800,-4.370513147995930
Magpie and Old World warbler,SA15 4RL,51.712740000000000,-4.219628000000000
Triller and Asiatic leopard,SA14 6LU,51.791410547080300,-4.093994323123650
Bronzewing pigeon and Tit-tyrant,SA14 9NG,51.677681183960800,-4.114633808120690
Petrel and Shearwater,SA14 8HE,51.702519000000000,-4.135562000000000
Kākāriki and Philippine hawk-owl,SA4 3LQ,51.638094158866200,-4.100694703986500
Cloud rat and Logrunners,SA14 6SY,51.799913000000000,-4.093301000000000
Boto and Siskin,SA31 2BR,51.853536727269000,-4.303298420791060
Boto and Ground sloth,SA31 3GL,51.861182915000000,-4.322338636600000
Nukupuʻu and Tree warbler,SA15 3DU,51.688254000000000,-4.169934099460500
Condor and Macaw,SA31 2NF,51.844387000000000,-4.307724000000000
Kestrel and Maya,SA16 0YY,51.689432000000000,-4.271790000000000
Marsh harrier and Wallaby,SA31 1PQ,51.856056851793700,-4.305939539197510
Minke whale and Elephant,SA32 8PT,51.819721978392900,-4.149604530628150
Asiatic leopard and Zebra,SA4 3XB,51.642905439495100,-4.094644281953100
Darwin's finches and Ground sloth,SA31 3PH,51.845859000000000,-4.326186407845170
Puffleg and Mink,SA31 3EB,51.857288860425100,-4.312349004145570
Night heron and Condor,SA17 5AX,51.738669073413100,-4.307154636824490
Armadillo and Mouse,SA14 7EW,51.813504215403400,-4.109120665995700
Vole and Rat,SA15 5HU,51.778264449616400,-4.168651000000000
Tahr and Piping shrike,SA15 1DT,51.682912890236500,-4.154805034567540
Eagle and Francolin,SA17 5JA,51.747163536595000,-4.341879330697600
Eagle and B,SA17 5SH,51.766486009103200,-4.369837952873440
Jay and Rat,SA17 4RY,51.755409338470200,-4.252699986793990
Peafowl and Ground sloth,SA15 5SE,51.759739017159300,-4.223686737786810
Moluccan boobook and Treepie,SA16 0YP,51.688469344368600,-4.261020927455060
Duck and Buzzard,SA4 3YU,51.642581591348800,-4.111713417474760
Lemming and Pheasant,SA4 3XJ,51.640826351338600,-4.099274551367840
Towhee and Hawk,SA15 2DX,51.666757881900000,-4.144176097100000
Snipe and Scimitar babbler,SA14 8YW,51.697210376990600,-4.089163894554960
Goose and Condor,SA32 8HS,51.836010388512700,-4.126691167396380
Guillemot and Ice seal,SA15 3AH,51.681871954558200,-4.164462392597340
Rat and Zebra,SA31 1SY,51.863909077019900,-4.316377969513840
Pratincole and Egret,SA33 5RS,51.882139992621900,-4.429000224243150
Philippine hawk-owl and Parakeet,SA17 5BB,51.747089670465300,-4.296428603596330
Vulture and Black cockatoo,SA15 1PZ,51.685456651488500,-4.143569042825210
Siskin and Puffleg,SA17 4ND,51.767282424677300,-4.286539924957470
Wader and Boto,SA16 0US,51.690544245345800,-4.283913337767640
Nukupuʻu and American sparrow,SA14 8JG,51.746389012777000,-4.128315973283610
Macaw and Ground sloth,SA15 2AN,51.668912097252400,-4.147892728282810
Thicketbird and New World blackbird,SA17 4GB,51.735274947000000,-4.234753216900000
Pratincole and Myna,SA14 9BD,51.682829000000000,-4.131365000000000
Dolphin and Boto,SA14 8HA,51.702248921772000,-4.133030846791300
Jerboa and Rat,SA33 5BE,51.818574216165100,-4.345088686090810
Prion and Nukupuʻu,SA14 6DD,51.784892491028200,-4.087341810631700
Grackle and White ibis,SA32 7PE,51.889698153154500,-4.160064389663860
Argus and Macaw,SA14 8GJ,51.692669213500000,-4.130641965000000
Petrel and Thicketbird,SA15 4HW,51.690314530507400,-4.166008307221060
Minke whale and Ibex,SA17 4SU,51.735662166617700,-4.306407587763780
Fox and Towhee,SA31 1HB,51.859012301123800,-4.305640497109370
Condor and Cuscus,SA15 1JN,51.676037612118000,-4.144266765874570
Pratincole and Skunk,SA15 2PB,51.671645934182900,-4.167460241750680
Fish eagle and Mole,SA16 0TR,51.686565026447200,-4.273947118699730
Tahr and Mole,SA4 3XP,51.640837746287600,-4.100648109264190
Stint and Stint,SA14 7TB,51.842224107644300,-4.096149038949230
Chickadee and Buzzard,SA15 2DY,51.669663362626100,-4.144182558066740
Cloud rat and Snipe,SA17 5TA,51.769875875343100,-4.366290429579870
Mole and Darwin's finches,SA15 5UL,51.727762831083300,-4.187809000000000
Crow and Logrunners,SA16 0UU,51.691825000000000,-4.286105000000000
Ice seal and Jerboa,SA15 1TG,51.677187688814900,-4.160507061114220
Macaw and Pratincole,SA31 2DS,51.850132832420100,-4.300322104006820
Zebra and Egret,SA14 8RH,51.686226621539000,-4.124956819787290
Armadillo and Boto,SA15 2TD,51.679377802804100,-4.168046549680150
Songlark and River dolphin,SA17 4RD,51.747621330366600,-4.281142316916780
Logrunners and Pratincole,SA33 5PA,51.862188913649600,-4.475377036375940
Night heron and Chicken,SA31 2HN,51.866483382928500,-4.292049000000000
Stilt and Moluccan boobook,SA15 1NU,51.679081077430900,-4.155346321005280
Marsh harrier and Macaw,SA15 4BS,51.687116591300000,-4.174518000000000
Badger and Wallaby,SA31 1HL,51.861961959592500,-4.303977000000000
Pheasant and Thicketbird,SA17 5PB,51.780884648736800,-4.295955755997280
Duck and Grackle,SA33 5AE,51.817229000000000,-4.347674000000000
Minke whale and Viscacha,SA15 1NA,51.680315951116400,-4.150775972134580
Maya and Mamo,SA14 8EX,51.706997000000000,-4.144935000000000
Argus and Masked owl,SA16 0SA,51.685290111325600,-4.240159522793820
Mouse and Parrotbill,SA17 4PH,51.745643548522100,-4.285736373665150
Badger and Old World warbler,SA31 1DL,51.860644827454100,-4.307684718908930
Civet and Macaw,SA16 0UA,51.687173211783700,-4.275639000000000
Hawk and Mouse,SA33 6NH,51.885778282705900,-4.384194000000000
Jay and Jackal,SA16 0HU,51.682679471706900,-4.270728816675280
Skunk and Chipmunk,SA17 4UP,51.734112522433800,-4.311586057223710
Civet and Chipmunk,SA17 5YY,51.736542582775500,-4.308740903100840
Boto and Ground sloth,SA14 8YJ,51.701715357127900,-4.082598420207580
Jerboa and Egret,SA16 0LP,51.684333729949200,-4.247852214550030
Herring gull and Macaw,SA33 5NZ,51.853599640762400,-4.437119315903260
Elephant and Masked owl,SA17 5RU,51.768758902121700,-4.367275584255270
Towhee and Buzzard,SA17 4EW,51.709776169376700,-4.257596378518780
Stint and Darwin's finches,SA14 8WD,51.692000754584900,-4.089329051762390
Mockingbird and Peafowl,SA15 5UD,51.752463096413600,-4.210753000000000
Mink and New World blackbird,SA14 9DR,51.680756000000000,-4.133046830646460
Night heron and Wallaby,SA15 4LL,51.698246870027700,-4.148341393301080
Zebra and Ice seal,SA14 8PL,51.691321000000000,-4.141083000000000
Quetzal and Diving bird,SA14 6BN,51.781638221179200,-4.113447345789130
Scimitar babbler and Flameback,SA32 8NT,51.827388106142200,-4.173320716064850
Grackle and Solitaire,SA17 5TH,51.773286097071200,-4.360829992320290
Partridge and Booted eagles,SA14 6BD,51.753578600478700,-4.117613469250440
Thicketbird and Grackle,SA33 5EQ,51.836760000000000,-4.433983000000000
Maya and Vulture,SA15 1PJ,51.679310398908000,-4.156080481244670
Warbler and Francolin,SA4 3FA,51.642804465961700,-4.113819550630710
Hawaiian honeycreeper and B,SA31 3PL,51.846546237228500,-4.325388238153310
Skunk and Old World quail,SA31 3HQ,51.854789987520000,-4.327788403623850
Mamo and Kite,SA17 5TD,51.769137892439900,-4.367657787021230
Grouse and Cloud rat,SA15 5NF,51.767517000000000,-4.142977000000000
Tit-tyrant and Armadillo,SA17 5PU,51.777965533951600,-4.310913630913650
Old World warbler and Nukupuʻu,SA17 4DR,51.725114610775900,-4.254016702125410
Siskin and Capuchin,SA15 5PT,51.762142531615100,-4.207342017515200
Bronzewing pigeon and Darwin's finches,SA14 9HT,51.677010551765400,-4.113922724054990
Thrasher and Maya,SA32 8RL,51.871341817055200,-4.099144766101000
Puffleg and Night heron,SA32 8PE,51.825329831132700,-4.154704126711330
Marsh harrier and Solitaire,SA15 2PJ,51.673344175300000,-4.167484127700000
New World blackbird and Flameback,SA31 3DL,51.857657291789400,-4.317843033891060
Guillemot and Fish eagle,SA17 5UB,51.758485431553200,-4.360753133262070
Snipe and Civet,SA31 1SE,51.857866741231500,-4.307193953000890
Linsang and Marsh harrier,SA15 2UE,51.677887514130900,-4.164011958234020
Perching duck and Kangaroo,SA31 1HJ,51.861433217307100,-4.301871874952200
Bunting and Jackal,SA14 8DH,51.703338468374700,-4.139377850731460
Meadowlark and Marmoset,SA14 8JU,51.739319665830400,-4.093858361544350
Hawk and Crow,SA31 2AN,51.870346217452600,-4.286594492387870
Booted eagles and Bunting,SA31 3EP,51.858369016810400,-4.328699371345600
Marmoset and Marmoset,SA31 3SA,51.846721855106300,-4.347321622336560
Francolin and Chickadee,SA15 3NJ,51.693523343090300,-4.152400703339440
Pheasant and Herring gull,SA17 4RU,51.751702330613900,-4.252805224152060
Kangaroo and Condor,SA33 6JA,51.890282000000000,-4.302343000000000
Buzzard and Nukupuʻu,SA31 3GU,51.861410081800000,-4.322219623700000
Wallaby and New World blackbird,SA33 5DB,51.829964038675700,-4.424187579493360
Pitohui and Fish eagle,SA15 3AQ,51.684090200183200,-4.154354614203450
Pitohui and American sparrow,SA15 2EF,51.673203491596300,-4.160042581565520
Cloud rat and Stilt,SA14 8HN,51.705421646594900,-4.133122238732950
Hawk and Recurvebill,SA14 6SP,51.795079444207300,-4.088435953522860
Greenbul and Wader,SA15 1LD,51.680910036704900,-4.155158353199560
Thicketbird and Thrasher,SA15 1EG,51.683797038123500,-4.151215871316660
Goose and Lemming,SA31 3GH,51.860940748000000,-4.324127132800000
Triller and Zebra,SA4 3FN,51.641295156365000,-4.109239955702080
Logrunners and Ibex,SA17 4TQ,51.733521039808600,-4.303242617520380
Guillemot and Old World quail,SA15 1LG,51.680502399746000,-4.153359707192000
Marsh harrier and Recurvebill,SA14 9HG,51.680934891876300,-4.119211976635150
Quetzal and Vulture,SA14 9NW,51.679101092600500,-4.110186844618570
Chickadee and Tattler,SA33 6AW,51.874211100500000,-4.383128366200000
Piping shrike and Magpie,SA31 1LG,51.856621700212500,-4.303731960332210
Armadillo and Magpie,SA31 3LY,51.853054317081400,-4.325520576965140
Ground sloth and Vulture,SA15 2BJ,51.668353183746800,-4.146000705242890
Moluccan boobook and Fish eagle,SA14 7NG,51.813613272141900,-4.088408022912710
Hawaiian honeycreeper and Flameback,SA31 3EG,51.858921426628100,-4.323049286800000
Capuchin and River dolphin,SA14 8BH,51.698718306534800,-4.143703903139380
Songlark and Magpie,SA17 4NZ,51.770000000000000,-4.290730691222230
Minke whale and Skunk,SA15 3PD,51.688200859277800,-4.152828133697480
Argus and Petrel,SA14 9NT,51.678321053959900,-4.109557507274380
Quetzal and Solitaire,SA14 8DX,51.688056679672100,-4.130164247106010
Lemming and New World blackbird,SA15 1RS,51.677035934821400,-4.151141229993480
River dolphin and Ice seal,SA17 4SX,51.738725261090900,-4.295106265619970
Mamo and Triller,SA33 5BH,51.835447993057900,-4.346720494092710
Guillemot and Asiatic leopard,SA31 9BF,51.850856567800000,-4.305572612400000
River dolphin and Nukupuʻu,SA16 0BE,51.687039349546300,-4.248739000000000
Tahr and Jerboa,SA14 8AA,51.693160141024200,-4.145220942064320
Lemming and Grackle,SA15 5LR,51.774375000000000,-4.129778000000000
Kestrel and Kite,SA31 1SD,51.863925311184400,-4.310525264339210
Siskin and Bronzewing pigeon,SA14 7DB,51.799078456104500,-4.134133027201130
Philippine hawk-owl and Petrel,SA31 2EP,51.864171322238300,-4.292904571227900
Elephant and Siskin,SA14 9EH,51.684149097080000,-4.121488739818020
Black cockatoo and Rabbit,SA14 9WA,51.677923000000000,-4.130701000000000
Diving bird and Greenbul,SA16 0BY,51.691553123869300,-4.250293624045270
Philippine hawk-owl and Tahr,SA15 3JU,51.690664005622900,-4.156793790867920
Old World quail and Logrunners,SA14 6AJ,51.790473572299400,-4.121168920540570
Linsang and Civet,SA31 3DX,51.857566462908300,-4.314236692547280
Towhee and Songlark,SA14 8GE,51.689730074726200,-4.089079769928680
Darwin's finches and Magpie,SA4 3JS,51.635549940852800,-4.105172607370070
Fish eagle and Egret,SA31 2LA,51.849184437965100,-4.300535087107700
Recurvebill and Zebra,SA31 1JD,51.862696892342600,-4.301631396846270
White ibis and Tahr,SA14 8RL,51.685678275412200,-4.126435733586580
Ground sloth and Coati,SA4 3GA,51.640887552409700,-4.104393734676520
Lemming and Crow,SA31 3BG,51.856268579243400,-4.312558076028150
Fulmarine petrel and Piping shrike,SA17 4EF,51.728643794213300,-4.267355869102590
Old World quail and Chickadee,SA17 4UE,51.733444426302900,-4.308061552117760
Jackal and Kestrel,SA32 7HS,51.892766322932400,-4.278634576429790
Mouse and Badger,SA15 1BB,51.675348000000000,-4.157425000000000
Magpie and Fish eagle,SA14 9UH,51.687026061277900,-4.099010268101770
Myna and Ground sloth,SA33 5QE,51.859566444217800,-4.485443332804050
Snipe and Treepie,SA17 4AW,51.715576973609500,-4.239253312961700
Petrel and Parrotbill,SA31 1BU,51.857403378662900,-4.305601776903250
Ground sloth and Fulmarine petrel,SA31 3QX,51.846872475162200,-4.333884421879640
Moluccan boobook and Siskin,SA17 5JF,51.748212843275200,-4.341386000000000
Petrel and Black jay,SA15 1RF,51.674463600639200,-4.151540000000000
Prion and Mink,SA31 1JT,51.856193718144900,-4.305133000000000
Badger and Dolphin,SA15 5LB,51.780335937170400,-4.164244119751870
Thrasher and Pratincole,SA16 0UG,51.687949580000500,-4.278603003974810
Grouse and White ibis,SA16 0YS,51.692820960128400,-4.261977000000000
Pitohui and Grosbeak,SA17 5TB,51.768721092047900,-4.368259226182450
Viscacha and Perching duck,SA15 1AY,51.674308197468800,-4.159140554277200
Jackal and Petrel,SA31 3HN,51.851807382545400,-4.334894945209230
Towhee and Egret,SA15 3AP,51.681064391747700,-4.164366002948450
Dorcopsis and Condor,SA15 3NZ,51.694974204730500,-4.150762067315520
Polecat and Pitohui,SA15 1HW,51.683096575308700,-4.146249569406360
Warbler and Armadillo,SA14 9UR,51.686860049653400,-4.102257802961740
Polecat and Treepie,SA31 2JW,51.878692000000000,-4.273070647505590
Jackal and Philippine hawk-owl,SA32 8PB,51.826087570280200,-4.159964750403590
Vulture and Zebra,SA17 5AW,51.769429632520600,-4.297402000000000
Snipe and Moluccan boobook,SA14 8PP,51.693520358868200,-4.138784430827900
Piping shrike and Fox,SA15 2RD,51.675962493218500,-4.165019443697140
Kestrel and Grosbeak,SA15 5SR,51.761477000000000,-4.236438000000000
Marsh harrier and Fox,SA15 5YU,51.728269110568000,-4.188501781292620
Mole and Solitaire,SA16 0SY,51.688580029713500,-4.237876832522250
Masked owl and Old World quail,SA15 2TJ,51.679576526743800,-4.166537172947100
Vole and Siskin,SA15 1TS,51.679064237662600,-4.160176919928250
Tattler and Thicketbird,SA16 0BX,51.702452710479500,-4.264308937353140
Snipe and Old World quail,SA32 8PF,51.825771573390900,-4.174665081068760
Towhee and Armadillo,SA31 1AN,51.856571000000000,-4.305908000000000
Tit-tyrant and Petrel,SA14 6BR,51.779834810180800,-4.109216784734230
White ibis and Greenbul,SA31 2PL,51.847615576800000,-4.297029087000000
Old World vulture and Zebra,SA16 0AJ,51.689432069612200,-4.274032984304660
Asiatic leopard and White ibis,SA32 8SD,51.892782921405400,-4.105492609063950
Piping shrike and Skunk,SA15 4LS,51.694749400865900,-4.154195327226530
Night heron and Grackle,SA15 1SS,51.681158881472200,-4.156298516102610
Pitohui and Puffleg,SA31 3AB,51.856115973395600,-4.308425890032330
Ice seal and Herring gull,SA17 5AH,51.754502418186200,-4.290762590748560
Jerboa and White ibis,SA14 9LE,51.675648998154500,-4.114625895506660
Black jay and Asiatic leopard,SA14 8QY,51.693901176521000,-4.127226433712260
Songlark and Guillemot,SA14 8DW,51.703827866700500,-4.139169376032050
Capuchin and Ibex,SA14 9EU,51.681797116444800,-4.116778555519480
Parrotbill and Condor,SA17 5SN,51.764699564657600,-4.371019748137370
Marmoset and Dolphin,SA33 5RN,51.882385989909600,-4.401259049827560
Snipe and Francolin,SA14 7BS,51.793035170333300,-4.147972264450770
Prion and Philippine hawk-owl,SA31 2EN,51.862506853497700,-4.294330435093180
Crow and Kangaroo,SA15 4BG,51.687000291747400,-4.199169511513420
Black cockatoo and Ibex,SA15 2NU,51.672705420853700,-4.167062479273140
Stint and White ibis,SA15 2AQ,51.665047376600000,-4.162908795500000
Pitohui and Marmoset,SA14 6BQ,51.753580979164700,-4.116483438899990
Linsang and Cuscus,SA15 3HQ,51.685903275221400,-4.144718605922400
Badger and Fox,SA31 2ER,51.865334809702200,-4.294111264882890
Night heron and Cloud rat,SA33 5JH,51.770748000000000,-4.393456000000000
Mouse and Polecat,SA16 0AR,51.684803304124900,-4.258060469708430
Warbler and Black jay,SA14 8RQ,51.684400394927700,-4.130455501930380
Jackal and Skunk,SA15 1NQ,51.680628908059000,-4.146637000000000
Ice seal and Greenbul,SA4 3GL,51.642022648566500,-4.110791330677380
Ice seal and Black jay,SA15 2HS,51.671259960267400,-4.156044000000000
Wallaby and Rabbit,SA14 7HU,51.806320666879900,-4.084342816912740
Pitohui and Kākāriki,SA15 1RE,51.674685361973100,-4.150350006416440
Coati and Diving bird,SA15 1BD,51.674845394818600,-4.156822957837400
Puffleg and Black cockatoo,SA14 8QF,51.691895000000000,-4.134758000000000
Rat and Gull,SA15 3FD,51.685642989934000,-4.147151280269660
Grouse and Solitaire,SA15 1NY,51.677864247792500,-4.154030077288950
Grackle and Recurvebill,SA31 2AX,51.867233748360100,-4.288034414062160
Francolin and Vulture,SA14 8EW,51.703071068233900,-4.133315567535910
Scimitar babbler and Booted eagles,SA15 3RF,51.686646429989000,-4.157167003109410
Treepie and Darwin's finches,SA14 7AY,51.800088043177800,-4.135979209154360
Ice seal and Buzzard,SA17 4NU,51.755054170387200,-4.276720884300590
Rabbit and Thicketbird,SA14 6AU,51.749809619643100,-4.133083949933920
Treepie and Thrasher,SA16 0NG,51.683401084562900,-4.240659381163710
Jay and Tree warbler,SA32 8HP,51.827327897741500,-4.146744943454400
