name,postcode,lat,lon
Armadillo and Marmoset,NE23 7HU,55.055521629921100,-1.592608838484680
Jerboa and Ice seal,NE23 6EB,55.078969000000000,-1.585007600603280
Flameback and White ibis,NE12 5UZ,55.041619282040500,-1.581780198446950
Snipe and Flameback,NE3 5JY,55.015882000000000,-1.619643000000000
Logrunners and Francolin,NE29 8RD,55.017775584434500,-1.488739000000000
Flameback and Myna,NE12 7NU,55.027425862356600,-1.580551317077080
Petrel and Condor,NE34 0TW,54.968390508753900,-1.440819345663850
Hawk and Stilt,NE6 5TJ,54.991073000000000,-1.571502619632180
Cuscus and Minke whale,NE29 8LN,55.015484533035900,-1.472301585917080
Herring gull and Old World warbler,NE34 8EW,54.966599394200000,-1.407309273000000
Jay and Black jay,NE3 4UD,55.000262207834900,-1.655573275750840
Bunting and Vole,NE3 4NA,54.997436239109600,-1.629618194289650
Quetzal and Grackle,NE30 3QD,55.026342090941400,-1.446473695162610
Ibex and Night heron,NE31 2PD,54.965799337711900,-1.517795298751170
Ground sloth and Wallaby,NE22 5NH,55.132061226519000,-1.575628868306700
Grouse and Bunting,NE12 6BW,55.034766715806100,-1.552531098551860
Francolin and Pitohui,NE2 2JP,54.989627011445000,-1.595667220213990
Night heron and Puffleg,NE2 1HP,54.986457124058000,-1.590964051970400
Jay and Tattler,NE4 5JR,54.977104427687900,-1.636929505042900
Civet and Armadillo,NE22 7DW,55.144954000000000,-1.590475000000000
Shearwater and Gull,SR6 7QE,54.954905141796800,-1.399985941128180
Civet and Boto,NE28 0BJ,54.992155242200000,-1.498990158100000
Maya and Jackal,NE29 8SL,55.018473542417700,-1.484085909869780
Siskin and Herring gull,NE25 0PZ,55.076745962881300,-1.539360838951080
Quetzal and Dorcopsis,NE32 5XW,54.976189326388400,-1.487455662152110
Argus and Kangaroo,NE33 2RP,54.995414069318800,-1.425735325151260
White ibis and Maya,NE6 5JA,54.983009326719200,-1.583873737617030
Herring gull and Old World warbler,NE28 8SB,54.995055543429600,-1.537826893473960
Dorcopsis and Perching duck,NE29 7HY,55.010361980031600,-1.468084416575260
Dolphin and Herring gull,NE24 2PH,55.123359391744400,-1.514519946270560
Kite and Vole,NE4 5EP,54.976236073288500,-1.632047303993090
Wader and Armadillo,NE29 0AL,55.009996534784700,-1.448559451524930
Tree warbler and Kite,NE33 1BL,54.997827172635600,-1.432500642447890
Jerboa and River dolphin,NE28 8SQ,54.995116604058400,-1.537341646700420
Kākāriki and Stint,NE28 6TT,54.992032000000000,-1.502492000000000
Kangaroo and Jay,NE2 4PS,54.979938362666300,-1.611779689733500
Jay and Meadowlark,NE5 3RA,54.990614219189200,-1.673034912118200
Dorcopsis and Linsang,NE32 4XB,54.951462000000000,-1.492251000000000
Jackal and Masked owl,NE34 7BH,54.977862749673400,-1.386847827700970
Black cockatoo and Jerboa,NE61 6HE,55.108613818319500,-1.667370520025420
Tattler and Polecat,NE99 4BQ,54.967460000000000,-1.615383000000000
Warbler and Ice seal,NE6 3JP,54.964801062337700,-1.557806804016390
Magpie and Herring gull,NE30 2TF,55.016944000000000,-1.429087000000000
Towhee and Fox,NE29 7AH,55.003602774699600,-1.476022001599360
Tree warbler and Piping shrike,SR6 7QH,54.953026442162700,-1.401700258477590
Kākāriki and Marmoset,NE25 0HT,55.066430500918500,-1.516336307647100
Duck and Argus,NE22 6AA,55.124348124262800,-1.600879000000000
Nukupuʻu and Wader,NE25 9XP,55.048000225596800,-1.477274006401070
Rat and Fulmarine petrel,NE26 1QA,55.046814484758900,-1.450997000000000
Magpie and Condor,NE15 7PX,54.978805433098600,-1.676068120691130
Buzzard and Diving bird,NE2 2DT,54.991564742353700,-1.605619101439790
Chicken and Coati,NE25 0AN,55.072118998250800,-1.520950227639800
Songlark and Boto,NE31 2LS,54.962512044799700,-1.522785506418200
White ibis and Pratincole,NE26 1HW,55.056421909603600,-1.457095369171680
Pheasant and Elephant,NE12 8EJ,55.016455793341800,-1.578554531733140
Peafowl and Prion,NE24 3PX,55.110631197655400,-1.506836407820060
Mockingbird and Philippine hawk-owl,NE26 3BB,55.047843862174800,-1.457946955293050
Ice seal and Zebra,SR6 7HQ,54.960070917111700,-1.367769164951780
Duck and Vulture,NE25 9EE,55.032917553642800,-1.468098745308550
Argus and New World blackbird,NE29 0JJ,55.009105303865700,-1.460236133108420
Diving bird and Kangaroo,NE23 3AN,55.106821121683300,-1.581335098264720
Ice seal and Flameback,NE23 6YD,55.084891261247600,-1.590665000000000
Mole and Myna,NE2 1JX,54.986960102337200,-1.596272218893560
Tattler and Argus,NE3 1UL,55.008741000602700,-1.615160497286220
Asiatic leopard and Thicketbird,NE13 6LL,55.045564850065500,-1.623290107417980
Mamo and Kestrel,NE30 4NB,55.020413970584500,-1.427646064320200
Pheasant and Jerboa,NE32 4QB,54.956112766043600,-1.487195767005460
Old World warbler and Black cockatoo,NE24 5QY,55.119398414701700,-1.524116476170500
White ibis and Parrotbill,NE23 6QE,55.085516106474200,-1.589562711234780
Perching duck and Dolphin,NE4 8AD,54.972267799201700,-1.654766050965270
Chipmunk and Myna,NE2 1RF,54.982722939944600,-1.594877152122480
Old World vulture and Recurvebill,NE26 9BW,55.018206539900000,-1.490360957900000
Francolin and Stint,NE13 6JE,55.044676809083900,-1.626725726779350
Fox and Bunting,NE6 4AG,54.984587000000000,-1.560181000000000
Asiatic leopard and Polecat,NE12 2GN,55.018278000000000,-1.568040000000000
Flameback and Mouse,NE4 8XL,54.973454000000000,-1.660942000000000
Elephant and Maya,NE28 8HE,54.993229000000000,-1.534597000000000
Thicketbird and Shearwater,NE29 9BQ,55.015530684451300,-1.456240244111900
Kangaroo and Francolin,NE29 7QU,55.007880037700000,-1.462895153500000
Partridge and Badger,NE32 4TD,54.954454982469400,-1.496929237662180
Armadillo and Recurvebill,NE25 0BA,55.070250433722800,-1.516540818448670
Hawaiian honeycreeper and Kākāriki,NE25 0FG,55.076812000000000,-1.530573000000000
Scimitar babbler and Bronzewing pigeon,NE7 7LW,55.006874654055900,-1.599574000000000
Stint and Grosbeak,NE99 1SX,54.967366559954600,-1.615383000000000
Kite and Greenbul,NE10 0UA,54.959943437033900,-1.539338000000000
Vulture and Pitohui,NE32 5NX,54.966046663901300,-1.501126619384220
Bunting and Chicken,NE36 0HT,54.948084078205100,-1.445347669816930
Thicketbird and Kestrel,NE5 2EH,54.983129021822900,-1.673158200220120
Kākāriki and Logrunners,NE30 3SP,55.025597678403500,-1.436988989906140
Fox and Armadillo,NE6 4XE,54.987772911815000,-1.539207618660790
Pheasant and Parrotlet,NE2 2JH,54.988313065132700,-1.597790173954320
Puffleg and Jerboa,NE28 7NA,54.992274076172400,-1.529559630179900
Argus and Rat,NE28 0DS,54.999909000000000,-1.497014735464500
Condor and Guillemot,NE27 0GT,55.035249000000000,-1.525785000000000
Thicketbird and Coati,NE8 3QR,54.954460529472500,-1.584059267630700
Chicken and Booted eagles,NE6 5RP,54.990773340744800,-1.583840351982390
Guillemot and Booted eagles,NE26 1NT,55.043091204876200,-1.444224119139280
Petrel and Old World quail,NE24 5QZ,55.118017861245600,-1.524963837762350
Grouse and Grouse,NE31 2BY,54.964549568334900,-1.508642114142050
Wader and Guillemot,NE30 3AD,55.028890799793400,-1.439836937746810
Old World quail and Jerboa,NE5 3DF,55.001108121831900,-1.665680421684640
Kangaroo and Zebra,NE6 5DJ,54.985381865114700,-1.573535599816920
Old World quail and Armadillo,NE8 2GX,54.958273578475200,-1.626495827553090
Black jay and Wallaby,NE29 9BJ,55.016946025893900,-1.455235839728390
Ice seal and Quetzal,NE12 9PB,55.013807285020800,-1.566572000000000
Viscacha and Logrunners,NE4 9XL,54.983492056747300,-1.651763396570620
Tahr and Grouse,NE8 4NY,54.948722465019100,-1.606943880911270
Solitaire and Goose,NE12 8DA,55.016635622911600,-1.573423107464510
Diving bird and Songlark,NE24 3QN,55.111699349617900,-1.506997000000000
Myna and Argus,NE3 2QD,55.016270720810700,-1.650697666962870
Maya and Duck,NE15 6NH,54.971047023398100,-1.671491056141520
Fox and Chickadee,NE31 2PA,54.967196426955000,-1.516591478141550
Ibex and Triller,NE34 9TA,54.963692312170200,-1.439229021816190
Elephant and Treepie,NE8 4RY,54.947369251238900,-1.608096744987880
Perching duck and Songlark,NE25 9QE,55.042925167924900,-1.486103000000000
River dolphin and Booted eagles,NE25 0ED,55.072091006152000,-1.527590613124660
Thicketbird and Prion,NE6 4NY,54.986771598564800,-1.557549842366980
Mouse and Kestrel,NE2 1TR,54.984312656868400,-1.602987000000000
Mink and Puffleg,NE28 0EL,55.004826702690500,-1.497769020051960
Armadillo and Shearwater,NE6 2SR,54.968285206219700,-1.564578900629620
Booted eagles and Thrasher,NE34 8JQ,54.959091112709900,-1.427611855442640
Badger and Tit-tyrant,NE34 9EY,54.969055860003100,-1.448776537960300
Grosbeak and River dolphin,NE34 9BS,54.972720000000000,-1.456223300489350
Eagle and Ibex,NE62 5UW,55.156254709038100,-1.576517839160230
Coati and Diving bird,NE6 3PH,54.976704534454400,-1.539927981309220
Masked owl and Old World vulture,NE23 1NJ,55.089586999427500,-1.581687398853200
Quetzal and Chickadee,NE4 5BL,54.977347359082700,-1.631052867609580
Philippine hawk-owl and River dolphin,NE8 1YH,54.952017753070500,-1.611705158168730
Bunting and Elephant,NE23 6AJ,55.083117948886500,-1.592579221160540
Treepie and Goose,NE26 4EB,55.082751749593100,-1.475630615138390
Thicketbird and Quetzal,NE33 2DN,55.000116782144100,-1.430170358878510
Ibex and Bronzewing pigeon,NE27 0RE,55.038113000000000,-1.508901000000000
Vole and Piping shrike,NE13 9GA,55.030777106900000,-1.653606791200000
Solitaire and Mouse,NE29 0LL,55.015396031293500,-1.450268175950850
Puffleg and Eagle,NE13 6NT,55.046441000000000,-1.616472000000000
Fish eagle and Scimitar babbler,NE25 0RX,55.085235097941200,-1.517738756349820
Shearwater and American sparrow,NE34 8PY,54.970863467039900,-1.410714251511500
Marmoset and Fulmarine petrel,NE6 4UF,54.983238000000000,-1.544557000000000
Old World vulture and Grosbeak,NE32 4XP,54.953462897892100,-1.491742040323380
Hawaiian honeycreeper and Wallaby,NE4 5JN,54.974004298986400,-1.636973074540320
Thicketbird and Puffleg,NE34 9JX,54.963084221230800,-1.457729355938690
Marmoset and Skunk,NE24 3NW,55.118758649080000,-1.512302295964000
Badger and White ibis,NE25 9HD,55.043467214325000,-1.486910417723950
Parakeet and Gull,NE29 0LY,55.011713648048500,-1.450709448585490
Chickadee and Old World vulture,NE6 2BW,54.971377953233500,-1.577745423171190
Parakeet and Pheasant,NE26 2BA,55.042825495217100,-1.439188770332340
Polecat and Quetzal,NE12 8TY,55.009503139525800,-1.592372000000000
Eagle and Guillemot,NE24 4EB,55.122055623417700,-1.544594385679070
Lemming and Parrotbill,NE3 2JA,55.017456531877900,-1.626352897147310
Diving bird and Buzzard,NE29 8JE,55.019384846638800,-1.470295386650990
Vulture and Duck,NE1 5AW,54.973583684049200,-1.614497000000000
Wader and Tahr,NE3 4DU,55.005310542942600,-1.627450688811300
Prion and Treepie,NE5 2SA,54.988449697446300,-1.666832619508610
Vulture and Rat,NE3 3HT,55.013414855964700,-1.632958221408690
Maya and American sparrow,NE24 1AY,55.128419225065100,-1.510192940542500
Kite and Polecat,NE32 3HD,54.977173680446100,-1.465601372061460
Kite and Bronzewing pigeon,NE29 7NP,55.011110568332200,-1.473001000000000
Dorcopsis and Maya,NE8 2QP,54.952924413744300,-1.637615763804880
Rat and Puffleg,NE30 3SA,55.028583198865600,-1.439387561427220
Puffleg and Hawaiian honeycreeper,NE33 5LW,54.981185453369900,-1.440469743105170
Tree warbler and Lemming,NE30 2LD,55.020091706648600,-1.431748412605380
Parakeet and Peafowl,NE34 8AN,54.963543646929500,-1.411555408130750
Piping shrike and Pitohui,NE28 9UQ,55.012630963494700,-1.512057892832950
Marsh harrier and Black jay,NE6 2EA,54.972774807846200,-1.573731598779850
Perching duck and White ibis,NE6 1EA,54.976034356967000,-1.583023000000000
Capuchin and Wallaby,NE30 4LU,55.018512974051500,-1.424701590790670
Solitaire and Scimitar babbler,NE6 4ER,54.975256427111900,-1.551614740979790
Chicken and Eagle,NE1 4NF,54.975209826200100,-1.619761611585860
Songlark and Mamo,NE8 1YJ,54.952350000000000,-1.611296000000000
Towhee and Prion,NE12 7PN,55.025519585275100,-1.572452857928930
Treepie and Eagle,NE8 4EJ,54.954928208160400,-1.600122000000000
Meadowlark and Puffleg,NE36 0RX,54.945940331791700,-1.440334658494470
New World blackbird and Jerboa,NE30 2LP,55.020894132056800,-1.432315770842270
Tattler and Warbler,NE24 5LX,55.127790249782100,-1.544999630188160
Marsh harrier and Condor,NE99 1QX,54.978503947885500,-1.610028008172860
White ibis and Nukupuʻu,NE2 2EU,54.993037408317000,-1.594351325148820
Minke whale and Myna,NE28 7HT,55.001793691609400,-1.509860024493920
Magpie and Towhee,NE23 6ET,55.078787451129400,-1.576991460373840
Tattler and Elephant,NE34 7NX,54.971415612814700,-1.402317477363510
Mamo and Hawk,NE2 4DL,54.984849804334700,-1.607716327882450
Old World warbler and Meadowlark,NE4 9LG,54.977195838616100,-1.659223362364080
Myna and Philippine hawk-owl,NE10 0RA,54.956366816163700,-1.546656243176800
Zebra and Night heron,NE4 5AQ,54.978556052978600,-1.635541505170390
Flameback and Mole,NE28 8QS,54.991481342750300,-1.533726235137360
American sparrow and Eagle,NE13 7HT,55.044311936893000,-1.636823099289510
Magpie and Peafowl,NE12 7AD,55.026691855161400,-1.565979928217590
Snipe and Goose,NE29 8QN,55.024290700815200,-1.478897000000000
Wader and New World blackbird,NE34 6AL,54.974784267567000,-1.411281775548620
Jerboa and Capuchin,NE24 3AP,55.127072309198200,-1.501568623535390
Coati and Scimitar babbler,NE11 0LA,54.945907000000000,-1.622724284220380
Parrotlet and Civet,NE23 1HF,55.092806702241500,-1.601255157078490
Logrunners and Kangaroo,NE23 2FA,55.090019366123000,-1.569086245301690
Siskin and Lemming,NE28 0NE,54.998973748665100,-1.499248974458800
Duck and Boto,NE25 9HB,55.044167996755700,-1.489014165004610
Flameback and Bunting,NE23 8HJ,55.086294454670300,-1.607617636929110
Egret and Logrunners,NE23 7LF,55.044630643622300,-1.574283915965540
Parakeet and Parrotlet,NE3 1NE,55.002232000000000,-1.616958000000000
Francolin and Booted eagles,SR6 7EY,54.950713620310400,-1.365573971171720
Parrotbill and Bunting,NE25 0GW,55.085174861524200,-1.518413102208790
Condor and Buzzard,NE33 9FP,54.997791000000000,-1.432593000000000
Kestrel and Ground sloth,NE31 1NX,54.974793562700600,-1.519796649593070
Kestrel and Night heron,NE1 2HW,54.971966231544900,-1.603375000000000
Coati and Petrel,SR6 7QX,54.949381518119200,-1.415368782944030
Siskin and Piping shrike,NE26 3NA,55.047929575825200,-1.455003386641460
Hawk and Pratincole,NE2 4NJ,54.983827648444900,-1.628493316335590
Cuscus and Hawaiian honeycreeper,NE29 7NS,55.012323713845200,-1.472843461430240
New World blackbird and Hawk,NE24 2SJ,55.121257352027600,-1.519233669941610
Myna and Coati,NE12 7LB,55.022200370971900,-1.566435090509500
Parakeet and Scimitar babbler,NE34 9UF,54.960986868508200,-1.441062675976810
Peafowl and Logrunners,SR6 7DT,54.951469573222200,-1.358926242118370
Pitohui and Egret,NE34 6SQ,54.978454030792900,-1.400916179559080
Polecat and White ibis,NE24 9DJ,55.127599818100000,-1.506784415700000
Nukupuʻu and Siskin,NE13 9DU,55.027198000000000,-1.654308000000000
Dolphin and Night heron,NE4 9XP,54.984808835579900,-1.650298750229860
Egret and Perching duck,NE6 5BB,54.980119429151100,-1.592934645270820
Viscacha and Stilt,NE6 2TR,54.967576321934100,-1.564867719688500
Puffleg and Wader,NE12 9EJ,55.023750188550100,-1.552685030950260
Mouse and Puffleg,NE23 7XL,55.074582009483200,-1.590160078038710
Boto and Philippine hawk-owl,NE30 2SJ,55.018013732699900,-1.433216620990030
Philippine hawk-owl and Puffleg,NE34 9RL,54.967640531552000,-1.453763036724970
Hawaiian honeycreeper and Pheasant,NE10 8BE,54.949390463696700,-1.529310885022360
Bunting and Grosbeak,NE1 3NH,54.967762144174700,-1.611944000000000
Booted eagles and Skunk,NE10 0PT,54.947625000000000,-1.551860000000000
Jackal and Asiatic leopard,NE34 9BJ,54.969857340475500,-1.455138836363430
Siskin and Jay,NE34 8JR,54.958652235871900,-1.429835624128890
Black jay and B,NE23 6DX,55.079352621888600,-1.584550871220770
Hawaiian honeycreeper and Tree warbler,NE23 7SP,55.063733171381300,-1.551174831985970
Greenbul and Siskin,NE33 2PR,54.997117234942200,-1.430572368156910
Chickadee and Flameback,NE5 3AJ,54.989750337484700,-1.653115807397730
Ground sloth and Jerboa,NE24 1NW,55.131623021609500,-1.518152479026190
Old World vulture and Mink,NE4 5QD,54.971759302645100,-1.628557773540660
Dorcopsis and Lemming,NE34 7EB,54.978069112257600,-1.397578373062590
Shearwater and Parakeet,NE34 8TT,54.961276738267000,-1.422317718491480
Coati and Coati,NE29 6YE,54.999699000000000,-1.466631000000000
Perching duck and Skunk,NE30 1ND,55.007888367422000,-1.443428632554050
Zebra and Fulmarine petrel,NE7 7NS,55.008679466071200,-1.593458700058090
Mockingbird and Crow,NE32 4JP,54.961831232086200,-1.462931278096200
Rat and Chickadee,NE5 3BP,54.992878450857200,-1.656605496960740
Tree warbler and Petrel,NE27 0JQ,55.042273285137600,-1.524874199897330
Meadowlark and Egret,NE1 6NG,54.973772153520700,-1.607840000000000
Fish eagle and Mockingbird,NE10 9NH,54.950610548123200,-1.564972833229860
Snipe and Chicken,NE3 1JZ,55.005375551484500,-1.619556000000000
Darwin's finches and Fox,NE29 7QW,55.007282554584300,-1.464466000000000
Armadillo and Diving bird,NE25 8PL,55.036661944136200,-1.443327328899380
Jackal and Old World warbler,NE33 5HL,54.982353170842200,-1.440359757413020
Fox and Black jay,NE25 9SD,55.038537451335600,-1.479306141858820
Cuscus and Jay,NE6 2JL,54.974483494561300,-1.568574000000000
Old World warbler and Fulmarine petrel,NE3 4XD,55.001756994739700,-1.635034341244390
Zebra and Grouse,NE6 3SN,54.963464716992300,-1.556056616664180
Booted eagles and Pitohui,NE12 9HB,55.024699507194800,-1.549374004797020
Flameback and Duck,NE1 4BD,54.970523127557100,-1.621086768478670
Guillemot and Eagle,NE27 0FS,55.031343632800000,-1.521155049000000
Myna and Black cockatoo,NE29 0RB,55.009769694482800,-1.460102124905930
Shearwater and Shearwater,NE12 9SS,55.020029000000000,-1.528655000000000
Logrunners and Pratincole,NE32 4XJ,54.954394018078700,-1.495227994130790
Nukupuʻu and Argus,NE33 4HA,54.986730179099900,-1.426984412595120
White ibis and Parrotbill,NE2 3DE,54.991958351157100,-1.610647853546230
White ibis and Mockingbird,NE25 9UJ,55.053399856438800,-1.472852102374030
Puffleg and New World blackbird,NE2 4NW,54.980631000000000,-1.629148000000000
Diving bird and Solitaire,NE33 5HH,54.982912870843200,-1.438961276041180
Stilt and Wader,NE3 5AD,55.024083813484200,-1.627808545670360
Stint and Fulmarine petrel,NE29 0HH,55.011666989119800,-1.452196000000000
Kangaroo and Maya,NE8 2GD,54.955924964566100,-1.631342697459770
Chicken and Buzzard,NE8 2GS,54.956922256300000,-1.636127756800000
Eagle and Myna,NE23 6BJ,55.079343121197700,-1.589704190524480
Hawaiian honeycreeper and Kangaroo,NE3 4BH,55.000580747622800,-1.623539446976540
Myna and Bunting,NE24 2ET,55.124902000000000,-1.509203435690980
Night heron and Polecat,NE1 5AY,54.972917000000000,-1.614157000000000
Scimitar babbler and Peafowl,NE2 3DL,54.992515280939200,-1.610579947855670
Egret and Thrasher,NE3 4SD,55.000052601855600,-1.639051682738410
Siskin and Francolin,NE3 2YS,55.016685951412900,-1.657684608199640
Booted eagles and Grosbeak,NE4 8HG,54.967204400160300,-1.656480737411560
Dolphin and Bunting,NE24 2HT,55.121757395330700,-1.509412028479290
Rabbit and Zebra,NE28 7RP,54.991773561131500,-1.527940044101210
Asiatic leopard and Stint,NE25 0QE,55.078238000000000,-1.536822000000000
Rabbit and Old World warbler,NE36 0HX,54.946277405607200,-1.449212989386040
Duck and American sparrow,NE29 0PQ,55.010086166376900,-1.456501507630390
Stint and Scimitar babbler,NE3 2NE,55.016148081174800,-1.627506674492550
Pitohui and Jackal,NE7 7RQ,54.994469526748700,-1.569156613736440
Mink and Badger,NE24 2EL,55.124967557592100,-1.507710491508160
Marsh harrier and Polecat,NE61 6EJ,55.114529361447200,-1.655406890727810
Civet and Grouse,NE28 7RB,54.999886539502200,-1.534519866003340
B and Petrel,NE29 8EQ,55.026470233580900,-1.471265705315510
Dorcopsis and Herring gull,NE28 9BQ,55.006068000000000,-1.526991000000000
White ibis and Boto,NE34 9ED,54.966569651989200,-1.459463050114690
Vole and Mole,NE30 3PF,55.025856634894600,-1.432761875342830
Fish eagle and Fish eagle,NE23 2XN,55.094731224581000,-1.575099623760440
Black cockatoo and Lemming,NE29 0EW,55.007049721839700,-1.454697590736810
Bunting and Lemming,NE31 1UD,54.961429189883100,-1.526234167305950
Pratincole and Chicken,NE25 9UT,55.053456652131900,-1.471442562540740
Triller and Old World quail,NE22 5NW,55.131897955440000,-1.577779287914260
Songlark and Herring gull,NE33 4RT,54.979240152195700,-1.431793982900040
Grosbeak and Gull,NE28 8UD,55.005291787892600,-1.552499468328780
Rabbit and Greenbul,NE25 8QE,55.038271702386900,-1.441630751353730
Shearwater and Mouse,NE34 9BA,54.967712834738700,-1.451856425341170
Linsang and Vole,NE31 2BE,54.959918000000000,-1.505713000000000
Booted eagles and B,SR6 7RL,54.954677864551000,-1.406906000000000
Kestrel and Mole,NE29 7JE,55.009622563035000,-1.471627977006370
Ibex and B,NE12 6TQ,55.037600724913400,-1.576079581492520
Snipe and Eagle,NE26 2SF,55.041579232100000,-1.453649884227460
Fish eagle and Boto,NE31 1HX,54.979285602359600,-1.503837466465790
Stint and Asiatic leopard,NE7 7EU,54.994981692417300,-1.582030594035810
Ice seal and Old World warbler,NE24 3QH,55.107600844815700,-1.510792305914640
Mockingbird and Grackle,NE28 8DQ,54.995539551126000,-1.539868950546660
Viscacha and Shearwater,NE4 6SA,54.968342845500000,-1.638820591300000
Goose and Grouse,NE4 9HR,54.978540180683200,-1.648478311099860
Vole and Parrotbill,NE28 9UE,55.011706614702400,-1.512366211851250
Badger and Chipmunk,NE28 9UP,55.012148816197700,-1.510593852296210
Fulmarine petrel and Diving bird,NE5 3BB,54.992657482681200,-1.654731846485240
Parrotbill and Peafowl,NE32 4RQ,54.952073057465900,-1.475521184053110
Armadillo and Kākāriki,NE28 9UB,55.011476549670200,-1.513260303881110
Kite and Pitohui,NE6 2SS,54.967311647273900,-1.563730342236170
Tree warbler and Maya,NE23 2UF,55.096920822370000,-1.569121751759230
Capuchin and Civet,NE28 0LB,55.000697481575800,-1.498305000000000
Partridge and Black cockatoo,NE33 3BH,54.990809742982200,-1.417470822316870
Peafowl and Wallaby,NE34 9LT,54.959892371786800,-1.451338162281630
Night heron and Vulture,NE34 6WZ,54.997827172635600,-1.432500642447890
Badger and Cuscus,NE24 2DH,55.126565004311500,-1.504977895155840
Grouse and Parrotbill,NE30 3PW,55.027439358737700,-1.450650944237050
Mamo and Civet,NE34 0EL,54.974795146388500,-1.419155460997570
Hawk and Nukupuʻu,NE1 4PF,54.974987113975300,-1.617514056671730
Grosbeak and Skunk,NE30 3QF,55.024911000000000,-1.445727000000000
Diving bird and Pheasant,NE28 6EH,54.988857270962500,-1.531365542297310
Petrel and Guillemot,NE3 4XN,55.002618382351200,-1.634604426836510
Vulture and Old World quail,NE31 2PZ,54.965841830815800,-1.512812000000000
Armadillo and Lemming,NE33 9SH,54.995189568870200,-1.427676726370200
Quetzal and Chickadee,NE31 2XD,54.976158000000000,-1.501423000000000
Fox and Capuchin,NE8 3HN,54.961721372430400,-1.586515000000000
Old World vulture and Jackal,NE1 2PD,54.971896641175700,-1.592830300605400
Fox and Old World vulture,NE32 4AS,54.963987672979200,-1.469009346808790
Asiatic leopard and Mockingbird,NE23 7TH,55.062318099122500,-1.559864444944740
Stint and Mink,NE22 6NL,55.134083677306000,-1.613658523945910
Pheasant and Boto,NE5 3LT,54.992446000000000,-1.662267000000000
Rabbit and Puffleg,NE30 2PW,55.019030955203400,-1.435532620975760
Rat and Argus,NE10 9HB,54.946544438440400,-1.576491256846680
Argus and Myna,NE30 3JE,55.033611974039800,-1.448454395456950
B and Warbler,NE24 2EJ,55.124525487758800,-1.507276857820250
Moluccan boobook and Logrunners,NE6 3LZ,54.971651421541600,-1.541188000000000
Goose and Kangaroo,NE12 8TU,55.009052054692700,-1.586684598312890
River dolphin and Grackle,NE33 2RG,54.998169517123900,-1.426930901236280
Dorcopsis and Stint,NE12 6HF,55.034388279380400,-1.562141813364540
Triller and Scimitar babbler,NE4 5JA,54.974854821877800,-1.632919164596810
Old World quail and Guillemot,NE8 2TH,54.950515510495900,-1.625552862880500
Boto and Pitohui,NE34 7LL,54.984026850103200,-1.403005288447740
Kangaroo and Pheasant,NE24 5DA,55.125324264382900,-1.529785415095080
Maya and Boto,NE6 4UR,54.985401266359600,-1.541781924421980
Parrotbill and River dolphin,NE26 4RS,55.071853414179300,-1.449809000000000
Tahr and Gull,NE61 6HL,55.108665859740600,-1.669987763501630
Hawaiian honeycreeper and Hawk,NE23 6YA,55.074379100942800,-1.580828000000000
Kangaroo and Mink,NE8 4QF,54.949481549613900,-1.611058241389820
Badger and Old World warbler,NE32 3AE,54.970583578292300,-1.466938509712770
Macaw and Jerboa,NE34 7QE,54.972891546426800,-1.399108684674160
Vulture and Pheasant,NE3 4JN,54.996827282278900,-1.639299448439380
Myna and Peafowl,NE24 3BU,55.106220000000000,-1.516591000000000
Wader and Partridge,NE26 4RJ,55.076136671575500,-1.467055939768880
Viscacha and Kestrel,NE1 4ES,54.968958345896000,-1.620710980838440
Old World warbler and Chickadee,NE3 1UA,55.009526669360300,-1.619249623932160
Snipe and Masked owl,NE61 2ZN,55.156791000000000,-1.673292000000000
Diving bird and Chicken,NE33 1DT,54.997702000000000,-1.436224255829880
Guillemot and Buzzard,NE28 7PS,54.993023564321800,-1.526238000000000
Moluccan boobook and Peafowl,NE32 4DP,54.960128214648000,-1.478399161428820
Old World quail and River dolphin,NE31 1EH,54.978869000000000,-1.530011782225080
Mockingbird and Scimitar babbler,NE5 3BR,54.994505319809200,-1.659936474882860
Black cockatoo and Mink,NE13 7AN,55.018550961899600,-1.665910764564660
Rabbit and Goose,NE32 4JB,54.961232004548800,-1.467671338840110
Marmoset and Prion,NE1 6SN,54.970567000000000,-1.609135234125430
Polecat and Marmoset,NE23 7AX,55.057648848379600,-1.581268821593540
Herring gull and B,NE24 2LB,55.125487000000000,-1.518289000000000
Asiatic leopard and Warbler,NE6 5HS,54.981773875424300,-1.579995812205480
Darwin's finches and B,NE28 7LB,54.992910000000000,-1.519518000000000
Fish eagle and Fox,NE26 3SF,55.049508783279600,-1.456484518904510
Quetzal and Vole,NE61 6HS,55.109015912452900,-1.666536416082060
Masked owl and Puffleg,NE34 9HQ,54.964274500734500,-1.444687426444930
Masked owl and Puffleg,NE2 2HE,54.994743585655700,-1.599413977268300
Night heron and Cloud rat,NE31 2BR,54.957105000000000,-1.503390000000000
Duck and Towhee,NE22 6BD,55.136253236142900,-1.623535161505630
Viscacha and Greenbul,NE28 8UQ,54.999433058974200,-1.555034519961310
Cuscus and Skunk,NE1 7AT,54.975731000000000,-1.613945000000000
Zebra and Fulmarine petrel,NE1 5BE,54.973919791969600,-1.612478219132240
Old World vulture and Guillemot,NE32 4QQ,54.952833000000000,-1.476431141310620
Grackle and Shearwater,NE1 2EQ,54.970792000000000,-1.606464748819340
Black cockatoo and Petrel,NE8 4NG,54.950847295388600,-1.608203448991760
Kākāriki and Linsang,NE34 8LX,54.964286355716100,-1.427850401896640
Armadillo and Tattler,NE32 3TR,54.967954834705500,-1.474111644680700
Minke whale and Bronzewing pigeon,NE26 3YJ,55.018203421204600,-1.490360822967910
Songlark and Coati,NE1 4SR,54.974191916870900,-1.618757000000000
Jackal and Old World quail,NE6 5LE,54.988018132982800,-1.579649358253640
Armadillo and Towhee,NE30 1NT,55.008295368284900,-1.444001520346200
Crow and Prion,NE3 1AX,55.008601033138400,-1.610705665193710
Jerboa and Nukupuʻu,NE24 5TJ,55.120785923436400,-1.522751547995840
Triller and Booted eagles,NE3 2HS,55.015419647577400,-1.624401393676030
Herring gull and Old World quail,NE5 2ED,54.980710013599900,-1.672521592301450
Elephant and Stint,NE6 5SS,54.989622817181800,-1.570818217910550
Diving bird and Hawk,NE3 4UF,55.010314000000000,-1.626716000000000
Flameback and Jerboa,NE34 7EW,54.977820326931800,-1.390926313673580
Parakeet and Tit-tyrant,NE22 5JP,55.133197350912700,-1.576746099438150
Old World quail and Hawaiian honeycreeper,NE33 2EL,55.003254000000000,-1.428281000000000
Civet and Fulmarine petrel,NE1 6PD,54.973269148329300,-1.602720000000000
Cuscus and Masked owl,NE1 2LF,54.972456440190400,-1.599042059777680
Vole and Fish eagle,NE7 7BS,54.997645371852100,-1.593757770655850
Old World warbler and Mole,NE34 7PT,54.972220678859600,-1.390698585022380
Prion and Masked owl,NE34 8RB,54.962203405463900,-1.433877000000000
Pratincole and Pitohui,NE12 9NS,55.016628962529300,-1.566448255028200
Parrotlet and Old World quail,NE32 4DA,54.961549270979800,-1.482894222013750
Thrasher and Bunting,NE29 6HW,54.998510894240900,-1.474712720337180
Maya and Gull,NE6 4QR,54.982468959426600,-1.563019203766160
River dolphin and Coati,NE25 0EE,55.072526082234300,-1.528556451488790
Kestrel and Myna,NE22 5QX,55.133056843095800,-1.582911519919000
Dolphin and Jackal,NE3 4NQ,55.003433736950500,-1.639834298973720
Chicken and Night heron,NE8 1DT,54.959025877585900,-1.600237630625840
Petrel and Moluccan boobook,NE33 3BE,54.992104130303700,-1.415670327855760
Puffleg and Parakeet,NE25 0BJ,55.070938933243900,-1.517941927204450
Mole and Masked owl,NE10 9NL,54.950605347986000,-1.563520861668340
Black jay and Boto,NE24 2EH,55.123595537633600,-1.508417308127640
Stint and White ibis,NE34 9PT,54.978303000000000,-1.448729534324700
Marmoset and Marsh harrier,NE12 7EF,55.034595000000000,-1.590958000000000
Wallaby and Asiatic leopard,NE99 1SN,54.978503947885500,-1.610028008172860
Egret and Moluccan boobook,NE2 1RW,54.980654785005400,-1.599913534990210
Ice seal and Chickadee,NE32 5UN,54.968823541455900,-1.475506131501290
Peafowl and Scimitar babbler,NE29 6LR,55.004528035354200,-1.447493133548200
Duck and Fulmarine petrel,NE32 5QG,54.967877528839900,-1.491982000000000
Hawk and Herring gull,NE22 5HB,55.139097000000000,-1.570299000000000
Philippine hawk-owl and Songlark,NE22 5YA,55.137997284703400,-1.574562013216670
Armadillo and Quetzal,NE13 7AL,55.021810000000000,-1.667714000000000
New World blackbird and Tit-tyrant,NE29 1DY,55.018206539900000,-1.490360957900000
Eagle and Skunk,NE15 6QU,54.974177765456700,-1.662920134887430
Piping shrike and Condor,NE25 9HL,55.042908870811600,-1.490908081340580
Chicken and Mink,NE25 9UQ,55.051875712386900,-1.471588596857340
Nukupuʻu and Night heron,NE26 4QW,55.083853718253400,-1.491956000000000
Diving bird and Marmoset,NE8 2HP,54.951065000000000,-1.631653000000000
Duck and American sparrow,NE32 4XG,54.953628403786900,-1.494800380501410
Flameback and Cloud rat,NE23 6JH,55.079639886512100,-1.581838127154870
Magpie and Capuchin,NE12 9PL,55.013753365854400,-1.563930310936490
Chickadee and Pratincole,NE32 3QD,54.983660338510600,-1.479781881927470
Black jay and Old World quail,NE32 4BZ,54.960666798493100,-1.482468268704480
Chipmunk and Ice seal,NE28 7LF,54.993364510837600,-1.518856080572150
Philippine hawk-owl and Stilt,NE3 3RT,55.008976000000000,-1.657641000000000
Civet and Meadowlark,NE32 3RS,54.970960708753400,-1.467276000000000
Parakeet and Polecat,NE24 3TF,55.115738583627000,-1.509877687936100
Wader and Parakeet,NE31 2DZ,54.965866190075100,-1.505346029185350
Dolphin and Buzzard,NE13 6DF,55.080539245150400,-1.647444137784110
Mockingbird and Meadowlark,NE26 2HX,55.041268174847300,-1.446455789908350
Puffleg and Civet,NE4 5NQ,54.974565873332100,-1.641498522239430
Wallaby and Buzzard,NE5 2SF,54.990021000000000,-1.676072000000000
Grouse and Badger,NE34 0HL,54.971129347951200,-1.423066795311930
Minke whale and Shearwater,NE27 0AQ,55.042738013546600,-1.528843559368380
Philippine hawk-owl and Hawk,SR6 7BZ,54.948516551076700,-1.364734255551490
Stilt and Rabbit,NE26 4QT,55.079948403558500,-1.501402556655960
Moluccan boobook and Pratincole,NE23 6DN,55.082323608173000,-1.583548902486230
Macaw and Ice seal,NE27 0AE,55.039166000000000,-1.525083000000000
Minke whale and Darwin's finches,NE4 8RL,54.973479806146000,-1.641758000000000
Flameback and Logrunners,NE2 3AT,54.989171349691000,-1.607455416922450
Kite and Minke whale,NE6 3BE,54.971487277727600,-1.555452683785180
Perching duck and Thrasher,NE32 4AR,54.963554034899600,-1.468484040986140
Fulmarine petrel and Badger,NE3 1DP,55.009746714519400,-1.623547476378080
Wader and Dolphin,NE8 2HE,54.953940511898100,-1.623038345528790
Solitaire and Mouse,NE3 1EH,55.009604581559800,-1.624080433150950
Wader and Dorcopsis,NE12 7BR,55.027348981689000,-1.558792685682080
Meadowlark and B,NE3 3AD,55.008456307804100,-1.645715226092950
Zebra and Tit-tyrant,NE99 1BE,54.967366559954600,-1.615383000000000
Stilt and Perching duck,NE1 8QE,54.979081713861400,-1.608053761013750
Fish eagle and B,NE24 5TA,55.131562250836100,-1.530372000000000
River dolphin and Mole,NE5 3LW,54.993875818837900,-1.659941000000000
Fox and Black cockatoo,NE36 0AJ,54.948563000000000,-1.420664920023840
Ground sloth and Ice seal,NE33 4TZ,54.982173872652400,-1.428846216618920
Scimitar babbler and Guillemot,NE8 4DP,54.956416223268900,-1.601653000000000
Linsang and Kākāriki,NE8 1SS,54.955031363035200,-1.609896026639610
Egret and Treepie,NE13 6PS,55.041632838521900,-1.627489492259820
Old World quail and Old World quail,NE25 0HP,55.065867318177700,-1.517079024846400
Jackal and Elephant,NE29 8BE,55.019118191658400,-1.477211729545700
Polecat and Flameback,NE2 1SQ,54.982028843626300,-1.603869000000000
Mamo and Francolin,NE13 6NG,55.053198509603500,-1.624721190746580
Minke whale and Tattler,NE62 5LT,55.159779000000000,-1.603474502727570
Chickadee and Mink,NE8 1PZ,54.959432000000000,-1.600624000000000
Scimitar babbler and Black jay,NE5 3AW,54.989790446987500,-1.651427599720110
Treepie and Moluccan boobook,NE1 4AE,54.970257465116200,-1.619464705833080
Triller and Stint,NE31 1BW,54.980929615892100,-1.526270333312260
Kite and Coati,NE29 0QE,55.014875354744700,-1.468603319656160
Condor and Nukupuʻu,NE61 6EN,55.108709149826500,-1.666084401655460
River dolphin and Lemming,NE10 9XH,54.947106114549900,-1.555097130078240
Kangaroo and Buzzard,NE10 8BF,54.951630360400000,-1.540823370600000
White ibis and Thrasher,NE8 4LB,54.950204576829900,-1.603978568383160
Vulture and Crow,NE4 8AA,54.975655091183900,-1.654580786990210
Pheasant and Philippine hawk-owl,NE23 3FR,55.102065526743000,-1.591352276331370
Kite and Argus,NE3 5PL,55.027360808417500,-1.618142123790530
Nukupuʻu and New World blackbird,NE24 2LR,55.125330232184300,-1.512990642964580
Kite and Mole,NE35 9JD,54.953276275595600,-1.471149132228560
Logrunners and Snipe,NE33 3JH,54.987598645616700,-1.413110298885970
Songlark and Bronzewing pigeon,NE34 8LZ,54.962794824567100,-1.431729242949690
Quetzal and Coati,NE31 2XW,54.976031626793000,-1.499221877775600
Scimitar babbler and Stilt,NE23 7HR,55.056261188589200,-1.593415356200260
Recurvebill and Marsh harrier,NE30 2NS,55.024972002350500,-1.433508000000000
Flameback and Ibex,NE6 2TB,54.970574329126900,-1.563913694317800
Fulmarine petrel and Solitaire,NE35 9HN,54.954650207869200,-1.464760243657660
Mamo and Wader,NE23 6EL,55.073964015971200,-1.585452374487590
New World blackbird and Siskin,NE22 5SA,55.125672000000000,-1.593793000000000
Mouse and Old World vulture,NE12 9NZ,55.015159022091800,-1.564994107285530
Pitohui and Grouse,NE22 5JS,55.133649513485900,-1.574984649424320
Civet and Old World quail,SR6 7RF,54.952440020786000,-1.421663706540080
Grouse and Jay,NE5 3LQ,54.993203000000000,-1.659885000000000
Night heron and Marsh harrier,NE6 4SY,54.989014240000100,-1.549132891400630
River dolphin and Marsh harrier,NE12 6LX,55.034373066348100,-1.555461240126680
Macaw and Vole,NE11 9BJ,54.951421096684700,-1.642812950375540
Cuscus and Shearwater,NE28 8EE,54.998366208622600,-1.545979903455870
Linsang and Nukupuʻu,SR6 7QB,54.956459070359600,-1.401664900415760
Jerboa and Masked owl,NE2 4AN,54.984624680479900,-1.627595258896920
Ibex and Mouse,NE28 7LQ,54.994788841452400,-1.519870000000000
Vulture and Macaw,NE32 5UW,54.975834400148900,-1.486679000000000
Maya and Perching duck,NE29 6XU,54.999330571442200,-1.458741548379320
Diving bird and Night heron,NE27 9SA,55.022693934745300,-1.509417500203780
Skunk and Crow,NE31 1QX,54.973992917217700,-1.517306628424460
Masked owl and Logrunners,NE34 8TG,54.961912716892500,-1.419997177966860
Triller and Minke whale,NE12 9DD,55.023936067836700,-1.542249947269250
Parrotlet and Jackal,NE22 6LD,55.137017323999300,-1.603763813269270
Parrotlet and Jackal,NE34 7HA,54.975130522135700,-1.383218065108470
Meadowlark and Linsang,NE26 3DQ,55.051858571207300,-1.459489324113800
Linsang and Herring gull,NE27 0LZ,55.036506360762400,-1.498530900819240
Elephant and Triller,NE24 4DT,55.124094317403700,-1.541889779575500
Coati and Coati,NE8 1QR,54.958056843682400,-1.608992239170150
Meadowlark and Marsh harrier,NE33 1PR,54.996225308213200,-1.432007415159640
Jackal and Maya,NE10 0BT,54.949583000000000,-1.571385000000000
Moluccan boobook and Ground sloth,NE29 9BB,55.015035351560000,-1.455996730614990
Shearwater and Meadowlark,NE3 1TF,55.008113812904000,-1.604707000000000
Kangaroo and Pratincole,NE2 2JY,54.988759159639300,-1.594113139614990
Francolin and Wallaby,NE23 2QD,55.090701770066700,-1.574045583728880
Dorcopsis and Mole,NE26 2DX,55.039908465223200,-1.439949308603240
Towhee and Old World quail,NE3 2XU,55.020069784735000,-1.662707560237740
Parakeet and Ibex,NE29 6LQ,55.004431862703100,-1.444133102806010
Chipmunk and Fox,NE4 9UA,54.984983869632300,-1.651797372484950
Chickadee and Mink,NE32 5TH,54.969828297451100,-1.485630893905570
Warbler and Elephant,NE4 5JS,54.978218227096600,-1.636763224306080
Kestrel and Cuscus,NE25 9HY,55.042659768085000,-1.472492308330320
Jerboa and Hawk,NE23 7PA,55.045900259456500,-1.580201899085920
Wallaby and Old World vulture,NE6 1DH,54.971374000000000,-1.586821000000000
Asiatic leopard and Wallaby,NE28 9UT,55.012164838483500,-1.510108905686490
Kākāriki and Songlark,NE25 0ES,55.072193243363800,-1.533133238170870
Marmoset and Herring gull,NE4 5TJ,54.972743000000000,-1.626612000000000
Songlark and Recurvebill,NE34 9PS,54.977226000000000,-1.454867000000000
Jerboa and Argus,NE22 6DD,55.132676394155100,-1.603555830993070
Grackle and Viscacha,NE3 3UG,55.008096207641300,-1.639370395079700
Darwin's finches and Herring gull,NE12 6SZ,55.037717455308500,-1.558350235248550
Flameback and Zebra,NE2 3HJ,54.994443607649500,-1.609420284508380
Piping shrike and Ground sloth,NE11 9TP,54.949732725402200,-1.643171392212830
Bronzewing pigeon and Duck,NE23 2DF,55.084857669912900,-1.573152063857820
Mole and American sparrow,NE29 6TJ,55.003949225300000,-1.449971427400000
Civet and Greenbul,NE23 7EZ,55.065197268179800,-1.553444495104370
Quetzal and Parrotlet,NE32 4SJ,54.957608904698900,-1.492533003797680
Fox and Boto,NE34 0DD,54.972685849767200,-1.438838208298540
Lemming and Old World quail,NE11 9EZ,54.958720590029300,-1.647043000000000
Stint and Siskin,NE29 8LT,55.016283262969600,-1.474276000000000
Maya and Snipe,NE30 3DY,55.032662746535900,-1.435450630343280
American sparrow and Marsh harrier,NE34 0RW,54.981219041479700,-1.424547212133680
Vole and Flameback,NE12 6DY,55.028512951694000,-1.577880583000910
Towhee and Bronzewing pigeon,NE23 7QE,55.061112238561600,-1.592974818509130
Kangaroo and Kite,NE25 8DS,55.041751127401400,-1.464022643552860
Booted eagles and New World blackbird,NE30 3LG,55.034742924989100,-1.440287304827660
Hawaiian honeycreeper and Mockingbird,NE27 0PA,55.034954729590600,-1.505856963845690
Hawk and Marsh harrier,NE13 9AW,55.022338008400000,-1.653225915400000
Lemming and River dolphin,NE6 4AR,54.981460809160700,-1.557576960394160
Solitaire and Greenbul,NE27 0TF,55.034362512970300,-1.503861585802820
Badger and Stilt,NE2 3ET,54.992550323386700,-1.607500607036440
Recurvebill and Kestrel,SR6 7SE,54.954667320160600,-1.417618709929420
B and Triller,NE8 1TR,54.953173316553700,-1.607759255711340
Lemming and American sparrow,NE33 4LU,54.992549750438100,-1.428136275005950
Lemming and Black cockatoo,NE15 6RT,54.972415868744800,-1.665965469350690
Warbler and Songlark,NE26 1AB,55.042970185063600,-1.445274290435910
Ground sloth and Zebra,NE24 2EG,55.125033673411100,-1.506282687342450
Dorcopsis and Badger,NE25 8DF,55.042177337537000,-1.460824584817310
Quetzal and White ibis,NE24 4BB,55.109557212098300,-1.533042805768890
Stilt and Parrotlet,NE6 3BS,54.972439000000000,-1.545226000000000
Vulture and Condor,NE10 0HQ,54.953414425158200,-1.567425000000000
Stilt and New World blackbird,NE26 3LR,55.045211250857300,-1.456010582308140
Kestrel and Old World warbler,NE34 0HD,54.973573000000000,-1.421077000000000
Duck and Partridge,NE26 1RY,55.051823946821900,-1.451741730929780
Parakeet and Guillemot,NE1 2QF,54.974512000000000,-1.595350000000000
Booted eagles and Old World vulture,NE10 9LW,54.952075878699500,-1.570187629311450
Recurvebill and Francolin,NE23 8JT,55.085624341590000,-1.614454448953650
Rat and Black jay,NE23 1WA,55.102653011119700,-1.606031317732030
Crow and Zebra,NE99 1NT,54.978503947885500,-1.610028008172860
Macaw and Magpie,NE7 7JU,54.995785592651800,-1.572862636718740
Stilt and Snipe,NE3 2SP,55.018614628876400,-1.647064566455860
Argus and Civet,NE6 4HJ,54.979519776681400,-1.552660971738650
Partridge and Parakeet,NE28 7LW,54.991935751197500,-1.530220000000000
Cuscus and River dolphin,NE30 4PX,55.037520001919500,-1.434521777163780
Dolphin and Chipmunk,NE33 4AH,54.986631897572900,-1.429017359934130
Maya and Cloud rat,NE25 9NP,55.039074000000000,-1.486998000000000
Grosbeak and Parrotlet,NE29 6BN,55.002845576311800,-1.467198906867640
Songlark and Boto,NE28 0NG,54.998743907470200,-1.500690000000000
Capuchin and Darwin's finches,NE25 9EA,55.033107711252200,-1.466375240584510
Partridge and Cuscus,NE23 6XW,55.077028840951500,-1.552576665108630
Crow and Condor,NE34 6JZ,54.982570000000000,-1.402621000000000
White ibis and Black cockatoo,NE3 5JH,55.014019201894700,-1.616204632912960
Argus and Rat,NE26 3LT,55.044016167582700,-1.458045568704770
Lemming and Mole,NE13 6DL,55.076274764514100,-1.645696136576220
Tit-tyrant and Cloud rat,NE29 1DZ,55.018206539900000,-1.490360957900000
Ibex and Myna,NE3 3YW,55.007572919084100,-1.663766101106220
Stilt and New World blackbird,NE10 0YD,54.952959007039200,-1.548412000000000
Grackle and Viscacha,NE34 8UA,54.960394793908600,-1.420019000000000
Tree warbler and Cloud rat,NE31 1AN,54.981883788700300,-1.519805828240250
Condor and Quetzal,NE8 4NL,54.949200579306000,-1.604737838312050
Tattler and Badger,NE3 2PT,55.013840689640400,-1.649389568325350
Fish eagle and Philippine hawk-owl,NE6 2LN,54.971146347898100,-1.563048336348540
Darwin's finches and Dolphin,NE24 5JF,55.121610821881600,-1.529217502590160
Marsh harrier and Tattler,NE4 6AH,54.971333857269400,-1.627813000000000
Mole and Ibex,NE10 0JR,54.953193610100000,-1.567927000000000
Cuscus and White ibis,NE8 1TD,54.954600522633800,-1.612866993421790
B and Treepie,NE3 4XY,54.998296744876700,-1.625968093960590
Puffleg and Skunk,NE10 0UF,54.957865646606400,-1.536613887327990
Songlark and Kākāriki,NE2 1BG,54.978299022053300,-1.599609000000000
Maya and Pratincole,NE4 7RE,54.965413718134700,-1.640096170740430
Rabbit and Moluccan boobook,NE28 0HW,55.003382685469500,-1.491940030030810
Vulture and Egret,NE12 7HT,55.020026904514200,-1.569305041298150
Towhee and Mamo,NE34 8BP,54.967341000000000,-1.408779447025620
Vulture and Tree warbler,NE3 1QX,55.005510427941800,-1.605326042140500
Thicketbird and Guillemot,NE29 0BX,55.007642856503500,-1.452703847491890
Ibex and Gull,NE13 9EH,55.028197000000000,-1.658023000000000
Cuscus and New World blackbird,SR6 7JW,54.948136709725100,-1.371188169753860
Triller and Pitohui,NE23 6LT,55.071711000000000,-1.578194000000000
Warbler and Linsang,NE29 0RL,55.012775643592900,-1.461125107087570
Philippine hawk-owl and Grouse,NE30 1BD,55.009288853163700,-1.443127798984770
Piping shrike and Thrasher,NE23 7TB,55.065940968977200,-1.547987209129710
Diving bird and Mink,NE22 7DA,55.144423860570700,-1.572438460678090
Rat and Maya,NE35 9AQ,54.950350000000000,-1.463629083886870
Darwin's finches and Prion,NE28 9JN,55.006625832399300,-1.536771483674470
Guillemot and Towhee,NE23 1PX,55.093129646737200,-1.579691852333600
Dolphin and Capuchin,NE5 2EQ,54.980019474203500,-1.673042817896920
Jackal and Skunk,NE4 8SA,54.970711137816600,-1.647781209551450
Triller and Macaw,NE27 0QF,55.020940561210200,-1.496112000000000
Perching duck and Tit-tyrant,NE34 6NQ,54.979121400994800,-1.414327602488610
Meadowlark and Old World quail,NE6 1RP,54.973818000000000,-1.581533342261020
Triller and Prion,NE26 2JG,55.040453411717500,-1.445136920086660
Tree warbler and Cloud rat,NE12 9LP,55.019133084232600,-1.560587597732500
Old World quail and Prion,NE29 8BX,55.020935380921800,-1.479768792296800
Eagle and Egret,NE29 0DZ,55.009056000000000,-1.451074000000000
Hawaiian honeycreeper and Skunk,NE8 4EF,54.954538324202500,-1.604497000000000
Vulture and Scimitar babbler,NE32 5JH,54.977957148189700,-1.495463824669750
Flameback and B,NE5 2EX,54.984604000000000,-1.673302000000000
Ice seal and Philippine hawk-owl,NE10 0YJ,54.953942876851100,-1.552148588306540
Moluccan boobook and Gull,NE11 9UE,54.948389566465800,-1.644806959106210
Crow and Coati,NE6 4HB,54.977732040083400,-1.555258749699560
Bronzewing pigeon and Gull,NE10 9NQ,54.950458483260000,-1.567847000000000
Marmoset and Polecat,NE30 2AD,55.012097000000000,-1.445900018076340
Gull and Jackal,NE30 3TB,55.026388421156300,-1.435038210616430
Zebra and Bronzewing pigeon,NE33 2AA,55.000174412541800,-1.432889606588070
Armadillo and Tattler,NE8 4BP,54.951661869906200,-1.596235524986470
Ice seal and Chickadee,NE4 7XA,54.965756478895900,-1.649776904203600
Stilt and Kākāriki,NE12 6GT,55.039166507456900,-1.579302115073550
Old World vulture and Asiatic leopard,NE22 7EG,55.144138926840600,-1.560533805887010
Elephant and Booted eagles,NE32 4SB,54.951036693633500,-1.485355520858290
Songlark and Dolphin,NE34 7TP,54.984289903031100,-1.394406860916310
Meadowlark and Ibex,NE3 2BN,55.019823170401200,-1.642284000000000
Ibex and Macaw,NE6 4YQ,54.986057000000000,-1.546244000000000
American sparrow and Jackal,NE4 6TG,54.970501426522800,-1.640848000000000
Gull and Piping shrike,NE13 7DD,55.042038593766800,-1.636874948523900
Badger and White ibis,NE3 2UF,55.017593784311800,-1.667498271711280
Towhee and Puffleg,NE34 9TX,54.960729719844200,-1.437911564019940
Wallaby and American sparrow,NE31 2RG,54.967636026235900,-1.505230574299350
River dolphin and Egret,NE4 7QY,54.966041423726300,-1.636889000000000
Chipmunk and Hawk,NE30 2HX,55.013800862115400,-1.439406050069290
Marsh harrier and Mockingbird,NE1 2PF,54.972805000000000,-1.590772000000000
Minke whale and Shearwater,NE24 5EZ,55.130674420308600,-1.537736801176190
Hawaiian honeycreeper and Cuscus,NE3 5RA,55.030390668409100,-1.630284495668100
Bunting and Coati,NE6 5TB,54.990320562414900,-1.572467409796150
Rat and Asiatic leopard,NE33 2JE,54.999486136761000,-1.427912610860930
Hawaiian honeycreeper and Vole,NE25 8RD,55.038344270624900,-1.445713714005100
Wallaby and Thicketbird,NE33 3HZ,54.990008743073100,-1.417216731619010
Scimitar babbler and Vole,NE6 5AW,54.988632864431400,-1.578111399306730
Piping shrike and Meadowlark,NE33 2EA,55.001866515460200,-1.431536926430200
New World blackbird and Pitohui,NE3 4DT,55.004229018337000,-1.626413227865050
Moluccan boobook and Myna,NE5 2QD,54.986015654792200,-1.664008670589590
Wallaby and Capuchin,NE12 6QH,55.039345000000000,-1.570960000000000
Thicketbird and Pitohui,NE24 3UZ,55.113637672500000,-1.502911734400000
Kestrel and Francolin,NE28 8DT,54.998337476707600,-1.543103986757960
Warbler and New World blackbird,NE23 7SZ,55.063037897795100,-1.557633266572620
Grosbeak and Jackal,NE12 6EZ,55.036800270696600,-1.553259491429610
Perching duck and Snipe,NE29 6YJ,54.997554683603700,-1.449480322744840
Maya and Black jay,NE13 6LZ,55.048443114400000,-1.623091137700000
Night heron and Scimitar babbler,NE29 9AP,55.014480855684100,-1.454581166763600
Kite and Piping shrike,NE4 5RZ,54.973662716336400,-1.630961645124160
B and Tahr,NE8 2UR,54.954606963483000,-1.614896845059120
Crow and Bronzewing pigeon,NE32 3BJ,54.977550892974400,-1.484297962252270
Booted eagles and Darwin's finches,NE28 9EA,55.007414531531800,-1.517718619985090
Logrunners and Elephant,NE23 3GT,55.101086007267100,-1.578150945445610
Pitohui and Moluccan boobook,NE3 5NB,55.026594623149700,-1.623155062669660
Goose and Stint,NE8 4ED,54.952495706242700,-1.603862373582360
Piping shrike and Rabbit,NE29 9NU,55.020843008127900,-1.464676849766730
Armadillo and Jay,NE13 6NR,55.047049000000000,-1.618297000000000
Piping shrike and Parakeet,NE32 3RL,54.969603371690100,-1.466779657189970
Perching duck and Darwin's finches,NE10 0NG,54.948660875237400,-1.570022000000000
Coati and American sparrow,NE6 2LT,54.966653251372100,-1.560566729615970
Logrunners and Goose,NE33 4SN,54.979494477863300,-1.440133882901040
Pheasant and Logrunners,NE8 4ZS,54.948101000000000,-1.615127000000000
Boto and Fox,NE24 3AG,55.128090000000000,-1.502011000000000
Wallaby and Scimitar babbler,NE23 6UU,55.086577063870200,-1.589739846252060
Mole and Eagle,NE12 6DL,55.035671620219600,-1.564177487875210
Civet and Crow,NE24 4AG,55.110860034911000,-1.530660597534750
Cloud rat and Ibex,NE23 6HD,55.074072566569200,-1.577808572586290
Flameback and Maya,NE33 1JL,54.998963711012100,-1.439237666363140
Petrel and Parakeet,NE34 9QZ,54.968317231982600,-1.456378044871430
Herring gull and Puffleg,NE24 3BH,55.125912117400000,-1.502775041500000
Warbler and Hawaiian honeycreeper,NE28 8JQ,54.990175512126200,-1.540070938631830
Fox and Scimitar babbler,NE28 6DX,54.988605682648300,-1.533712667458280
Lemming and Tree warbler,NE25 8UG,55.033612000000000,-1.454212000000000
Chipmunk and Armadillo,NE34 8ET,54.968033482200000,-1.413957945500000
Puffleg and Civet,NE32 4JA,54.960895083630800,-1.466660668591150
Hawaiian honeycreeper and Tattler,NE6 5HQ,54.981017221819200,-1.579472456091390
Nukupuʻu and Macaw,NE32 3QZ,54.971202837782000,-1.473084000000000
Siskin and Kangaroo,NE61 6PP,55.107617085913800,-1.664353653749220
Argus and Rat,NE7 7RP,54.993946930248600,-1.573866844496010
River dolphin and Meadowlark,NE23 1NE,55.089926380555600,-1.578472035843180
Tit-tyrant and Greenbul,NE25 9PF,55.040867000000000,-1.481764000000000
Armadillo and Cuscus,NE35 9HB,54.957278921445400,-1.467879727765490
Parrotbill and Perching duck,NE25 0PY,55.078031000000000,-1.539048000000000
Boto and Quetzal,NE8 1BG,54.963501000000000,-1.600099000000000
Towhee and Marsh harrier,NE30 2LZ,55.021311277141800,-1.431199384058120
Vole and Bunting,NE28 6UL,54.989299462018800,-1.485116373241440
Marmoset and B,NE30 4LY,55.018229198187900,-1.425503270831550
Scimitar babbler and Partridge,NE61 6DS,55.126513086359600,-1.670609000000000
Gull and Kestrel,NE34 6DS,54.977918000000000,-1.406830000000000
Polecat and Parakeet,NE4 6SU,54.968989696410200,-1.640033000000000
Philippine hawk-owl and Night heron,NE13 6DW,55.048085047414500,-1.618821568048670
Boto and Mamo,NE34 9PQ,54.976109000000000,-1.452430000000000
Tit-tyrant and Linsang,NE33 5LB,54.980879640137600,-1.438458362787400
Shearwater and Siskin,NE22 5NN,55.131505094030700,-1.575917070036930
Black cockatoo and Petrel,NE23 7TX,55.064852643500300,-1.547717629030640
Coati and Wallaby,NE31 1EL,54.977812136275000,-1.521869859364840
Magpie and Jerboa,NE4 6JW,54.971897182405700,-1.635523653237500
Fulmarine petrel and Grackle,NE6 4NT,54.986849042639300,-1.559080463482380
B and Mockingbird,NE32 4QT,54.952096359404400,-1.480954498980460
Marsh harrier and Guillemot,NE22 5RS,55.124544113291700,-1.592675345610660
Pratincole and Kākāriki,NE2 4LJ,54.981747275603600,-1.629793000000000
Kite and Coati,NE33 2JZ,55.003074474083800,-1.417136861871750
Bronzewing pigeon and Old World quail,NE23 6LX,55.071363220083100,-1.576505965482270
Mouse and Armadillo,NE31 2TY,54.971390848975500,-1.518306337546690
Myna and Quetzal,NE30 4JP,55.021608594996600,-1.429443396453380
Night heron and Civet,NE33 4PB,54.993528493286600,-1.429888550769620
Grackle and Greenbul,NE33 1DP,54.997638873293700,-1.436458084407560
Parakeet and Cloud rat,NE23 7BU,55.057240548183900,-1.582744618126090
Dolphin and Peafowl,NE29 7EQ,55.011821075238100,-1.478791000000000
Mink and Jay,NE29 6QZ,55.005256525237400,-1.449609419507300
Stilt and Marsh harrier,NE8 1EZ,54.959470084695600,-1.601280000000000
Masked owl and Herring gull,NE34 9DL,54.960814388658500,-1.460586631178380
Scimitar babbler and Myna,NE4 7YQ,54.962677302436000,-1.647742114997640
Guillemot and Black cockatoo,NE27 9ZZ,55.022695000000000,-1.509417000000000
Mouse and Stint,NE15 6QQ,54.975207996881900,-1.661771056788610
Grosbeak and Parrotbill,NE8 2UP,54.954528000000000,-1.615319000000000
Songlark and Black jay,NE32 5TT,54.966847000407500,-1.481904653761750
Black jay and Rat,NE30 2NF,55.023702053291800,-1.431290681739870
Kākāriki and Asiatic leopard,NE3 3XS,55.009752062768700,-1.637150855785810
Asiatic leopard and Kangaroo,NE24 4LS,55.125756598624800,-1.549241000000000
Badger and Ground sloth,NE28 7PZ,54.993066252529200,-1.527596655545340
New World blackbird and Ground sloth,NE10 9UJ,54.948551468222900,-1.559640000650130
Booted eagles and Triller,NE27 0TT,55.031400769497900,-1.502568362083490
Black cockatoo and Ibex,NE3 1YG,55.003327550405300,-1.608349117126850
Fulmarine petrel and Bronzewing pigeon,NE34 9QF,54.967914607240300,-1.458788959246820
Macaw and Goose,NE28 6SG,54.989574582272700,-1.486425637562650
Songlark and Fulmarine petrel,NE11 9XH,54.945969074611800,-1.643719877315220
Hawaiian honeycreeper and Fulmarine petrel,NE6 5TY,54.992089795704400,-1.574730491453170
Fox and Chicken,NE3 5QD,55.024813366427900,-1.613911700473590
Mamo and Grackle,NE34 9BY,54.971661667620600,-1.448725246766220
Grosbeak and Petrel,NE24 3JP,55.120584966535000,-1.508360186315040
Marmoset and Elephant,NE3 9FN,55.007795000000000,-1.632352000000000
Francolin and Parrotlet,NE34 7DZ,54.977019486753300,-1.397829000000000
Wader and Polecat,NE32 4HL,54.963889081367600,-1.464965473568800
Guillemot and Grouse,NE28 9FB,55.010247000000000,-1.546564000000000
Rabbit and Treepie,NE29 1GG,55.018212000000000,-1.490343000000000
Cuscus and Warbler,NE12 6FB,55.033958101366500,-1.550130681076360
Warbler and Viscacha,NE29 9BG,55.016322127069800,-1.456385927376370
Pratincole and Coati,NE31 2BZ,54.972413000000000,-1.499983000000000
Parakeet and Triller,SR6 7PE,54.955705420318100,-1.401910322274870
Armadillo and Prion,NE31 2EZ,54.953130000000000,-1.506767000000000
Egret and Pheasant,NE10 9JZ,54.950572000000000,-1.579212000000000
Prion and Bronzewing pigeon,NE34 7NE,54.973035188563300,-1.402730853803380
Vole and Warbler,NE13 6LY,55.051005422249600,-1.624569510856410
Kangaroo and Piping shrike,NE29 0QU,55.009533034785100,-1.461450012640830
Warbler and Parrotlet,NE22 5LN,55.134987759574200,-1.567127902795970
Logrunners and Pitohui,NE34 6EE,54.980806238620800,-1.415240591407570
Partridge and New World blackbird,NE34 7QG,54.972464240983700,-1.399927396021320
Magpie and Night heron,NE6 4SR,54.988911423286900,-1.545899000000000
Maya and Zebra,NE32 3SZ,54.972413215705300,-1.472303787582660
Fox and Hawk,NE34 6RU,54.978850862566600,-1.401207135562690
Cloud rat and Meadowlark,NE30 1JS,55.010025324461200,-1.435236865835260
Marsh harrier and Hawaiian honeycreeper,NE3 3EX,55.010693397044100,-1.636407448620490
Condor and Crow,NE31 1RR,54.974450000000000,-1.525831000000000
Mink and Mockingbird,NE3 5BQ,55.012448880612100,-1.608447937629740
Wader and Mamo,NE30 1AX,55.009098166252100,-1.444662768852060
Crow and Parakeet,NE32 4QW,54.953018436515500,-1.480130683958520
Rabbit and Chickadee,NE12 9DR,55.025508825713600,-1.556873239791380
Ibex and Tree warbler,NE4 5PE,54.978755013122800,-1.642023694945350
Kite and Jackal,NE23 1RY,55.093015789689600,-1.583171482646940
Guillemot and Marmoset,NE8 2AZ,54.962959000000000,-1.610069000000000
Greenbul and Mole,NE34 9DU,54.964659520722000,-1.458332897576940
Recurvebill and Chipmunk,NE23 6HS,55.073936748286800,-1.577512439365020
Songlark and Eagle,NE4 7DR,54.964994783690600,-1.629260510763260
Pratincole and Tahr,NE6 5SR,54.988543789949500,-1.570626560916370
Thicketbird and Wallaby,NE25 8SR,55.038395521987900,-1.469324944896900
Polecat and Diving bird,NE23 6XX,55.085663000000000,-1.590391000000000
Grackle and Ice seal,NE30 2AH,55.014045871678100,-1.443843808413160
Grackle and Kangaroo,NE23 7BT,55.057567892972900,-1.583711000000000
Grosbeak and Dorcopsis,NE8 4SE,54.946906044104100,-1.609365798722340
Ibex and Wader,NE24 2TE,55.118716768722600,-1.517586541966780
Peafowl and Marmoset,NE34 6PT,54.974313513144700,-1.406867483938590
Gull and Old World vulture,NE26 4NQ,55.061818259401200,-1.458133987289180
Eagle and Condor,NE4 8YB,54.967497407603600,-1.664881633025230
Bronzewing pigeon and Shearwater,NE7 7QQ,54.999650611189800,-1.580887835270780
Ice seal and Kite,NE5 3DD,54.990159815234900,-1.654909555540790
Stilt and Moluccan boobook,NE31 1LZ,54.970851202417700,-1.522749180560440
Songlark and Rabbit,NE3 4LQ,55.001336292030300,-1.650921128197050
Badger and Old World warbler,NE30 3DW,55.030991040705900,-1.437335820003530
Booted eagles and Macaw,NE25 9XJ,55.048073297233400,-1.473375915078500
Eagle and Chickadee,NE29 0EY,55.006054979686500,-1.453491000000000
Myna and Fish eagle,NE3 1HJ,55.006875000000000,-1.621604000000000
Eagle and Grackle,NE33 4BS,54.983369000000000,-1.430657000000000
Myna and Egret,NE6 1LG,54.972724251100000,-1.589557000000000
Boto and Jerboa,NE62 5RL,55.152058364322600,-1.603285328783830
Civet and Parrotlet,NE28 0EX,55.004737638501600,-1.500146540962010
Flameback and Macaw,NE24 3HF,55.117220843762200,-1.500907318420180
White ibis and Vulture,NE25 0JR,55.064157301320000,-1.523252961523250
Tree warbler and Grouse,NE16 3ET,54.952808077276600,-1.676027241620320
Hawaiian honeycreeper and Macaw,NE24 1PW,55.131894387241500,-1.518604045861170
New World blackbird and Thicketbird,NE33 3DX,54.985435759404100,-1.421205287733200
Stint and Ice seal,NE27 0RG,55.036637245448400,-1.510827559424540
Egret and Dorcopsis,NE32 3RU,54.971432632261900,-1.469989055903110
Petrel and Badger,NE3 3AY,55.009313945447300,-1.643987717930340
Towhee and Condor,NE28 0BP,54.993924000000000,-1.497115847674860
Coati and Zebra,NE6 2NN,54.966737422125700,-1.556520370952630
Greenbul and Perching duck,NE1 2QB,54.974860404700000,-1.593800000000000
Bronzewing pigeon and New World blackbird,NE23 8EP,55.084350286130200,-1.601104256115080
Macaw and Ground sloth,NE29 7HL,55.007606660488900,-1.464774883015420
Grackle and Crow,NE15 6QB,54.976113837049900,-1.667653333109940
Black cockatoo and Meadowlark,NE3 2YT,55.015752990996800,-1.658130000000000
Rat and Myna,NE1 8BB,54.973597000000000,-1.612544000000000
Badger and Crow,NE4 9UJ,54.986771379216300,-1.654688567031670
Skunk and Black cockatoo,NE24 3UE,55.110114990635300,-1.501434755221680
Grackle and Piping shrike,NE6 1JU,54.976768580884300,-1.590438000000000
Badger and Kite,NE3 2BJ,55.018552332670700,-1.641122087207530
Recurvebill and Snipe,NE22 6BA,55.130702129758200,-1.633122838129120
Black cockatoo and Black jay,NE25 0DQ,55.073785540303200,-1.528917519256800
Masked owl and Buzzard,NE12 8BE,55.011802498416700,-1.569206000000000
Bunting and Zebra,NE23 7EP,55.065765360365400,-1.539486885777500
Parrotlet and Tahr,NE24 3BX,55.124610000000000,-1.503685000000000
Tattler and Linsang,NE12 8BN,55.013352619635700,-1.567468747409740
Songlark and Chicken,NE12 9PG,55.011814933478700,-1.564654994957440
Herring gull and Mouse,NE28 8UF,55.001775833358400,-1.556775144006350
Guillemot and Rabbit,NE33 3HB,54.990385544151500,-1.417086244322010
Elephant and Boto,NE10 8UU,54.946720057609000,-1.545468968877820
Duck and Gull,NE25 9LG,55.045286537903200,-1.498687321803130
Goose and Herring gull,NE26 1TA,55.053792505942500,-1.455878655264960
Solitaire and Pheasant,NE29 6HN,55.000816711801700,-1.475948864018410
Nukupuʻu and Guillemot,NE24 4QZ,55.114287501612100,-1.531639445526280
Guillemot and Tattler,NE22 7AZ,55.145223753341200,-1.549994503992010
Francolin and White ibis,NE33 1SF,54.989885446148300,-1.444662257527680
Vulture and Myna,NE28 0AD,54.996603420201400,-1.499747409782940
Wallaby and Parakeet,NE3 4SX,55.000868279896000,-1.647548534071250
Black cockatoo and Lemming,NE3 2ES,55.010424000000000,-1.667761000000000
Grosbeak and Ground sloth,NE15 7PA,54.978308973268600,-1.671884913928360
Recurvebill and Thicketbird,NE2 1PZ,54.984558440553400,-1.592874133542020
American sparrow and Grackle,NE29 9BL,55.018033578743100,-1.455283659580430
Wallaby and Triller,NE4 8LL,54.969438829400000,-1.654165671500000
Lemming and Boto,NE12 2GG,55.018278000000000,-1.568040000000000
Egret and Hawaiian honeycreeper,NE4 9UY,54.983769384177300,-1.654479924093310
Rat and Badger,NE28 7SD,54.994479760758300,-1.525970144033770
Rat and Shearwater,NE25 8NJ,55.041109436889000,-1.473373000000000
Lemming and Thicketbird,NE12 9EP,55.025022613174200,-1.551701058552480
Magpie and Viscacha,NE12 6BR,55.031620436600000,-1.563720979900000
Mouse and Kestrel,NE4 5BY,54.972147000000000,-1.626364000000000
Minke whale and Recurvebill,NE10 0BW,54.957754000000000,-1.577917000000000
Parrotlet and Minke whale,NE12 2DQ,55.018271000000000,-1.567993304200000
Booted eagles and Magpie,NE98 1NG,55.002798800188500,-1.581761777134910
Siskin and Kākāriki,NE5 3SN,55.000414011399300,-1.671485835932960
Boto and Mamo,NE30 2EA,55.012480176039200,-1.441426042600600
River dolphin and Diving bird,NE3 4XB,55.002362073971900,-1.633043429704860
Ground sloth and Warbler,NE36 0DH,54.946091489112900,-1.424580497356870
Gull and New World blackbird,SR6 7LL,54.962451942843100,-1.364248986064820
Fulmarine petrel and Crow,NE12 8BA,55.013049097843300,-1.568034960361610
Chipmunk and Ibex,NE27 0AN,55.043599455375600,-1.530852223568520
Skunk and Petrel,NE23 7PB,55.045315208157900,-1.579926313902850
Thrasher and Solitaire,NE30 4AH,55.014411499217300,-1.429639368772960
Recurvebill and Kākāriki,NE26 3SB,55.049731329350400,-1.456011951546220
River dolphin and Mockingbird,NE6 1XJ,54.978835941418400,-1.582776307947960
Treepie and Booted eagles,NE34 6NB,54.981829000000000,-1.416632000000000
Polecat and Francolin,NE3 4UP,55.002842806054100,-1.652956036052610
Duck and Fulmarine petrel,NE22 6EA,55.132561103279800,-1.606803581639600
Tit-tyrant and Philippine hawk-owl,NE2 4AB,54.982558051257700,-1.621832917853950
Petrel and Moluccan boobook,NE26 2EL,55.039823129324000,-1.438980323706000
American sparrow and Quetzal,NE13 7AY,55.042083316825900,-1.639832150769930
Eagle and Boto,NE29 0NF,55.013349779400000,-1.450171223200000
Partridge and Mole,NE24 3QU,55.113999177075900,-1.508613464748560
Egret and Cloud rat,NE2 2ET,54.992275268369800,-1.594859146490660
Elephant and Parakeet,NE6 3LH,54.965364269723400,-1.564469903219270
Vulture and Cloud rat,NE22 6AH,55.115519079500700,-1.625360475423880
B and Darwin's finches,NE8 1XD,54.955380000000000,-1.611860000000000
Flameback and Hawk,NE23 6HZ,55.075523241888000,-1.573768223762120
Gull and Old World warbler,NE5 3HQ,54.995441796378800,-1.657412044199990
Nukupuʻu and Maya,NE30 2HW,55.015611737157700,-1.440412943051910
Old World quail and Flameback,NE3 3QH,55.004556765639100,-1.652112644212080
Cloud rat and Pheasant,NE13 7HF,55.046718127775300,-1.633123470944080
Dolphin and Chipmunk,NE32 5SD,54.976291331551300,-1.494656668550500
Eagle and Badger,NE30 4LS,55.018852000000000,-1.425995000000000
Kite and Armadillo,NE3 5DF,55.011836308519500,-1.616444382013270
Stilt and Stint,NE28 0DP,55.001280135157400,-1.494155196081140
Perching duck and Grosbeak,NE4 5BF,54.974652000000000,-1.625032000000000
Tahr and Chipmunk,NE29 7SB,55.005687554098600,-1.465675964332320
Tree warbler and Polecat,NE8 3UB,54.950748566983200,-1.582817000000000
Cuscus and Prion,NE28 6LX,54.991283000000000,-1.499485000000000
Bunting and Minke whale,NE6 1SR,54.977270131071100,-1.584761097308100
Asiatic leopard and Argus,NE10 0TX,54.959014218369100,-1.538537121386040
Siskin and Myna,NE34 6LF,54.983483623963100,-1.404013415836550
Towhee and Viscacha,NE10 8AG,54.947096825300000,-1.532585115800000
Shearwater and Tree warbler,NE10 0UJ,54.957220345415500,-1.539432149631140
Viscacha and Jerboa,NE22 7DF,55.145549630246500,-1.588853036318280
Argus and Parakeet,NE23 8JP,55.085332229006000,-1.610196211266670
Thicketbird and Warbler,NE10 9ED,54.947172153065500,-1.565915429190500
River dolphin and Dorcopsis,NE34 7RH,54.974048945904700,-1.396919893181720
Bronzewing pigeon and Elephant,NE28 7LP,54.992759064121600,-1.531820250317360
Kākāriki and Puffleg,SR6 7FD,54.951006337743700,-1.362556111690420
Buzzard and Magpie,NE29 7RX,55.004258324901700,-1.467304000000000
Maya and White ibis,NE2 1YD,54.976369913143400,-1.600847000000000
Jackal and Hawk,NE23 6FD,55.074537210900000,-1.578712229800000
Badger and Philippine hawk-owl,NE3 4PB,55.007216369401300,-1.639644080269950
Kangaroo and Greenbul,NE2 1RE,54.980963477954600,-1.598144847513950
Marmoset and Hawaiian honeycreeper,NE28 0BW,54.996047968547300,-1.500160719185570
Civet and Puffleg,NE7 7PE,55.007046000000000,-1.593848917195120
Moluccan boobook and Rabbit,NE30 3AA,55.029779159136100,-1.439558604024260
Duck and Wallaby,NE13 6QE,55.042718688357800,-1.623614000000000
Marsh harrier and Triller,SR6 7JY,54.949550609660100,-1.371775013136500
Badger and River dolphin,NE13 7HP,55.044343064942100,-1.635210909683900
Peafowl and Wallaby,NE31 2PE,54.964315612973200,-1.517547544641510
Argus and Mockingbird,NE34 7BW,54.977365999710900,-1.388136539654970
Stilt and American sparrow,NE29 0DR,55.009208904671400,-1.449258238828020
Minke whale and Philippine hawk-owl,NE22 5SD,55.125595000000000,-1.595111000000000
Gull and Snipe,NE12 9AF,55.023721243961000,-1.559880000000000
Stilt and Hawaiian honeycreeper,NE1 4SN,54.974252322212700,-1.618177173378030
Coati and Thrasher,NE5 4ST,55.004468597009500,-1.672156261888310
Recurvebill and Mink,NE34 6AU,54.974664280909200,-1.412486474799380
Night heron and Pitohui,NE6 5PP,54.978420750362500,-1.587514675333710
Skunk and Elephant,NE2 4LD,54.982045000000000,-1.633150000000000
Boto and Fulmarine petrel,NE7 7TB,55.000767392090800,-1.581610936337800
Wader and Chicken,NE28 9LY,55.004751711108400,-1.535464156645490
Tahr and Guillemot,NE31 2JR,54.963567000000000,-1.512184000000000
Buzzard and Flameback,NE12 8HA,55.013502353516300,-1.579429917494920
Night heron and Tahr,NE34 0XP,54.971115778281800,-1.435049000000000
Jay and Old World quail,NE5 3DB,54.990495834934600,-1.656156964732590
Ice seal and White ibis,NE2 2NL,54.991388153770100,-1.595618269113690
Thicketbird and Prion,NE12 9HL,55.024930975514300,-1.546368128620390
Dolphin and Grosbeak,NE32 4AL,54.963029526445400,-1.469787263535920
Partridge and Jackal,NE8 4XB,54.948598493750800,-1.621698798192740
Marmoset and Polecat,NE1 2AS,54.971505571786600,-1.607455000000000
Pratincole and Capuchin,NE6 3BA,54.972031763556500,-1.554446896378230
Minke whale and Wallaby,NE24 5EH,55.122592178961300,-1.525066379642690
Black cockatoo and Tit-tyrant,NE8 3JF,54.959447281815000,-1.586506450280570
Ground sloth and Viscacha,NE12 8JE,55.011370513675300,-1.584049427803320
Marmoset and Quetzal,NE4 7JL,54.967023000000000,-1.625071000000000
Philippine hawk-owl and B,NE13 7JN,55.051606480855500,-1.674072000000000
Rabbit and Parakeet,NE30 3BB,55.031047109309200,-1.445642295464510
Vole and Lemming,NE29 6EQ,55.003403424176800,-1.445102000000000
Kite and Moluccan boobook,NE31 1YN,54.972494540832000,-1.511138384251230
Stilt and Bunting,NE8 3AH,54.965847898511600,-1.587206089603610
Lemming and Lemming,NE29 0TA,55.008316747857900,-1.446721837663810
Mamo and Greenbul,NE6 4BS,54.975859623641700,-1.556826107746900
Kite and Myna,NE9 5AB,54.947124136747300,-1.599059880977900
Fish eagle and Marsh harrier,NE5 3TP,54.998098071191600,-1.675632000000000
Old World quail and Greenbul,NE31 1HD,54.978110888191200,-1.508882844011900
Flameback and Pratincole,NE31 2JD,54.961673816536200,-1.513081333881690
Rabbit and American sparrow,NE4 5QF,54.971772880493300,-1.627120482326480
Parrotbill and Francolin,NE3 2UX,55.017121258521800,-1.672193870015610
Eagle and Prion,NE12 8HH,55.014686999491300,-1.573819094182000
Grackle and Thicketbird,NE30 3ET,55.032340336637500,-1.445358000000000
Macaw and Lemming,NE6 4UH,54.987083774575300,-1.547138585708760
Viscacha and Parakeet,NE7 7XS,55.006050643363000,-1.576224544378590
Masked owl and Magpie,NE28 8HG,54.993548452694100,-1.533796062107840
Mole and Petrel,NE28 6RE,54.989533800439600,-1.534373932439100
Dorcopsis and Parakeet,NE61 2XH,55.154036225370600,-1.673317058456350
Philippine hawk-owl and Pheasant,NE3 1QQ,55.002201065913300,-1.604576848320110
Dorcopsis and Lemming,NE11 9PL,54.953289855904200,-1.648854695788460
Siskin and Grosbeak,NE23 2QQ,55.089083969132100,-1.576538171221430
Wader and Parrotlet,NE16 4TB,54.948486787575200,-1.669754592180020
Pitohui and Boto,NE23 7LT,55.051031973175000,-1.591057000000000
Chicken and Songlark,NE26 4NP,55.061492534602500,-1.459657057265650
Jay and Mockingbird,NE3 5QP,55.025436267277700,-1.614970000000000
Tree warbler and Dolphin,NE12 8ET,55.017103014548600,-1.597361000000000
Recurvebill and Nukupuʻu,NE26 1HY,55.056654735663100,-1.460958888330930
Peafowl and Piping shrike,NE32 4ST,54.958322432550400,-1.486964631785440
Flameback and Kite,NE7 7UY,54.998755976031100,-1.570908000000000
Viscacha and Fox,NE12 8WD,55.012579318495600,-1.596108882651620
Chicken and Viscacha,NE24 3AR,55.127786400214000,-1.502594765805240
Buzzard and Thicketbird,NE24 1LL,55.130884550192400,-1.513221062133060
Treepie and Masked owl,NE28 9DG,55.008906276065900,-1.519999203962820
Warbler and Myna,NE5 2SE,54.988917453072600,-1.673642557589060
Coati and Parakeet,NE3 2LP,55.015260861471000,-1.628296806447630
Greenbul and Jackal,NE28 8UW,54.998671827172000,-1.555746373034450
Thrasher and Snipe,NE26 2QY,55.041349175230100,-1.442542530913980
Recurvebill and Magpie,NE33 2PA,54.998759322291800,-1.428141795393380
Recurvebill and Warbler,NE2 3NP,54.999968636711700,-1.614713000000000
Stilt and Condor,NE6 4PS,54.988177000000000,-1.550939000000000
Herring gull and Old World warbler,NE26 2AP,55.043309063358600,-1.438822082884570
Bunting and Boto,NE30 1PX,55.010794248776900,-1.445874000000000
Dolphin and Skunk,NE25 8LW,55.039584819817800,-1.467979164255080
Parrotlet and Mockingbird,NE6 2PW,54.974234914547900,-1.572403865222690
Black jay and Hawaiian honeycreeper,NE31 1LP,54.971039803729400,-1.520435014126790
Cloud rat and Treepie,NE3 1UQ,55.009720726189600,-1.612399165212880
Rabbit and Mole,NE12 8BD,55.012132952353100,-1.570703107100750
Puffleg and Macaw,NE34 7JY,54.978800791937900,-1.383974294572570
Siskin and Quetzal,NE8 4XS,54.946640000000000,-1.618673000000000
Kite and Darwin's finches,NE24 3AD,55.127985235185400,-1.502874578424930
Wader and White ibis,NE32 4TT,54.956149347724800,-1.491630077148900
Stilt and Tree warbler,NE35 9LN,54.952724380900700,-1.462100197841220
Dolphin and Bronzewing pigeon,NE3 3NQ,55.011116645600900,-1.642783376091210
Gull and Eagle,NE23 6JE,55.073472106263500,-1.575684995186350
Argus and Rat,NE6 2HT,54.974851893007100,-1.581864607933330
Mockingbird and Mink,NE28 7DS,55.000635933577300,-1.505778372446020
Ibex and Warbler,NE31 2JE,54.960698786038300,-1.514201936065160
Greenbul and Black cockatoo,NE7 7QT,55.002466120130700,-1.586971131848160
Scimitar babbler and Wallaby,NE26 4BJ,55.076198661366200,-1.470970653231070
Badger and Greenbul,NE31 2DH,54.963597317040900,-1.508716202568280
Myna and Gull,NE34 7AT,54.975263507175100,-1.388199738607240
Perching duck and Pheasant,NE34 6BH,54.976114800175100,-1.416996041569500
Badger and Old World quail,NE29 8HN,55.015680335823900,-1.469796848021970
Hawk and Old World warbler,NE3 1SH,55.008657580208600,-1.603168703473740
Mink and Perching duck,NE32 3JR,54.980363000000000,-1.492496000000000
Minke whale and Piping shrike,NE5 3NS,54.991860957902500,-1.665554052550210
Mockingbird and Maya,NE24 2UF,55.114812107005800,-1.523246008255580
Mole and Kākāriki,NE10 0RZ,54.948204000000000,-1.570117728649490
Goose and Petrel,NE4 6ER,54.971350845396200,-1.630170524363380
Rabbit and Civet,NE1 7XQ,54.973707000000000,-1.615886000000000
Buzzard and Puffleg,NE12 6HL,55.037050388493200,-1.555306441673180
Marsh harrier and Vulture,NE22 5JA,55.135823782437300,-1.574883136850210
Prion and Cuscus,NE26 4JQ,55.086522468770600,-1.485356996880640
Warbler and Nukupuʻu,NE8 4UE,54.946630230734100,-1.610695000000000
Ibex and Condor,NE4 7DD,54.964493154096200,-1.626672000000000
Chipmunk and Linsang,NE8 4YD,54.947580690478700,-1.620943361658760
Elephant and Mink,NE4 6PD,54.973772121451500,-1.634460002606690
Booted eagles and Philippine hawk-owl,NE36 0UB,54.947118008533500,-1.434761000000000
Stint and Ice seal,NE2 4NL,54.986629921862500,-1.633952580460690
Dolphin and Towhee,NE24 5BP,55.132643000000000,-1.524538000000000
Nukupuʻu and Philippine hawk-owl,NE8 3SP,54.951922897093800,-1.588316767980470
Pitohui and Jackal,NE4 9JD,54.974248331156600,-1.659217056551400
Dolphin and Philippine hawk-owl,NE2 4BE,54.983182995253900,-1.626327278700860
Fox and Meadowlark,NE34 6BE,54.974894000000000,-1.415155000000000
Darwin's finches and Asiatic leopard,NE11 9DB,54.953642134603300,-1.637218952654650
Tahr and Grosbeak,NE23 6JJ,55.080169995044800,-1.581816937301390
Armadillo and Magpie,NE32 4DF,54.962272606959000,-1.481822927310710
Petrel and Boto,NE6 2UA,54.980337000000000,-1.577493435296030
White ibis and Quetzal,NE24 9EX,55.127550000000000,-1.506877000000000
Triller and Tahr,NE6 5UE,54.991740142818700,-1.567310334870740
Jerboa and Kite,NE28 6RY,54.989822377308000,-1.536683000000000
Perching duck and Boto,NE34 0QE,54.977626371425700,-1.424942290348310
River dolphin and Viscacha,NE34 0TZ,54.969196551863400,-1.442182758524270
Parrotlet and Petrel,NE33 5TE,54.984426949249900,-1.445800170563300
Darwin's finches and Minke whale,NE31 2SB,54.972947194683100,-1.503087605518460
Parakeet and Linsang,NE29 0DD,55.008355539634900,-1.453319576656970
Recurvebill and Marsh harrier,NE3 3TE,55.008643505380900,-1.648293465292980
Gull and Mamo,NE29 9PG,55.019259159704100,-1.453906000000000
Ibex and Civet,NE29 7HA,55.006774477573600,-1.480358000000000
Francolin and Eagle,NE26 4HS,55.084479169519800,-1.482422465202140
Ibex and Herring gull,NE29 7NY,55.013161138300000,-1.474599699700000
Old World vulture and Thicketbird,NE6 2TU,54.968176381576000,-1.561799714161050
Vulture and Wallaby,NE12 5XQ,55.041118544563900,-1.577294328589730
Elephant and Lemming,NE33 2SW,54.993468716212600,-1.428639001972550
Tit-tyrant and Vulture,NE31 2AY,54.960273000000000,-1.504197000000000
Fulmarine petrel and Puffleg,NE7 7YX,55.003624393960600,-1.568558284859160
Coati and Zebra,NE34 9EU,54.968842959017400,-1.449514000000000
Moluccan boobook and Meadowlark,NE26 4RD,55.084290169304400,-1.471882155631760
Fox and Parrotlet,NE3 2QX,55.009478735627300,-1.670614374053140
Elephant and Viscacha,NE31 1UX,54.970885504124300,-1.520046324040240
Kākāriki and Civet,NE32 4PY,54.952975328204100,-1.484784266502310
Puffleg and Mamo,NE28 8DY,54.997935000000000,-1.543390000000000
Flameback and Polecat,NE34 7SQ,54.977122685412400,-1.400811000000000
Chipmunk and Tree warbler,NE23 1AT,55.090485000000000,-1.595418000000000
Towhee and Jackal,NE28 7AZ,54.997957748467800,-1.510156864833210
Stint and Duck,NE28 9HP,55.001830471682000,-1.535279027816950
Siskin and Perching duck,NE8 1EX,54.959470084695600,-1.601280000000000
Grackle and Dolphin,NE2 3LD,54.996366100979900,-1.609245315054890
Stint and New World blackbird,NE6 3XW,54.966654000000000,-1.543432000000000
Tit-tyrant and Capuchin,NE34 9NR,54.967844876096500,-1.451245449135270
Tree warbler and American sparrow,NE12 5XG,55.043355268880200,-1.587819000000000
Eagle and Goose,NE62 5TJ,55.141183000000000,-1.599503000000000
Petrel and Grosbeak,NE4 7PD,54.964358144776000,-1.644682000000000
Parrotbill and Mole,NE30 4EG,55.018095935731100,-1.423925582773130
Chipmunk and Quetzal,NE3 2YR,55.017241674214200,-1.657179428736250
Eagle and Bronzewing pigeon,NE24 5DZ,55.123202384480100,-1.527160328296780
Coati and Egret,NE28 0LH,54.998011000000000,-1.496588000000000
Civet and Boto,NE23 6RP,55.079746922443100,-1.563667405717530
Dolphin and Old World quail,NE34 9FA,54.969139378300000,-1.450665642900000
Diving bird and Petrel,NE32 4PU,54.952716522570900,-1.485209155522160
Eagle and Ice seal,NE3 2UA,55.016463043447500,-1.668054976033280
Fish eagle and Black jay,NE25 9HH,55.042615282486500,-1.491616008758390
Pratincole and Philippine hawk-owl,NE8 2GR,54.956667372400000,-1.635036972600000
Nukupuʻu and Crow,NE3 4QY,54.998067374332100,-1.645415909792640
Parakeet and Kestrel,NE6 2EJ,54.972644880003400,-1.575123309082750
Pitohui and Chicken,NE22 5DT,55.129826210313700,-1.592166803166010
Chipmunk and Bunting,NE25 9QP,55.042255609496200,-1.489414068742770
New World blackbird and Darwin's finches,NE26 1DU,55.042724377181700,-1.450520135309710
Fish eagle and Darwin's finches,NE13 6ND,55.051964208411600,-1.623684003182160
Recurvebill and Jerboa,NE12 9DA,55.026270000000000,-1.539017000000000
Parrotlet and Scimitar babbler,NE3 3PR,55.011515172975500,-1.640793962285920
Asiatic leopard and Diving bird,NE99 1QW,54.978503947885500,-1.610028008172860
Grosbeak and Jerboa,NE10 8EF,54.945973213187000,-1.531005599401040
Triller and Mouse,NE1 3DQ,54.969635000000000,-1.604256000000000
White ibis and Kangaroo,NE33 4QX,54.974844882191200,-1.439339289440670
Pratincole and Night heron,NE8 4AB,54.950981779636000,-1.597101070525970
Tattler and Vulture,NE3 4HH,55.005289889278900,-1.626575354125990
Quetzal and Armadillo,NE34 0QJ,54.976025331066300,-1.434214076260900
Parrotlet and Kestrel,NE28 8PA,54.991344817750900,-1.533274574993270
Buzzard and Partridge,NE4 5AL,54.975331190940300,-1.638539000000000
Chicken and Towhee,NE29 6PW,54.998352717851400,-1.469321811928870
Viscacha and Chicken,NE5 2QR,54.985325590858000,-1.667967961777480
Fox and Duck,NE28 9AY,55.006919280885500,-1.526620929791850
Old World warbler and Nukupuʻu,NE25 0EG,55.069912743079000,-1.528978648444210
Dolphin and Civet,NE29 7BH,55.005385105192500,-1.470495422713170
Ground sloth and Macaw,NE10 9QL,54.946335633400000,-1.569827506600000
Hawk and Tattler,NE2 1AA,54.977540000000000,-1.598116000000000
Skunk and Night heron,NE5 3UJ,55.001225309100000,-1.667852600900000
Recurvebill and Rat,NE27 0FN,55.038296752700000,-1.513796167300000
Towhee and Magpie,NE6 5HU,54.982423000000000,-1.580520000000000
Grosbeak and B,NE2 3DY,54.993464443432400,-1.612336931273110
Skunk and Badger,NE30 1PQ,55.008168179257600,-1.441736109512080
Polecat and Thicketbird,NE28 8JD,54.990603138072300,-1.537176000000000
Partridge and Towhee,NE23 6DU,55.079575076258900,-1.583906368794400
Fulmarine petrel and Hawk,NE13 6EA,55.058893448696400,-1.626906663143110
B and Kite,NE4 9PJ,54.980219639088900,-1.654416635910120
Guillemot and Mockingbird,NE4 5EA,54.976792875217200,-1.631932853323550
Darwin's finches and Kestrel,NE30 2HB,55.016650352600000,-1.438928592700000
Dolphin and Mamo,NE4 9SB,54.988224008748900,-1.659958282886080
Argus and Chickadee,NE2 3RH,55.001135688882700,-1.603039673143720
Philippine hawk-owl and Parakeet,NE3 2QB,55.015985856997300,-1.648510745720980
Mockingbird and Pratincole,NE3 2LQ,55.015302945595700,-1.630423000000000
Ground sloth and Kākāriki,NE6 2EN,54.972102993671500,-1.574347949243220
Francolin and Rabbit,NE5 2HX,54.988285465353600,-1.665927568650780
Parrotlet and Dorcopsis,NE4 6NU,54.972733116800000,-1.634469623600000
Night heron and Polecat,NE29 7BD,55.005021782796800,-1.471267000000000
Hawk and Philippine hawk-owl,NE10 8ST,54.949038921539800,-1.531360243353580
Parrotlet and Quetzal,NE99 1GU,54.967366559954600,-1.615383000000000
Greenbul and Cuscus,NE33 3EE,54.988065644429800,-1.418667006627840
Logrunners and Fulmarine petrel,NE24 1BL,55.127017675981300,-1.508030288627620
Egret and Prion,NE23 6JL,55.078652898449200,-1.582271317277200
Chicken and Myna,NE28 6AF,54.991549202927400,-1.512063485602800
Vulture and Siskin,NE3 5JR,55.014913203217700,-1.620465313015480
Duck and Marsh harrier,NE3 2XF,55.016046000000000,-1.669669000000000
Recurvebill and Treepie,NE31 1XW,54.973612037437700,-1.516436353035350
Partridge and Ground sloth,NE29 7BQ,55.003756300040800,-1.469969679052880
Badger and Solitaire,NE29 8LL,55.016154015315600,-1.473340593363940
Treepie and Ibex,NE24 5PX,55.126894482527400,-1.536212248928770
Jay and Myna,NE33 1RQ,54.991692000000000,-1.440589000000000
Pheasant and Old World vulture,NE34 9PL,54.979621000000000,-1.458038000000000
Songlark and Boto,NE26 2EQ,55.039289007651800,-1.438127156474820
Guillemot and Minke whale,NE12 8QQ,55.009985102624100,-1.586237194646060
Black cockatoo and Recurvebill,NE33 3EZ,54.989523741409000,-1.421037091185800
Minke whale and Hawk,NE28 9XL,55.013497801438300,-1.508622724416610
Condor and Lemming,NE23 7BS,55.054804782588200,-1.587873040002710
Rat and Ice seal,NE6 4RS,54.983349037762100,-1.555415458663640
Songlark and Tattler,NE29 7JF,55.008640159981900,-1.473032471914160
Capuchin and Elephant,NE6 3BF,54.976450000000000,-1.539272000000000
Polecat and Gull,NE3 2FF,55.010998307589900,-1.674292164891100
Dorcopsis and Armadillo,NE8 2NY,54.955804917715300,-1.624410657787150
Cuscus and Meadowlark,NE2 2SX,54.992529425621300,-1.606594303115140
Puffleg and Elephant,NE4 6JD,54.971265679131700,-1.634701445625260
Piping shrike and Pratincole,NE22 6EJ,55.134222556447600,-1.606504937878360
Magpie and Herring gull,NE2 3HE,54.993674323849900,-1.607724092964250
Viscacha and Vole,NE10 0QJ,54.953524987276700,-1.546079252612540
Booted eagles and Prion,NE29 7AD,55.003845325160800,-1.471844579248130
Nukupuʻu and Bunting,NE26 3SG,55.048468506609600,-1.454949117828480
Cloud rat and River dolphin,NE33 3FD,54.988265000000000,-1.415364000000000
Parakeet and Mink,NE6 3PR,54.973766024918100,-1.539930309646400
Moluccan boobook and Diving bird,NE28 9FD,55.010580000000000,-1.546654000000000
Puffleg and Black cockatoo,NE6 5PH,54.979222035254200,-1.587959570898960
Elephant and Black jay,NE7 7EW,55.007290068480500,-1.578619306852060
Chipmunk and Kite,NE28 8LL,54.992833146981100,-1.539462268329950
Hawk and Egret,NE23 2FN,55.090293517873300,-1.572937522859760
Minke whale and Diving bird,NE33 2DT,55.000738181350100,-1.432381409507910
Partridge and Fulmarine petrel,NE30 2EQ,55.013231242734900,-1.440602451778780
Fox and Jerboa,NE28 8AB,55.001898357769700,-1.546127636863470
Hawk and Cloud rat,NE1 7PR,54.977642079232400,-1.613098591898650
Grouse and Jerboa,NE34 6AD,54.977479978325600,-1.413101581851480
Jackal and Warbler,NE28 9TY,55.014168000000000,-1.509974000000000
Black cockatoo and Ground sloth,NE34 7TA,54.987076447556100,-1.403663286824500
Guillemot and Wallaby,NE29 6AW,55.000193847462300,-1.469078668091070
Magpie and Tit-tyrant,NE32 9AW,54.981129000000000,-1.486953000000000
Skunk and Armadillo,NE24 3SP,55.112409481580300,-1.513304494486220
Songlark and Kākāriki,NE4 9JB,54.975568009506900,-1.658752828397670
Condor and Jerboa,NE34 0DX,54.978959787903700,-1.419844000000000
Flameback and Buzzard,NE29 0RJ,55.012213539467400,-1.460006761490430
Siskin and Nukupuʻu,NE15 6QL,54.975526795751400,-1.663315037414520
Quetzal and American sparrow,NE4 9JX,54.978143000000000,-1.666668000000000
Grouse and Quetzal,NE32 3RR,54.971444710493400,-1.466583440696150
Moluccan boobook and Jerboa,NE29 0SG,55.012279523324400,-1.458286000000000
Minke whale and Vulture,NE2 3QY,54.999134707654900,-1.606717306022890
Masked owl and Jackal,NE23 1AS,55.090182000000000,-1.595985000000000
Chickadee and Pheasant,NE29 8DB,55.019613691691600,-1.481709626324690
Scimitar babbler and Marsh harrier,NE4 5SH,54.978165890382700,-1.631186000000000
Masked owl and Hawaiian honeycreeper,NE12 7AF,55.027126072535900,-1.566788671497900
Logrunners and Jackal,NE4 6JH,54.970433183897800,-1.632677000000000
Logrunners and Capuchin,NE30 3TQ,55.026932802492500,-1.432293038591490
Pratincole and Crow,NE27 0NF,55.034269769312600,-1.512045462139910
Vulture and Darwin's finches,NE33 2LD,54.998645000000000,-1.413449000000000
Asiatic leopard and Coati,NE34 7EE,54.978458521618300,-1.396369486351060
Philippine hawk-owl and Wader,NE23 1XZ,55.095598454795000,-1.584477000000000
Old World vulture and New World blackbird,NE3 2DU,55.019171025300400,-1.619940287923730
Pheasant and Goose,NE24 5JW,55.130721857938900,-1.540778838261730
Thicketbird and Kite,NE24 4SJ,55.118476000000000,-1.544242000000000
Jay and Cuscus,NE3 2QQ,55.015363037280400,-1.653817572074550
Jay and Pratincole,NE28 9UJ,55.012276816142300,-1.511139596084090
Perching duck and Pheasant,NE8 1QD,54.956405722934500,-1.609726568656770
Tree warbler and Mockingbird,NE33 2RD,54.997637298848400,-1.426500798924020
Towhee and Zebra,NE27 9SU,55.022693934745300,-1.509417500203780
River dolphin and Stint,NE32 5JA,54.978425247941000,-1.497832813343700
Peafowl and Jay,NE34 9PU,54.974704697623000,-1.453745000000000
Mamo and Old World vulture,NE33 4LR,54.991074145460300,-1.429657632007490
Ground sloth and Jay,NE8 1NN,54.957201223618700,-1.605611927868610
Moluccan boobook and Kākāriki,NE33 4BN,54.982253008204900,-1.430392027107920
Pratincole and Gull,NE61 6NQ,55.131972291439000,-1.652606221761050
Solitaire and Darwin's finches,NE12 9TB,55.024340006942700,-1.544529058833460
Wallaby and Marsh harrier,NE25 8RG,55.037881141852000,-1.446518000000000
Gull and Dorcopsis,NE61 6EZ,55.105926707525600,-1.667267431757810
Old World vulture and Tahr,NE12 8US,55.012948315643100,-1.599108000000000
American sparrow and Ground sloth,NE22 6ED,55.132671937638500,-1.604951764071770
Triller and Greenbul,NE6 3AA,54.975529000000000,-1.552344685672380
Stint and Solitaire,NE26 2EW,55.038336763496000,-1.436247140861440
Condor and Fish eagle,NE11 9US,54.947066260565400,-1.647097937164840
Meadowlark and Towhee,NE26 4AD,55.058727183646400,-1.462230449216200
Night heron and Bunting,NE8 1WQ,54.958244608276900,-1.600635000000000
Myna and Black jay,NE2 1QX,54.980985981341700,-1.599519619784950
Fish eagle and Myna,NE28 7PJ,54.994406141057800,-1.530159912547620
Triller and Peafowl,NE24 2HS,55.121378988443900,-1.509165787490130
Warbler and Badger,NE23 6SG,55.083425105395400,-1.579824887756510
Dolphin and Chipmunk,NE6 3DW,54.974227580887600,-1.545439000000000
Mink and Quetzal,NE24 1QQ,55.153713083683200,-1.539698917218280
Thrasher and Puffleg,NE22 6DW,55.132592439010000,-1.613798387129270
Polecat and Stint,NE8 1SU,54.955675000000000,-1.608622359172210
Asiatic leopard and Fox,NE25 9XX,55.046492760119300,-1.479891619816480
Nukupuʻu and Thicketbird,NE6 4EB,54.978396147677900,-1.548142000000000
Mink and American sparrow,NE35 9AU,54.947868000000000,-1.460996154300240
Night heron and Tahr,NE5 3SP,55.000171895009400,-1.671675401096510
Viscacha and Bunting,NE23 8HL,55.086648577673500,-1.608757799428610
Mockingbird and Badger,NE24 4NB,55.113357211984400,-1.530411868294420
Hawaiian honeycreeper and Flameback,NE31 2EE,54.960125000000000,-1.523717000000000
Black jay and Tree warbler,NE5 3PP,54.994071106095000,-1.671990879918320
Chickadee and Hawk,NE3 2SL,55.016829589545800,-1.648174954548490
Flameback and Eagle,NE4 6RP,54.967408325464100,-1.636954417596030
Fulmarine petrel and Vole,NE5 3DG,54.994720000000000,-1.663326000000000
Snipe and Old World vulture,NE1 8SF,54.977517000000000,-1.608254000000000
Duck and Peafowl,NE22 5JR,55.133853471449400,-1.576786216215320
Francolin and Nukupuʻu,NE12 6TS,55.035965000000000,-1.575753000000000
Eagle and Asiatic leopard,NE24 2BZ,55.126088956557600,-1.505030825629810
Philippine hawk-owl and Grackle,NE11 9UH,54.948113456364900,-1.645652449676790
B and Masked owl,NE33 4LW,54.991200536052200,-1.431703248031140
Jackal and Fish eagle,NE25 8UX,55.033846929626200,-1.458761645664520
Puffleg and Treepie,NE6 5JT,54.985419584440500,-1.581817351535810
Parakeet and Perching duck,NE28 9FR,55.013401000000000,-1.546310000000000
Eagle and Booted eagles,NE23 6AG,55.081586670173200,-1.588819712563710
Towhee and Gull,NE23 8ES,55.083545043925000,-1.602177479020630
Jackal and Dolphin,NE24 2AN,55.127826304848600,-1.503677000000000
Coati and Condor,NE33 2DX,55.000781798171400,-1.430176570798680
American sparrow and Ground sloth,NE2 2JS,54.990576957330000,-1.597595634710530
Black jay and Warbler,NE24 5RR,55.121139809609000,-1.528250899386550
Piping shrike and Zebra,NE5 3XR,54.998288393596600,-1.663124625951920
Buzzard and Jerboa,NE28 9SH,55.009749771692100,-1.512905935620450
Eagle and Logrunners,NE23 6DT,55.080751253578000,-1.583346000000000
Parakeet and Pitohui,NE23 8AL,55.092112000000000,-1.608344000000000
Partridge and Argus,NE10 9JA,54.949757940898100,-1.575458270042700
Masked owl and Treepie,NE34 8EG,54.969404494445700,-1.395224000000000
Peafowl and Old World warbler,NE35 9EG,54.948648000000000,-1.442670000000000
Lemming and Dorcopsis,NE6 2NG,54.975231033036400,-1.574580472579680
Siskin and Jackal,NE30 4PR,55.015205299012600,-1.426453511243600
Tree warbler and Pitohui,NE4 7AR,54.960412963421400,-1.632254000000000
Chicken and Minke whale,NE12 6TW,55.035050590913900,-1.576638451867720
Dorcopsis and Coati,NE12 7BA,55.024839953271100,-1.560759841280180
Moluccan boobook and Grouse,NE22 5NT,55.132940676511100,-1.580481668971080
Thrasher and Lemming,NE7 7HE,54.991653481486200,-1.583690588743510
Wader and Kangaroo,NE4 5EH,54.975977884845700,-1.632846435934350
Ground sloth and Pratincole,NE12 2DB,55.018271000000000,-1.567993304200000
Piping shrike and Scimitar babbler,NE61 2HS,55.159287904215800,-1.674765152375300
Black cockatoo and Old World quail,NE30 4PN,55.035528000000000,-1.432954000000000
Old World quail and Jackal,NE29 1EJ,55.018203421204600,-1.490360822967910
Coati and Argus,NE12 7AP,55.028064000000000,-1.564903128917380
Jackal and Mink,NE28 8EQ,54.996970596811400,-1.545245353856090
Piping shrike and Grouse,NE28 9BS,55.007778727578100,-1.518918181128230
Ice seal and Recurvebill,NE26 1BE,55.046094845613700,-1.444714663162840
Dorcopsis and Warbler,NE24 3RB,55.111921646458100,-1.526337241154060
New World blackbird and Minke whale,NE28 0LQ,54.997633469965100,-1.496748984127870
New World blackbird and Mockingbird,NE3 9FS,55.007795000000000,-1.632352000000000
Wallaby and Tahr,NE1 3SG,54.966234000000000,-1.617129000000000
B and Chickadee,NE29 7ER,55.009512132946800,-1.479369319791840
Maya and Condor,NE34 7TU,54.983602322572800,-1.393479637689860
Grackle and Herring gull,NE7 7GL,55.000469141017100,-1.563214523113030
Warbler and Old World warbler,NE29 6HH,55.001075222086300,-1.473381706434290
Night heron and B,NE1 4RG,54.975043000000000,-1.618589000000000
Shearwater and Recurvebill,NE28 8HA,54.993203334653500,-1.532846645355180
Grosbeak and Partridge,NE26 3EH,55.053007239956900,-1.463199297480840
Cuscus and Fox,SR6 7DA,54.949390864105600,-1.363518279485780
Stint and Zebra,NE3 2SF,55.012431710597700,-1.676016280297970
Buzzard and Old World quail,NE8 3AD,54.968293000000000,-1.595116000000000
Chicken and Solitaire,NE32 4DJ,54.961299452049300,-1.479102397673050
B and Gull,NE31 1RD,54.978864658651700,-1.519873086912550
Treepie and Old World quail,NE33 1PT,54.995487939745800,-1.433830989923640
Pitohui and Myna,NE4 5SJ,54.974604269700000,-1.623345065100000
Logrunners and Parakeet,NE23 6AF,55.082050062756800,-1.590334403319140
Shearwater and Piping shrike,NE24 4EW,55.123065316794900,-1.543061902423840
Macaw and Lemming,NE23 7PX,55.060000000000000,-1.593221000000000
Tit-tyrant and Zebra,NE99 1ZW,54.967366559954600,-1.615383000000000
Linsang and Treepie,NE6 2HA,54.975077990287900,-1.581830000000000
Mole and Minke whale,NE34 8TX,54.962253125891300,-1.423553142687010
Mole and Eagle,NE7 7TR,55.006559751030200,-1.572763863167210
Hawaiian honeycreeper and Grackle,NE29 0PF,55.013117150676800,-1.457086039034740
Bunting and Kākāriki,NE28 9UN,55.013344724163700,-1.513018762739110
Francolin and Hawaiian honeycreeper,NE5 3DL,54.994140000000000,-1.661549000000000
Shearwater and Cuscus,NE34 6AH,54.976356989067600,-1.413164822552580
Elephant and Diving bird,NE25 9RD,55.043003052021200,-1.487651858868390
Pratincole and Logrunners,NE10 9TG,54.949354250183700,-1.578241583803290
Kangaroo and Warbler,NE33 5QY,54.992055000000000,-1.435815000000000
Boto and Philippine hawk-owl,NE30 2BS,55.016631665852300,-1.447295519830350
Magpie and Kangaroo,NE29 8LE,55.018374365729400,-1.475594885280090
Macaw and Stint,NE33 4TR,54.983176176480900,-1.426050574788300
Argus and Asiatic leopard,NE12 9FA,55.010373890444600,-1.563623000000000
Linsang and Puffleg,NE30 2DD,55.014689348686400,-1.448995507964950
Old World vulture and Mole,NE23 8HW,55.087142446651000,-1.605854712136260
Piping shrike and Mole,NE30 3LT,55.023855284999600,-1.452967988652330
Vole and Mole,NE3 2DX,55.019795896875100,-1.624391792290460
Kangaroo and Petrel,NE32 3BD,54.981082073100000,-1.483456020700000
Cloud rat and Tattler,NE32 5QL,54.964698882161300,-1.492474923452280
Parakeet and Myna,NE1 5PZ,54.970936144938000,-1.618099262598440
Elephant and Scimitar babbler,NE30 2AS,55.012705571067800,-1.443549599928020
Shearwater and Lemming,NE26 4QL,55.082402611730100,-1.478031858806490
Siskin and Triller,NE28 6JJ,54.993311000000000,-1.500804000000000
Eagle and Armadillo,NE3 3HE,55.011620770618600,-1.634006626861140
Songlark and Night heron,NE13 7NF,55.040820351170500,-1.632175845036060
Rat and Fox,NE8 1PS,54.959593301085000,-1.608930480073700
Coati and Guillemot,NE61 2HU,55.158045353383400,-1.673252000000000
Snipe and Bronzewing pigeon,NE32 4SS,54.959421000000000,-1.485245790276910
Masked owl and Tree warbler,NE33 3AL,54.990212054120800,-1.424059153354660
Petrel and Shearwater,NE12 8BF,55.016691000000000,-1.578644311709660
Mink and New World blackbird,NE30 2NJ,55.023904000000000,-1.432159703770010
Philippine hawk-owl and Thicketbird,NE28 7JQ,54.999649654605200,-1.517530331178120
Guillemot and New World blackbird,NE23 8DS,55.085646087876500,-1.601655334549450
Skunk and Ground sloth,NE1 5PY,54.971446000000000,-1.617189767121680
Chickadee and Bronzewing pigeon,NE9 5LP,54.948602023476400,-1.592191336654310
Pratincole and Rabbit,NE12 2GH,55.018278000000000,-1.568040000000000
Macaw and Herring gull,NE7 7HT,54.993749546620900,-1.581730793071010
Crow and Puffleg,NE34 8JB,54.958760121058000,-1.426023677706290
Grouse and Grosbeak,NE23 7FA,55.056510992100000,-1.586572052900000
Macaw and Wader,NE6 3NA,54.966670199387500,-1.550304000000000
River dolphin and Rat,NE32 5YN,54.963124000000000,-1.493885000000000
Old World quail and Treepie,NE28 8TT,55.006602021758100,-1.554470529472370
Treepie and Skunk,NE28 9FH,55.011368000000000,-1.545691000000000
Civet and Masked owl,NE30 4RP,55.018302337761600,-1.425768098907020
Hawk and Peafowl,NE8 4UN,54.948508560926800,-1.610506000000000
Solitaire and Solitaire,NE26 3UQ,55.054029462403200,-1.460665415545730
Condor and Chipmunk,NE61 2EZ,55.159870640117500,-1.674258181513700
Stint and American sparrow,NE25 0HZ,55.068730237386000,-1.518422578572580
Black cockatoo and Wallaby,NE23 3GJ,55.102855976194400,-1.580671258052280
American sparrow and Night heron,NE29 0DQ,55.008959257262800,-1.451685230486680
Mockingbird and Ibex,NE33 2HF,55.000706944267900,-1.427629491018030
Minke whale and River dolphin,NE3 3QJ,55.005225028285300,-1.653263807481820
Coati and Petrel,NE34 9NG,54.961148713659600,-1.448962826933560
Cloud rat and Rabbit,NE25 8XT,55.035758348107500,-1.464259064632280
Petrel and Pheasant,NE3 9BN,55.007772994600000,-1.632337575100000
Grosbeak and Fish eagle,NE24 5HH,55.127574000000000,-1.528159000000000
Booted eagles and Darwin's finches,NE23 6EJ,55.074486861689600,-1.583301361797510
Dorcopsis and Scimitar babbler,NE23 1PP,55.094239121042300,-1.578301338867220
Egret and Chicken,NE6 1PH,54.976073392592300,-1.581821000000000
Moluccan boobook and Badger,NE23 8DW,55.085931174207000,-1.600900542093050
Partridge and Argus,NE34 9EJ,54.968067000000000,-1.460614000000000
Chickadee and Recurvebill,SR6 7AJ,54.951152659328900,-1.367050349400030
Kite and Civet,NE24 3EE,55.120416643006800,-1.502309998297480
Ice seal and Hawaiian honeycreeper,NE4 7ET,54.963623356700000,-1.635239475900000
Wallaby and Black cockatoo,NE24 2AP,55.127657237048100,-1.503976408852680
Argus and Warbler,NE22 7JF,55.140650919383200,-1.567678456194020
Songlark and Black jay,NE12 7BP,55.036285000000000,-1.588421000000000
Ice seal and Buzzard,NE33 4NQ,54.990579425891000,-1.431056000000000
Wader and Wader,NE34 9BG,54.968350760197700,-1.453831504646480
Guillemot and Hawaiian honeycreeper,NE6 1PE,54.975829408206600,-1.589197254247310
Night heron and Stint,NE29 9AG,55.015237692804700,-1.465002000000000
Black cockatoo and Perching duck,NE11 9SU,54.950694069255400,-1.640055858563370
Warbler and Coati,NE3 3QS,55.003988000000000,-1.654192545419540
Maya and Parakeet,NE29 9BA,55.015082619385700,-1.454510449657540
Parrotlet and Pratincole,NE5 2QA,54.983299975987300,-1.666609593487620
Coati and Kangaroo,NE3 1BQ,55.005200000597000,-1.612192575636780
Wallaby and Moluccan boobook,NE23 7AW,55.057148816203900,-1.584827636221770
Booted eagles and Philippine hawk-owl,NE2 4AZ,54.981501000000000,-1.622718000000000
Francolin and Dolphin,NE32 3PR,54.983657800868900,-1.487657462958200
Tahr and Greenbul,NE1 8BE,54.974643172768500,-1.610815000000000
Petrel and Skunk,NE8 2NZ,54.956225090422300,-1.623704051641650
White ibis and Duck,NE6 2TJ,54.974589312972800,-1.573524922013920
Grosbeak and Lemming,NE4 5AA,54.975083375247300,-1.640244103948650
Solitaire and Tahr,NE6 2XN,54.978319992979000,-1.568813847639360
Coati and Thicketbird,NE33 3LJ,54.992383079444900,-1.425184663011700
Perching duck and Egret,NE8 9SD,54.959484939472700,-1.603215850395790
Rabbit and Pheasant,NE2 3DQ,54.993313681037700,-1.610150219117790
Coati and Siskin,NE24 4NA,55.122443657131300,-1.549874192671990
Viscacha and Herring gull,NE11 9TE,54.950161395257700,-1.639217513927130
Triller and Badger,NE25 0SN,55.084170953821600,-1.521338889181340
Moluccan boobook and Solitaire,NE34 7NJ,54.969347605789500,-1.407596693346110
Puffleg and Vole,NE28 8NL,55.001210119790100,-1.544712811549270
Meadowlark and Fish eagle,NE26 3AZ,55.048906122388900,-1.458370857303640
Partridge and Francolin,NE33 4TY,54.982690715595000,-1.427916962845580
Fox and Civet,NE29 6NQ,55.006084874262700,-1.446002070803320
Asiatic leopard and Crow,NE11 9EL,54.957940815996300,-1.650610011262320
Cuscus and Philippine hawk-owl,NE32 9BT,54.981129000000000,-1.486953000000000
Piping shrike and Mole,NE30 3HG,55.031631975339500,-1.455772042098050
Pheasant and Eagle,NE29 7TY,55.009412567334600,-1.483420359086300
Kestrel and Jackal,NE22 7HA,55.140819758403300,-1.559613324999360
Old World warbler and Mole,NE32 4PT,54.953615637674200,-1.485322584856850
Parrotlet and Buzzard,NE4 8XN,54.972663000000000,-1.660839000000000
Mole and Macaw,NE5 3EH,54.996979889493200,-1.664386070686340
Nukupuʻu and Boto,NE2 4NP,54.979369115548700,-1.631003094761160
Kestrel and Wallaby,NE3 4AT,55.003222191502300,-1.620481813161210
Darwin's finches and Rat,NE12 8NG,55.013863527069800,-1.590482032426310
Myna and Rat,NE24 5ED,55.122627118826200,-1.531777117881180
Diving bird and Parrotbill,NE23 6LP,55.072456260236400,-1.578154452589470
Kākāriki and Wallaby,NE24 2BA,55.127487339109600,-1.504182382154210
Tattler and Solitaire,NE31 1PY,54.977074759489400,-1.509988000000000
Thrasher and Warbler,NE12 7EL,55.029080905657600,-1.583631492427030
Mink and Scimitar babbler,NE2 1HU,54.978880227526800,-1.601352964915170
Fulmarine petrel and Wader,NE28 8RW,54.994086136665700,-1.538119369674260
Boto and Herring gull,NE22 5NQ,55.132129506017500,-1.574593003660620
Black cockatoo and Vulture,NE3 5PB,55.026628962043600,-1.625548073612880
Songlark and Ibex,NE29 7PF,55.013819138266500,-1.473699572626130
Maya and Ibex,NE99 2GF,54.967460000000000,-1.615383000000000
Condor and Wader,NE1 7PW,54.977522925193100,-1.612365427029510
Siskin and Mouse,NE31 2UR,54.971667919337000,-1.515663005921600
Linsang and Badger,NE28 7PU,54.993973339450100,-1.527460965803860
American sparrow and Tree warbler,NE32 4RF,54.951861149797800,-1.489076677669200
Logrunners and Capuchin,NE10 0XX,54.953595502482000,-1.548123941140940
Stint and Badger,NE29 7QZ,55.006030713969800,-1.464014116368800
Perching duck and Vulture,NE99 4BZ,54.967467000000000,-1.615396000000000
Thrasher and Egret,NE23 1BD,55.098761000000000,-1.612086000000000
Boto and Stint,NE27 0FA,55.038686000000000,-1.517296000000000
Marsh harrier and Capuchin,NE24 3PT,55.110551561516100,-1.504924970801670
Viscacha and Peafowl,NE12 9DT,55.024590634182900,-1.553973959766080
Herring gull and Vole,NE23 6TW,55.082986044564900,-1.577589433205080
Rat and Egret,NE7 7XU,55.007197134086800,-1.575149273546620
Lemming and Rat,SR6 7HU,54.957890536598100,-1.366679017188450
Hawk and Chipmunk,NE3 3US,55.008647591604600,-1.634424572848900
Lemming and Mockingbird,NE30 3AW,55.028764814168700,-1.445689426054060
Prion and Songlark,NE25 0EX,55.073045388420400,-1.535080929992570
Thicketbird and Polecat,NE34 7HW,54.979528684092500,-1.389322383933650
Old World vulture and Wader,NE25 9UN,55.051626167124800,-1.474143247273520
Black jay and Darwin's finches,NE10 8EQ,54.947582503987600,-1.540619509973430
