name,postcode,lat,lon
Chicken and Triller,CA16 6AB,54.592997000000000,-2.525719000000000
coral snake and dukite,CA16 6BH,54.614824971842100,-2.519389000000000
Old World vulture and Schneider python,CA16 6DG,54.618712807026100,-2.476666305803890
Vulture and Marmoset,CA16 6HU,54.578969387157000,-2.482096463983000
tuatara and Fox,CA16 6JW,54.598738309644200,-2.500346863161800
sea snake and chuckwalla,CA16 6NF,54.608025939337500,-2.441536952757550
Mole and cobra de capello,CA16 6RH,54.572621031990400,-2.491921293728520
Moluccan boobook and Guillemot,CA16 6TN,54.579160242524100,-2.488287078987500
green turtle and Jay,CA16 6UG,54.576752046980300,-2.483741036318920
Hawk and mamba,CA16 6XU,54.583518466229500,-2.495023365532040
Francolin and Perching duck,CA17 4AY,54.527756832174400,-2.321756000000000
Guillemot and massasauga,CA17 4BN,54.526369337238600,-2.319303787268840
anole and coral snake,CA17 4DF,54.512017000000000,-2.306032000000000
Ibex and tokay,CA17 4DG,54.517755804378700,-2.284989266964390
Marmoset and Grouse,CA17 4DJ,54.511918000000000,-2.246984000000000
K훮k훮riki and K훮k훮riki,CA17 4DW,54.515761551915100,-2.361900596463330
Meadowlark and king snake,CA17 4DY,54.529249825451800,-2.257039644887000
snapping turtle and Cloud rat,CA17 4EE,54.494622000000000,-2.338046000000000
leguaan and Maya,CA17 4EY,54.523700769944000,-2.319097551461700
leathery turtle and Minke whale,CA17 4PG,54.496212000000000,-2.357204000000000
Elephant and Wallaby,DL12 0EF,54.660332239826300,-2.182142039483000
monitor and Guillemot,DL12 0NL,54.636800843287400,-2.145458642668730
