name,postcode,lat,lon
Masons arms,CA16 6BN,54.615521000000000,-2.518809000000000
Stag Inn,CA16 6DB,54.620314606490900,-2.482926102307860
Appleby Manor Hotel & garden spa,CA16 6JB,54.578875544054300,-2.476293809443210
Sandfordarms,CA16 6NR,54.539710830442100,-2.420489610132280
Bojangles,CA16 6QH,54.577812000000000,-2.490669000000000
James's temptations cafe,CA16 6QH,54.577812000000000,-2.490669000000000
Tastes of Eden,CA16 6QP,54.577741801769900,-2.492354289256220
The Appleby Hub,CA16 6QR,54.578035897578600,-2.492961185247590
Royal Oak Appleby,CA16 6UN,54.574044186200200,-2.482192992697300
The Tufton Arms Hotel,CA16 6XA,54.577493515363100,-2.491917000000000
Crown and Cushion Appleby,CA16 6XB,54.577314477600100,-2.491359041943790
The Inn at Brough Westmorland Limited,CA17 4AX,54.526712504627500,-2.318672977688280
Augill Castle,CA17 4DE,54.519566074951200,-2.301886823761960
Brough Castle Ice cream Parlour and Tearoom,CA17 4EJ,54.520847765547000,-2.320666511302560
The Bay Horse Winton,CA17 4HS,54.489792918656000,-2.332479573267730
High Force Hotel,DL12 0XH,54.652903781378800,-2.179893000000000
Langdon Beck Hotel,DL12 0XP,54.675960724968500,-2.229323961327740
