name,postcode,lat,lon
Masons arms,CA16 6BN,54.6154,-2.5187
Stag Inn,CA16 6DB,54.6203,-2.4829
Appleby Manor Hotel & garden spa,CA16 6JB,54.5789,-2.4763
Cafe Sixty Six,CA16 6LN,54.5615,-2.4441
Sandfordarms,CA16 6NR,54.5397,-2.4205
Ashiana Appleby Limited,CA16 6QH,54.5778,-2.4907
Bojangles,CA16 6QH,54.5778,-2.4907
James's temptations cafe,CA16 6QH,54.5778,-2.4907
Tastes of Eden,CA16 6QP,54.5778,-2.4924
The Appleby Hub,CA16 6QR,54.5781,-2.4930
Royal Oak Appleby,CA16 6UN,54.5741,-2.4822
The Tufton Arms Hotel,CA16 6XA,54.5775,-2.4915
Crown and Cushion Appleby,CA16 6XB,54.5773,-2.4913
The Inn at Brough Westmorland Limited,CA17 4AX,54.5267,-2.3187
Augill Castle,CA17 4DE,54.5196,-2.3019
Brough Castle Ice cream Parlour and Tearoom,CA17 4EJ,54.5209,-2.3207
The Bay Horse Winton,CA17 4HS,54.4898,-2.3325
High Force Hotel,DL12 0XH,54.6529,-2.1799
Langdon Beck Hotel,DL12 0XP,54.6760,-2.2293
