name,postcode,lat,lon
Masons arms,CA16 6BN,54.61539459228516,-2.51868534088135
Stag Inn,CA16 6DB,54.62032318115234,-2.48294329643250
Appleby Manor Hotel & garden spa,CA16 6JB,54.57888500000000,-2.47631100000000
Cafe Sixty Six,CA16 6LN,54.56150100000000,-2.44409700000000
Sandfordarms,CA16 6NR,54.53971862792969,-2.42050647735596
Ashiana Appleby Limited,CA16 6QH,54.57782100000000,-2.49068600000000
Bojangles,CA16 6QH,54.57782100000000,-2.49068600000000
James's temptations cafe,CA16 6QH,54.57782000000000,-2.49068500000000
Tastes of Eden,CA16 6QP,54.57775100000000,-2.49237100000000
The Appleby Hub,CA16 6QR,54.57808900000000,-2.49300900000000
Royal Oak Appleby,CA16 6UN,54.57405300000000,-2.48221000000000
The Tufton Arms Hotel,CA16 6XA,54.57750300000000,-2.49154800000000
Crown and Cushion Appleby,CA16 6XB,54.5773,-2.4913
The Inn at Brough Westmorland Limited,CA17 4AX,54.52672200000000,-2.31869000000000
Augill Castle,CA17 4DE,54.51957702636719,-2.30190372467041
Brough Castle Ice cream Parlour and Tearoom,CA17 4EJ,54.52085700000000,-2.32068300000000
The Bay Horse Winton,CA17 4HS,54.48980331420898,-2.33249640464783
Langdon Beck Hotel,DL12 0XP,54.67597198486328,-2.22934103012085
