name,postcode,lat,lon
Hawk and Myna,SP2 0EJ,51.077940000000000,-1.901354000000000
Duck and Logrunners,SP2 0NW,51.117786790284100,-1.886311050220170
Peafowl and Egret,SP4 6RH,51.104217000000000,-1.790724000000000
Mamo and Tit-tyrant,SP2 0RP,51.082902882498800,-1.858257919907590
Kite and Mink,SP2 7JW,51.077089366321300,-1.816137477753860
Kite and Quetzal,SP2 0NS,51.115683412428500,-1.887101947963090
Eagle and Petrel,SP2 9HY,51.086059035049600,-1.831078766038260
Flameback and Triller,SP2 0EB,51.080194391222100,-1.881206000000000
White ibis and Songlark,SP2 7BB,51.073128902214900,-1.802679216096800
Logrunners and Zebra,SP1 1ZX,51.071251095047900,-1.803600640647820
Greenbul and Fulmarine petrel,SP2 0QH,51.110828633906300,-1.879028533210210
Grosbeak and Gull,SP4 6AF,51.107730737195600,-1.831599830367000
Meadowlark and Coati,SP1 1RP,51.074520979899700,-1.772042015436080
Thicketbird and Hawk,SP1 1AH,51.068749000000000,-1.794368000000000
Parrotbill and Black jay,SP2 0FW,51.082884000000000,-1.854166000000000
Vulture and Perching duck,SP1 3DG,51.076660781476600,-1.786163097013940
Night heron and Minke whale,SP2 9EZ,51.081412110027500,-1.826299000489510
Stilt and Bunting,SP1 3FD,51.087646170501500,-1.774519000000000
Pitohui and Bronzewing pigeon,SP5 3LA,50.989026000000000,-1.746658000000000
Vole and Eagle,SP5 2HE,50.989418000000000,-1.717648000000000
Grackle and Armadillo,SP1 3PH,51.081144364613400,-1.794251054247190
Asiatic leopard and Quetzal,SP3 4AJ,51.081819482407900,-1.920275722932870
Kangaroo and Kite,SP2 7GB,51.071841444238200,-1.801742676215150
Pheasant and River dolphin,SP2 0JA,51.083211174625500,-1.868150475275910
Hawaiian honeycreeper and Hawaiian honeycreeper,SP1 2AJ,51.068841536783100,-1.793235000000000
Diving bird and New World blackbird,SP2 9HS,51.085930735352500,-1.835705035627470
Argus and Fox,SP1 2HL,51.062636196076300,-1.792920267775010
Dorcopsis and Solitaire,SP2 2GN,51.071251095047900,-1.803600640647820
Polecat and Myna,SP2 0JZ,51.075733183732900,-1.871254874804460
Guillemot and Songlark,SP2 7AY,51.074279116453900,-1.802217576216420
Marmoset and Argus,SP2 7NB,51.078280041164700,-1.812806732955780
Recurvebill and Kangaroo,SP5 2QJ,51.005319905812400,-1.668038868802250
Booted eagles and Tahr,SP2 7EF,51.072497557082100,-1.806935263480760
Hawk and Nukupuʻu,SP1 1AG,51.069204000000000,-1.792439000000000
Mink and Warbler,SP5 4AL,51.037220983812100,-1.890087661368980
Black jay and Tit-tyrant,SP3 4AG,51.083429503434100,-1.920915402375530
Magpie and Polecat,SP1 2SQ,51.063401833531700,-1.793502000000000
Mole and Civet,SP1 2FF,51.061349000000000,-1.775108000000000
Parrotbill and Chickadee,SP2 9LU,51.083471762348900,-1.820637838931720
Egret and Wader,SP2 0AN,51.085734278393900,-1.857335548245230
Jay and Goose,SP5 3AF,51.041224179021100,-1.730484000000000
Stint and Mockingbird,SP1 1FD,51.070503276613800,-1.792328582814890
Greenbul and Elephant,SP5 4DF,51.031952330085200,-1.901037951825880
Piping shrike and American sparrow,SP2 7LW,51.075081444144700,-1.808851494135950
Ibex and Tattler,SP2 0JS,51.079583209688600,-1.864520587415340
Old World vulture and Night heron,SP3 4LH,51.132589056576500,-1.897536530528660
New World blackbird and Old World quail,SP1 1EQ,51.071258230404000,-1.792111118492580
Marmoset and Ground sloth,SP1 1JR,51.070774045552300,-1.788074000000000
Grackle and Hawk,SP5 1BJ,51.106852072179700,-1.665384399056540
Zebra and Mink,SP5 3BN,51.044909388616200,-1.733544484994280
Guillemot and Rat,SP5 4AR,51.038722891735400,-1.881098646941330
Solitaire and Shearwater,SP5 4NF,51.033276909430700,-1.838743175640240
Condor and Treepie,SP5 3QW,51.005025823952200,-1.716926532071430
Flameback and Prion,SP1 1JB,51.069858300344400,-1.788677774226340
Siskin and Vole,SP1 3BL,51.081117954366900,-1.789511640324220
Eagle and Badger,SP4 6PA,51.136212534181900,-1.822106125092760
Petrel and Minke whale,SP5 4NE,51.033313466595300,-1.839170878848280
Songlark and Coati,SP5 4JA,51.033801815122200,-1.789469000000000
Ice seal and Skunk,SP2 2NZ,51.071247000000000,-1.803591000000000
Herring gull and Pheasant,SP5 4AS,51.038589047215600,-1.882125896628350
Badger and Peafowl,SP2 7LR,51.075578121725800,-1.810148383565900
Ground sloth and Boto,SP2 9FJ,51.093353000000000,-1.835898000000000
Civet and Cuscus,SP4 7JU,51.166952852610600,-1.759916000000000
Black cockatoo and Nukupuʻu,SP4 6BY,51.102784661633800,-1.782257918855720
Shearwater and Tattler,SP4 6GB,51.102277000000000,-1.779390000000000
Wader and Philippine hawk-owl,SP2 8HA,51.062806670199400,-1.808360000000000
Parakeet and Siskin,SP3 4LU,51.132406194632500,-1.916401697384600
Old World quail and Siskin,SP2 8FF,51.053342349822200,-1.787782899164420
Partridge and Quetzal,SP2 7PF,51.067688376511200,-1.813477346583260
Hawk and Parakeet,SP1 1LB,51.070516850009100,-1.784906856174850
Prion and Tahr,SP2 8HH,51.060225531080300,-1.813878292541750
Maya and Tit-tyrant,SP5 3BU,51.078091043757400,-1.737779316364060
Buzzard and Stilt,SP4 6HB,51.108158367440400,-1.753264691024010
Songlark and Chickadee,SP2 9LE,51.083053452706000,-1.823480435031410
Jerboa and Condor,SP4 6HN,51.103098373481500,-1.758690000000000
Elephant and Night heron,SP2 9BY,51.081347989689000,-1.819575356855200
Myna and Recurvebill,SP1 3LL,51.091159283961700,-1.814396878309690
Old World warbler and Mockingbird,SP1 3JZ,51.084600853582300,-1.806870678909100
Recurvebill and Thrasher,SP4 6AZ,51.143693118905500,-1.805124000000000
Warbler and Magpie,SP5 3DZ,51.038458642029700,-1.724339285699470
Petrel and Minke whale,SP2 8AU,51.054171056291000,-1.786138000000000
Rabbit and American sparrow,SP2 7TY,51.070603774930700,-1.801134453126210
B and Pratincole,SP4 6NQ,51.115729754689800,-1.822841841269890
Bunting and Mamo,SP2 9ES,51.079287446847200,-1.843651220817600
Fulmarine petrel and American sparrow,SP2 7QW,51.071188748618600,-1.803957720131900
Piping shrike and Marmoset,SP2 0BD,51.079662211606100,-1.862864429731680
Herring gull and Dolphin,SP2 7SP,51.070395816621300,-1.802990542657530
Rat and Diving bird,SP5 1SN,51.098080350509000,-1.700250329936600
Peafowl and Fulmarine petrel,SP2 8EA,51.054785695767200,-1.803142302238780
Wader and Quetzal,SP4 7BJ,51.161463000000000,-1.805020000000000
Asiatic leopard and Viscacha,SP2 7ET,51.072634884473500,-1.813999868496200
Cuscus and Flameback,SP1 3LH,51.089203516440000,-1.811591893389100
Grackle and Linsang,SP2 0QD,51.107057664422900,-1.875881663889600
Songlark and Tit-tyrant,SP2 9LN,51.078414296449400,-1.823997681307160
Minke whale and Meadowlark,SP1 1RE,51.079717854754300,-1.771745278091580
Chickadee and Francolin,SP5 3HJ,50.991576000000000,-1.757644000000000
Tit-tyrant and Skunk,SP2 9HN,51.083104829592100,-1.834016149706360
B and Tit-tyrant,SP2 7GA,51.071959812485100,-1.802612816576010
Peafowl and Crow,SP4 6LB,51.120399319217800,-1.733982461088540
Old World vulture and Chickadee,SP1 2AG,51.067623743146900,-1.795838000000000
Marsh harrier and Capuchin,SP5 4JU,51.038402408228600,-1.845371766332450
Bunting and Francolin,SP2 9LJ,51.079924964728500,-1.823991958382530
Kite and Fulmarine petrel,SP1 3YU,51.087694209179400,-1.771920233049220
Duck and Philippine hawk-owl,SP1 2LX,51.068794916765600,-1.797417000000000
Magpie and Eagle,SP1 2LA,51.064100054913300,-1.777216236986410
Minke whale and Shearwater,SP2 8EJ,51.057868051194100,-1.796736942458880
Booted eagles and Night heron,SP2 8PA,51.062846811410600,-1.811113673097520
Stilt and Booted eagles,SP4 0AS,51.135040000000000,-1.718834000000000
Stint and Logrunners,SP1 3TJ,51.076088537740800,-1.792974500030280
Perching duck and Polecat,SP1 3EE,51.085166134791800,-1.780655864211470
Marsh harrier and Recurvebill,SP4 7GL,51.160751000000000,-1.762983000000000
Boto and Grosbeak,SP2 8EL,51.058865329788500,-1.796247440721150
Ground sloth and Towhee,SP6 3PB,50.993325000000000,-1.851734000000000
Kākāriki and Black jay,SP2 8LX,51.062858438644800,-1.818462714405120
Badger and Hawk,SP4 6ER,51.112972074284400,-1.751196000000000
Myna and Kākāriki,SP2 7TQ,51.067450934015100,-1.800362801779690
Parrotlet and Fish eagle,SP1 3QX,51.088444751944900,-1.793561922262000
Nukupuʻu and Mouse,SP2 7AD,51.073701055800400,-1.806059584602570
Piping shrike and Tree warbler,SP2 0EG,51.079506631854900,-1.895055434705830
Viscacha and Condor,SP1 1JT,51.072013862715700,-1.787269226091010
Zebra and Dorcopsis,SP2 0NP,51.116429724302500,-1.887071560413990
Thicketbird and Cuscus,SP1 2AA,51.068188974907000,-1.795550062529850
Argus and New World blackbird,SP2 0AZ,51.083290334858800,-1.858913450369430
Thicketbird and Warbler,SP4 0LX,51.127295657088000,-1.733728538574060
B and Ground sloth,SP1 1SE,51.077757143378500,-1.771526519344310
Asiatic leopard and Ground sloth,SP2 9BA,51.078248310186300,-1.846638150985710
Jackal and Tit-tyrant,SP4 6BG,51.118293698920200,-1.795957929796110
Ground sloth and Crow,SP1 3RZ,51.093602067489400,-1.796866000000000
Perching duck and Duck,SP2 7JP,51.077128788296800,-1.818349863581310
Wallaby and Chicken,SP5 3SW,50.991964946524500,-1.763669225060770
Kākāriki and Peafowl,SP2 0BW,51.081625306960800,-1.850467207033290
Linsang and Snipe,SP5 3RB,50.997967899366800,-1.757526000000000
Condor and Vulture,SP2 7AP,51.073024919546700,-1.804778000000000
Capuchin and B,SP2 7GL,51.066683595592400,-1.814951317926560
Ibex and Vulture,SP5 2JY,50.990665575088400,-1.720832259256110
B and Zebra,SP2 9LX,51.084272340222700,-1.820820344186300
Mole and Recurvebill,SP2 0LS,51.072144596357400,-1.870593984048210
Puffleg and Dorcopsis,SP5 4BG,51.035296539928000,-1.889963848521750
Grouse and Coati,SP2 9EA,51.083134150026300,-1.829390520752890
Grackle and B,SP3 4SW,51.167778065772600,-1.891194322097480
New World blackbird and Rat,SP2 8HB,51.061583161741100,-1.808193522769990
Ibex and Minke whale,SP1 2AN,51.068247681799300,-1.793137880916790
Peafowl and Gull,SP5 4HP,51.034052171242900,-1.773994000000000
Pitohui and Elephant,SP5 3SA,51.050843726328800,-1.676302179190000
Jackal and Myna,SP1 2JD,51.066168316900700,-1.786910667845680
Badger and Minke whale,SP2 8NB,51.061976703802500,-1.818137952292720
Jerboa and Myna,SP4 6HQ,51.106253508834700,-1.753960426952840
Old World quail and Viscacha,SP1 3FL,51.089534226237400,-1.779550078565170
Marsh harrier and Rabbit,SP5 3EN,51.055071898273700,-1.738123227147680
Recurvebill and Black cockatoo,SP2 0BE,51.079975760573900,-1.861864231293150
Thicketbird and Chipmunk,SP5 1SL,51.098941637812900,-1.699487861790320
Maya and Guillemot,SP1 1PS,51.073472012310800,-1.773645777874790
Hawaiian honeycreeper and Scimitar babbler,SP5 3NX,50.990696183159100,-1.758845607572330
Chickadee and Mink,SP4 6GW,51.099734000000000,-1.790327000000000
Scimitar babbler and Tattler,SP5 4BP,51.027776000000000,-1.905353000000000
Lemming and Philippine hawk-owl,SP2 0AD,51.099991964890700,-1.869516714920940
Diving bird and Grosbeak,SP2 0HR,51.082347467966100,-1.860001293696390
Wallaby and Guillemot,SP5 1QR,51.097286400466500,-1.662925708178860
Kangaroo and American sparrow,SP5 1SW,51.099622643844100,-1.702068386939310
Tree warbler and Old World warbler,SP2 0HB,51.080904368322700,-1.863931436020630
Chickadee and Chipmunk,SP2 0ES,51.075583543211400,-1.875637000000000
Fox and Old World vulture,SP1 2RA,51.068773201199500,-1.785357356884750
Chickadee and Grouse,SP1 1BG,51.070373599775400,-1.795283547043050
Capuchin and Ibex,SP4 7XH,51.166552962884200,-1.766554852714390
Stint and Petrel,SP2 8BY,51.054045077147600,-1.788521594713020
Partridge and Bunting,SP5 5RF,51.001360000000000,-1.898381000000000
Kangaroo and Marmoset,SP2 8EE,51.055750495536800,-1.799400029202450
Old World quail and Magpie,SP5 2QE,51.014165000000000,-1.682388000000000
Partridge and Dorcopsis,SP2 7HS,51.072104000000000,-1.807335614302580
Linsang and Scimitar babbler,SP2 7PX,51.071074293594700,-1.816560910663400
Jackal and White ibis,SP2 8BX,51.047868000000000,-1.790689000000000
River dolphin and Stint,SP2 7FD,51.072457000000000,-1.809079345605090
Ice seal and Siskin,SP2 0FS,51.082611000000000,-1.854176000000000
Dorcopsis and Darwin's finches,SP1 1NP,51.067602400219300,-1.774816097246670
Ice seal and Masked owl,SP2 7RZ,51.068445997680600,-1.803869388508290
Maya and Argus,SP5 1RR,51.092891808715900,-1.664314000000000
Magpie and Thrasher,SP2 8FB,51.053558000000000,-1.810681632057540
Tit-tyrant and Crow,SP4 7FE,51.165912477045500,-1.770062037940300
Meadowlark and Old World warbler,SP4 6NJ,51.117034868859000,-1.823679776458500
New World blackbird and White ibis,SP1 1LY,51.071916632404500,-1.788197407536060
Elephant and Ice seal,SP5 1SD,51.102807705764100,-1.678967575932720
Mole and Egret,SP1 3HG,51.078972000307700,-1.786295207079490
Logrunners and Mamo,SP2 8QA,51.056379164399300,-1.793775690437280
Greenbul and Masked owl,SP2 0JW,51.082312926897100,-1.869009586539350
Nukupuʻu and Bronzewing pigeon,SP1 3HE,51.079017710061400,-1.781826905897670
Bunting and Linsang,SP4 0JX,51.124574997835900,-1.723784662103460
Peafowl and Duck,SP1 2AY,51.066799301405800,-1.792773274956800
Crow and Skunk,SP1 2HW,51.062859226589500,-1.791920368505370
Thrasher and Kākāriki,SP2 9LP,51.080717145370500,-1.824574255362310
Triller and Old World vulture,SP5 4DQ,51.032830197954400,-1.897128617013470
Mockingbird and Jay,SP4 6GU,51.104015285434300,-1.784123394309340
Mink and Tit-tyrant,SP2 7AW,51.073348562837100,-1.804976284957160
Scimitar babbler and Mouse,SP4 6NT,51.126782027973300,-1.817655313682930
Tattler and Mole,SP1 2RB,51.070062922010900,-1.782568301086600
Solitaire and Civet,SP1 2HR,51.064296943253500,-1.791343110526070
Argus and Thicketbird,SP1 1DZ,51.070184091694200,-1.794899029050120
Towhee and Booted eagles,SP2 2PS,51.071247000000000,-1.803591000000000
Parrotlet and Old World warbler,SP5 1DG,51.079881000000000,-1.699982000000000
Maya and River dolphin,SP4 0LG,51.127534723016700,-1.732098103912560
Vole and Kangaroo,SP2 0FL,51.085523943899500,-1.851011682720790
Fox and Old World quail,SP1 1RS,51.073928171147700,-1.772387488261660
Marsh harrier and Goose,SP2 7AT,51.073336368813700,-1.803063714076710
Cloud rat and Badger,SP2 7EN,51.076394613379300,-1.814641432152760
Chipmunk and Prion,SP2 2NF,51.071252000000000,-1.803601000000000
Asiatic leopard and Skunk,SP4 6AE,51.097357369016200,-1.822355000000000
Mockingbird and Jackal,SP1 3RN,51.078981270953900,-1.796544641765150
Civet and Black jay,SP4 0AW,51.140390652000800,-1.723204390383300
Vulture and Stilt,SP2 8DZ,51.056350440957500,-1.803207016956180
Perching duck and Shearwater,SP1 2LH,51.067696609012700,-1.791698905913770
Stint and Parrotbill,SP1 2TG,51.065068195602400,-1.790183716228630
Jackal and Pratincole,SP3 4LW,51.135181474721700,-1.900689416159620
Tit-tyrant and Jerboa,SP1 3QA,51.085870830313700,-1.792331251919450
Chicken and Tit-tyrant,SP2 9HT,51.086438997553300,-1.832676444848900
Vole and Lemming,SP5 4ES,51.035330189649800,-1.761552167561490
Pratincole and Viscacha,SP2 7UH,51.075342766668800,-1.814788367587310
Tit-tyrant and Flameback,SP1 3ET,51.077097350964400,-1.799108020812280
Cloud rat and Warbler,SP5 3PN,50.992644709129600,-1.740725620463740
Zebra and Elephant,SP2 7LA,51.075488655386500,-1.821881943490250
Bronzewing pigeon and Pratincole,SP5 3FN,50.997335000000000,-1.758517000000000
Partridge and Mamo,SP2 7SN,51.070100181165900,-1.803648322048640
Rat and Peafowl,SP2 2JA,51.071255376894200,-1.803600834676370
Francolin and Fish eagle,SP2 0BU,51.089426561033000,-1.847443666029800
Darwin's finches and Warbler,SP1 1QW,51.075921944483000,-1.775760680138750
Scimitar babbler and Treepie,SP4 0HB,51.160470845415300,-1.691237830472360
Black cockatoo and Rabbit,SP1 3YH,51.073347595370600,-1.793914478985540
Tahr and Kākāriki,SP4 7XE,51.166685727206200,-1.765495827883870
Prion and Vole,SP1 3NJ,51.079438548562600,-1.796014000000000
American sparrow and Jerboa,SP3 4AR,51.084476109603200,-1.926324497686060
Wader and Mole,SP5 4HE,51.016159594086600,-1.753268008716020
Jay and Philippine hawk-owl,SP2 8PJ,51.068584680755900,-1.863525063978270
Ground sloth and Myna,SP1 3SE,51.087300009936900,-1.797136410895940
Fox and Greenbul,SP5 3PX,50.995902548172200,-1.741918696639440
Mole and Old World warbler,SP4 6ND,51.115163648587000,-1.740984157938070
Marsh harrier and Parakeet,SP1 1PR,51.073320937933700,-1.774574278510780
Ibex and Kangaroo,SP2 7BE,51.073099026401700,-1.800966555812540
Kangaroo and River dolphin,SP2 7LH,51.074594260023000,-1.807868614191760
Wader and Mockingbird,SP2 9LW,51.078479716283100,-1.844824478216290
Asiatic leopard and Condor,SP4 7PE,51.168162257123500,-1.766418014743430
Shearwater and Scimitar babbler,SP2 0BG,51.080139000000000,-1.861564000000000
Old World warbler and Snipe,SP2 7BZ,51.075230322166400,-1.806424321852870
Argus and Parrotlet,SP2 8PL,51.067027995061500,-1.855166621500360
Badger and Duck,SP5 1QY,51.094681542251800,-1.660802646030990
Tahr and Bunting,SP5 2SW,51.009938972613100,-1.657657617508240
Asiatic leopard and Old World vulture,SP1 3QL,51.086442579299700,-1.790229926844330
New World blackbird and Stilt,SP2 9FG,51.093261000000000,-1.834056000000000
Rabbit and White ibis,SP1 3PX,51.083763665157100,-1.790641769864030
Kangaroo and Kākāriki,SP1 1TL,51.069495111735500,-1.796857350531370
Perching duck and Fish eagle,SP2 8QN,51.047732186448700,-1.788307794085550
Herring gull and New World blackbird,SP1 2JF,51.066725487515700,-1.786722586338010
New World blackbird and Pitohui,SP1 1PT,51.069700737671800,-1.771808767930590
Viscacha and Partridge,SP4 7RF,51.167182353173600,-1.771085493208720
Coati and Grosbeak,SP1 3EA,51.085931206566900,-1.781052011255440
Hawk and Mink,SP2 0DL,51.080628000000000,-1.865160543791070
Grouse and Chicken,SP5 4BE,51.035971521888900,-1.881333861375610
Macaw and Marsh harrier,SP5 4BU,51.027811260631800,-1.906308427803780
Rat and Old World warbler,SP2 9HX,51.084360089770900,-1.831470414543930
New World blackbird and Scimitar babbler,SP1 3FQ,51.088707970755800,-1.775356259468020
Ground sloth and Buzzard,SP5 2QQ,51.004427654175700,-1.664182891976260
River dolphin and Meadowlark,SP5 3AR,51.045956078234700,-1.739130325695820
Polecat and Ground sloth,SP3 4NX,51.130022969862400,-1.929596349095130
Magpie and Ground sloth,SP1 3QQ,51.089881591652200,-1.797624875913350
Booted eagles and Night heron,SP2 7YW,51.070040874166900,-1.817478000000000
Diving bird and Black cockatoo,SP2 7TW,51.068430168760200,-1.799830538649580
Maya and Petrel,SP4 6DU,51.096112095851200,-1.742204367546480
Thicketbird and Thicketbird,SP5 3FU,50.994155000000000,-1.759944000000000
Elephant and Fish eagle,SP5 3QN,50.994440607642400,-1.739575696083300
Myna and Parrotlet,SP1 1RJ,51.076104303003700,-1.772405373066650
Mole and Masked owl,SP2 7UD,51.065816000000000,-1.816967000000000
Jerboa and Masked owl,SP3 4AF,51.082915677944200,-1.919046089118600
Ice seal and Darwin's finches,SP5 1EE,51.080789327625000,-1.700576113256830
Old World warbler and Kākāriki,SP5 1EG,51.087876436904400,-1.690707272233130
Tree warbler and Kākāriki,SP5 1QH,51.095920859877600,-1.663364037286880
Coati and New World blackbird,SP1 3TH,51.075820563849800,-1.793989152884840
Logrunners and Parrotlet,SP1 3NL,51.079984038044300,-1.794056339281350
Hawk and Eagle,SP2 9RA,51.084373532340100,-1.828343770444400
Meadowlark and River dolphin,SP1 1TD,51.069116700791900,-1.796430844784980
Old World quail and Recurvebill,SP4 7LN,51.155282949198500,-1.765596000000000
Kākāriki and Eagle,SP4 6LE,51.117891244665700,-1.734296877135580
Guillemot and Chicken,SP1 1DL,51.069967631183600,-1.794528905652060
Stint and Chipmunk,SP4 0BU,51.156042135682100,-1.710542180484710
Buzzard and Warbler,SP2 7DG,51.076777547595100,-1.806774733960820
Nukupuʻu and B,SP2 0JG,51.087134948799300,-1.871037682396620
Zebra and Vulture,SP5 3PQ,50.992158387660200,-1.744475655857850
Wallaby and Herring gull,SP1 3EQ,51.083842562221700,-1.779734141138080
Rabbit and Elephant,SP5 1QZ,51.094567168827600,-1.661674554133670
American sparrow and Eagle,SP1 1SD,51.077201416180900,-1.772442820631810
Cloud rat and Linsang,SP2 8LH,51.062069681171800,-1.814356083031420
Marsh harrier and Condor,SP2 0BQ,51.079543988749700,-1.861566000000000
Rabbit and Armadillo,SP2 7BT,51.075442524150200,-1.804253797808320
Guillemot and Pheasant,SP4 6LZ,51.119316017731900,-1.728216535095070
