name,postcode,lat,lon
Bronzewing pigeon and Boto,TW13 4SL,51.439834043548600,-0.425513823514094
Mamo and Maya,KT13 0SB,51.359299507461000,-0.458051380509250
Scimitar babbler and Rabbit,TW14 0JP,51.457198051259400,-0.405542265214639
White ibis and Black cockatoo,KT16 8AP,51.391808657924000,-0.501749000000000
Perching duck and Fox,TW4 7RB,51.474594023766600,-0.388794087703918
Shearwater and Asiatic leopard,UB18 9YS,51.500717740213000,-0.402684069553087
Polecat and Rabbit,TW20 0SW,51.427958809201800,-0.582210438386307
Armadillo and Grouse,TW20 0RL,51.427198808762600,-0.569244994149503
Ground sloth and Rabbit,TW20 9JG,51.429580898181800,-0.544342069047569
Viscacha and Solitaire,TW14 9PX,51.457659645755000,-0.431766520621526
Fulmarine petrel and Meadowlark,UB3 5LG,51.483479657610300,-0.435374464875118
Shearwater and Rabbit,TW3 3PT,51.466227118274400,-0.367507000000000
Lemming and Marmoset,KT16 0LG,51.360065871717600,-0.530185000000000
Zebra and Chipmunk,TW17 8NS,51.392217712706000,-0.428054403181688
Jerboa and Petrel,KT15 3BF,51.354034688318900,-0.488617036068447
Partridge and Armadillo,TW12 2LY,51.422110701423400,-0.369641292146980
Ibex and Puffleg,TW15 1QL,51.425164346858000,-0.438718930422983
Herring gull and Crow,UB7 0LF,51.489552703568300,-0.472458634114409
Jerboa and Diving bird,KT15 2QS,51.377570000000000,-0.479810000000000
Siskin and Meadowlark,KT10 1FL,51.402916000000000,-0.369857000000000
Jay and Greenbul,UB3 3JL,51.509822035582300,-0.413591473649795
Hawaiian honeycreeper and Diving bird,TW13 5HF,51.445809204568200,-0.390728366156274
Jerboa and Old World vulture,KT12 5AZ,51.365282016535600,-0.415114536056094
Badger and Dorcopsis,GU25 4EH,51.396947121109300,-0.566149631725310
Quetzal and Dolphin,TW2 6BU,51.445899165695200,-0.373787703964290
Dorcopsis and Piping shrike,TW16 6QZ,51.407102869126700,-0.416904223086108
Hawk and Philippine hawk-owl,KT12 4EE,51.349746698000300,-0.431418051065660
Masked owl and Grackle,KT13 8NR,51.374691470638700,-0.451686584277250
Armadillo and Kangaroo,SL3 7BH,51.503790722107800,-0.566040840778383
Eagle and Zebra,TW17 8HN,51.396014980472400,-0.436980285289305
Boto and Triller,KT12 2QS,51.386612634948900,-0.418488065373347
Fulmarine petrel and Hawk,SL4 1RY,51.482933134428600,-0.618066125416065
American sparrow and Grackle,KT16 8PZ,51.407897989529400,-0.502454000000000
Pheasant and Vulture,UB7 9DG,51.505488000000000,-0.462022382955600
Maya and Grackle,SL2 5FY,51.512432108204500,-0.589029020782086
Shearwater and Tit-tyrant,KT16 8LN,51.386161736960200,-0.482313244237680
Duck and Goose,SL4 4NL,51.473446946737600,-0.643521700108379
Quetzal and Siskin,KT22 0RW,51.331680676668800,-0.367568241942301
American sparrow and Old World quail,TW14 0ND,51.464523679782500,-0.415263538567721
Moluccan boobook and Dorcopsis,SL4 6PS,51.495148154180400,-0.619151764861563
Meadowlark and Treepie,SL4 2PL,51.462074238220000,-0.581398314374660
Zebra and Wader,KT10 9WD,51.402916000000000,-0.369878000000000
Crow and Treepie,SL5 9GE,51.397280130541800,-0.648664959618004
Fish eagle and Darwin's finches,SL5 9RJ,51.391048384116700,-0.631601173375585
Ibex and Scimitar babbler,KT13 9RR,51.377793000000000,-0.430575000000000
Parrotbill and Rabbit,TW13 7HE,51.439168144171400,-0.410817564386735
Tattler and Night heron,TW18 1BB,51.429231072404900,-0.495271727857925
Grouse and Mouse,TW16 6DQ,51.400679000000000,-0.422560000000000
Rabbit and New World blackbird,UB7 7RG,51.512167223408200,-0.475852792566818
Ibex and Ground sloth,TW14 8FD,51.454169563712300,-0.433555777330922
Mockingbird and Boto,SL3 8RJ,51.496137484207700,-0.548417606546536
Black jay and Quetzal,TW12 3DR,51.426136911457800,-0.372705685843791
Fish eagle and Siskin,GU25 4QE,51.408690771467800,-0.592094863845866
Myna and Mole,UB7 0EB,51.482461000000000,-0.483727000000000
Partridge and Mockingbird,TW3 4HD,51.475522022078100,-0.362309079576656
Hawaiian honeycreeper and Black cockatoo,TW3 9PB,51.470271853911500,-0.360985349897154
Tit-tyrant and Linsang,KT10 9EZ,51.360872426648900,-0.361919905078064
Macaw and Grosbeak,TW20 9AP,51.435829134306600,-0.534130133282511
Triller and Mouse,KT16 0HZ,51.364172068692300,-0.522858807480583
Greenbul and Scimitar babbler,TW5 9NR,51.491838112666500,-0.395996000000000
Greenbul and Moluccan boobook,KT16 0HP,51.365866313137000,-0.526007711818197
Parrotlet and Thicketbird,SL3 8QP,51.487811906515400,-0.535488520307282
Thrasher and Boto,SL4 1TA,51.481289605654800,-0.613665827815741
Solitaire and Chipmunk,TW20 8BJ,51.426544210186300,-0.531579187530655
Songlark and Dorcopsis,TW12 3AS,51.424120262567800,-0.365427310256069
Mouse and Old World quail,UB2 5RQ,51.493339956750000,-0.377058000000000
Badger and Greenbul,TW18 4WA,51.437093000000000,-0.513688000000000
Booted eagles and Jay,TW3 3EQ,51.468436024339200,-0.370697391578364
Chipmunk and Grosbeak,KT22 0NZ,51.344012750046500,-0.363296418847911
Argus and Argus,SL4 3RB,51.475835037499800,-0.633126466288952
Towhee and Vole,KT12 4JJ,51.362531615141600,-0.403947939500575
Zebra and Shearwater,TW3 3QF,51.464717835698400,-0.374270543007214
Maya and Cuscus,TW5 9JH,51.483264294444300,-0.394162989320532
Kestrel and Parrotlet,TW3 4AR,51.476091889742600,-0.360618278236865
Hawk and Armadillo,SL5 0LS,51.402244123249500,-0.636055000000000
Mole and Boto,TW18 2LN,51.420551696457600,-0.509910245768545
Cloud rat and Argus,KT14 7QP,51.339971619961200,-0.479261000000000
Skunk and Kākāriki,KT13 8ET,51.376099954659200,-0.458938204933759
Armadillo and Capuchin,SL5 0QD,51.402956000000000,-0.639383000000000
Greenbul and Mouse,TW13 7JF,51.435567591248800,-0.417862706170371
Mockingbird and Guillemot,SL5 0PU,51.408864927110300,-0.624640000000000
White ibis and Logrunners,SL4 2PB,51.461385740618400,-0.578008049885542
Rat and Asiatic leopard,TW12 2AH,51.414329939645200,-0.372060792044997
Meadowlark and Black jay,KT13 9AD,51.372130105652300,-0.450436839471223
Thicketbird and Flameback,SL5 0LA,51.398932198431800,-0.616846898237657
Songlark and Treepie,GU24 8HU,51.350144109502800,-0.563229000000000
Magpie and Solitaire,UB3 4HH,51.505764992510500,-0.418804411340344
Night heron and Diving bird,KT14 6EX,51.338366117632000,-0.496166980926959
Mole and Treepie,UB2 5RB,51.491030339040700,-0.373046673710193
Coati and Tit-tyrant,TW13 7DY,51.441880597628700,-0.403960544458954
Armadillo and B,SL3 6QB,51.512288230468400,-0.547039695012847
Tahr and Pheasant,TW14 8LJ,51.453876396533000,-0.440718962075799
Tattler and Fox,TW5 0DY,51.484503721927700,-0.380321813251081
Badger and Cloud rat,SL4 3QZ,51.477735582100200,-0.631860056533078
Triller and Tree warbler,TW20 0QL,51.429439857520500,-0.568671527939566
Black cockatoo and American sparrow,SL5 0FJ,51.398339000000000,-0.645971000000000
Greenbul and Triller,SL4 6DL,51.491692528365600,-0.607516511623307
Mink and Old World quail,TW18 2HT,51.419554102579700,-0.503600253148504
Ice seal and Pitohui,TW16 7AG,51.419860000475400,-0.422015034403471
Quetzal and Scimitar babbler,TW12 2RB,51.420426870682200,-0.379855184378286
Elephant and Rabbit,KT13 8AJ,51.371239915188600,-0.456572805660340
Treepie and Magpie,SL3 7HZ,51.489258000000000,-0.555564000000000
Triller and Perching duck,SL4 1HZ,51.476544695622700,-0.610872128406110
Siskin and Prion,KT14 7QZ,51.338032388055900,-0.473839303191757
Kangaroo and Fulmarine petrel,KT12 2PH,51.388119079608400,-0.423698000000000
Herring gull and Viscacha,GU24 9QG,51.340062121609600,-0.646931000000000
Songlark and Diving bird,TW2 7BL,51.451577998529700,-0.366361052253560
Shearwater and Macaw,KT13 8AH,51.371893608932400,-0.456364053929443
New World blackbird and Logrunners,TW13 4JT,51.439781153088600,-0.418911360547108
Old World vulture and Black jay,SL5 9RZ,51.387324000000000,-0.639890000000000
Treepie and Armadillo,SL4 3RT,51.471789938209500,-0.629388635628771
Chicken and Vulture,KT15 3DZ,51.342927983005200,-0.508336793327839
B and Flameback,KT16 8QN,51.407367233340900,-0.499900313723617
Myna and Cloud rat,SL1 1RW,51.510540157316600,-0.582761271610548
Capuchin and Stint,TW16 7PL,51.426108047863000,-0.422562189625295
Quetzal and Songlark,TW14 9XT,51.446664760771200,-0.417910924839257
Armadillo and Vulture,TW13 7LG,51.438856135897300,-0.414339098189372
Macaw and Wallaby,UB3 5HP,51.481607505407200,-0.419150356170724
Old World quail and Minke whale,TW4 5AH,51.459588719876200,-0.382470643709740
Black jay and Lemming,GU24 8RQ,51.357885339965800,-0.602672485925413
Stint and Pratincole,KT16 8QH,51.386140548814400,-0.490419459618982
Quetzal and Ice seal,TW12 3UZ,51.426861761053200,-0.386762283437240
Capuchin and Buzzard,TW13 7NX,51.431598179518100,-0.402333621282108
Tahr and Logrunners,TW3 3FN,51.467247700775400,-0.375001348251690
Grouse and Meadowlark,TW3 2BT,51.462694392855200,-0.365848980788258
Recurvebill and Tit-tyrant,UB2 5HP,51.499014951478000,-0.391261132945259
Marsh harrier and Viscacha,KT12 2DU,51.392045544383100,-0.411286510580247
Chicken and Badger,TW4 5WD,51.470269992859400,-0.360985338420831
Petrel and Vulture,KT16 8JD,51.387603370936000,-0.486593000000000
Stint and Rat,TW6 2SN,51.480459954226200,-0.438443000000000
Puffleg and Darwin's finches,TW2 7JB,51.451523902144900,-0.361067000000000
Jackal and Maya,UB2 5UJ,51.494784870379200,-0.393614134358852
Pitohui and Thicketbird,KT12 2AT,51.389138171797000,-0.407765325296632
Lemming and Diving bird,UB1 1RH,51.509825031110700,-0.377479000000000
Rat and Old World quail,TW3 1JB,51.468616388167000,-0.365565431709993
Mink and Eagle,SL1 4WA,51.508269603950500,-0.584618526220629
Tahr and Logrunners,TW6 2FG,51.479265000000000,-0.451057000000000
Recurvebill and Vole,TW17 9BT,51.393377376506700,-0.450308450873705
Tahr and Thrasher,GU24 9DT,51.328320934419800,-0.635664963480079
Mockingbird and Fish eagle,SL1 2PN,51.506679189755700,-0.604984819664068
Booted eagles and Piping shrike,SL3 7EX,51.507175203838800,-0.551683668062646
Parrotlet and Stint,KT12 4HX,51.361862478851300,-0.400380197698645
Greenbul and Bunting,TW20 9EW,51.431897040085300,-0.548382789487282
Petrel and Scimitar babbler,KT14 7ST,51.331777519471300,-0.472755070912492
River dolphin and Parrotbill,SL1 2PJ,51.506696398622600,-0.606654000000000
Philippine hawk-owl and Cuscus,SL4 1SZ,51.481886783876900,-0.613978953629050
Bunting and Lemming,TW18 4US,51.437611747529700,-0.515009531761856
Logrunners and Marmoset,TW16 6RT,51.417834000000000,-0.418360556067487
Booted eagles and Booted eagles,TW14 9QQ,51.446173401107300,-0.424158959934815
American sparrow and White ibis,KT14 6BX,51.336400000000000,-0.508988485700802
Kākāriki and Ice seal,GU25 4HS,51.395799834795800,-0.570871550512647
Perching duck and Siskin,KT15 2FF,51.373760630808700,-0.486272212820786
Kestrel and Tattler,UB7 7NX,51.503888219174600,-0.478837813830650
Thrasher and Bronzewing pigeon,GU21 5QN,51.333129510057200,-0.531863000000000
Polecat and Thicketbird,GU21 5TD,51.330984565234600,-0.539614537174283
Black jay and Grackle,TW3 1XS,51.466322056464300,-0.360320571091885
Fox and Crow,TW17 0DX,51.402183907200100,-0.460088794889156
Dorcopsis and Linsang,TW14 0JJ,51.456353771525100,-0.408925402342417
Maya and River dolphin,KT13 9BY,51.368668567127500,-0.451157058382860
Stilt and Egret,KT15 2DB,51.363163673251800,-0.486822598475295
Ground sloth and Zebra,SL3 7EJ,51.505083709477600,-0.551980515039736
Marsh harrier and Tit-tyrant,TW18 3AQ,51.433547858399500,-0.523600445670466
Jerboa and Hawaiian honeycreeper,TW20 9HE,51.432877356248400,-0.544769592284851
American sparrow and Cloud rat,TW15 2NA,51.431208795787100,-0.465399731196532
Herring gull and Condor,SL1 9DU,51.506913919135000,-0.627167938432674
Marsh harrier and Crow,KT8 2PN,51.397795489111500,-0.364497028035188
Solitaire and Kākāriki,SL1 1FG,51.507042000000000,-0.588487000000000
Solitaire and Petrel,TW13 4PU,51.432008158175900,-0.425322507007882
Thrasher and Kestrel,UB2 5AZ,51.504028430060200,-0.386372944158249
Jay and Goose,SL1 3UH,51.511796544424600,-0.610362287761932
Siskin and Flameback,KT15 2XB,51.373792418017300,-0.491687666203007
Hawaiian honeycreeper and Rabbit,KT12 1HW,51.372496065561200,-0.423270328926801
Booted eagles and Old World quail,UB2 5SP,51.491568767627600,-0.385329194506254
Capuchin and Wallaby,TW14 8DL,51.455157092900500,-0.434255948174471
Old World warbler and Myna,TW3 9GG,51.470269992859400,-0.360985338420831
Guillemot and Wallaby,TW4 7QH,51.474305903015200,-0.402569988026161
Solitaire and Asiatic leopard,SL3 8GY,51.496914023303000,-0.542875357710267
Crow and Macaw,TW4 7QP,51.473468504563700,-0.403808757266761
Darwin's finches and Darwin's finches,KT13 0RA,51.357537504366400,-0.457406774541438
Skunk and Crow,KT10 8QS,51.369852883237500,-0.366211121978908
Scimitar babbler and Bronzewing pigeon,TW13 7LR,51.444379719976000,-0.407873809447979
Marmoset and Zebra,TW3 3FL,51.466817861989300,-0.375779658407034
River dolphin and New World blackbird,KT12 1EX,51.383151053890900,-0.419857629953655
Thicketbird and Quetzal,UB1 3HF,51.510979739064400,-0.372725213376123
Grouse and Capuchin,SL1 1XB,51.510558032595400,-0.586478618367763
Thrasher and Herring gull,UB3 3EA,51.507837639680900,-0.417133170588187
B and Recurvebill,KT15 1AJ,51.366343246447100,-0.510391757371845
Vulture and Zebra,TW20 9AZ,51.434688134533400,-0.540698187549905
Badger and Bunting,UB7 8LY,51.510856473161500,-0.469109080480051
Shearwater and Fish eagle,SL1 2ST,51.505271369176500,-0.606828904748203
Meadowlark and Polecat,KT15 2LR,51.371049824053300,-0.484723709839304
Partridge and Boto,TW19 6HW,51.447055758099400,-0.528733996354255
Greenbul and Flameback,UB2 5XZ,51.496002000000000,-0.406306000000000
Scimitar babbler and Badger,TW15 2JN,51.433011729062900,-0.459570447972392
Kangaroo and Armadillo,TW5 0DP,51.482063094523300,-0.382006876227090
Peafowl and Wader,KT13 3HN,51.373411000000000,-0.457529000000000
Wallaby and Old World quail,GU24 8RT,51.357630436755500,-0.595642668003372
Condor and Thrasher,TW20 8QS,51.405705830547300,-0.536344301267430
Asiatic leopard and Tattler,GU22 8RA,51.327519959524400,-0.522917137159675
Kākāriki and Fish eagle,SL3 7ER,51.505050213064600,-0.553638586108645
Zebra and Snipe,TW19 7NW,51.457920884740800,-0.487937591066574
Polecat and Coati,UB2 4DF,51.501908702447300,-0.381981320252487
Meadowlark and Dolphin,SL4 3JE,51.472323412319000,-0.609776471421971
Thrasher and Black cockatoo,TW3 4EW,51.477287090520900,-0.365716339378385
Guillemot and Thrasher,TW12 3DX,51.425204656252500,-0.366453029834941
Gull and Solitaire,TW4 7NQ,51.473109375787800,-0.403850089224493
Grouse and Polecat,KT10 9RT,51.370995000000000,-0.363570000000000
Mockingbird and Moluccan boobook,SL3 7GS,51.493630302586400,-0.550730040982598
Armadillo and Tahr,TW12 3DJ,51.425768988815300,-0.364361596797815
New World blackbird and Partridge,TW16 6BB,51.404020380882400,-0.413574593075130
Black jay and River dolphin,SL3 8EQ,51.503403595408000,-0.535435437471521
Tree warbler and Chicken,TW3 3UQ,51.465480429012100,-0.365735063059052
New World blackbird and Viscacha,KT8 2LY,51.400400000000000,-0.370550167581061
Magpie and Guillemot,TW18 1HX,51.426639806609000,-0.493055372200076
Vole and Shearwater,GU21 4JY,51.326660356986000,-0.578446951592589
Marsh harrier and Ground sloth,TW20 9FB,51.432118825326900,-0.540722592042440
Cloud rat and Skunk,UB7 9BP,51.507838938787300,-0.467336941826241
Hawaiian honeycreeper and Tahr,KT10 8AA,51.370506604759800,-0.365456000000000
Jay and Grackle,TW15 1DB,51.432781446200000,-0.452327567472195
Philippine hawk-owl and Ice seal,KT16 9QR,51.378432742391100,-0.514942325680105
Booted eagles and Jerboa,KT10 9NJ,51.365284630035500,-0.360412162209998
Wallaby and Chipmunk,KT16 8RT,51.410260825387100,-0.500452679156821
Scimitar babbler and Elephant,TW18 2DD,51.431114038221300,-0.501870393285246
Prion and Flameback,TW4 7RQ,51.475168474463100,-0.390026613775968
Armadillo and Polecat,KT14 6BZ,51.336146725545600,-0.507551978520277
Egret and Tattler,TW18 1ST,51.403285153034900,-0.488733670775446
Chipmunk and Philippine hawk-owl,SL1 5FU,51.508819162100000,-0.633811361100000
Chickadee and Triller,TW13 6TN,51.429571921391200,-0.388321140361325
Capuchin and River dolphin,KT16 0RG,51.366206471919300,-0.534486608516059
White ibis and Songlark,TW5 9LN,51.481262743999900,-0.398380925103884
Vole and Tattler,SL5 0AR,51.402505618969700,-0.644083044719580
Asiatic leopard and Grouse,GU25 4PB,51.403544000000000,-0.590211000000000
Peafowl and Myna,TW18 1AG,51.431592192849600,-0.496373793466361
Coati and Chickadee,UB7 8FD,51.513084908008400,-0.472277040590767
Shearwater and Darwin's finches,KT10 9SF,51.368633805897400,-0.363912822290226
Thrasher and Buzzard,GU25 4EJ,51.395787649288100,-0.568399535920847
B and Snipe,TW4 5PS,51.449386000000000,-0.380687000000000
Capuchin and Siskin,TW20 9BP,51.433630797491800,-0.544616177270722
Parrotlet and White ibis,TW14 0EW,51.455183809483500,-0.401582324052337
Jackal and Rabbit,UB7 7SG,51.509915000000000,-0.475409000000000
Diving bird and American sparrow,TW14 9DE,51.449452899810500,-0.407985185917685
Piping shrike and Goose,KT8 2DY,51.401366839608600,-0.360732403280123
Snipe and Jackal,TW12 3XS,51.426995429614800,-0.384714984071635
B and Tree warbler,TW13 5ER,51.446389124287500,-0.397615436449349
Tit-tyrant and Nukupuʻu,TW18 9GN,51.434107000000000,-0.530080000000000
Guillemot and Pitohui,KT10 9RP,51.369884121148200,-0.361055000000000
Lemming and Mockingbird,TW13 6JL,51.436489099792000,-0.386509479888757
Coati and Crow,SL3 8XB,51.490411718356100,-0.538458910046102
Elephant and Asiatic leopard,SL4 1GF,51.479565678468000,-0.611601196041227
Wallaby and Linsang,KT12 2JL,51.391437591278300,-0.412874252066204
Herring gull and Guillemot,GU20 6AT,51.361124688212200,-0.644184851488010
Warbler and Parakeet,TW13 7JW,51.437958686314800,-0.417132641729867
Lemming and Parrotbill,SL3 8DP,51.499156000000000,-0.540153000000000
Scimitar babbler and Grouse,KT8 2TD,51.398783006263000,-0.376666707983853
Cuscus and Flameback,TW20 8AR,51.427766591282000,-0.529382334660306
Buzzard and Dorcopsis,SL5 0HT,51.390782063556300,-0.622930000000000
Chicken and Night heron,TW4 6JF,51.468497490693000,-0.402614469082811
Pitohui and Parakeet,TW17 8ET,51.397255981432100,-0.440359247581144
Old World warbler and Puffleg,SL3 8JL,51.503694006745100,-0.540699591412289
Viscacha and Grackle,TW18 4PJ,51.433956187841400,-0.508970658074922
Old World quail and Polecat,TW5 0SG,51.486075573819500,-0.369161359862064
Marmoset and Cloud rat,SL0 9AT,51.507970452214900,-0.506815366319986
Booted eagles and Dorcopsis,UB7 8HP,51.511242484101000,-0.462870650927416
Parakeet and Elephant,SL5 0HA,51.396478894451400,-0.649364167988677
Chipmunk and Cloud rat,TW16 6JA,51.412427343924600,-0.410997152262038
Nukupuʻu and American sparrow,TW3 3RF,51.464735023860900,-0.371621005413174
Siskin and Maya,KT14 7DA,51.338526855070900,-0.466256953813504
Hawaiian honeycreeper and Ground sloth,TW18 2QY,51.424152368018400,-0.503148025598280
Stilt and Pheasant,KT12 2BE,51.385293134820100,-0.398140632092778
Marsh harrier and Kestrel,TW3 3QE,51.465255513362800,-0.374136263280636
Towhee and Hawaiian honeycreeper,TW13 5LQ,51.440471071325200,-0.383779201377174
Dolphin and Cuscus,SL3 8UL,51.494930966990200,-0.538876205956857
Linsang and Condor,KT10 8DH,51.384821804050000,-0.358880518472423
Wader and Egret,GU25 4JP,51.389716000000000,-0.585922000000000
Duck and Condor,TW16 7NJ,51.421181344598500,-0.426658245861872
Piping shrike and Vole,GU21 4YQ,51.339789152220900,-0.543311626487944
Myna and Guillemot,SL4 5PL,51.484053097336100,-0.642357334478299
Crow and Polecat,TW12 1RD,51.427111172752000,-0.359379781763630
Darwin's finches and Grosbeak,SL3 9DY,51.477951650424000,-0.573763332642645
Vulture and Duck,KT12 4DT,51.350716860402400,-0.431341841954036
Philippine hawk-owl and Pheasant,SL5 0JZ,51.398344000000000,-0.617152000000000
Dorcopsis and Moluccan boobook,TW17 9ER,51.395362086593600,-0.443327289289114
Crow and Zebra,TW13 7EF,51.443909634052900,-0.401083810780001
Macaw and Dorcopsis,KT15 9SU,51.370651460918200,-0.490785208842230
Greenbul and Warbler,GU25 4AN,51.404839861992400,-0.562279755476564
Elephant and Masked owl,TW16 5PA,51.417572140437700,-0.407769895549485
Black cockatoo and Grosbeak,TW18 4JH,51.435386000000000,-0.507480000000000
Tree warbler and Duck,KT10 9SD,51.369927553584500,-0.361898488504432
Herring gull and Warbler,KT15 1SU,51.369612342589200,-0.495991236091518
Herring gull and Moluccan boobook,TW14 9HY,51.454762989349300,-0.418293069403947
Viscacha and Grackle,KT11 1DJ,51.333593319253300,-0.427174750904691
Grouse and Thrasher,GU24 9NY,51.336194675663100,-0.645437143901557
Marsh harrier and Black cockatoo,TW2 7BJ,51.452416444170300,-0.365870565628642
B and Macaw,TW17 0DE,51.399873707816200,-0.460152000187219
Jackal and Rat,TW3 1XN,51.464276451759700,-0.360653021576440
Tahr and Myna,KT8 2QX,51.400949000000000,-0.380400000000000
Booted eagles and Hawk,TW19 7EY,51.457400201304800,-0.472740477885381
Flameback and Wallaby,SL1 1XU,51.510092822660100,-0.594159302709540
Towhee and Chipmunk,TW18 2BW,51.432010483161900,-0.507998215584570
Snipe and Mink,TW12 3XL,51.426039997429000,-0.383900007225046
Civet and Armadillo,TW20 0XY,51.440979000000000,-0.592512000000000
Parrotbill and Argus,TW18 2PU,51.423398252019200,-0.505358899940455
Towhee and Logrunners,KT14 7HR,51.341958468626400,-0.474943672235233
Prion and Mink,TW12 2DX,51.413345032778400,-0.363970967041521
Skunk and Tattler,GU24 8PN,51.351194620964900,-0.596614881548662
Tattler and Diving bird,TW20 0XB,51.432408250213900,-0.590272658391785
Ice seal and Kite,SL4 6NL,51.499024354145900,-0.641538009305411
Greenbul and Old World vulture,SL4 5FQ,51.478781863100000,-0.631166432300000
Scimitar babbler and New World blackbird,UB3 4QZ,51.494159463028400,-0.413731881047006
Hawaiian honeycreeper and Maya,TW20 9RG,51.425083224570800,-0.555848021280975
Dolphin and Booted eagles,UB7 9HF,51.497397685304300,-0.459000057388974
Grosbeak and Diving bird,SL1 0HT,51.508269603950500,-0.584618526220629
Jackal and Kangaroo,TW3 9WR,51.470271000000000,-0.360964000000000
Chipmunk and Triller,KT8 2AD,51.396105808557000,-0.378012159171544
Puffleg and Macaw,UB2 5PE,51.497428144904400,-0.386375529277288
Linsang and Kestrel,KT16 0AG,51.377353920538500,-0.534245623291094
Rat and Songlark,TW15 1LP,51.426137106265100,-0.436139793018764
Solitaire and Peafowl,TW15 2SN,51.429000671185200,-0.459532715731471
Ground sloth and Francolin,KT15 1UJ,51.373394543230500,-0.496413272556525
Bronzewing pigeon and Ibex,UB2 4QB,51.501963746741200,-0.372311556691597
Capuchin and Scimitar babbler,UB7 7BZ,51.508725840251400,-0.473979039349715
Capuchin and Mockingbird,KT15 3DB,51.348519433792200,-0.498878988993906
Vulture and Peafowl,TW3 1YL,51.465022039809000,-0.360597510529874
Peafowl and Snipe,SL4 5HW,51.484037569162300,-0.640240697308707
Quetzal and Songlark,UB1 1LE,51.510980165479700,-0.379901834249779
Parakeet and Zebra,UB3 1NN,51.500163577828500,-0.432930245195782
Siskin and Chipmunk,SL3 8DY,51.500030699922700,-0.538972466953500
Perching duck and New World blackbird,SL1 9DJ,51.508322642886100,-0.626909457364514
Asiatic leopard and Scimitar babbler,GU24 9PQ,51.337311991635400,-0.645633911527005
Partridge and Maya,TW12 3NY,51.423023791353000,-0.382323566006853
Wader and Argus,KT12 2LD,51.393496502954500,-0.417503269491896
Crow and Tit-tyrant,UB2 4PG,51.502968286216400,-0.362434828330137
Elephant and Ice seal,KT16 8RJ,51.393907938240100,-0.501476088840859
Philippine hawk-owl and Treepie,TW18 4SN,51.436752590137900,-0.506836613595918
Hawk and Stint,UB7 0JX,51.486865000000000,-0.456623884639980
New World blackbird and Kestrel,TW6 2RL,51.480453447512700,-0.460449000000000
Wader and Old World vulture,SL4 1QW,51.485454000000000,-0.607481369677336
Asiatic leopard and Kangaroo,UB3 3DG,51.505840112131400,-0.417706709898197
Masked owl and Chickadee,KT16 0HE,51.364486788302800,-0.527143710683408
Marsh harrier and Francolin,SL1 2TA,51.505323852665700,-0.616582049195032
Black jay and Eagle,SL1 1UX,51.510019321281500,-0.585054259397501
Wallaby and Wallaby,UB18 7NL,51.500717740213000,-0.402684069553087
Vulture and Solitaire,TW19 7QP,51.451306269110600,-0.476412284556356
Goose and Pitohui,SL4 2FD,51.460634219900000,-0.585574340700000
Duck and Dorcopsis,SL1 0DX,51.508271000000000,-0.584618000000000
Kestrel and Jackal,TW13 4QB,51.433395528848100,-0.424843215543325
Mockingbird and Guillemot,KT12 3AL,51.379828392708600,-0.398862000000000
Polecat and River dolphin,SL4 3AP,51.479505000000000,-0.613248552066382
Mink and Asiatic leopard,SL4 5GG,51.481127000000000,-0.624757000000000
Badger and Warbler,SL1 9AT,51.511213295316400,-0.627269291149634
Solitaire and Treepie,SL1 1GQ,51.505290000000000,-0.582604000000000
Lemming and Maya,UB3 1SG,51.506641924927500,-0.422491701528416
Gull and Darwin's finches,KT12 1PX,51.385293002799900,-0.423768000000000
Treepie and Jerboa,KT15 2AB,51.371014838047400,-0.487583846283703
Greenbul and Kangaroo,SL4 3FF,51.475101152105700,-0.631881267798170
Greenbul and Old World vulture,GU21 4XU,51.330098142370900,-0.580895632340990
Gull and Flameback,UB2 5LH,51.501205521123500,-0.396255547824968
Petrel and Moluccan boobook,SL1 5TA,51.511495918978000,-0.639178446055656
Solitaire and Eagle,KT16 9JB,51.389358791557800,-0.517103829962144
Parakeet and River dolphin,KT11 1DF,51.337043831633300,-0.416303867557985
Chipmunk and Scimitar babbler,SL4 1HF,51.478913515848300,-0.606652838838836
Thrasher and New World blackbird,KT12 5NE,51.367162485049400,-0.403930605829978
Puffleg and Capuchin,KT16 9HZ,51.389683826051800,-0.513658284074123
Chipmunk and Shearwater,TW13 6DS,51.437793348591000,-0.386535464197548
Grouse and Peafowl,TW15 2JR,51.435587418875300,-0.457814917348369
Tree warbler and Civet,TW5 0QL,51.481335898939800,-0.363944238376592
Meadowlark and Buzzard,UB7 0ET,51.481211897081200,-0.484546430500124
Moluccan boobook and Duck,TW17 8TA,51.406623000000000,-0.429286000000000
Nukupuʻu and Scimitar babbler,KT12 2SE,51.390885615102000,-0.412620262389184
Kangaroo and Macaw,TW12 2AE,51.415258098646800,-0.371553256146202
Thicketbird and Polecat,UB3 5AD,51.491457081160800,-0.434798889326884
Elephant and Bunting,TW14 8LE,51.454352197333500,-0.440659572336407
Fox and Egret,TW14 0XQ,51.459725275148100,-0.408217986024296
Parrotbill and Darwin's finches,TW14 8FE,51.454539468415000,-0.434190000000000
Eagle and Kestrel,TW3 3SU,51.461451245720400,-0.373450921696508
Flameback and New World blackbird,SL4 6JA,51.496782844044600,-0.630497572851097
Gull and Shearwater,SL3 7EN,51.506631916635200,-0.554294562270306
Prion and Solitaire,KT16 9EY,51.391662777117000,-0.513709146479522
Night heron and Siskin,UB3 9XE,51.503711000000000,-0.414331000000000
Piping shrike and Dorcopsis,KT14 7PQ,51.336908835217800,-0.473187520094439
Rat and Mamo,UB1 1QB,51.511531501631600,-0.378355000000000
Grackle and Logrunners,SL3 0BL,51.475017900382100,-0.517740677675330
American sparrow and Elephant,TW17 8RZ,51.402128641390400,-0.431510064066552
Old World vulture and Skunk,TW6 3FF,51.455277418400000,-0.445852882300000
Songlark and Chicken,UB3 3DN,51.506003306032200,-0.417139095253378
Chickadee and Scimitar babbler,TW16 7RN,51.428154734784100,-0.415630179899251
Dolphin and Civet,TW16 7PQ,51.423283139554800,-0.421796457448816
Tahr and Magpie,KT13 3GJ,51.373421956001700,-0.457548347647183
Kite and River dolphin,TW2 6DW,51.445139175486300,-0.369569598684129
Pitohui and Fox,TW13 4QX,51.435615697594600,-0.425443048331850
Petrel and Grouse,UB1 1DD,51.508470922426100,-0.390322885885700
Boto and Tattler,UB3 5ER,51.489719875636300,-0.434671124855872
Nukupuʻu and Gull,KT16 0LH,51.357920647040600,-0.530585876821430
Myna and Parrotbill,KT10 9QE,51.368118818093600,-0.366962406020913
Mamo and Grouse,KT14 7SJ,51.330898112722000,-0.474277125475006
Marsh harrier and Grouse,TW14 0JE,51.453772251933700,-0.407547081833155
Parakeet and Jay,KT13 9HL,51.373820022205600,-0.438871275006458
Mole and Greenbul,TW12 9ED,51.414573000000000,-0.370046000000000
Peafowl and Triller,TW20 0JL,51.430023715233600,-0.564941920063386
Magpie and Ice seal,KT12 3AS,51.383497401879400,-0.393087326504069
Old World warbler and Meadowlark,KT12 3QL,51.386400090503400,-0.382494309148921
Chickadee and Goose,TW15 2BW,51.427234217033000,-0.451723839049540
Gull and Quetzal,UB2 4WL,51.505556000000000,-0.375073000000000
River dolphin and Treepie,SL3 8YF,51.507297392324400,-0.533293270749275
Skunk and Grouse,TW14 8NB,51.452704680381200,-0.440714000000000
Booted eagles and Dorcopsis,KT13 9GU,51.366904000000000,-0.444157000000000
Treepie and Chipmunk,KT12 4AQ,51.363972862886100,-0.405449222873203
Kestrel and Ground sloth,UB7 9LW,51.501872961105700,-0.459468657624229
Eagle and Francolin,SL1 1JL,51.508893319243200,-0.595363423708798
Tree warbler and Night heron,KT13 8NP,51.374853380066100,-0.452370786060786
Partridge and Badger,UB7 8LT,51.513683121343100,-0.466593175827270
Old World quail and Thrasher,TW18 3HE,51.429130270037000,-0.519844513676355
Fox and Partridge,GU24 8DZ,51.339498460775300,-0.611946122850284
Diving bird and Myna,GU24 8BF,51.353980000000000,-0.599312000000000
Shearwater and Philippine hawk-owl,TW14 8ER,51.449242366525200,-0.435767888987592
Grouse and Parrotlet,TW12 1BU,51.423959425928600,-0.359059000000000
River dolphin and Zebra,GU21 4DW,51.328846000000000,-0.559881250607547
Solitaire and Hawaiian honeycreeper,GU25 4TD,51.402383889489800,-0.557799422232507
Treepie and Mamo,TW15 2QX,51.433739873107700,-0.467098845179939
Jay and Chicken,TW12 3EH,51.430710991241700,-0.378326209809501
Moluccan boobook and White ibis,SL4 3AH,51.476746553907300,-0.608936427221147
Herring gull and Rabbit,TW16 7AU,51.419839895199100,-0.421857523142537
Myna and Linsang,SL1 0BN,51.508272000000000,-0.584601000000000
Duck and Meadowlark,SL3 9JT,51.489816000000000,-0.573955000000000
Argus and Quetzal,UB11 1FE,51.508118233314400,-0.445511001062234
Vulture and Logrunners,KT14 7DG,51.341209815617600,-0.468565100910703
New World blackbird and Maya,GU21 5LE,51.330960097040500,-0.536213383221456
Cloud rat and Masked owl,SL1 5UE,51.511994820281000,-0.639552675011722
Jerboa and Masked owl,SL1 0SG,51.510856575769300,-0.604655492966527
Vulture and Guillemot,UB3 4NJ,51.500789849028900,-0.423298883925236
Towhee and Meadowlark,KT13 0QS,51.356217000000000,-0.464142566311716
Tattler and Jay,TW18 2PA,51.420840305059300,-0.500106488316996
Masked owl and Fox,SL1 0TE,51.510856575769300,-0.604655492966527
White ibis and Rat,GU21 5LG,51.327987440513500,-0.540843643466134
Mink and Grosbeak,TW17 9NN,51.390352631878600,-0.460974680111178
Grouse and Polecat,KT15 1NN,51.368393070257300,-0.496979330743027
Tree warbler and Cuscus,TW15 3PP,51.430709927785800,-0.478176371721514
Magpie and Minke whale,GU25 4RX,51.402728331996800,-0.574192251783198
Kite and Boto,KT13 9EJ,51.367508208316300,-0.444343766877533
Marmoset and Stilt,UB2 4LD,51.492734133120800,-0.368174694165403
Coati and Tit-tyrant,UB3 4EB,51.495909142894600,-0.427472180305509
Partridge and Tree warbler,SL5 0DH,51.392751533881300,-0.628833803140117
Snipe and Rabbit,SL3 9NS,51.474761696556800,-0.543221272518652
Jay and Vole,UB1 1LZ,51.512286974586100,-0.385503000000000
Peafowl and Grackle,SL3 8LD,51.497930267183200,-0.542886172487071
Civet and Grouse,KT15 1JT,51.361173002652400,-0.502659482220691
Night heron and River dolphin,TW20 8DH,51.428713983517600,-0.526057806798601
Myna and Philippine hawk-owl,TW20 0BZ,51.427308173434800,-0.573053411699142
Francolin and Herring gull,TW20 9UP,51.420969271602600,-0.543853388417250
Kestrel and Viscacha,TW15 3RY,51.428199611424300,-0.470463262789458
Mole and Polecat,SL1 1RD,51.506464479037600,-0.590034667383635
Shearwater and Diving bird,KT10 8BB,51.379875976650400,-0.368541412948518
Argus and Ice seal,KT14 7PX,51.335881916682200,-0.477373000000000
Peafowl and Wader,SL95 1NX,51.508271000000000,-0.584618000000000
Mamo and Quetzal,TW19 7BJ,51.447532000000000,-0.468973201007698
Fulmarine petrel and Old World quail,SL3 9DJ,51.481144818841600,-0.578286521035123
Cloud rat and Meadowlark,TW17 9NP,51.389201929411200,-0.460998913169541
Fulmarine petrel and Stilt,KT13 8EE,51.362434240732000,-0.468058435058561
Gull and Vulture,UB2 5BJ,51.502625095791600,-0.388295584736922
Goose and Skunk,TW4 5HG,51.463185752053300,-0.378571761237167
Warbler and Civet,TW19 5HB,51.470464616345700,-0.560793958149605
Black cockatoo and Songlark,UB2 5DT,51.501928000000000,-0.396403000000000
Chickadee and River dolphin,TW15 3LJ,51.431926585123900,-0.476999465637156
Francolin and Tit-tyrant,TW18 4RP,51.437386014446200,-0.511391195386813
Rabbit and Prion,TW20 8UG,51.410086000000000,-0.534120000000000
Hawk and Civet,SL4 3NT,51.477189577158400,-0.619031686900544
Kestrel and Logrunners,UB3 4PA,51.499228945688400,-0.420903534027977
Buzzard and Kestrel,TW16 6EP,51.402566382586600,-0.414588061639413
Dolphin and Condor,SL1 0YY,51.508271826500000,-0.584618550000000
Kangaroo and Mouse,TW4 6HS,51.468640839408900,-0.401256095704930
Marsh harrier and Myna,TW12 2NP,51.414494796717500,-0.363082000000000
Nukupuʻu and Hawk,KT12 4NS,51.370104051808800,-0.392823523975176
Polecat and Siskin,SL1 2AE,51.503370801375600,-0.585519518626593
Parakeet and Linsang,TW2 5JP,51.440214297626500,-0.366550694992025
Wader and Hawaiian honeycreeper,SL4 5GQ,51.482497000000000,-0.635980000000000
Cloud rat and B,TW13 4QY,51.436012244312100,-0.424839538083996
Warbler and Jerboa,TW2 7HQ,51.455675084755400,-0.360961168269188
Nukupuʻu and Gull,UB2 4JU,51.495635111533900,-0.373747098982931
Tahr and Perching duck,KT14 7AL,51.342220962426300,-0.481998970554742
Solitaire and Old World vulture,SL3 7UX,51.502744000000000,-0.557454000000000
Quetzal and Vole,TW2 6LJ,51.449272973480300,-0.368083949392643
Zebra and Prion,TW17 0LB,51.403009653637600,-0.463396480983560
Petrel and Boto,KT12 4PF,51.369995691378100,-0.388862145764934
Elephant and Francolin,SL4 6NH,51.499538538834100,-0.640344000000000
Pheasant and Macaw,TW13 5EA,51.443745411189300,-0.394988314579663
Macaw and Quetzal,TW17 8NF,51.388955623005800,-0.428884810417037
Wallaby and Kite,TW3 4LU,51.474108181509000,-0.379638866180612
Piping shrike and Civet,KT12 5ER,51.365393911097200,-0.409436462149298
Towhee and Darwin's finches,UB7 7LQ,51.505659682900200,-0.471920103805802
Jackal and Booted eagles,TW16 7HR,51.418252000000000,-0.431398297679881
Masked owl and Puffleg,UB3 4LF,51.493823380620300,-0.419476911068367
Snipe and Old World vulture,TW4 7BX,51.468522711502900,-0.379548785006571
Cloud rat and Solitaire,TW3 3UN,51.456431808814900,-0.372679354163976
Magpie and Masked owl,TW14 8LQ,51.456028389313000,-0.439580520054457
River dolphin and Warbler,UB3 1PH,51.498986515636700,-0.442450442780109
Greenbul and Condor,KT16 8LJ,51.386747000000000,-0.485772000000000
Boto and Kite,KT11 2EF,51.336379548220000,-0.384126171007616
Maya and Cuscus,SL4 2RD,51.457451900337300,-0.586579411627087
Old World quail and Greenbul,KT13 0XG,51.346091509012600,-0.478826995495907
Maya and Asiatic leopard,KT14 7AE,51.340479000000000,-0.480769821206175
Guillemot and Flameback,UB3 1DR,51.503693000000000,-0.425671000000000
River dolphin and Bunting,SL3 8QS,51.489476171569700,-0.539151402231545
Kākāriki and Marmoset,TW2 6HW,51.448086978371600,-0.364283804485203
Partridge and Wader,TW15 2PB,51.431397421549900,-0.459898067782219
Logrunners and Boto,UB1 1JD,51.509500660052300,-0.384118931040219
Vole and Greenbul,TW13 6LA,51.434623908697700,-0.381669277211579
Thicketbird and Mink,KT16 8BU,51.385024129946000,-0.502226135710047
Armadillo and Night heron,TW16 5LD,51.408752924098600,-0.401332635997440
White ibis and Tattler,SL1 1LH,51.508491000000000,-0.587940000000000
Goose and Tree warbler,TW15 2PG,51.432130462223700,-0.460937980078744
Old World warbler and Mink,UB2 4LF,51.495623656527700,-0.365161482413068
Cuscus and Tahr,TW12 2EQ,51.413323266394500,-0.359197518973678
Parakeet and Boto,SL4 1WZ,51.481161043338200,-0.610400661903773
Ibex and Boto,KT8 1RE,51.404458982172400,-0.377443404864587
Flameback and Puffleg,UB1 3HU,51.512342962732400,-0.364707158801719
Tit-tyrant and Perching duck,TW3 3AS,51.469010000000000,-0.369226659689338
Grackle and Recurvebill,UB2 5SB,51.495993887893300,-0.378877339423771
Mole and Egret,TW2 6EE,51.444442617184700,-0.366687633282071
Peafowl and Rat,KT13 9UH,51.368448267591000,-0.446064563309057
Argus and Wader,TW3 2JF,51.455216611674400,-0.364835009685992
Bronzewing pigeon and Wallaby,KT10 8AG,51.371765348116400,-0.366645900817560
Zebra and New World blackbird,KT15 3HS,51.346035787977100,-0.504531302860415
Jerboa and Flameback,TW14 0BJ,51.454578235567800,-0.405978975965432
Mouse and Ground sloth,TW15 3QN,51.432098354656800,-0.472922539163584
Pitohui and Grosbeak,KT13 9SH,51.377850839716900,-0.433647549747504
Siskin and Nukupuʻu,SL3 7QU,51.499145291465800,-0.550958525232490
Triller and Jay,TW19 7LA,51.459358533625900,-0.475352491960009
Solitaire and Piping shrike,KT15 2LN,51.370970892902100,-0.485573952352933
American sparrow and Mockingbird,TW18 1AZ,51.429657350302200,-0.494854941747276
Dorcopsis and Asiatic leopard,SL4 1QF,51.485539060284000,-0.605759598836381
Night heron and B,KT13 0HB,51.362437137670800,-0.436960049323159
American sparrow and Nukupuʻu,KT11 1BG,51.342822128160500,-0.392256010187524
Ibex and Wallaby,SL4 3QY,51.476741336281200,-0.632192195096696
Parrotbill and Linsang,UB7 7UH,51.495814889228300,-0.471356149188298
Mouse and River dolphin,UB2 4BX,51.502244065787500,-0.378266547879678
Shearwater and Recurvebill,KT12 4DL,51.351863000000000,-0.430915000000000
Grouse and Francolin,KT13 9RJ,51.376861326810000,-0.430261582894464
Jackal and Jerboa,KT12 1AH,51.387029653794400,-0.421405548269708
Grackle and White ibis,TW16 7BN,51.419879432259200,-0.430830625264630
Ibex and Meadowlark,TW18 2ED,51.427614000000000,-0.508674000000000
Eagle and Mockingbird,TW16 7QE,51.427244320406700,-0.422134682534119
Tit-tyrant and Scimitar babbler,SL5 9RX,51.387909581735900,-0.637730961884700
Capuchin and Quetzal,KT12 3EH,51.381973607842600,-0.392134769938906
Towhee and Macaw,TW18 1UQ,51.406315974752700,-0.492256970530367
Old World warbler and Tit-tyrant,KT10 9QH,51.367468278554000,-0.366741328520742
Cuscus and Old World quail,SL1 2TL,51.504470609781000,-0.618192821297388
Linsang and Quetzal,TW20 9BW,51.434436790418700,-0.545799036193076
Egret and Tit-tyrant,SL1 5UG,51.512212984368500,-0.645195255154131
Petrel and Recurvebill,TW5 9TR,51.478016521959400,-0.408286954672482
Fox and River dolphin,GU24 8PH,51.349558745071800,-0.597425926743625
Fox and Chickadee,KT16 8LD,51.391345899613600,-0.485447541907692
Parakeet and Tree warbler,TW18 4LD,51.432425807063000,-0.501784330467406
New World blackbird and Buzzard,SL3 8DE,51.506491986046300,-0.549515125146411
Magpie and Polecat,KT10 8LE,51.364128556953100,-0.380090074780540
Grosbeak and Linsang,KT15 3SJ,51.348516957008000,-0.512951462328831
Tahr and Chickadee,GU25 9BB,51.401359350122700,-0.562791506849992
Goose and Shearwater,UB1 3HL,51.511582574601000,-0.367573376773604
Siskin and Parrotlet,UB3 4PQ,51.497496484145000,-0.415128733454018
Piping shrike and Grackle,KT13 8HP,51.374785027169400,-0.462890440667001
Rat and Tree warbler,SL4 6HE,51.492753742100000,-0.614931566200000
Warbler and Magpie,KT15 2FW,51.374963000000000,-0.483373000000000
Pratincole and Skunk,TW13 4PF,51.436379739987900,-0.420740892427215
Stint and Piping shrike,TW13 4LX,51.440305186329500,-0.422432856410021
Parakeet and Myna,GU21 2TT,51.326902519200500,-0.622803930165782
Bronzewing pigeon and Puffleg,TW18 2HU,51.417813252508400,-0.502477823828347
Towhee and Black cockatoo,TW18 2LR,51.420732464282600,-0.507862081042695
Diving bird and Warbler,TW13 7ED,51.437788068176200,-0.419670872605101
Thicketbird and Myna,TW12 2SF,51.414605562517800,-0.361510028947485
Grosbeak and Elephant,KT15 1BB,51.366471367335500,-0.514108208399337
Greenbul and Condor,TW17 9LE,51.388459288237100,-0.455131205625321
Chipmunk and Solitaire,SL3 6QH,51.513153495063000,-0.551566151572541
Jackal and Black jay,TW4 7BL,51.465838114859300,-0.382451234702695
White ibis and Duck,SL3 7HT,51.498057047296100,-0.558239537904489
Diving bird and Zebra,SL3 8UJ,51.494247325975800,-0.542470598292998
Diving bird and Maya,SL1 2NG,51.507815920235700,-0.611362366245591
Thicketbird and Vulture,KT8 2JH,51.404494858963800,-0.367723007488750
Cloud rat and Nukupuʻu,TW12 2PD,51.418753999019700,-0.373341813774336
Siskin and Mouse,TW18 1EQ,51.423739796427000,-0.494804831691154
Grackle and Warbler,KT13 8GB,51.372921000000000,-0.458594000000000
Jay and Night heron,KT16 8JS,51.386786773473600,-0.493818654600967
Zebra and Buzzard,UB7 7LZ,51.511707463357200,-0.478534168342112
Warbler and Quetzal,TW12 2BB,51.413566000000000,-0.367547617515843
Diving bird and Pratincole,KT15 3TW,51.349553643473300,-0.509615108073556
Badger and Mamo,KT11 2SW,51.325555940663500,-0.373325855901098
Mouse and Mockingbird,TW20 2DR,51.434107000000000,-0.530080000000000
Old World vulture and Songlark,SL4 3BX,51.477985894061400,-0.612599570280885
Pitohui and Gull,TW19 7RW,51.445739481456800,-0.476367311428727
Chickadee and Cloud rat,UB7 7QX,51.510820106747500,-0.475984210830347
Kangaroo and Treepie,SL3 7PA,51.502880674868800,-0.574743059957151
Old World warbler and Chipmunk,KT10 9NA,51.363817000000000,-0.367259000000000
Elephant and Mole,KT13 9PL,51.373084894881800,-0.439715223255124
Tit-tyrant and Parrotbill,KT12 4PP,51.371641405249200,-0.388215331094641
Triller and Thicketbird,UB2 5NS,51.497338731998200,-0.398220900066122
Fox and Duck,UB3 1LL,51.494473416592400,-0.431728026139392
Gull and Old World warbler,SL3 8NF,51.495210487898500,-0.547625926844361
Jackal and Bunting,TW6 1PJ,51.460486083831800,-0.468722079659080
Argus and Marmoset,SL1 1YH,51.505827853526200,-0.591682529301458
Fulmarine petrel and Linsang,TW20 9SU,51.425290220781200,-0.554403130213856
Maya and Fish eagle,UB3 5EW,51.490644614339900,-0.436584049882156
Vole and Dorcopsis,TW19 7UH,51.452160471459700,-0.481953639539974
Kite and River dolphin,TW19 7HF,51.452345751783700,-0.475442184154232
Parrotlet and Bunting,SL3 8NE,51.494406150801900,-0.548026029166045
Polecat and Francolin,KT12 5QY,51.369627957943700,-0.402724303229466
Chicken and Gull,TW5 9RF,51.482171714829800,-0.409668885626281
Towhee and Magpie,KT12 2QN,51.387600368773400,-0.418382154208220
Lemming and Kākāriki,TW14 9TG,51.455674828608100,-0.423903772206637
Bronzewing pigeon and Pratincole,SL4 5BS,51.481434684633500,-0.616052035722826
Chickadee and Kangaroo,SL4 5FA,51.481161043338200,-0.610400661903773
Polecat and Ice seal,UB3 2ET,51.511077495859000,-0.415997716648289
Gull and Cuscus,TW18 4DR,51.434690809979600,-0.510169610244600
Shearwater and Gull,GU21 4XP,51.326844727364300,-0.589980895471846
Darwin's finches and Piping shrike,KT12 1SG,51.373530096863100,-0.414599862495733
Fulmarine petrel and Old World vulture,KT11 1HP,51.336812248549200,-0.404539800764896
Capuchin and Darwin's finches,TW16 6QJ,51.410567254639800,-0.416410715816937
Moluccan boobook and Petrel,TW12 2AT,51.415888817302800,-0.368410169896954
Pitohui and Fish eagle,SL95 1AB,51.508271826500000,-0.584618550000000
Old World quail and Mink,KT15 1QH,51.371268675650900,-0.496827710041061
Dorcopsis and Francolin,KT13 8BE,51.371467841654900,-0.455444521539654
Crow and Perching duck,KT16 0LP,51.358333247416400,-0.534091538522053
Mamo and River dolphin,GU24 8SZ,51.360769674349800,-0.613084344283635
Grackle and Coati,TW18 3EB,51.431344181590300,-0.519988758635241
Grouse and Nukupuʻu,SL3 7FG,51.501982420725800,-0.571125911627147
Jerboa and Jay,GU21 4BP,51.325876945453700,-0.558492477657408
B and Francolin,TW13 4DQ,51.446282217645200,-0.414887756957468
Flameback and Jackal,TW16 6RA,51.407601699927000,-0.414557709687287
Capuchin and Hawk,UB3 1LW,51.495872094363000,-0.431420716976419
Black jay and Stint,KT12 3JN,51.378579402193300,-0.403016260969320
Lemming and Mole,KT11 1WF,51.329081046942800,-0.410664456589310
Chickadee and Marmoset,SL3 8RZ,51.501315990807600,-0.549794706974332
Bronzewing pigeon and Meadowlark,SL3 7GQ,51.492168088906300,-0.551741522118825
Darwin's finches and Piping shrike,KT13 9AE,51.373264659634700,-0.439033839202607
Vulture and Perching duck,TW4 5PY,51.449278000000000,-0.383267000000000
Asiatic leopard and Siskin,SL1 2BQ,51.504678953754300,-0.588289000000000
Chicken and Egret,SL1 0TF,51.510856575769300,-0.604655492966527
Guillemot and Vulture,UB4 0LG,51.513519644898800,-0.396257000000000
Masked owl and Argus,KT15 1LD,51.360259647968400,-0.502258362805874
Grackle and Puffleg,KT12 3HZ,51.381137908012400,-0.408646490647178
Fox and Cloud rat,UB7 0JR,51.485468297636500,-0.455830335486878
Old World quail and Polecat,SL4 3PF,51.475527310826800,-0.619139477554893
Asiatic leopard and Piping shrike,KT12 1GG,51.385114747412600,-0.419735000000000
Duck and Crow,SL4 2RZ,51.456579352818400,-0.579855826344403
New World blackbird and Bunting,TW3 4HU,51.473246836473300,-0.361656203220221
Magpie and Chicken,SL4 4JA,51.474683858888100,-0.647847935496222
Fish eagle and Ice seal,KT13 8LY,51.381349357507500,-0.453315675703470
Nukupuʻu and Towhee,TW13 5BG,51.445166330676900,-0.404220140177525
Asiatic leopard and Boto,UB3 2HR,51.510514597821500,-0.415599328225553
Hawk and Flameback,SL4 5AS,51.479389481414700,-0.618000412166660
Chipmunk and Fox,TW4 6DN,51.464725278876900,-0.399650983502146
Darwin's finches and Lemming,KT10 8NX,51.369239360426200,-0.368646507292634
Grosbeak and Towhee,GU24 8UF,51.351009000000000,-0.602820000000000
Prion and Rabbit,UB3 3BJ,51.505295673375600,-0.418676565496086
Macaw and Gull,TW6 3QY,51.458852117341600,-0.469611630918012
Tit-tyrant and Fox,KT15 2BE,51.371846491317700,-0.485832404742835
Old World warbler and Boto,SL4 2NA,51.454197920795700,-0.580721319399724
Philippine hawk-owl and Greenbul,SL3 7SR,51.503473258291100,-0.568024736296110
Elephant and Stint,KT12 2RX,51.377260063727200,-0.409815516443051
Dorcopsis and Treepie,UB1 1SU,51.510534524895200,-0.375637642591404
American sparrow and Maya,KT13 0RU,51.343934421385900,-0.463750412983987
Coati and Minke whale,TW17 0BD,51.397925552638200,-0.457658627488140
Mink and Night heron,TW18 4RS,51.436756737900700,-0.509282325160144
Towhee and Black cockatoo,TW17 9BL,51.392341873949500,-0.449524148144622
Darwin's finches and Diving bird,KT13 0QN,51.354975123108800,-0.464432000000000
Quetzal and Mole,SL1 0FW,51.508271000000000,-0.584618000000000
Recurvebill and Marmoset,TW20 9JJ,51.430369154006500,-0.542648328156091
Rabbit and Kākāriki,KT15 3LY,51.349821428475900,-0.495389935553191
Fish eagle and Puffleg,SL3 9PD,51.474082607724900,-0.535625814483077
Ground sloth and Rat,SL4 4HT,51.476853931441500,-0.644990222383689
Skunk and Mole,TW18 1AB,51.431935356661600,-0.498434000000000
River dolphin and Kestrel,TW12 2SH,51.413859866701400,-0.362845301280870
Gull and Thicketbird,KT15 3HX,51.348336706787700,-0.503034803657201
Siskin and Vole,GU25 4EZ,51.398208583948300,-0.569461000000000
Maya and Logrunners,SL1 1TB,51.508180000000000,-0.575644000000000
Myna and Civet,TW12 2AZ,51.414086005614700,-0.367901000000000
Eagle and Armadillo,TW4 6LN,51.477029184321000,-0.405772494135632
American sparrow and Mole,TW17 8JH,51.391422001926400,-0.439019000000000
Thicketbird and Fish eagle,TW20 0NB,51.432235616774500,-0.559794422413631
Pitohui and Crow,UB1 1EA,51.508744012237100,-0.389909776549200
Triller and Parakeet,SL3 0PL,51.480583271595800,-0.512707094280659
Bronzewing pigeon and Old World quail,TW15 3GB,51.435854183364500,-0.474077758374712
Lemming and New World blackbird,TW14 9RN,51.447237575920800,-0.423719385872358
Hawk and Asiatic leopard,KT14 6PG,51.339352000000000,-0.494374486116886
Minke whale and Fox,KT13 9AB,51.373083378642100,-0.451123029659127
Triller and Quetzal,KT16 9DA,51.394177156373400,-0.514145132567521
Songlark and Cuscus,TW18 4QB,51.433450059658500,-0.509820000000000
Dolphin and Pratincole,TW14 0AW,51.466437000000000,-0.421007000000000
Treepie and Triller,TW12 2TL,51.418192133555800,-0.363984881761012
Guillemot and Egret,TW5 0UL,51.488462681841000,-0.367520578361508
Gull and Masked owl,SL5 9QE,51.392333794562800,-0.640833550906272
Parakeet and Songlark,TW16 7TY,51.423402277486900,-0.420627308918606
Chipmunk and Minke whale,TW20 9JB,51.428700301162200,-0.542945960552443
Pratincole and Wallaby,TW15 1JB,51.426117409619700,-0.445475740285087
Bunting and Old World warbler,UB3 5AY,51.481483126673600,-0.446520000000000
Perching duck and Vulture,KT16 9LT,51.383923012137100,-0.516043630885976
Maya and New World blackbird,KT12 5BX,51.365294513934800,-0.428057011640192
Egret and Myna,UB2 4PA,51.501292000000000,-0.374884492196686
Minke whale and Civet,TW17 0AB,51.398159810523900,-0.454962569216801
Thrasher and Triller,TW20 0DH,51.431836000000000,-0.573358000000000
Philippine hawk-owl and Ice seal,TW12 1SA,51.428388901185500,-0.362009616001636
Greenbul and Tree warbler,SL3 7GD,51.493311697282100,-0.549688573234525
Quetzal and Marmoset,KT13 8SD,51.368155665518200,-0.455900741909741
Tree warbler and Condor,SL3 0QG,51.481714210835000,-0.516803529373686
Fox and Puffleg,TW18 1UE,51.408395681323500,-0.491052673246089
Duck and Peafowl,KT16 9EQ,51.395357931491400,-0.512238216823989
Wallaby and Mink,GU24 9JD,51.340576000000000,-0.642361423346654
Black cockatoo and Gull,TW5 0QH,51.480419388376500,-0.364639493662956
Badger and Peafowl,SL1 1JP,51.508506325753500,-0.592334853664174
Polecat and Mamo,SL1 2SN,51.506797859287400,-0.609678612146612
Boto and Zebra,TW15 3QF,51.431466914848900,-0.472080447530082
Towhee and Cuscus,KT13 0EP,51.364160056179500,-0.439386484911922
Tree warbler and Booted eagles,SL1 2PL,51.506944916096700,-0.606158267883191
Kite and Parakeet,KT15 2JL,51.368822671691700,-0.483561741761517
Greenbul and Ice seal,KT12 1ES,51.380483320319800,-0.421415216236455
Elephant and Moluccan boobook,TW13 4AE,51.447163853832100,-0.409604605308873
Polecat and Maya,SL1 1UN,51.509845877142500,-0.587077066267818
Cuscus and Moluccan boobook,TW18 3LY,51.416313065637000,-0.513902145502344
Logrunners and Crow,GU24 8RJ,51.354797738564200,-0.601646218479501
Meadowlark and Puffleg,UB3 3DD,51.505671088154800,-0.417842247083482
Kangaroo and Meadowlark,UB1 3AS,51.508901891518700,-0.365565286309389
Tattler and Gull,SL4 1PJ,51.482915000000000,-0.609584000000000
Black cockatoo and Jay,TW14 0JD,51.453675909438600,-0.405751333180922
Greenbul and Old World warbler,SL3 8SQ,51.502650745709600,-0.551567751841255
Viscacha and Condor,KT8 2LB,51.397068555696700,-0.366535465976342
Treepie and Macaw,TW17 0SR,51.411373464115200,-0.443703869544236
Elephant and Recurvebill,TW14 9BJ,51.447757510625100,-0.413599051707286
Dolphin and Old World warbler,TW18 2PN,51.422043893696800,-0.507042708382496
Badger and Scimitar babbler,SL0 9DS,51.499459172623100,-0.505739253537158
Vulture and Rabbit,SL5 0LE,51.399579745507200,-0.616856118903905
Parrotlet and Minke whale,TW4 7BE,51.466831761186400,-0.384734013474965
Minke whale and Stint,TW18 2AZ,51.429901352802100,-0.504082217742847
Duck and Piping shrike,SL4 5LY,51.481143098650700,-0.639549112243131
B and Peafowl,GU25 4HZ,51.390275385191700,-0.578000025310162
Masked owl and Egret,KT10 9HF,51.355167286658000,-0.368083610678818
Kākāriki and Siskin,SL1 5AH,51.513403151346300,-0.627679047242763
Boto and Kangaroo,KT8 1PL,51.403848312954300,-0.360701189173568
Chickadee and Capuchin,SL4 2AZ,51.469885093555800,-0.608137260949889
Zebra and Stint,KT13 8DT,51.371626376217800,-0.463398489738470
Night heron and Dorcopsis,KT15 3PP,51.345271938775400,-0.509656000000000
Pitohui and Viscacha,TW18 3BA,51.433806594068800,-0.519161097974634
Cloud rat and Dolphin,SL3 9EG,51.482262649165500,-0.577776511900736
Jay and Wader,TW13 5DP,51.446890443280500,-0.399425505466620
Eagle and Darwin's finches,TW5 9JX,51.483650521189000,-0.392161909896587
Darwin's finches and Grouse,GU21 5TW,51.338976184767600,-0.523625712385306
Thrasher and Jackal,TW15 1PD,51.428629660962900,-0.434918294252327
Diving bird and Jerboa,TW15 1JN,51.424803225046700,-0.448771040957538
Marmoset and Parrotbill,KT10 9HL,51.347422686137000,-0.364711408617846
Asiatic leopard and Shearwater,TW17 0DN,51.404038293795900,-0.461607997613306
Cuscus and Ibex,UB1 1PH,51.513731673828800,-0.388379227546521
Songlark and Ibex,KT16 8EN,51.390447330238100,-0.500884872637943
Peafowl and Puffleg,GU21 5SP,51.335762384532500,-0.537682637732198
Ice seal and Mockingbird,KT12 2BD,51.385382509231400,-0.399416563822689
Badger and Chicken,KT15 2BF,51.362775588401300,-0.488803277414683
Prion and Armadillo,KT11 1FB,51.337271615487300,-0.406433323536258
Petrel and Triller,SL1 1NJ,51.507011331234500,-0.580205021426161
Pitohui and Magpie,TW14 8HR,51.455307685653000,-0.432739501583740
Francolin and Stilt,KT13 9QH,51.374815949253100,-0.436006903137010
Stilt and Boto,TW13 7QB,51.436532040892100,-0.402118333850278
Cuscus and Piping shrike,SL1 5DJ,51.513007155068000,-0.635357692927192
Chicken and Logrunners,TW5 0DQ,51.476247718308400,-0.382198246317567
Magpie and B,TW17 8SR,51.410472707571300,-0.432791894456658
Kite and Vulture,TW17 8JF,51.391803145653800,-0.439423543549679
Partridge and Dorcopsis,SL4 6FE,51.488326685679400,-0.610021000000000
Parrotlet and Bronzewing pigeon,SL1 2PF,51.508272000000000,-0.584601000000000
Piping shrike and Quetzal,TW12 3PL,51.424167916322800,-0.383779059117197
Recurvebill and Duck,TW19 5BY,51.453973484409200,-0.555713831777546
Ground sloth and Fulmarine petrel,KT12 3RD,51.386957410671000,-0.383782501130763
Lemming and Linsang,TW20 8SS,51.411593701198900,-0.514026397460006
Mink and Recurvebill,SL4 5EJ,51.483492576057600,-0.625883840806542
Rabbit and Scimitar babbler,SL5 0DB,51.395735312838600,-0.639496567827054
Ground sloth and Cloud rat,KT13 0YT,51.346030121534900,-0.478254670548559
Prion and Skunk,SL4 3PE,51.475875315603100,-0.620439323423696
Piping shrike and Mink,SL4 2HZ,51.442308568799000,-0.628170501213999
Coati and Asiatic leopard,UB7 0AR,51.487936597714100,-0.479570351209912
Kite and Towhee,SL2 5AE,51.512994000000000,-0.589124000000000
Eagle and Wader,KT16 8JQ,51.387485692774700,-0.487342727759655
Jay and Snipe,TW19 7TP,51.447108610545900,-0.468262984405240
Jackal and Vole,UB3 5AL,51.481007686122000,-0.425363692811935
Wallaby and Parakeet,KT11 2LL,51.332874565186900,-0.412557336727081
Scimitar babbler and Armadillo,KT12 5QX,51.369226996591400,-0.402335998114381
Moluccan boobook and Pitohui,KT11 2BJ,51.335013023219400,-0.389887834895115
Goose and Skunk,GU25 4BF,51.407131441392500,-0.559964932242127
Logrunners and Dorcopsis,SL3 9PX,51.473076188067300,-0.551611808574582
Cuscus and Kite,TW18 1PN,51.425436837194000,-0.479976907363320
Elephant and Perching duck,TW20 8NU,51.422544100492300,-0.541056223149217
Treepie and Eagle,TW14 8SF,51.447775434736900,-0.430968279306959
Black jay and Kangaroo,TW20 9PB,51.429767099224600,-0.556491542285844
Chickadee and Eagle,TW4 5DJ,51.462910000000000,-0.392416000000000
Viscacha and Civet,SL1 2TG,51.505662561999300,-0.617854182925731
Asiatic leopard and Chicken,SL1 0NX,51.508272000000000,-0.584601000000000
Booted eagles and Rabbit,KT13 9NU,51.374558014620200,-0.438242720704523
Siskin and Black jay,GU21 5DZ,51.325640000000000,-0.547965000000000
Black cockatoo and Logrunners,KT11 3EB,51.327539964676900,-0.410416314145467
Black cockatoo and Towhee,TW6 3FH,51.459713000000000,-0.439981000000000
Capuchin and Pitohui,KT12 5AY,51.362575990117800,-0.417161472485993
Goose and Macaw,KT14 7SY,51.331615359365100,-0.470664710280597
Peafowl and Wallaby,TW20 0PJ,51.429983725706700,-0.574192803934612
Piping shrike and B,TW14 0LZ,51.461520299679300,-0.415266799766454
Tit-tyrant and Bronzewing pigeon,TW13 4EQ,51.443398906832300,-0.418455468489534
Hawaiian honeycreeper and Eagle,SL4 1QL,51.485681155088000,-0.607123511846111
Maya and Peafowl,UB7 7RS,51.512492381437300,-0.480122078290710
Pheasant and Grouse,SL1 1TD,51.507383015169000,-0.577484487829664
Recurvebill and Treepie,TW13 4LQ,51.440909642627000,-0.419908384704611
Zebra and Masked owl,TW13 6QN,51.434008150430900,-0.388539084065450
Fox and Rabbit,TW19 7JP,51.443377810065600,-0.475237190009960
Macaw and Cloud rat,KT13 8JS,51.377914506925700,-0.456060959759862
Petrel and Herring gull,TW16 5HZ,51.411555747140700,-0.409057367899214
Grackle and Thicketbird,UB2 4HJ,51.499616628080100,-0.368418747237608
Asiatic leopard and Myna,SL3 6BU,51.513446360117600,-0.560016368755985
Eagle and Kākāriki,SL1 9EB,51.506657966627600,-0.637607872142367
White ibis and Fish eagle,TW16 9BG,51.420055000000000,-0.421059000000000
Polecat and Diving bird,TW18 4JL,51.436860641192200,-0.491178000000000
Black jay and Kite,TW18 3EE,51.432143244723200,-0.521315211020250
Chipmunk and Myna,UB2 4PY,51.501307803442900,-0.370404271098673
Duck and Bronzewing pigeon,TW17 8JY,51.392058261797600,-0.440349135009684
Logrunners and Skunk,UB7 7BH,51.513629491826800,-0.473674000000000
Tahr and Viscacha,UB2 5RG,51.494465892662900,-0.373731084763393
Night heron and Kestrel,TW18 1JY,51.423585191024800,-0.488380611562068
Mink and Myna,KT12 5QN,51.370244255685700,-0.403737255431509
Ibex and Tattler,GU22 8PN,51.327620374005500,-0.507213000000000
Puffleg and Jay,TW13 4TJ,51.444070561456900,-0.424260120512930
Stint and Hawaiian honeycreeper,KT10 8JY,51.361551697921700,-0.375182332531417
Crow and Moluccan boobook,KT12 4AB,51.363948814142200,-0.403683205950357
Pitohui and Coati,TW16 6BD,51.400102000000000,-0.417088000000000
Chickadee and Eagle,UB2 5EE,51.503710000000000,-0.414351000000000
Old World vulture and Peafowl,KT16 0EW,51.363661410392600,-0.560581680904321
Argus and Mockingbird,SL1 5PZ,51.508269603950500,-0.584618526220629
Cloud rat and Ice seal,KT12 2EB,51.393827652132800,-0.406768839465518
Warbler and Vole,KT16 0JH,51.363120814302900,-0.523639565096151
Parrotlet and Fish eagle,SL4 2NE,51.455305171391800,-0.581564959717523
Partridge and Hawk,KT12 2QG,51.388870876755500,-0.417907176962598
Condor and Masked owl,TW12 2FD,51.414023137569200,-0.369396935220911
Chicken and Fish eagle,SL0 9EE,51.507761837927200,-0.509502389305195
Marmoset and Vole,KT16 0PL,51.372295436088900,-0.526905000000000
Guillemot and Kestrel,KT12 2TH,51.385175624497900,-0.417287299863528
Parrotbill and Booted eagles,TW13 5LZ,51.441759977829200,-0.378136343937916
River dolphin and Old World warbler,TW12 1DQ,51.428805609072300,-0.362872203488035
Viscacha and Booted eagles,SL1 0WN,51.508271826500000,-0.584618550000000
Dorcopsis and Gull,TW19 7JQ,51.455164726213800,-0.480630571265953
Badger and Capuchin,KT13 8YD,51.381476699829700,-0.465051720872589
Guillemot and Meadowlark,SL4 5BT,51.481116499815600,-0.621102064762278
Eagle and Tahr,GU21 5FH,51.329317000000000,-0.532083000000000
Siskin and Perching duck,KT14 7FH,51.335872655566300,-0.481864195688039
Parrotbill and Eagle,SL3 8RS,51.503008397481000,-0.547767073256510
Pratincole and Petrel,UB7 9HZ,51.497536008356600,-0.468186763610152
Thrasher and Pitohui,TW12 2PL,51.419438748174500,-0.377330109994066
Tahr and Kangaroo,TW20 9LW,51.430584644359200,-0.545518540919063
Rabbit and Siskin,GU25 4SR,51.403407423003500,-0.559133024036923
Tattler and Parrotbill,KT11 2HZ,51.334060432027500,-0.392691702231542
Parakeet and Dorcopsis,SL4 2NF,51.456044798684100,-0.581009484426122
Parrotlet and Philippine hawk-owl,KT15 1BZ,51.364995000000000,-0.506173546154809
New World blackbird and Triller,GU21 4BS,51.328069660699000,-0.556916642842001
Hawk and Lemming,KT8 2LF,51.396165426618400,-0.368838852916969
Wader and Quetzal,TW15 3PQ,51.431245017537400,-0.474375168290644
Jackal and Condor,TW18 4BF,51.432880355921200,-0.513307215507743
Eagle and Dorcopsis,UB2 5PD,51.498029612359200,-0.385648355060468
Wallaby and Solitaire,KT10 8PD,51.368053472618500,-0.374549972610518
Nukupuʻu and Shearwater,TW12 2UL,51.421944147876700,-0.364785800545139
Jay and Goose,KT13 8UT,51.367251847095000,-0.459651832320375
Fulmarine petrel and Kite,SL3 6QQ,51.512425678865400,-0.552338610688274
Marsh harrier and Triller,TW4 6EB,51.463960955869900,-0.395704408148478
Quetzal and Flameback,TW20 8HN,51.422910180915400,-0.528617702055874
Mamo and Masked owl,SL1 2ES,51.505097247100000,-0.608635398300000
Coati and Parrotlet,KT12 3LW,51.381583393646600,-0.398442586130423
Civet and Booted eagles,TW19 5EU,51.465365251868700,-0.563660875404248
Perching duck and Old World quail,SL4 5DS,51.480480197903700,-0.612135065420970
Linsang and Treepie,TW14 9NB,51.448892656769500,-0.415085188140423
Egret and Goose,TW20 0EU,51.429715539826000,-0.558147447895097
Gull and Civet,TW3 4LT,51.474829613063200,-0.382392409263948
Night heron and Armadillo,TW20 2DQ,51.434107000000000,-0.530080000000000
Condor and Thrasher,UB3 1DY,51.506464058010400,-0.440797786111595
Treepie and Vole,SL4 3DB,51.470730519930700,-0.623387677676292
Diving bird and Philippine hawk-owl,TW18 1EE,51.426251088746300,-0.494995621590034
Jackal and Stilt,UB3 5EZ,51.488033030030900,-0.435621912779392
Shearwater and Flameback,SL1 5TU,51.511275628191000,-0.642672379175479
Vole and Peafowl,TW13 7NT,51.431822357740600,-0.404267903550591
Snipe and Grouse,TW12 3BB,51.424029506527800,-0.368594929111639
Snipe and Chipmunk,SL4 2BZ,51.443676350562400,-0.642159120806337
Jackal and Wader,SL4 4PL,51.474580689516600,-0.650601202043057
Eagle and Mole,KT10 9JD,51.359991798793300,-0.380724367417032
Triller and Zebra,SL4 2BY,51.443374369038900,-0.640930602377116
Marsh harrier and Darwin's finches,TW16 7NZ,51.423169496211200,-0.422706513158828
Old World warbler and Masked owl,TW14 9NZ,51.450488677996000,-0.419261191787097
Marsh harrier and Mouse,SL3 7HP,51.500465399883100,-0.568392741281995
Chickadee and Triller,UB2 5DZ,51.500572687751400,-0.388137463808241
Tahr and Duck,SL1 1RT,51.509523955284300,-0.581265325548827
Badger and Bunting,KT22 0RA,51.332644707257300,-0.364476406806014
Greenbul and Lemming,GU21 5PN,51.333300952309500,-0.528545110731492
Tree warbler and Maya,TW6 2RG,51.478897125802100,-0.424889147580488
Eagle and Kestrel,GU21 4BZ,51.332139755010600,-0.562487605471616
Chipmunk and Goose,KT12 2HL,51.392131023487400,-0.408308241146184
Recurvebill and Grosbeak,UB7 7EQ,51.501858008450700,-0.478300277926186
Grackle and Nukupuʻu,TW12 1EJ,51.433630962950700,-0.380093070830791
Vulture and Booted eagles,UB3 3HF,51.510792000000000,-0.413399000000000
Black cockatoo and Ground sloth,KT14 6BN,51.336220000000000,-0.508296000000000
Buzzard and Jerboa,TW13 7LH,51.439607866827600,-0.413406599081140
Solitaire and Herring gull,TW12 2QU,51.420586079956300,-0.375764938958968
Buzzard and Chipmunk,SL1 2HD,51.507749772029200,-0.597373000000000
Mockingbird and Black cockatoo,KT12 3AB,51.377659321651600,-0.405447893029876
Cloud rat and Condor,TW16 5LN,51.421408000000000,-0.416036000000000
River dolphin and Capuchin,TW15 2RF,51.434132576325300,-0.467560458366021
Skunk and Chipmunk,TW13 7AN,51.441093000000000,-0.412075000000000
Kangaroo and Skunk,TW20 9AA,51.434277836557000,-0.541689542942733
Scimitar babbler and Logrunners,TW3 3JJ,51.465759567227800,-0.376767334079673
Parrotlet and Fox,UB2 4EQ,51.500029133728200,-0.380664767233421
Old World quail and Eagle,GU21 5SL,51.333298769785500,-0.536985848924986
Tree warbler and Stilt,SL3 7QG,51.501044441362600,-0.555479886075648
Cuscus and Parrotbill,TW18 2TD,51.411376124694100,-0.492061773732714
Black jay and Jerboa,UB3 3PJ,51.512061660235300,-0.405673984344189
Petrel and Rabbit,SL3 0LD,51.483966072162300,-0.526510000000000
Towhee and Bronzewing pigeon,TW19 7HJ,51.453767193522500,-0.476877286422405
Badger and Tattler,SL3 7UR,51.497161677200000,-0.569389521200000
Coati and Quetzal,UB1 1NL,51.511390000000000,-0.389312000000000
Warbler and American sparrow,TW6 2SX,51.475818266655600,-0.425297591082148
Wader and Jackal,TW2 6AJ,51.446201416164800,-0.378079727642342
Grouse and Crow,KT15 2NL,51.369740288354800,-0.490556570720988
Linsang and Crow,KT15 3JJ,51.355509846348500,-0.484633250583135
Quetzal and Songlark,KT11 2AZ,51.333514535530000,-0.403405373241424
Minke whale and Chicken,KT10 9FG,51.369014346185500,-0.363339052377404
Grouse and Coati,UB3 1HH,51.507723000000000,-0.430638453666909
Philippine hawk-owl and River dolphin,GU24 9PX,51.344257221116200,-0.647468075307499
Old World vulture and Shearwater,GU24 8AS,51.336455000000000,-0.588882000000000
Snipe and Perching duck,TW3 3TY,51.463689000000000,-0.365543809998759
Towhee and Tahr,TW17 8TD,51.406712018857100,-0.428621432953677
Bronzewing pigeon and Dolphin,TW2 7BS,51.453335599204200,-0.362786479846998
Civet and Mouse,TW12 2JS,51.419345382315400,-0.374485767603532
Buzzard and Greenbul,TW5 9DJ,51.479707037143100,-0.384610432923474
Treepie and Fulmarine petrel,KT12 5RU,51.371010847578700,-0.396656464545495
River dolphin and Thrasher,KT16 9JD,51.389652158308500,-0.518258522098192
Ice seal and Piping shrike,KT13 9BU,51.367682631182100,-0.450041061426036
Buzzard and Vole,KT12 5LD,51.368255059869400,-0.410213658141812
Piping shrike and Booted eagles,TW19 7LL,51.458501608290200,-0.477223503715269
New World blackbird and Goose,KT12 3AA,51.377369353855800,-0.406607476327124
Rabbit and Myna,SL4 5HG,51.484400957473900,-0.636686961662661
Rabbit and Parakeet,GU25 4DY,51.400559955781400,-0.560846972313787
Marmoset and Egret,KT12 1LQ,51.381993442630000,-0.414709823055085
Hawaiian honeycreeper and Crow,SL3 0JU,51.483032670114000,-0.519381900983952
Old World warbler and Triller,KT15 2NH,51.369220170119500,-0.489970293184091
Snipe and Diving bird,KT15 1NY,51.364676000000000,-0.502871901185562
Coati and Asiatic leopard,KT13 9NH,51.376528171043900,-0.441681600855269
Fox and Jackal,TW3 1NQ,51.470857000000000,-0.361684000000000
Black cockatoo and Scimitar babbler,TW12 1QJ,51.425612734547400,-0.360900618708083
Fulmarine petrel and Marsh harrier,SL5 0BH,51.396517390192500,-0.641025817081382
Songlark and Armadillo,KT16 9DY,51.395673281562100,-0.508749374559150
Polecat and Viscacha,SL1 2LE,51.509832415690600,-0.600205201224450
Booted eagles and Buzzard,KT15 2NA,51.367530067473900,-0.487914133294443
Boto and Lemming,UB2 4SE,51.506026000000000,-0.364977000000000
Eagle and Myna,KT13 0NA,51.351160000000000,-0.457879000000000
Duck and Vulture,TW2 6EU,51.449662002633500,-0.377323876801803
Thicketbird and Parrotlet,TW5 9JS,51.483147590830100,-0.392208401657297
Tattler and Vulture,TW15 3HT,51.438084915660900,-0.477585989247960
Booted eagles and B,SL1 3SX,51.513693845137900,-0.608085200397372
Marsh harrier and Parrotbill,KT22 0LL,51.330084981707600,-0.362127278915795
Parrotlet and Peafowl,UB3 9UA,51.503711000000000,-0.414331000000000
Ice seal and Condor,KT12 5JG,51.367063016546500,-0.403230148193224
Cuscus and New World blackbird,SL4 1RH,51.482789730234800,-0.610253000000000
Cloud rat and Dolphin,SL1 2QJ,51.510136449733400,-0.606104111868746
Shearwater and Francolin,UB3 2HZ,51.512345909745900,-0.413374103772446
American sparrow and Philippine hawk-owl,SL3 7AN,51.506791880165000,-0.571018712007069
Kākāriki and Meadowlark,UB2 5SH,51.492535379644100,-0.378481437855620
Chicken and Maya,UB3 2AB,51.507428883797900,-0.419496120771844
Tit-tyrant and Maya,SL5 0JL,51.393836056734400,-0.626228492359975
Grouse and Gull,KT14 6LS,51.337793214794700,-0.501099000000000
Bronzewing pigeon and Linsang,SL4 3AS,51.478820020124900,-0.613179081181077
Recurvebill and Flameback,SL3 6DA,51.509515833034600,-0.554088005964533
Warbler and Maya,TW4 7JP,51.472988742003500,-0.391730424530561
Fulmarine petrel and Zebra,TW16 5PF,51.409698000853700,-0.397446104114645
Grackle and American sparrow,KT14 7EP,51.333607055097400,-0.469622300308474
Puffleg and Viscacha,UB3 5DD,51.486821011414600,-0.436093000000000
Jackal and Asiatic leopard,KT13 9DH,51.370991791561900,-0.427617763175654
Kestrel and Warbler,TW13 6EZ,51.437399000000000,-0.375449000000000
Snipe and Egret,TW12 1SP,51.426511130117600,-0.363414501692637
Parakeet and Lemming,UB3 4NL,51.500360518592500,-0.422132285310386
Pratincole and White ibis,SL4 4HZ,51.475742758184200,-0.646880667823689
Logrunners and Old World vulture,TW18 1QU,51.421105395926100,-0.482277966011569
Old World quail and Mockingbird,SL1 1TS,51.507093113214300,-0.578790360004252
Warbler and Jay,GU21 5UA,51.332819807793000,-0.523895222730568
Old World vulture and Stint,KT12 3LG,51.382603137626200,-0.401999617245347
Quetzal and Tattler,UB7 9JD,51.497672768184900,-0.466266104611048
Greenbul and Marmoset,TW13 6RE,51.433042386824600,-0.390241880548387
Gull and Elephant,KT8 2TG,51.400296514555700,-0.371984000000000
Polecat and Thrasher,TW18 3QX,51.434061351449900,-0.530115346013399
Wallaby and Mink,TW2 6HJ,51.448660195554600,-0.364119407834864
Vulture and Marsh harrier,SL3 3BP,51.508269603950500,-0.584618526220629
Warbler and Egret,SL3 7UD,51.502151577177800,-0.554839753146607
Moluccan boobook and Black cockatoo,UB3 5LN,51.482490868106600,-0.437424560586782
Fulmarine petrel and Ibex,SL4 2JB,51.444112000000000,-0.574928393102673
Bunting and Jackal,TW17 0RL,51.408954234611900,-0.445036950557147
Badger and Partridge,TW12 3BP,51.422078973164100,-0.380861000000000
Parakeet and Bunting,TW17 8AY,51.397660631290600,-0.449847461471965
Cloud rat and Greenbul,SL4 3BY,51.477704890478100,-0.613169698288217
Grouse and Wallaby,UB1 1HJ,51.508712518801100,-0.381740311941451
Parakeet and Grackle,TW17 0EQ,51.404552944719500,-0.460397413993553
Moluccan boobook and Bunting,SL4 2BG,51.466872037910400,-0.611871288559034
Parrotbill and Mockingbird,UB3 1PT,51.502294530756100,-0.441689306731948
Duck and Badger,SL1 0NE,51.508272000000000,-0.584601000000000
Myna and Triller,KT8 2UP,51.398889244116300,-0.382398826787501
Treepie and Warbler,KT10 1TF,51.369929428879900,-0.361898500021611
Pratincole and Piping shrike,KT14 7LN,51.337114465738700,-0.477932575301333
Bronzewing pigeon and Old World quail,TW13 6TE,51.430239292270000,-0.391735784279959
Dorcopsis and Viscacha,KT13 9JL,51.384615000724800,-0.428415496838314
Meadowlark and New World blackbird,SL5 9ND,51.390052328662500,-0.649610871738678
Mink and Songlark,TW6 1BP,51.472258000000000,-0.450891000000000
Black jay and Armadillo,SL0 1AD,51.508271000000000,-0.584618000000000
Lemming and Buzzard,TW15 1RB,51.422924447682500,-0.446101865753343
Ice seal and Tree warbler,TW16 5JS,51.411534299120700,-0.400214678713332
Nukupuʻu and Mouse,TW13 5JD,51.442318702512900,-0.389311404569308
Wader and Herring gull,GU25 4NN,51.396702000000000,-0.600829000000000
Ibex and Francolin,KT13 8HH,51.373194741554800,-0.464493000000000
Mamo and Piping shrike,GU25 4JB,51.390823000000000,-0.573349460208451
Parrotbill and Minke whale,SL1 1EE,51.510417077306300,-0.599466763776886
Pheasant and Argus,UB2 4DL,51.499141628308500,-0.382051000000000
Hawaiian honeycreeper and Mamo,SL4 2HL,51.450574676915700,-0.589713261555745
Peafowl and Skunk,GU25 4DJ,51.395272000000000,-0.570227000000000
Ice seal and Dorcopsis,TW13 5NE,51.439002219219100,-0.374449917526532
Siskin and Grosbeak,TW4 6BT,51.464382400020400,-0.397589926579909
Chicken and Guillemot,KT11 1BN,51.341683640238300,-0.397766128609673
Cuscus and Chickadee,UB18 9NY,51.500717740213000,-0.402684069553087
Siskin and Old World quail,TW12 3YZ,51.428060837539700,-0.382419003986181
Triller and Solitaire,SL5 0QR,51.397324000000000,-0.636071000000000
Goose and Grouse,KT13 0AG,51.368405985933100,-0.432763084249671
Cuscus and New World blackbird,KT13 9UT,51.367298016007100,-0.444767492871590
River dolphin and Boto,TW17 8DU,51.396695645990500,-0.440823924157099
New World blackbird and Treepie,GU22 8QW,51.326841935544100,-0.516939416050059
Francolin and Dorcopsis,TW18 4YG,51.439622647259800,-0.519721210188034
Magpie and Rabbit,GU21 4XQ,51.326303822573000,-0.590614645356405
Badger and Capuchin,GU24 8NB,51.349145612513700,-0.601229510692803
Thrasher and Chipmunk,KT12 5LG,51.369773000000000,-0.412707138807347
American sparrow and Kākāriki,SL2 4YU,51.508269603950500,-0.584618526220629
River dolphin and Tahr,TW12 1AD,51.432827535116700,-0.372726929898836
Myna and New World blackbird,TW15 3AX,51.443539417070200,-0.464195043965158
Magpie and Egret,SL4 1BN,51.480260051506400,-0.605704552759503
Perching duck and Cuscus,TW15 1AD,51.432670016276400,-0.445943887955057
Kestrel and Quetzal,TW18 1NH,51.421329456795700,-0.489878897260223
Ground sloth and Eagle,SL4 1RD,51.483310400979800,-0.610421749403255
Philippine hawk-owl and Vulture,KT13 0XL,51.348292857163700,-0.466275570469934
Tree warbler and Asiatic leopard,UB3 4EF,51.496152869912100,-0.428212913281728
Mamo and Maya,SL1 2DZ,51.503440215783700,-0.587548928847565
Siskin and White ibis,SL4 5EP,51.481643279245400,-0.627681973068582
Towhee and Vulture,TW15 1RW,51.422881341054000,-0.442176749799159
Old World warbler and Kākāriki,KT15 2AW,51.372207430080900,-0.489412276736066
Warbler and Marmoset,KT12 2DY,51.393531992399300,-0.408834579604193
Siskin and Rat,UB3 1NU,51.499521515958200,-0.438052417046679
Philippine hawk-owl and Diving bird,SL3 0HJ,51.475225079939200,-0.514926074607208
Parakeet and Treepie,KT11 1DZ,51.337183664458400,-0.446217451911076
Herring gull and Tit-tyrant,KT15 3BS,51.346375743543100,-0.496665858602760
Puffleg and New World blackbird,TW20 9AL,51.434708178216100,-0.538697805278275
Grackle and Polecat,KT16 8HL,51.386009440818900,-0.494907659437608
Puffleg and Rat,SL4 4HQ,51.472470524095200,-0.638410433705543
Marsh harrier and Cuscus,KT14 7QG,51.339667772212700,-0.480661971469562
Pheasant and Elephant,UB7 0JN,51.488593732516500,-0.455537506235815
Herring gull and Buzzard,TW13 6LD,51.435606968284800,-0.379275042789953
Quetzal and Shearwater,KT11 2JE,51.331976769296200,-0.385687707150578
Argus and Parrotbill,TW15 2EE,51.432751085744700,-0.458212530028246
Argus and Cloud rat,TW20 9HZ,51.431742256035500,-0.546661000000000
Marsh harrier and Stilt,KT13 9PU,51.371813142308100,-0.439428010384955
Dolphin and Partridge,KT12 2DZ,51.396611984315100,-0.403222138721185
Dolphin and Vulture,TW17 8QH,51.403389725502700,-0.435708128692890
Cuscus and Skunk,TW20 0DE,51.430814191609300,-0.574252000000000
Snipe and Civet,TW16 5BP,51.419005878503300,-0.410711514243284
Crow and Mamo,SL3 9BJ,51.483942118252500,-0.580575881403333
Dolphin and Eagle,SL5 0BS,51.398260607576000,-0.640916662944143
Egret and Diving bird,KT11 2RJ,51.328814851279900,-0.397726653280924
Grouse and Puffleg,SL4 6EZ,51.492352971076800,-0.612408391059066
Tree warbler and Goose,SL4 1SS,51.482327093749800,-0.614714485832347
Towhee and Prion,KT10 8NT,51.369087953379400,-0.368105967928705
Triller and Jay,SL4 4WH,51.481161043338200,-0.610400661903773
Jerboa and Bunting,TW17 0JN,51.402303107695100,-0.470565317189032
Booted eagles and Boto,SL3 7AL,51.507177297944200,-0.571655079679777
Rat and Solitaire,KT10 8NE,51.365047319744700,-0.377601237231112
Maya and Gull,UB7 0HR,51.491004000000000,-0.458130820530720
Buzzard and Scimitar babbler,KT12 5DX,51.361223908206900,-0.427607450050453
Night heron and Jackal,GU21 4JS,51.328677228861200,-0.577178908168064
Wader and Elephant,TW16 5PY,51.413051623947800,-0.394122094707563
Night heron and White ibis,TW13 5HX,51.442784299989300,-0.390474956242801
Duck and Philippine hawk-owl,TW20 8BT,51.428255657861900,-0.527511016929712
Badger and Pitohui,SL1 2JY,51.509173141637000,-0.599966024014599
River dolphin and Vulture,KT16 9LH,51.385311827969300,-0.512104122376791
Tahr and Skunk,KT13 8GA,51.371719000000000,-0.451968000000000
Condor and Badger,KT16 0RL,51.377031000000000,-0.532014000000000
Crow and Puffleg,TW16 6SJ,51.417525502159800,-0.415609399087437
Parrotbill and Parrotbill,SL4 3AQ,51.475433609433400,-0.610445096931487
Logrunners and Guillemot,KT15 2AF,51.371260000000000,-0.489774000000000
Vole and Marsh harrier,TW2 7BB,51.452753164286400,-0.360360575256300
White ibis and Prion,SL3 7QH,51.500671412989800,-0.554396717276383
Cuscus and Hawk,TW16 6NQ,51.405283677114000,-0.415371129363612
New World blackbird and Old World warbler,TW14 0SN,51.462984376914800,-0.404534454477059
Condor and Parrotlet,SL4 6HJ,51.492738590587800,-0.615364074682871
Partridge and Night heron,KT13 9QP,51.374819594712900,-0.432242360247652
New World blackbird and Chickadee,TW20 9AR,51.435491699685300,-0.533752487205126
Night heron and Warbler,KT11 2EN,51.342701198150500,-0.377501000000000
Prion and Thrasher,SL4 6DE,51.491158624297900,-0.609506168240598
Flameback and Old World warbler,SL3 0HY,51.481315736199100,-0.517135000000000
Mouse and Macaw,TW17 0QU,51.408721953963800,-0.470437443572816
Warbler and Guillemot,TW14 0QB,51.464775969846600,-0.414635758789422
Partridge and Mamo,TW15 2QY,51.433479587106200,-0.467136329400337
Wallaby and Petrel,TW15 1UH,51.418755526532900,-0.442978574181016
Ibex and Stilt,UB7 9AG,51.506170164802300,-0.457335265891008
Siskin and Rat,TW6 2ES,51.475761817197700,-0.423773163170017
Moluccan boobook and Piping shrike,KT8 1PE,51.407072767598300,-0.360427725958468
Mink and Ice seal,KT12 1HB,51.380106200676300,-0.416125774121921
Solitaire and Puffleg,SL5 7QX,51.416788948881800,-0.651426188749650
Macaw and Warbler,SL1 0BQ,51.508271000000000,-0.584618000000000
Kangaroo and Old World warbler,KT11 1EU,51.342024179204400,-0.435601347776448
Asiatic leopard and Kite,UB7 7DH,51.510410385087700,-0.473519261694945
Mamo and Lemming,KT12 2NZ,51.389126916901300,-0.422224473382828
Snipe and New World blackbird,TW5 0PJ,51.479310083912100,-0.368279405354897
Thrasher and Thicketbird,KT15 3YJ,51.371216000000000,-0.489240214272785
Cloud rat and B,TW2 7HJ,51.453833853014100,-0.359832497889192
Chipmunk and Zebra,SL3 0DB,51.475315379653500,-0.511409674194825
Grackle and Thicketbird,KT15 3UA,51.350311810780700,-0.501376456665266
Pratincole and Condor,KT15 2QE,51.379057770508600,-0.485091556374286
Treepie and Zebra,UB3 5HD,51.484292026035000,-0.419156000000000
Flameback and Jackal,GU24 9BQ,51.334905000000000,-0.635006000000000
Grosbeak and Rabbit,TW4 6DF,51.466027361644500,-0.399519052419465
American sparrow and Maya,TW18 3JS,51.429585038812100,-0.514564884634225
Thicketbird and Stilt,TW3 2NG,51.463411406357200,-0.360525663645209
Parakeet and Chicken,TW17 0QD,51.406699000000000,-0.465516000000000
Fulmarine petrel and Thrasher,TW12 1AS,51.433761281090200,-0.370679629104994
Cuscus and Polecat,SL3 8SD,51.502684911817100,-0.548512165325281
White ibis and Elephant,TW3 2BA,51.460286881320800,-0.366669110112004
Civet and Diving bird,KT15 3QW,51.339646034173600,-0.516856460017165
Flameback and Jerboa,SL1 2YE,51.510240894408900,-0.615683796797547
Kestrel and Black cockatoo,KT16 9QA,51.376168467244700,-0.513664970258518
Hawk and Polecat,TW20 0JX,51.437116267254600,-0.571381031827982
Cloud rat and Rat,KT15 2NQ,51.368894440224900,-0.490512552025866
B and Bunting,SL3 8JW,51.494532311869300,-0.546595879727635
Thicketbird and Guillemot,SL4 5DX,51.482205031677600,-0.617196000000000
Cloud rat and Meadowlark,TW12 2DH,51.409732631482400,-0.375143017960057
Tahr and Viscacha,TW12 1EF,51.433045703548500,-0.380689225560139
Argus and Thicketbird,TW3 2AP,51.462287003745800,-0.363718590020154
Moluccan boobook and Chickadee,UB1 1RB,51.507717000000000,-0.378538578117892
Thicketbird and Shearwater,TW18 9GH,51.434063494330800,-0.530115366288064
B and Pheasant,KT16 0HG,51.364425598280900,-0.530147878608243
Quetzal and Solitaire,TW20 2BS,51.434063494330800,-0.530115366288064
Jackal and Jay,UB2 5TH,51.493681616983700,-0.387919551506794
Jerboa and Diving bird,TW15 1NQ,51.427524443873200,-0.439702951442160
Macaw and Capuchin,KT15 1PT,51.367164754248200,-0.490267746811719
Thrasher and Old World vulture,KT13 9UF,51.368941022611200,-0.447283372612435
Scimitar babbler and Stilt,TW3 9GA,51.470269992859400,-0.360985338420831
Tit-tyrant and Mole,TW13 7JP,51.437633366096700,-0.417014396964293
American sparrow and Herring gull,TW14 8DG,51.453529696038300,-0.434944903370758
Gull and Prion,TW13 7LF,51.439178223035100,-0.412889121085248
Herring gull and Solitaire,TW16 7QP,51.426343736832900,-0.414038629993313
Pratincole and Tattler,SL5 0UJ,51.392002466434800,-0.632449472676516
Masked owl and Old World vulture,SL5 0LF,51.398464373809500,-0.613022839063979
Ice seal and Hawk,TW17 8NR,51.390302333405200,-0.434099154036276
Jerboa and Night heron,SL1 2LL,51.506508556317700,-0.603491477033727
Peafowl and Cuscus,GU25 9BU,51.401340000000000,-0.562759000000000
Civet and Ground sloth,TW16 7SE,51.424580701136100,-0.413998976348799
Viscacha and Capuchin,TW14 9LB,51.452595188372000,-0.409602981755124
Mouse and Old World vulture,KT16 8JJ,51.390721416445800,-0.497009606065092
Old World quail and Old World vulture,KT12 2RA,51.381388446121700,-0.412532099871710
Snipe and Minke whale,GU25 4QT,51.400706099170100,-0.581687477858643
Logrunners and Badger,SL5 0HQ,51.391852845884100,-0.626575347197799
Wallaby and Guillemot,TW20 0TD,51.425781826949900,-0.582881925971437
Chicken and Warbler,KT15 2DR,51.359597349452600,-0.486408676049511
Prion and River dolphin,TW16 6HB,51.411137362846200,-0.410696765754470
Stilt and Peafowl,TW15 2QA,51.432732295528200,-0.465003419580698
Greenbul and Herring gull,TW20 8BX,51.429489698520500,-0.529111242199673
Bronzewing pigeon and Goose,SL1 5AQ,51.510999575414100,-0.632838185488282
Songlark and B,KT8 2EW,51.401320695845200,-0.381349831224410
Asiatic leopard and Mockingbird,TW17 9EZ,51.390618376877000,-0.442970850836523
Meadowlark and Cloud rat,SL3 8AF,51.491288646564800,-0.533072409936429
Viscacha and Guillemot,KT12 4NX,51.370683986429900,-0.391179772957611
Asiatic leopard and Booted eagles,SL4 6ES,51.490298234320000,-0.612024240817108
Polecat and Grosbeak,TW15 2SW,51.429691223315200,-0.464875165499988
Francolin and Mink,KT12 2NN,51.387966888841900,-0.410910367158244
Polecat and Crow,SL1 2LN,51.506406146002200,-0.602442740794856
Logrunners and Bronzewing pigeon,KT15 3HR,51.345128682570600,-0.503211117234394
Songlark and Linsang,TW12 1DR,51.431697351055300,-0.363243580529177
Kangaroo and Partridge,GU24 9DL,51.326417643821500,-0.638447000000000
Parrotlet and Hawk,TW18 4TY,51.439793399190100,-0.526852270639320
Mink and Marsh harrier,UB1 1DH,51.511678477587600,-0.388163459029523
Black cockatoo and Pheasant,GU24 9EB,51.328717326045200,-0.636500045927010
Elephant and Coati,KT12 1AQ,51.387221394829400,-0.420953421093570
Condor and Siskin,TW16 5PN,51.408918932887400,-0.397027598859264
Quetzal and Perching duck,TW4 6AP,51.466168164959900,-0.391408752110483
Tit-tyrant and Boto,UB3 1HJ,51.506088037669700,-0.434845180763537
Rabbit and Thrasher,TW4 7ES,51.469702015639200,-0.383552812758538
Parrotbill and New World blackbird,TW20 0UJ,51.425619735570000,-0.593315137952910
Tahr and Thrasher,KT13 0AW,51.365221251044900,-0.438718354331794
Dorcopsis and Nukupuʻu,TW18 4SU,51.433844698488800,-0.514543000000000
Partridge and Moluccan boobook,SL4 1LB,51.480678160604600,-0.604568524115686
Polecat and Duck,TW12 3AB,51.422583611115700,-0.360994605354237
Myna and Cloud rat,GU21 5EL,51.326294621161100,-0.543552611601942
American sparrow and Black jay,SL1 2XL,51.509576741346000,-0.615790385131817
Masked owl and Chipmunk,TW6 1PG,51.470836000000000,-0.458283000000000
Solitaire and Ice seal,SL4 2BS,51.450075000000000,-0.630168000000000
Pratincole and Philippine hawk-owl,TW18 2QS,51.425417846571300,-0.496633978029264
Buzzard and Marmoset,UB7 7TX,51.499247300315100,-0.471846418029739
Minke whale and Chicken,SL4 2NY,51.459429855832700,-0.578371111134903
Wader and Dorcopsis,KT12 4PE,51.369171926549800,-0.390428252787957
Hawaiian honeycreeper and Buzzard,UB1 3QP,51.512790993666700,-0.365238753014734
Tit-tyrant and Capuchin,TW3 2NJ,51.463623558144200,-0.360906753240890
Grosbeak and Lemming,UB3 2HX,51.510476346481200,-0.414764834835613
Armadillo and American sparrow,SL3 8JT,51.496952792303500,-0.543824933109241
Siskin and Thrasher,TW12 1AU,51.432952534550500,-0.368780629591267
Tahr and Cuscus,TW13 6QD,51.437578455874700,-0.387909874417474
Ice seal and Chicken,KT14 7GA,51.333086641821600,-0.473845612198980
Grouse and Flameback,UB3 5LR,51.482471102901800,-0.435941847763127
Condor and Cloud rat,SL4 4EL,51.477728146616100,-0.636626695677553
Vulture and Fish eagle,KT16 9HD,51.393082304808600,-0.512901347604888
Stilt and Jackal,KT14 6AX,51.334393926335700,-0.521791874262669
Flameback and Bronzewing pigeon,KT12 1NA,51.376729753055700,-0.414331000000000
Snipe and Myna,TW14 0BW,51.457463721830000,-0.403258755826307
New World blackbird and American sparrow,SL3 8SZ,51.497856388046700,-0.538393692442018
Fox and Boto,KT13 8UP,51.368265839129400,-0.459488516924119
Old World warbler and Darwin's finches,UB3 1NX,51.498754000000000,-0.430962000000000
Linsang and River dolphin,TW18 2NA,51.419649996545500,-0.507595307571795
River dolphin and Wader,KT12 3JP,51.378860999639900,-0.405204967459858
Parrotbill and Rabbit,TW20 0YW,51.437247196817700,-0.579635000000000
Masked owl and Siskin,SL1 4AQ,51.512652000000000,-0.617974000000000
Nukupuʻu and Tattler,UB2 5TW,51.494419845516600,-0.386020772372509
Greenbul and Kangaroo,SL4 4ES,51.476862575737900,-0.637042000000000
Mink and Argus,TW12 2JJ,51.420969550134400,-0.376182822786390
Tattler and Wader,TW4 7PR,51.471881999871000,-0.396276091188509
Mouse and Pratincole,KT12 2PR,51.388261632159700,-0.424079507939518
Thicketbird and Black jay,TW2 5HE,51.440916752908700,-0.358899537283438
Mink and Old World vulture,KT14 6YQ,51.346091509012600,-0.478826995495907
New World blackbird and Pitohui,KT12 1BB,51.386158775071400,-0.422843929160345
Maya and Tit-tyrant,TW16 5QH,51.406672000000000,-0.404957000000000
Parrotlet and Skunk,TW6 2PX,51.472058000000000,-0.431080000000000
Thicketbird and Masked owl,KT12 5PB,51.371970913282300,-0.409697049300983
Argus and Treepie,TW3 3JS,51.467594816576300,-0.366465768937619
Shearwater and Parakeet,KT15 2DP,51.358769853088600,-0.487786062481666
Pheasant and Peafowl,KT11 1JN,51.335166489639500,-0.410482744897014
Herring gull and Gull,TW19 7PW,51.455334250963900,-0.482611206873983
Jay and Argus,TW15 1ES,51.430772540181100,-0.445936338194053
Tree warbler and Buzzard,SL5 7SH,51.412697337499500,-0.638187929886020
Grackle and Asiatic leopard,TW18 2BX,51.430741557127500,-0.509796000000000
Skunk and Goose,TW16 5PT,51.411631971619800,-0.394862055293624
Coati and Peafowl,TW16 7QT,51.425117806003800,-0.419144171731866
Mole and Pheasant,TW5 0JA,51.479755556983700,-0.374455969978964
Puffleg and Black jay,TW6 3RN,51.461024332308800,-0.470690579705155
Pitohui and Petrel,KT13 0JN,51.364399381093100,-0.444535290412572
Booted eagles and Bronzewing pigeon,UB3 4QR,51.498551319448900,-0.412671781480439
Scimitar babbler and Minke whale,SL4 6AJ,51.487712999898000,-0.609251000000000
Kite and Macaw,SL4 1HT,51.477347475619300,-0.611841340830798
Dorcopsis and Armadillo,KT13 9DA,51.369247806798300,-0.449399200180365
Asiatic leopard and Old World quail,SL5 0DA,51.395864423596500,-0.637451585116183
Jay and Marmoset,TW15 1HF,51.429062509912300,-0.451259264626263
Marmoset and Towhee,TW13 4BH,51.446385367016100,-0.411214606845011
Grosbeak and Tattler,TW16 7NW,51.427675062529000,-0.426751688883465
Philippine hawk-owl and Fox,GU25 4AE,51.402326166028500,-0.564083745538155
Songlark and Wader,TW6 3RY,51.462427934801500,-0.468685881253013
Old World warbler and Tattler,SL5 7SB,51.408971612866900,-0.621777779253234
Chicken and Buzzard,TW15 1JW,51.424846878076600,-0.447992844188472
Black cockatoo and White ibis,TW16 7RB,51.422038360580400,-0.417510098233528
Recurvebill and Ice seal,TW13 7BQ,51.437089006647700,-0.405379271392070
American sparrow and Viscacha,GU24 9DR,51.329208724401500,-0.636227110370761
Dolphin and Skunk,SL1 5TG,51.511075189173900,-0.641669596572398
Chickadee and Old World warbler,TW2 6HL,51.449360891045800,-0.364713200835200
Linsang and Lemming,UB1 3QH,51.513406058730400,-0.366787610698453
Old World warbler and Old World warbler,TW12 1HR,51.431371264675000,-0.364362944646804
Tahr and Argus,SL4 3QQ,51.474492737041000,-0.616809268681244
Kangaroo and Parrotlet,SL3 0JT,51.482448499436700,-0.518695135349769
White ibis and Ground sloth,KT15 1QT,51.372293174874800,-0.501693349579436
Grackle and Towhee,UB7 7PY,51.503691843297000,-0.473412362748290
Fish eagle and Dorcopsis,TW12 3RS,51.423251698161300,-0.376044406469878
Pratincole and B,KT8 2QQ,51.402920504448500,-0.376088913523354
Masked owl and Minke whale,KT11 2SY,51.330548383858800,-0.370852515191414
Civet and Warbler,KT13 9HW,51.375059051579600,-0.437377954858603
Recurvebill and Magpie,KT15 1TU,51.372517000000000,-0.493778033094569
Cloud rat and Boto,KT11 2NJ,51.338757121366200,-0.400107821172617
Viscacha and Jackal,TW6 2GX,51.479647000000000,-0.487939000000000
Coati and Jay,KT15 2DN,51.360281874325600,-0.487190463392719
Thrasher and Pheasant,GU25 4NY,51.403908964650300,-0.594343000000000
Mamo and Pheasant,SL1 2QQ,51.510595000000000,-0.603551000000000
Pratincole and Chickadee,KT10 8PJ,51.368104680127900,-0.371114685107826
Rat and Goose,TW13 4RN,51.436019758373900,-0.426738393363853
Guillemot and Kite,UB2 5SL,51.491629395852700,-0.378643224807236
Chipmunk and Pheasant,TW17 0SB,51.410368256337900,-0.445204670689628
Night heron and Boto,SL4 1SN,51.483421227578500,-0.608675000000000
Moluccan boobook and Darwin's finches,TW18 1AU,51.428683026172800,-0.493908787580672
Recurvebill and Booted eagles,SL3 8QL,51.488319375508900,-0.537964071721971
Night heron and Kestrel,UB3 4JZ,51.495922252618300,-0.414419808159073
Tit-tyrant and Thicketbird,UB3 3FD,51.510573759034800,-0.411994593878393
Siskin and Stint,TW4 7DR,51.470008700248700,-0.379712109533264
Dolphin and Songlark,GU24 8PG,51.350796022384300,-0.598623134105493
Towhee and Grosbeak,UB3 5BL,51.481689835342800,-0.439396150367262
Moluccan boobook and Herring gull,KT13 9BD,51.366382658494300,-0.446263766658382
Scimitar babbler and Rabbit,KT13 0TJ,51.341727000000000,-0.464011000000000
Siskin and Zebra,TW6 1LW,51.470836000000000,-0.458283000000000
Solitaire and Pitohui,TW12 2EG,51.414180199826100,-0.360029667680703
Peafowl and Wader,SL3 8LW,51.500888506277800,-0.540702750805957
Myna and Condor,UB7 7ST,51.512072099537800,-0.474760722896026
Rat and Moluccan boobook,KT16 9GT,51.387524000000000,-0.508362081060357
Magpie and Wallaby,UB1 1BP,51.506750227292300,-0.380945256633872
Piping shrike and Kangaroo,TW16 7JZ,51.428867306806800,-0.421791078851751
Fish eagle and Nukupuʻu,KT14 7TE,51.330634095213500,-0.473338515457147
Armadillo and Chicken,TW3 2LG,51.458529321661800,-0.364443137924782
Chipmunk and Bunting,TW16 6LG,51.413844972295700,-0.422078335396114
Bunting and Elephant,SL4 1NQ,51.481892766299200,-0.605381139019968
Ice seal and Hawaiian honeycreeper,TW3 9TT,51.470271000000000,-0.360964000000000
Darwin's finches and Duck,UB1 1NG,51.512883081279200,-0.389446801731140
Wader and Asiatic leopard,UB3 1PU,51.501387877124800,-0.441806677001681
Kākāriki and Greenbul,GU24 8RP,51.355816831224900,-0.604157235456607
Ground sloth and Flameback,TW17 8HQ,51.394808805819700,-0.436216432337560
Stilt and Snipe,TW2 7AH,51.453915766518000,-0.369573588605713
Kākāriki and Macaw,TW17 9JB,51.384075000000000,-0.463528000000000
Ibex and Triller,TW18 1PH,51.424888108577100,-0.483432803534654
Triller and Condor,UB4 0JT,51.511796129628400,-0.396748350796456
White ibis and Recurvebill,SL4 3NJ,51.474450962868500,-0.625493150599212
Old World quail and Stilt,KT15 9ZZ,51.370651460918200,-0.490785208842230
Grackle and Condor,KT13 9QX,51.375393452235200,-0.434809032232343
Tahr and Booted eagles,TW18 1BN,51.430462000000000,-0.496497000000000
Logrunners and Siskin,UB2 5FA,51.494547000000000,-0.387990000000000
Booted eagles and Ice seal,SL1 0SD,51.510856575769300,-0.604655492966527
Buzzard and Crow,GU24 9ED,51.327485022120900,-0.638014941066948
Hawk and Recurvebill,TW16 5JD,51.411172711366000,-0.402053490224825
Gull and Zebra,KT16 9PX,51.375206219744300,-0.516497893980973
Old World vulture and Cuscus,SL3 7PR,51.504587000000000,-0.578191000000000
Old World quail and Nukupuʻu,KT11 2JQ,51.329699116003100,-0.386155248791418
Petrel and Darwin's finches,SL1 9LB,51.506638956750100,-0.619063832560127
Buzzard and Elephant,KT13 8YA,51.379254944279200,-0.466376169815658
Gull and Parrotbill,KT14 7HA,51.333425038943700,-0.472901301616384
Jerboa and Myna,UB1 1RT,51.510659942093100,-0.376252847104780
Wader and White ibis,KT14 7BY,51.337366804241000,-0.466941698191066
Booted eagles and Petrel,TW5 0HP,51.489528253422400,-0.378213614424277
Quetzal and Tree warbler,GU24 9RY,51.325878932037100,-0.631374285566269
Thrasher and White ibis,TW14 8PR,51.452269958204900,-0.444342983973133
Jerboa and Black cockatoo,TW14 9PE,51.452918409287200,-0.420875513706236
Moluccan boobook and Songlark,SL2 5EG,51.513170138495700,-0.586844527050101
B and Warbler,TW17 8RH,51.402758093863500,-0.430165868347903
Peafowl and Darwin's finches,UB3 5LL,51.483061666648000,-0.436396910892690
Stint and Pratincole,TW15 3JE,51.436086194249800,-0.480170187446982
Cuscus and Egret,TW18 4BU,51.433448000000000,-0.515576000000000
Piping shrike and Black cockatoo,UB18 7SG,51.500719665724800,-0.402684082886625
Polecat and Armadillo,GU24 9LP,51.337632712858500,-0.635302434437624
Pheasant and Nukupuʻu,TW14 8EE,51.443950000000000,-0.436654000000000
Parrotlet and Darwin's finches,KT13 9UN,51.367197000000000,-0.443823000000000
Ibex and Macaw,TW3 3AL,51.469711119619500,-0.372509301657309
Ground sloth and Triller,TW18 2QA,51.424115853426800,-0.502401283297099
White ibis and Shearwater,UB2 5YX,51.495603580188800,-0.382521512085508
Bunting and Solitaire,TW16 7BH,51.421265501172700,-0.432940545151331
Diving bird and Vulture,TW12 1QT,51.428419530889700,-0.362914771679223
Stilt and Crow,SL3 0PH,51.479476047443100,-0.512613501354311
Eagle and Thicketbird,KT12 1AL,51.387157000000000,-0.422775000000000
Myna and Pratincole,KT12 3RX,51.389776756627500,-0.382820800128671
Perching duck and Philippine hawk-owl,UB2 5GQ,51.501652000000000,-0.386745000000000
Rabbit and Wader,TW15 1NY,51.429311509567800,-0.436822601389558
Jerboa and Argus,TW18 4BP,51.435579000000000,-0.504188990208393
Pratincole and Stint,TW5 0PW,51.479266415107300,-0.370959535557528
Gull and Ground sloth,UB11 1BA,51.510369777049500,-0.447812123432455
Linsang and Armadillo,TW19 7QD,51.451279286693200,-0.477103996151051
Siskin and Magpie,UB2 5HH,51.500371308657200,-0.388533572031831
Meadowlark and Jerboa,KT12 1AF,51.386781466489000,-0.421846000000000
Triller and Elephant,KT12 2NH,51.389012058174100,-0.414381049123110
Scimitar babbler and Booted eagles,TW18 4TW,51.434454000000000,-0.515500000000000
Guillemot and Parrotbill,KT11 2ER,51.338816829048500,-0.376345213221723
Viscacha and Thicketbird,UB7 9JX,51.501753912950700,-0.461360103067457
Goose and Old World quail,UB7 0JG,51.490134000000000,-0.455601000000000
Skunk and Coati,TW16 7FG,51.420145000000000,-0.423652000000000
Perching duck and Grouse,SL3 0JF,51.482154800857300,-0.520473000000000
Warbler and Puffleg,GU24 8AH,51.346195918230800,-0.600457781152925
Vole and Moluccan boobook,SL1 2BB,51.504427844958700,-0.590414509886437
Maya and Kākāriki,TW5 9TX,51.477880520574600,-0.409530125335930
Hawk and Vulture,TW3 1NL,51.470857000000000,-0.361684000000000
Capuchin and Partridge,TW18 3BW,51.434061351449900,-0.530115346013399
Jackal and Francolin,TW14 9PH,51.450691431980000,-0.423111122508430
Nukupuʻu and Kangaroo,KT8 2SB,51.396837669127300,-0.375154320073008
Wader and Mamo,UB7 7EN,51.501584602178000,-0.478712802069432
Herring gull and Pheasant,KT12 2AZ,51.387617425757100,-0.405705414825657
Diving bird and Parakeet,TW12 3YS,51.426931640291000,-0.381394428684625
Kākāriki and Armadillo,TW12 3XT,51.425291855648900,-0.381164686127874
Mamo and Ice seal,SL5 7RW,51.419339842310400,-0.642607068865887
Greenbul and Black cockatoo,KT11 2HR,51.328458586545100,-0.400609782506976
Magpie and Stint,UB2 5QS,51.497764893572700,-0.382099244455832
Wallaby and Mink,KT12 4QY,51.371924970839000,-0.393147680289598
Dorcopsis and Jackal,SL1 0NU,51.508272000000000,-0.584601000000000
Prion and Pratincole,TW19 7BQ,51.451295765801200,-0.463891627500987
Elephant and Minke whale,TW17 9BD,51.392039365465000,-0.449088798819864
Ibex and Magpie,SL1 2SW,51.506244932189600,-0.609306394674937
New World blackbird and Kākāriki,KT12 3HN,51.379744481688600,-0.410663447546112
Bronzewing pigeon and Black cockatoo,TW13 7PE,51.432038729944700,-0.401009126988744
Logrunners and Kestrel,SL0 9DD,51.501971338057800,-0.506708869224347
Triller and Rabbit,TW19 5NF,51.460255819685100,-0.551081994367751
Mamo and Cloud rat,KT16 9PJ,51.379215073884800,-0.519917513332956
Songlark and Marsh harrier,SL2 4ZN,51.508269603950500,-0.584618526220629
Flameback and Tit-tyrant,GU21 4BA,51.328749047209300,-0.566842235724354
Stint and Black jay,TW17 0QE,51.405952370079500,-0.460824883978789
Snipe and Greenbul,SL4 3NB,51.474341261909400,-0.620744777886241
Flameback and Elephant,SL5 9FG,51.396479175813900,-0.650169131401062
Shearwater and Bunting,KT8 2HQ,51.399592680944800,-0.384501638351435
Rat and Eagle,SL3 7JR,51.498699931043200,-0.560798064802254
Quetzal and Bunting,KT15 3HG,51.345897853480900,-0.502884523856925
Myna and Wader,TW3 2AG,51.463830351411400,-0.364124064597986
Solitaire and Bronzewing pigeon,SL5 7SA,51.410210628817900,-0.623911733562445
Parakeet and Greenbul,KT22 0QH,51.331953805071500,-0.360725701190340
Chicken and Partridge,TW18 3AG,51.434260556438400,-0.520930350357636
Asiatic leopard and Shearwater,TW15 2LH,51.430164640326600,-0.468757722300368
Myna and Francolin,KT8 2TT,51.400821798303500,-0.373244862708474
Wallaby and Hawk,SL3 8XA,51.490831829269600,-0.538978436325543
Minke whale and Vole,TW16 5EH,51.416491320008100,-0.411618443277075
Wallaby and Logrunners,SL1 0DR,51.508271000000000,-0.584618000000000
American sparrow and Kite,TW15 1UT,51.421472158085000,-0.446438770184263
Marsh harrier and Civet,KT14 6BJ,51.337016365886000,-0.508758361811382
Perching duck and Grosbeak,TW5 9AR,51.476334886021200,-0.387220754102344
Myna and Bunting,KT12 2BJ,51.385455968300400,-0.405464356615288
Prion and Songlark,TW18 1NB,51.422309899824600,-0.485718713387456
Wader and Treepie,UB3 4JJ,51.497754058249200,-0.421559583714721
Thicketbird and Dolphin,TW18 2NW,51.424528789819300,-0.503754218089710
Siskin and Diving bird,UB3 3AS,51.513735981755600,-0.406465824636962
Chickadee and B,TW18 3LZ,51.415985935354200,-0.516472535301810
Jackal and Parrotbill,KT16 9FQ,51.391281000000000,-0.505567000000000
Herring gull and Herring gull,KT12 2RQ,51.386109351906400,-0.415846673696816
Rabbit and Dolphin,KT11 1AJ,51.334686718658100,-0.421553057978499
Dolphin and Capuchin,KT12 1PB,51.375631005977500,-0.411035793584039
American sparrow and Grackle,TW20 9TS,51.419673835954900,-0.568631418802319
Nukupuʻu and Stilt,SL3 8QX,51.490135743287400,-0.539404000364007
Parrotbill and Kite,KT12 3QX,51.387205507656700,-0.381560477162078
Magpie and Gull,SL3 9PR,51.471521942012300,-0.544461918212966
Cloud rat and Parrotlet,GU25 9BQ,51.401340000000000,-0.562759000000000
Petrel and Flameback,KT13 0JX,51.355325105260500,-0.448533630841775
Hawk and Black jay,TW3 9TW,51.470271000000000,-0.360964000000000
Vulture and Piping shrike,TW13 5EX,51.443160507758300,-0.391022922068231
Logrunners and Tattler,KT16 0LB,51.360589982932700,-0.524036926412897
Old World quail and Marmoset,TW18 2PW,51.421847461619800,-0.504330787156619
Gull and Chipmunk,KT15 3PT,51.345136000735300,-0.512256805146884
Dorcopsis and Snipe,KT14 6AF,51.335207121545400,-0.520674704545205
Buzzard and Marmoset,KT16 9JS,51.390783201780900,-0.506766789050051
Gull and Grackle,SL4 3JN,51.470754369630600,-0.616245614737752
Vulture and Nukupuʻu,UB7 7UD,51.495896011508000,-0.476208259232893
Mamo and Polecat,TW17 0AP,51.413073280255300,-0.444250195827640
Stint and Thrasher,UB7 9JJ,51.501791000000000,-0.466830275001596
Pratincole and Black cockatoo,TW4 6HJ,51.471738634300700,-0.402242099361513
Guillemot and Ibex,TW15 2JF,51.436776802005100,-0.458681271474706
Hawaiian honeycreeper and Crow,TW12 2BP,51.413938542168600,-0.365905512797914
Kākāriki and Wader,TW12 2AQ,51.414405840151900,-0.371051459586048
Coati and Viscacha,GU25 4HY,51.392024000000000,-0.573778000000000
Peafowl and Vole,KT11 2RB,51.326752000000000,-0.403267000000000
Old World warbler and Meadowlark,SL3 0JE,51.481533000000000,-0.520885000000000
Quetzal and Hawk,SL2 5WX,51.508269603950500,-0.584618526220629
Snipe and Dorcopsis,SL4 5DA,51.484040962627800,-0.619746486037125
Chickadee and Fulmarine petrel,TW18 2SY,51.417442135791600,-0.494565865290127
Chickadee and Tahr,KT13 8DD,51.372300503359600,-0.459266909064215
Partridge and Cuscus,TW12 9BQ,51.414573694367400,-0.370053312717735
Rat and Towhee,KT12 4DG,51.349939437271100,-0.434398396613667
Francolin and Mole,TW14 0DB,51.453609530663200,-0.401536557656236
American sparrow and Recurvebill,UB7 9AJ,51.505533565517600,-0.451333770365194
Towhee and Philippine hawk-owl,TW15 2QQ,51.435444687016400,-0.467502167075155
Recurvebill and Puffleg,SL3 0NZ,51.479310824908800,-0.511639626770191
