name,postcode,lat,lon
Komodo dragon and Kestrel,PA42 7AZ,55.618774000000000,-6.224712000000000
Minke whale and cobra,PA42 7DA,55.635267351840200,-6.197011341786050
gaboon viper and indigo snake,PA47 7SU,55.676132679817200,-6.503889238568480
fer-de-lance and Towhee,PA48 7TU,55.740269343044700,-6.378455507877440
asp and Masked owl,PA48 7TY,55.740673282980000,-6.379234248638090
