name,postcode,lat,lon
soft-shelled turtle and Mockingbird,PA42 7BY,55.633031491238700,-6.191652521782270
Tattler and flying dragon,PA42 7DB,55.657800057286600,-6.212391881028810
monitor and tortoise,PA42 7EH,55.627424423637200,-6.182294056225860
Goose and terrapin,PA42 7EL,55.628032635603700,-6.181976000000000
Goose and frill-necked lizard,PA48 7UE,55.705220399273500,-6.426442991223160
