name,id,postcode,lat,lon
Condor and puff adder,1801302,PA42 7ER,55.628648843800000,-6.182552981000000
American sparrow and Chipmunk,589707,PA42 7DP,55.629171280876200,-6.189602333679450
bull snake and brown snake,589712,PA42 7DX,55.636158000000000,-6.125796000000000
Rabbit and horned viper,589685,PA42 7BG,55.629285565655300,-6.183891569190900
Kite and chameleon,589747,PA43 7JG,55.745105574371700,-6.313812513030070
loggerhead and Nukupu ªu,589678,PA42 7AY,55.629466325806100,-6.188075936886090
Pratincole and Thicketbird,589670,PA42 7AL,55.632911957451700,-6.207204595842710
iguana and Old World quail,589684,PA42 7BF,55.631707000000000,-6.188331000000000
goanna and Asiatic leopard,589751,PA43 7JQ,55.745629000000000,-6.265157000000000
