name,postcode,lat,lon
Treepie and Peafowl,ML6 8NB,55.867945119422500,-3.940329241748620
Ibex and Cloud rat,ML5 1ND,55.861864685696300,-4.042266481677500
Flameback and Scimitar babbler,G33 6DJ,55.893769534852900,-4.144702288531020
Kestrel and Stint,ML4 2LP,55.813909976902800,-4.009539971229810
Grouse and Zebra,ML3 3SD,55.779203674366000,-4.050249677874880
Partridge and Pratincole,ML1 4BL,55.796765784315900,-3.981121051014340
Coati and Old World quail,G72 0EW,55.785091567437300,-4.093349919090430
Night heron and Marsh harrier,FK1 2JB,55.951966671424500,-3.750457111450290
Parakeet and Coati,G66 2SH,55.945343573013900,-4.130385223760920
Condor and Asiatic leopard,EH47 9DJ,55.823218968665100,-3.718569345320510
Civet and Tit-tyrant,G71 6BT,55.828955151906000,-4.089287637486410
Meadowlark and Armadillo,FK2 9JT,55.992465763270700,-3.751870641720280
Diving bird and Polecat,ML7 5LN,55.815106220581800,-3.778460934692350
Maya and Bunting,G33 6DD,55.896088642246900,-4.138094000000000
B and Eagle,FK1 2HA,55.970762812766700,-3.771432389042310
Prion and Solitaire,ML2 0EB,55.770329869332200,-3.946411000000000
Eagle and Songlark,ML3 9EX,55.767754453260400,-4.092340633639090
Vole and Towhee,ML1 3ST,55.800023000000000,-3.998103000000000
Hawaiian honeycreeper and Tit-tyrant,ML6 9LB,55.860994000000000,-3.970583000000000
Stint and Coati,G70 6AB,55.951916424772800,-3.983659038695280
Jay and Towhee,ML1 2UG,55.782589289120600,-3.978025148238800
Ground sloth and Linsang,G67 2DD,55.956547443603800,-3.970199130516990
Meadowlark and Warbler,ML5 1AH,55.861110880529300,-4.031887906681650
Mockingbird and Mole,FK1 5NS,55.990805972661600,-3.805857206572000
Francolin and Magpie,G72 0AB,55.793618229729200,-4.091366746777430
Wader and Thicketbird,ML3 0BT,55.780755161998600,-4.050985010575550
Flameback and Meadowlark,G32 0SR,55.847084533071900,-4.141921899740080
Polecat and Treepie,FK1 1XT,55.993611997740800,-3.756572247558770
Eagle and Mink,G69 7ER,55.849315000000000,-4.101211000000000
Darwin's finches and Treepie,G69 9JX,55.906240385878500,-4.101122108656230
Mockingbird and Grosbeak,ML2 9AU,55.786009358608800,-3.872729426319080
Tahr and Kangaroo,G69 7PJ,55.856441447534900,-4.078459852201310
Greenbul and Wader,FK1 1AG,55.998070000000000,-3.781285000000000
Triller and Tree warbler,G34 9JB,55.868017963228100,-4.114256909009480
Boto and Jerboa,G69 0PF,55.914970667478800,-4.083975959083350
Myna and Shearwater,G71 5HF,55.829325782827600,-4.058251672880930
Eagle and Booted eagles,G65 9HR,55.959646407534800,-4.042031953218010
Skunk and Grouse,ML7 5BA,55.798534530408900,-3.835951402461890
Snipe and Masked owl,ML1 3FY,55.785346000000000,-4.005684000000000
Wader and Armadillo,ML1 2LN,55.770148900270100,-3.965294554478030
Moluccan boobook and Magpie,FK1 5UD,55.985911154644100,-3.800755676707630
Wallaby and Marmoset,ML1 3ET,55.789373234829700,-4.002517898307400
Rabbit and Meadowlark,ML1 3XS,55.802969361094200,-3.996514534541200
Macaw and Fulmarine petrel,G72 7TP,55.821490759656300,-4.121597479299630
Greenbul and Peafowl,G33 5DB,55.875034629875700,-4.143477096652840
Treepie and Perching duck,ML3 7DE,55.770580170943900,-4.024527406756110
Eagle and Chipmunk,G67 4LS,55.931349311280200,-4.023909536308780
Viscacha and Greenbul,G68 9AY,55.927057974503300,-4.061593000000000
Chicken and Chickadee,FK1 2DL,55.966664249868300,-3.753267844129610
Guillemot and Chipmunk,G65 0LX,55.974796059267300,-4.058905291129940
Siskin and Chickadee,ML6 9AH,55.861351548205500,-3.976290417364420
Asiatic leopard and Wallaby,G67 2AQ,55.951761200021900,-3.977820314075880
Jackal and Dorcopsis,ML1 5UB,55.842989487688600,-3.910635000000000
Linsang and Thrasher,G72 9LQ,55.797246709912100,-4.100463613271570
Rabbit and Capuchin,G71 7JF,55.820717325644900,-4.072627018554890
Snipe and Capuchin,ML1 2BE,55.779277834619700,-3.970458303559590
Black jay and Dorcopsis,G68 0DN,55.958139392740400,-4.021703438961810
Coati and Gull,FK4 2FE,55.991246146692200,-3.889200869990430
Civet and Tit-tyrant,ML6 6JW,55.870771058664200,-3.978447270538930
Polecat and Stilt,G71 5PE,55.833703000000000,-4.065765000000000
Wader and Elephant,G67 2LP,55.946021485252500,-3.984349879496900
Jay and New World blackbird,ML6 7RT,55.913986371724400,-3.870511590917930
Linsang and Shearwater,FK2 9PX,55.995263021551500,-3.751692558884250
Tattler and Black cockatoo,ML2 7RB,55.776716381882100,-3.943381848181410
Lemming and Tit-tyrant,FK4 1QX,55.995903195244100,-3.918740194625080
Viscacha and Shearwater,ML5 4FB,55.844545549695200,-4.002990617341740
Jerboa and Vole,ML2 8DH,55.770624750568700,-3.910045839408820
Ground sloth and Dolphin,G69 6TE,55.856669000000000,-4.114152000000000
Masked owl and Capuchin,ML5 4UT,55.845077507101600,-3.995143195928740
Pheasant and Myna,G66 3HN,55.933655053174000,-4.136915988475370
Petrel and Gull,ML5 5PX,55.849134013944200,-4.057669437312030
Dorcopsis and Masked owl,ML1 4ZA,55.830289866300000,-3.988590284900000
Nukupuʻu and Hawaiian honeycreeper,EH47 0ST,55.859374000000000,-3.709117000000000
Elephant and Kākāriki,ML7 4HA,55.824306013331500,-3.806370765909860
Chicken and Piping shrike,G72 8UH,55.809837554084200,-4.140593110958090
Minke whale and Jerboa,ML6 8SZ,55.844279882106700,-3.949611848934800
Fish eagle and Thicketbird,G71 5EX,55.829573000000000,-4.056901843130620
Recurvebill and B,G34 9QR,55.871273219595800,-4.123929200169490
Mamo and Tattler,ML4 2JS,55.810259183949700,-4.018991007287330
Greenbul and Stilt,ML4 3EN,55.821735020321800,-4.026673437400240
Crow and Badger,ML3 8EE,55.761859168450900,-4.060416912643890
Masked owl and Grackle,ML4 2EH,55.810982076527300,-4.021486178568840
Thicketbird and Vulture,ML2 7TL,55.777796971037700,-3.951185145508670
Macaw and Towhee,G67 2ND,55.943311877648700,-3.988534934871480
Herring gull and Guillemot,ML1 2RW,55.780491055467400,-3.987757917067040
Petrel and Minke whale,ML2 8NS,55.779370604420900,-3.899502978317750
Grosbeak and Puffleg,ML4 1LX,55.826413281837100,-4.017624787341380
Kangaroo and Petrel,ML4 3AQ,55.814183096885100,-4.029568656450340
Darwin's finches and Nukupuʻu,FK1 5QS,55.994577378472900,-3.791890990831090
Elephant and Parakeet,FK1 2ES,55.971662406458300,-3.775736050067420
Dolphin and Badger,G68 9BX,55.949245683421600,-4.017668170195500
Philippine hawk-owl and Egret,G71 8NQ,55.800525735932800,-4.060720202900420
Minke whale and Peafowl,G69 8LN,55.887162413901000,-4.093646437335150
Warbler and Jerboa,ML5 2QR,55.910447152167200,-4.039620360888170
Coati and Fulmarine petrel,ML3 8LA,55.765704465957100,-4.061560316361580
Darwin's finches and Snipe,G71 8BG,55.815533000000000,-4.063493000000000
Mouse and Mamo,G69 8BE,55.896561000000000,-4.085851000000000
Rabbit and Grosbeak,FK1 2QB,55.987352996910800,-3.776327164794620
Thrasher and Jackal,G71 5RL,55.829491930269900,-4.064423727173260
Jay and Siskin,ML1 4PA,55.817321884212800,-3.969188908259010
Elephant and Partridge,G66 3SR,55.942937041541900,-4.122982709686410
Lemming and Asiatic leopard,G72 7RH,55.822724901940500,-4.145771123464840
Tree warbler and Snipe,G69 6PR,55.856792610915600,-4.109045209693050
Parrotbill and Maya,ML1 4DL,55.806034926991400,-3.962970039873810
Elephant and Wader,ML2 9DT,55.792234746158600,-3.887575690364300
Shearwater and Goose,ML2 8PE,55.780528504847200,-3.893770783080410
Moluccan boobook and Gull,FK1 5UJ,55.986754392220600,-3.796546693795420
Macaw and Songlark,ML6 7LT,55.882045584472600,-3.932319313093480
Vole and Darwin's finches,G71 8DX,55.801636513727200,-4.074293333979760
Stint and Duck,FK1 3EH,55.937435540026700,-3.832639825255220
Viscacha and B,G33 4NG,55.862096712470300,-4.126176301628600
Grosbeak and Civet,ML1 1AE,55.795772000000000,-3.955083000000000
Fish eagle and Mole,ML3 3XH,55.779567628994600,-4.049981758604970
Buzzard and Prion,G32 0QJ,55.849797302985300,-4.146640216948860
Dolphin and Duck,ML5 1RG,55.864296683749100,-4.035969685533990
Linsang and Jackal,G69 7RD,55.856429921052600,-4.079673576404790
Kākāriki and Partridge,EH48 3TU,55.899015026129500,-3.714994443897950
Crow and Stilt,G68 0ES,55.959132340319100,-4.024718970178370
Piping shrike and American sparrow,G66 3NT,55.928061832220900,-4.130172000000000
Parrotlet and Greenbul,ML1 2SP,55.776357913654300,-3.992697687322600
Greenbul and Kākāriki,G69 8DH,55.892255688205100,-4.080006976474440
Shearwater and Chicken,ML2 8TF,55.794011324598400,-3.908127974722060
Scimitar babbler and Linsang,ML1 4PF,55.817454870789000,-3.967056750676740
Mole and Parakeet,ML6 9TD,55.845453638120600,-3.968886000000000
Grosbeak and Zebra,G72 9BT,55.800258083659000,-4.085117369943910
Hawk and Chickadee,ML5 4FN,55.847682105274800,-4.007944281121290
Prion and Old World vulture,FK4 2EE,55.989728734167500,-3.893215114235770
Rabbit and Old World quail,G72 0BJ,55.792664675022600,-4.094059381248210
Pitohui and Eagle,ML6 6RF,55.877667084478200,-3.976575983580200
Ibex and Grosbeak,ML3 0QE,55.783651130199600,-4.068552717600870
Kestrel and Wallaby,ML2 8SU,55.792796565996300,-3.910541036449020
Egret and Dolphin,G66 2EU,55.941245288048500,-4.140760946966110
Shearwater and Vole,G34 9NN,55.871515773047500,-4.127186702187500
Partridge and Thicketbird,G68 0AG,55.968777907743200,-4.009182644679850
Triller and Kangaroo,ML6 8HE,55.837151105258500,-3.952017745646970
Fulmarine petrel and Diving bird,ML4 1BA,55.819056000000000,-4.018026000000000
Ground sloth and Elephant,ML5 5BJ,55.845816148293700,-4.046456250602170
Triller and Buzzard,G72 7GB,55.815725312877900,-4.150828691538450
Logrunners and Hawaiian honeycreeper,G67 3DZ,55.961902167469600,-3.955619640992050
Zebra and Diving bird,ML5 2BP,55.867829885947600,-4.024998707512150
Egret and Vulture,G72 0AH,55.776680813999300,-4.100122161166660
Solitaire and Zebra,ML6 7NB,55.880830204028400,-3.935888111078480
Quetzal and Chicken,G71 7HQ,55.819109722322800,-4.084258247013520
Condor and Kangaroo,G69 6ET,55.849959070637800,-4.128021449071670
Eagle and Siskin,ML6 0NY,55.885377231488000,-4.002183778886960
Rat and Linsang,G72 7YE,55.815150800772900,-4.139975107026470
Coati and Meadowlark,FK1 5LQ,55.991790894105600,-3.790703864967940
Mockingbird and Viscacha,ML1 1JJ,55.791115851899000,-3.992063674619080
Skunk and Dolphin,G71 5LA,55.836132444420400,-4.082071004752030
Flameback and Wallaby,G72 9RQ,55.793524858467100,-4.105782751454130
Peafowl and Darwin's finches,ML1 3RJ,55.780639706089600,-3.997987380698080
White ibis and Greenbul,ML5 4HB,55.851213693362500,-4.018942052484170
Tahr and Ibex,EH48 3HJ,55.896530081557900,-3.713397394877090
Snipe and Siskin,ML3 8JA,55.767918696984400,-4.053307761848900
Towhee and Goose,ML4 3NP,55.825781535090000,-4.032519704657670
Linsang and Shearwater,G72 9LJ,55.806961269550400,-4.103783000000000
Fulmarine petrel and Ibex,G71 5AN,55.828017781235100,-4.054781721518410
Petrel and Coati,FK1 2LY,55.934881196886200,-3.744931567720320
Linsang and Zebra,ML3 0LE,55.786622939320500,-4.064451745410900
Ground sloth and Partridge,ML4 2EG,55.815160950220700,-4.022038082554330
Solitaire and Thicketbird,G67 1DA,55.946700509750600,-3.990166033182250
Stilt and Piping shrike,G69 6SS,55.855857433511000,-4.124221621797950
Pitohui and Dolphin,ML6 8NG,55.865644528379400,-3.942036384670160
Masked owl and Eagle,ML3 0QG,55.783474328569900,-4.073710573244880
Duck and Moluccan boobook,G67 2EX,55.953034488003600,-3.971830618794640
Tahr and Songlark,FK4 1UA,55.988123715778800,-3.984390521188360
Argus and Rat,ML1 3DE,55.781922408179700,-4.013553883496710
Mockingbird and Pitohui,G66 3QY,55.931206985284100,-4.127128270857860
Tahr and Darwin's finches,ML7 5QH,55.857941370724200,-3.751146777046750
Old World quail and Badger,G34 9QP,55.871515760879900,-4.123414955680130
Pratincole and Solitaire,ML6 6DJ,55.868342232582000,-3.975239083152960
Jay and Towhee,G67 3AS,55.952876284648900,-3.959216826537000
Shearwater and Magpie,ML1 5SS,55.822637000000000,-3.929835000000000
Diving bird and Dorcopsis,ML6 9DP,55.859289271000000,-3.989784365400000
Kākāriki and Coati,G33 4UT,55.858126822864000,-4.136409683939950
Mamo and Pheasant,G66 2DE,55.937958213701700,-4.143733919909360
Tattler and Mockingbird,ML6 9XP,55.852682000000000,-3.987826896423390
Tattler and B,ML1 4WR,55.834765000000000,-3.983756000000000
Chickadee and Grouse,ML1 3BT,55.782432722346300,-4.012575514810130
Tit-tyrant and Pratincole,G65 0SP,55.978778114713200,-4.058315507780270
Coati and Marmoset,ML4 3LF,55.827360476938000,-4.041367451130570
Grosbeak and Stint,G71 8SS,55.817001057845900,-4.091472043168920
Argus and Quetzal,G66 3HQ,55.934154000000000,-4.138224000000000
Grosbeak and Rabbit,FK1 2TB,55.973807659865100,-3.764648592158430
Triller and Marsh harrier,ML4 2DA,55.807125448328400,-4.023743709501180
Maya and Elephant,ML5 3EH,55.862634434223300,-4.026150561829020
Jerboa and Perching duck,G67 4EB,55.933503292496200,-4.030089553621110
Goose and Chicken,ML6 8RS,55.836333635768000,-3.967786554680690
Tree warbler and Tattler,ML2 0JW,55.766704023881700,-3.921729979896970
Egret and Boto,G69 6UB,55.858154400631200,-4.080180000000000
Parrotbill and Black cockatoo,ML6 6PG,55.876554116967700,-3.978725489612840
Capuchin and Fish eagle,ML5 4AT,55.854385493770500,-4.027175023757900
Kangaroo and Crow,G66 5QW,55.920477766958900,-4.145825452707810
Badger and Badger,ML3 6SA,55.762493647939800,-4.044621000000000
Mamo and Minke whale,G71 7WQ,55.819606000000000,-4.083378000000000
Chicken and Macaw,G66 3EN,55.934098229428000,-4.147603304463450
Ibex and Mink,FK2 0RL,55.979957660081500,-3.708286151233740
River dolphin and Minke whale,ML5 1HX,55.855235482419100,-4.044778575682010
Magpie and River dolphin,G72 0GH,55.773481032775600,-4.100280000000000
Quetzal and Nukupuʻu,ML6 8LS,55.867174170210600,-3.948169954663550
Kangaroo and Siskin,ML5 4RU,55.852232760100000,-4.004840589700000
Magpie and Warbler,G72 0XX,55.787223217236400,-4.090082917013410
Old World quail and Rat,ML1 4BP,55.798242000000000,-3.973800649291550
Marsh harrier and Jerboa,G68 9NH,55.944715419329100,-4.043343698589240
Parrotbill and Dolphin,G71 7LN,55.817691122729400,-4.080463169641850
Thrasher and Mink,G69 7PG,55.858152910566300,-4.069698983999150
Buzzard and Meadowlark,ML3 6JW,55.787050994601800,-4.035015451530020
Recurvebill and Tit-tyrant,G72 9EN,55.797153404442800,-4.097507111090340
Pratincole and Puffleg,G69 0BL,55.911101860348800,-4.083704348097360
Maya and American sparrow,ML3 7HH,55.769266630362000,-4.033945000000000
American sparrow and Old World quail,ML6 9AU,55.861940633302100,-3.994361843640110
Kite and River dolphin,G72 9JZ,55.799538000000000,-4.101034000000000
Egret and Maya,ML6 7RG,55.887012065620900,-3.889696662585270
Ibex and Old World warbler,FK2 9SN,55.990776204456900,-3.736002296132840
Philippine hawk-owl and Duck,ML3 0WX,55.774444829266100,-4.037563067653390
Stilt and River dolphin,ML3 0SQ,55.780738690232500,-4.042261122355510
Wallaby and Chickadee,G67 1PY,55.954460543634500,-3.980969418887530
Snipe and Parakeet,FK2 0EY,55.975720604630200,-3.709799000000000
American sparrow and Asiatic leopard,ML5 4RP,55.842603103872200,-4.032103944943220
Vulture and Snipe,G68 0BF,55.961093658293000,-4.002039497459660
Flameback and Thrasher,ML4 2LT,55.813758511419400,-4.008909707122690
Towhee and Old World vulture,G65 9PB,55.983140270993800,-4.068838805378330
Wallaby and Coati,G69 9BJ,55.896469249370600,-4.114893011929210
Tree warbler and Argus,ML1 1AF,55.796329000000000,-3.957376000000000
Dolphin and Black cockatoo,G69 8DQ,55.893851000000000,-4.075747000000000
Philippine hawk-owl and Meadowlark,ML6 8JE,55.860192805088600,-3.936698888059820
Philippine hawk-owl and Jackal,ML4 1HG,55.824293609115000,-4.021378496112960
Ice seal and Partridge,ML3 0AE,55.779203674366000,-4.050249677874880
Guillemot and Pheasant,ML3 7BG,55.769828521895200,-4.019960767887190
Chipmunk and Duck,ML4 2DY,55.815655924345500,-4.022542597396530
Triller and Treepie,ML3 6AB,55.774304062886400,-4.037922440670690
Ice seal and Thicketbird,G71 5DE,55.826859000000000,-4.056381000000000
White ibis and Solitaire,G68 0BA,55.975491163299200,-3.957812021771730
Ibex and Petrel,ML3 7JE,55.770469554469100,-4.032859736435560
Duck and American sparrow,ML1 3RW,55.799557134329900,-4.013969654015120
Vole and Elephant,ML2 0FA,55.768133445782200,-3.945551000000000
Towhee and Rat,ML2 7TH,55.780020055286000,-3.956064253340880
Kite and Fox,FK1 3EY,55.937378733127700,-3.833582000000000
Diving bird and Hawk,ML3 7UH,55.768144761260200,-4.019060631914050
Chicken and Nukupuʻu,ML1 3AW,55.782510550184700,-3.996233242137300
Stint and Pratincole,G34 0HY,55.870242673115600,-4.100855424830450
Magpie and Dorcopsis,ML6 7PD,55.886543353792000,-3.886859664691570
Kestrel and Pratincole,G33 6EF,55.889978820311400,-4.133218621070960
Magpie and Greenbul,G68 9FS,55.953313000000000,-4.039760000000000
Kite and Snipe,ML1 5FN,55.810336636891300,-3.962802000000000
Cuscus and Condor,G69 8HP,55.902756733964500,-4.087192037585990
Eagle and Egret,ML5 5LQ,55.853218658670400,-4.043921713163440
Cuscus and Chicken,ML5 4RJ,55.856051896928900,-4.001697404658900
Rat and Cuscus,ML7 4HX,55.825866185920400,-3.801094933910380
Francolin and Coati,ML5 1PP,55.861991393678600,-4.036791891860050
Boto and Vole,G72 9DE,55.797620761560900,-4.093429000000000
Recurvebill and Old World warbler,ML5 2TE,55.895183589878200,-4.040930359241800
Old World vulture and Triller,G72 9SZ,55.786610055958000,-4.104420672817010
Duck and Fox,G72 7WU,55.814356112765200,-4.124129987540810
Pheasant and Grouse,G71 8RA,55.802879619303300,-4.066652629855960
Asiatic leopard and Argus,FK4 1QJ,55.991306765372800,-3.931098499255180
Bronzewing pigeon and Guillemot,ML5 4BT,55.852995434073500,-4.029722780139510
Perching duck and Mamo,G67 4NS,55.934556033885100,-4.013590180141150
Thrasher and Zebra,ML3 7LZ,55.768192306165400,-4.036328092633660
Stint and Bunting,G66 3PS,55.937972350633000,-4.125288942689800
Polecat and Thrasher,G71 7DH,55.826624272546500,-4.091062588445420
Tattler and Booted eagles,G33 5BD,55.873917460839800,-4.146212999973290
Warbler and Tit-tyrant,G66 3BS,55.928964978008300,-4.149240226396990
Treepie and Hawaiian honeycreeper,G72 8UZ,55.808849000000000,-4.142693000000000
Black cockatoo and Puffleg,ML3 6DB,55.775741000000000,-4.034731067787360
Linsang and Stilt,ML3 9BN,55.775892538759400,-4.060153049567400
Vulture and Triller,ML6 7SU,55.921730530308800,-3.981397000000000
Warbler and Zebra,G72 7SD,55.820908468218800,-4.136539794792320
Logrunners and Mole,ML1 4YT,55.833917571303900,-3.971065787995580
Fish eagle and Triller,ML7 5DX,55.818004074414200,-3.797331824626280
Kite and Tree warbler,ML6 8RL,55.856889000000000,-3.964022000000000
Gull and Moluccan boobook,G66 5DT,55.908140000000000,-4.149848000000000
Parrotlet and Perching duck,ML5 1DR,55.858658073000000,-4.028436804900000
Marmoset and Hawk,G67 2NX,55.940434858313800,-3.990837360971440
Marsh harrier and Crow,G66 2HJ,55.945071958460900,-4.116949874956940
Goose and Mink,ML1 9WG,55.783836625855800,-3.982601670694170
Chickadee and Ibex,ML1 3QP,55.798042279467400,-4.007685336826180
Songlark and White ibis,G71 5RB,55.835129710919000,-4.077593871481080
Egret and Tree warbler,ML2 8XR,55.783664548813500,-3.894959561034450
Magpie and Chickadee,G72 8WW,55.807744000000000,-4.146545000000000
Thrasher and Siskin,ML3 0AZ,55.782902916827000,-4.050077000000000
Cuscus and Duck,G74 3QT,55.778474000000000,-4.150368061104640
Chickadee and Old World vulture,ML4 3EQ,55.822181728281100,-4.028468665137890
Siskin and Peafowl,FK1 3BX,55.898027000000000,-3.824383000000000
Goose and Rabbit,G72 7GY,55.811049383795600,-4.133956553696100
Badger and Myna,G65 0DE,55.970668983068900,-4.055801468433510
Grackle and Jay,FK2 0NZ,55.990275786685500,-3.710087986912370
Argus and Scimitar babbler,ML3 7NA,55.766383764068300,-4.036998953740100
Night heron and Francolin,ML6 8PU,55.854727815366000,-3.947578858509340
Meadowlark and Prion,FK4 1JY,55.985522412561200,-3.952580014446170
Kestrel and Darwin's finches,ML7 5PR,55.857846088070900,-3.770986715619130
Puffleg and Tahr,ML1 5DB,55.811340377893400,-3.954874541589500
Black jay and White ibis,G67 3NB,55.963031764736000,-3.941016863640420
Magpie and Badger,ML2 7AP,55.772696911758400,-3.922965612219410
River dolphin and Solitaire,G72 7YS,55.818250665673400,-4.141566004812300
Buzzard and Kangaroo,ML5 4NJ,55.846342848791400,-4.020031249894050
Songlark and White ibis,ML6 7JY,55.878613064890300,-3.932292620422990
Grouse and Stint,G33 4UG,55.856427734417400,-4.129366000000000
Jay and Asiatic leopard,G69 9JT,55.904520658108900,-4.097093578028680
Guillemot and Pheasant,ML5 5JL,55.849384916547100,-4.042074974120520
Coati and Lemming,ML7 5AU,55.799879458809700,-3.837961114712660
Grouse and Marsh harrier,FK2 0TD,55.981799461577400,-3.712198201543350
Macaw and Jay,ML3 6QF,55.772231668220500,-4.039328893993160
Black cockatoo and Ground sloth,ML6 6JY,55.870742592213400,-3.975744583543370
Rabbit and Grouse,FK2 9GT,55.987484672908000,-3.753120700889080
Mockingbird and Wader,ML7 5LB,55.813518758605200,-3.773887929817740
Solitaire and Mamo,ML3 0ND,55.784299581675300,-4.071138862130060
Fulmarine petrel and Skunk,G33 4JZ,55.860774000000000,-4.132512000000000
Treepie and Marsh harrier,FK2 9UQ,55.989968709647700,-3.728238661840480
Black cockatoo and Dorcopsis,ML6 6EA,55.868306699152900,-3.966798444741580
Maya and Hawk,ML3 8JL,55.765483871869700,-4.055953436627920
Kākāriki and Viscacha,ML1 5UH,55.835419159300000,-3.956227194700000
Lemming and Buzzard,ML5 2FH,55.872455496100000,-4.029923590900000
Chipmunk and River dolphin,G68 9LE,55.939769010809900,-4.039224188154560
Tahr and Thicketbird,ML4 1DU,55.819443237453900,-4.002546282382220
Flameback and Pitohui,FK1 1UQ,55.993088687535100,-3.785488864788180
Masked owl and Partridge,ML3 7LN,55.765987335923800,-4.039225950685450
Linsang and Tattler,G33 4LZ,55.861555807359000,-4.128352044348090
Towhee and Parakeet,ML3 0LU,55.782734000000000,-4.058425000000000
Vulture and Puffleg,G67 1LZ,55.947696720611000,-4.000787340956670
Wader and Mouse,G69 6QQ,55.851850000000000,-4.115823000000000
Fulmarine petrel and Civet,G65 9NU,55.983121547711200,-4.062986728991690
Armadillo and Asiatic leopard,G34 9QE,55.873333866019100,-4.125991336492620
Cuscus and Badger,G71 5HZ,55.835528327330300,-4.060847117808800
Grackle and Buzzard,ML4 1QF,55.818105940081300,-4.010698085996660
Thicketbird and Parrotlet,ML6 8GN,55.837340559997400,-3.941183719060880
Songlark and Duck,G65 9RQ,55.955918659678400,-4.090677833456390
Hawk and Shearwater,G69 8BP,55.896688385818400,-4.092608182688180
Kangaroo and Coati,G66 8AP,55.965058462530300,-4.126902208510910
Greenbul and Towhee,ML3 9HJ,55.775453973942200,-4.068070478395360
Ibex and Herring gull,ML2 9AQ,55.786476187307800,-3.865670585459510
Parrotlet and Asiatic leopard,ML4 1TB,55.828016119519900,-4.013045646742380
Tree warbler and Booted eagles,G68 9ES,55.937484751658800,-4.035517578332010
Grouse and Egret,G69 7HG,55.848491000000000,-4.110512000000000
Marmoset and Asiatic leopard,ML5 3HQ,55.863047562657400,-4.021250029913760
Viscacha and Minke whale,G66 3LX,55.933868271785800,-4.116242528941880
Coati and Snipe,G72 0ST,55.789839910016000,-4.097911442676570
Booted eagles and Macaw,ML5 5LN,55.852315209689800,-4.043666578421670
Zebra and Duck,ML1 4WN,55.806651929722800,-3.967660643486200
Black cockatoo and Kite,ML3 9DT,55.779317496226600,-4.063315825117880
Fish eagle and Greenbul,ML1 4PG,55.817606656983400,-3.965994969210720
Petrel and Triller,EH48 3RH,55.899317480712600,-3.708753930098460
Marmoset and Marsh harrier,ML6 7NY,55.880024000000000,-3.932331000000000
Magpie and Magpie,ML1 2GA,55.780885000000000,-3.990975000000000
Partridge and Minke whale,ML4 3LL,55.820927154558100,-4.050464840777310
Bunting and Parrotlet,G71 7QE,55.820090335092800,-4.091079125159810
Chickadee and Ibex,ML5 5AJ,55.845436148458400,-4.048768411016180
Asiatic leopard and River dolphin,G68 0LS,55.958123000000000,-4.013388000000000
Shearwater and Petrel,G33 6AF,55.884053000000000,-4.143271000000000
Armadillo and Puffleg,ML3 0TA,55.780045000000000,-4.049417000000000
Vulture and Chickadee,G66 5HH,55.917154282100200,-4.150874883197290
Solitaire and Fish eagle,ML5 4WE,55.844737673691900,-3.996148056809710
Bronzewing pigeon and Boto,G74 3SB,55.774211224111600,-4.136502486779440
Hawk and Mamo,ML6 7JD,55.882477316857500,-3.939151803647870
Siskin and Dorcopsis,ML3 0BG,55.779567628994600,-4.049981758604970
Peafowl and Asiatic leopard,ML3 7UJ,55.770886439006500,-4.014642746307760
Snipe and Night heron,ML1 4PW,55.818640389815600,-3.966541944907730
Stilt and Crow,FK1 2HD,55.970399451614200,-3.771704212451600
Peafowl and Towhee,ML7 5LT,55.818136000000000,-3.775918000000000
Philippine hawk-owl and Siskin,ML3 6SN,55.766694033466300,-4.045910366915930
Treepie and Guillemot,G69 6LS,55.852274990861900,-4.122460390888510
Old World quail and Grackle,G66 4PF,55.925201093739700,-4.149656069822390
Parakeet and Goose,ML2 7QR,55.777324539680400,-3.920706128793680
Francolin and Guillemot,ML7 5BQ,55.823837564400000,-3.789667407500000
Petrel and Old World warbler,G33 4TE,55.855024409807500,-4.137341000000000
Nukupuʻu and Rat,ML5 2BZ,55.868579262854400,-4.026971655137930
Armadillo and Shearwater,ML5 4JA,55.848357877296900,-4.016078256424270
Dorcopsis and Mockingbird,G68 9AE,55.936347000000000,-4.027693000000000
Egret and Maya,FK2 0XF,55.987399000000000,-3.721840000000000
Boto and Fox,G67 2RG,55.959511146562600,-3.983758699279200
Gull and Mole,G71 6UG,55.832516124694900,-4.068432365128190
Polecat and Bronzewing pigeon,G72 0FT,55.781020618112800,-4.101597000000000
Mink and American sparrow,G72 7ZU,55.822014000000000,-4.124637774076980
Goose and Fish eagle,ML3 8HE,55.761600934189800,-4.058665910468010
Flameback and Siskin,G72 7FR,55.810976000000000,-4.124712000000000
Vole and B,G33 6DN,55.894457958416200,-4.143876605019800
Snipe and Booted eagles,G33 4QD,55.861601000000000,-4.145169000000000
Thrasher and Crow,ML6 7JZ,55.878445552980800,-3.930941416288940
Dorcopsis and Puffleg,G71 7HZ,55.822513785629300,-4.083849646475460
Jay and Bronzewing pigeon,ML4 2UA,55.809340525991600,-4.036656000000000
Elephant and Polecat,ML5 2TL,55.896913245408500,-4.038510044898620
Booted eagles and Rabbit,G71 5NW,55.838327234231300,-4.053089763667110
Pratincole and Darwin's finches,ML3 0RR,55.788380979941600,-4.064656418296080
Bronzewing pigeon and Quetzal,ML1 1LS,55.793517109189400,-3.984178371409060
Buzzard and Old World warbler,G69 0NF,55.914328430273700,-4.074644342401200
Snipe and Buzzard,ML4 1TA,55.827479284373900,-4.010702834014120
Linsang and Tree warbler,ML1 3NF,55.792210182784100,-4.006062000000000
Jerboa and Buzzard,ML6 8JZ,55.863810507870000,-3.957957519402180
Peafowl and Condor,G69 8EA,55.894330422935300,-4.080613830784910
Mockingbird and Capuchin,ML2 8PL,55.779775298515300,-3.894244512806640
Ice seal and Chickadee,G72 0XS,55.786508031133800,-4.092500837508360
Fox and Kestrel,FK2 9TX,55.985550188520100,-3.735719959875880
Viscacha and Ground sloth,ML5 5EB,55.848974652757100,-4.031573893092600
Nukupuʻu and Night heron,G34 9JL,55.865561222384400,-4.112876789724120
Shearwater and White ibis,G71 7UU,55.845345000000000,-4.107882000000000
Stint and Rat,G71 5SG,55.833367000000000,-4.072885000000000
Mouse and Boto,ML6 0BD,55.864426372834700,-3.990701738232350
Cuscus and Mink,G33 6BP,55.891483430332000,-4.150045675568730
Diving bird and Thicketbird,ML4 2HE,55.809692389357300,-4.020669242576710
Chipmunk and Grosbeak,ML6 7SA,55.909912434098700,-3.888954740817800
Jay and Condor,FK2 0UH,55.985423099931800,-3.710098145887320
Polecat and Chicken,ML6 7AA,55.866476000000000,-3.960377255671890
Hawaiian honeycreeper and Guillemot,G72 6WR,55.822227198342500,-4.125661181912760
Black jay and Fox,G34 9FB,55.866134037186200,-4.120196425051290
Thicketbird and Quetzal,G67 4LG,55.934152465100100,-4.006380794101080
B and Francolin,G71 8LR,55.805171006907800,-4.069343170051190
Chipmunk and Kangaroo,ML7 5JS,55.813245031195000,-3.781631744105510
Moluccan boobook and Parakeet,ML7 4NE,55.843357000000000,-3.868395000000000
Asiatic leopard and Quetzal,G66 2AN,55.938852033529900,-4.139363906812670
Capuchin and Puffleg,FK2 0HH,55.981184941505600,-3.731100525756050
Badger and Coati,ML5 2JH,55.870652743910400,-4.047746819085690
Treepie and Mouse,ML4 2EU,55.811779902644600,-4.023793819020420
Mockingbird and Thrasher,ML6 9DE,55.860790328949900,-3.989365180420560
Kestrel and Thicketbird,G71 7AZ,55.829724721474400,-4.091069340655000
Pitohui and Coati,ML3 0RE,55.783165587736800,-4.065895544974420
Capuchin and Mamo,ML4 2UN,55.809380935671600,-4.035734047272180
Peafowl and Minke whale,ML1 5PY,55.808803163560300,-3.920852281286200
Grouse and Triller,G71 5JE,55.832144761314800,-4.063254935617290
Linsang and Moluccan boobook,G71 7WP,55.819606000000000,-4.083378000000000
Lemming and Kākāriki,ML2 0BS,55.769038622935900,-3.949806885870300
Perching duck and Capuchin,FK2 0UY,55.988152270038000,-3.721905414762440
Cloud rat and Gull,G72 0SU,55.790312000000000,-4.096597000000000
Vole and Tattler,G33 4DZ,55.864564000000000,-4.145058000000000
Wader and Snipe,G33 6AR,55.887276600411400,-4.134605459777160
Snipe and Wader,ML1 4QA,55.817644895762400,-3.969221190195770
Mink and Warbler,ML2 8AT,55.771934348388300,-3.921732329212300
Coati and Jerboa,ML6 6BB,55.867587817876900,-3.970725718540330
White ibis and Parakeet,ML1 3PS,55.792642389412500,-4.014745234462840
Mouse and Quetzal,ML5 2EW,55.867416389651400,-4.043484921013060
Marmoset and Wallaby,ML1 4HJ,55.815765615379000,-3.975446835065230
Black jay and Zebra,ML6 9JX,55.860314258778200,-3.974288251004790
Ice seal and Jackal,G69 0HN,55.917534994996800,-4.078480430094510
Wader and Argus,G34 9DY,55.870817000000000,-4.138055406957130
Viscacha and Egret,G71 6HF,55.825687462587300,-4.057628397251390
Moluccan boobook and Songlark,ML3 8JQ,55.766216145858800,-4.054496000000000
Black jay and Fish eagle,G69 6QG,55.851665061252800,-4.117698130398340
Macaw and Skunk,ML2 9RF,55.777299654295700,-3.866332176775520
Vulture and Old World vulture,ML6 7PZ,55.890018183559700,-3.891154092350080
Parakeet and Lemming,ML6 7ED,55.883452000000000,-3.933483000000000
Peafowl and Kite,G71 8AX,55.798327000000000,-4.070719000000000
Guillemot and Meadowlark,G66 8AB,55.963978335127400,-4.145140851162740
Tahr and Chickadee,G69 7PD,55.848441458916600,-4.100764995763890
Booted eagles and Viscacha,ML5 4NA,55.845471917122600,-4.013405009773510
Minke whale and Shearwater,G33 6HZ,55.893630890279300,-4.136138015012180
Tree warbler and Piping shrike,ML3 0LW,55.786507380157700,-4.060091434070160
Wader and Mamo,EH47 9AS,55.827088510506900,-3.705920225257300
Hawaiian honeycreeper and Vulture,ML2 0RH,55.766339210771100,-3.959619168214000
Viscacha and Tree warbler,ML2 8HF,55.773722937052600,-3.885755824205270
American sparrow and Grackle,G33 4SS,55.855038039764300,-4.133140426986490
Guillemot and Partridge,ML6 6NS,55.873910000000000,-3.985592000000000
Jerboa and Solitaire,ML5 5LU,55.851703079950400,-4.046430254186810
Parrotbill and Mamo,G72 9QL,55.795113122991600,-4.104352948859450
River dolphin and Shearwater,G72 7RN,55.824020055332400,-4.142106615445210
Minke whale and Condor,ML3 9PT,55.774055779498400,-4.088038528815710
Greenbul and Hawk,EH48 3SD,55.883945365758100,-3.768306170622550
Elephant and Nukupuʻu,ML6 9LE,55.862120366121600,-3.967572371320840
Black cockatoo and Puffleg,ML3 7NL,55.764344000857700,-4.042933930906020
Prion and Fox,FK1 5TA,55.998437376122600,-3.791556514407340
Kite and Boto,G69 6AH,55.851052468809200,-4.108366725286300
Argus and Bronzewing pigeon,G72 9JR,55.801148411725000,-4.102492697891600
Masked owl and Buzzard,G68 9FQ,55.940187707809600,-4.040928094962440
Eagle and Solitaire,ML5 2AA,55.869066521254200,-4.023576652061100
Capuchin and Pratincole,FK1 5HZ,55.998234324764500,-3.802403255990910
Grouse and Triller,G32 0RB,55.847574151377600,-4.143738012858810
Stilt and Puffleg,FK1 2JA,55.958071000000000,-3.720954000000000
B and Asiatic leopard,ML1 3ES,55.787373991004900,-4.004424938943070
Wallaby and Prion,G33 4LN,55.863484956210000,-4.131126447465530
Ground sloth and White ibis,G66 2RU,55.945712027154200,-4.126225517318890
Gull and Old World warbler,ML3 8BN,55.764719515097500,-4.074691162074700
Scimitar babbler and Nukupuʻu,ML7 5ST,55.861044625768100,-3.747147885319120
Tit-tyrant and Fish eagle,ML1 2DP,55.771277713897900,-3.967200748238090
Thicketbird and Philippine hawk-owl,G68 9JG,55.948184061733200,-4.027590743070050
Pheasant and Rat,ML1 5RE,55.803150586132400,-3.923142718295560
Songlark and Tit-tyrant,G33 5DD,55.873103679967200,-4.143402641269410
Macaw and Herring gull,G66 2HF,55.941904788433100,-4.148820160504910
Grouse and Armadillo,G33 5EL,55.870716781963200,-4.145379000000000
Piping shrike and Mink,ML6 0DT,55.868307183547100,-3.983242000000000
Skunk and Old World warbler,FK1 1QG,55.996562310287700,-3.782666566510630
Darwin's finches and Kangaroo,ML4 1DT,55.818611000000000,-4.000721230187930
Old World quail and Viscacha,G71 5HP,55.832101404516000,-4.061017103824210
Warbler and Tahr,G69 8LB,55.886452997358100,-4.086204608839640
Civet and Black jay,G69 8DG,55.877497000000000,-4.109720000000000
Grosbeak and Duck,ML1 4SU,55.822469694723400,-3.965362302582020
New World blackbird and Eagle,G33 4LT,55.863120277710900,-4.131426093557820
Guillemot and Stilt,G69 7LE,55.848831041020800,-4.131921638757430
Perching duck and Old World vulture,ML1 3UR,55.802450655498900,-4.009045150274430
Kite and Parrotlet,ML2 8JQ,55.773204533114300,-3.908274780188580
Tahr and Parrotbill,EH48 3SU,55.886456660062600,-3.754205823361900
Ice seal and Black cockatoo,G71 9AB,55.819592848586000,-4.083326302424780
Badger and Quetzal,G69 9FP,55.895205000000000,-4.113389000000000
B and Darwin's finches,G72 0RF,55.789433088444200,-4.101733703772310
Marmoset and Ice seal,ML1 3PF,55.794428678251200,-4.011583183932490
Nukupuʻu and Puffleg,ML6 8PS,55.856996770330400,-3.943330437126680
Badger and Philippine hawk-owl,G69 0DL,55.912087000000000,-4.091902000000000
Viscacha and Perching duck,G67 4QN,55.928787954130500,-4.035365580096490
Kite and B,G71 8RB,55.802731796559300,-4.067426644258410
Viscacha and Petrel,ML2 8BJ,55.769896110127400,-3.915287037672540
Civet and Magpie,G71 7DE,55.824787753128800,-4.092831954830000
Old World warbler and River dolphin,ML4 2TD,55.811113750402000,-4.020583323079000
Logrunners and Thrasher,FK2 0XT,55.992322962193100,-3.714090432281900
Stint and Petrel,ML3 9BT,55.777146476071900,-4.061478934910270
Kestrel and Tattler,ML6 9PN,55.860113617814700,-3.968301822139170
Triller and Scimitar babbler,ML6 6LW,55.872796077153800,-3.977703099213700
Mockingbird and Linsang,EH47 0SW,55.858983000000000,-3.708765000000000
Snipe and Gull,ML7 5JW,55.813966514500400,-3.780834813463950
Recurvebill and Diving bird,G71 6PP,55.826309321794900,-4.065564276767060
Prion and Ibex,FK2 0TH,55.980450808437700,-3.709013130031090
Myna and Stilt,G68 9EW,55.934000378198400,-4.040794181906580
Black cockatoo and Polecat,ML5 3HJ,55.862569436489300,-4.025731684538150
Recurvebill and Pheasant,G67 1ND,55.947521248792800,-3.989983933621400
Mouse and Capuchin,G65 9SQ,55.950851477611600,-4.090981842674080
Recurvebill and Fox,ML2 0BY,55.766395526733600,-3.952129798727790
Tree warbler and Piping shrike,ML2 0BT,55.767681949882100,-3.956004095291940
Lemming and Elephant,ML7 5NL,55.859769646529100,-3.754648424335800
Fish eagle and Stint,ML5 5NS,55.848574333240500,-4.049205140724050
Wader and Hawaiian honeycreeper,G72 0QD,55.792420555356600,-4.088335473031070
Treepie and Shearwater,ML6 7TH,55.913896883773700,-3.939600339397050
Cuscus and Tit-tyrant,ML6 8HU,55.837550957383500,-3.940379740660620
Goose and Kākāriki,ML4 3AB,55.815036070290000,-4.028527723017910
Ice seal and Siskin,G66 2UB,55.947432209016500,-4.121322892644400
Stint and Lemming,ML5 3NW,55.862603092366200,-4.017119959050050
Grosbeak and Parakeet,G65 0LG,55.972953475195300,-4.055153425813560
Jackal and Eagle,ML2 7TY,55.779641869537600,-3.952154416011680
Philippine hawk-owl and Old World warbler,ML5 4WG,55.851552000000000,-4.009603000000000
Mockingbird and Fox,ML7 5BF,55.817304175360300,-3.790484153541080
Zebra and Crow,FK1 2LP,55.933660621644100,-3.748622743579740
Kite and Armadillo,FK4 1TX,55.988539783140200,-3.974151189962360
Greenbul and Kite,G72 9JJ,55.802056175852200,-4.098884000000000
Logrunners and Wallaby,FK4 1JQ,55.986608610051600,-3.953921000000000
Fish eagle and Crow,G69 8AH,55.889641570240300,-4.083129410063730
Tahr and Kite,G69 7QX,55.855627192469800,-4.083561227365850
Prion and Black jay,ML6 9AE,55.862607136068100,-3.975331451975680
Tit-tyrant and Parrotbill,ML1 4UL,55.808864287247600,-3.972049109555170
Greenbul and Tree warbler,FK1 3HU,55.935148247795800,-3.835973883815900
Civet and Egret,G66 2RX,55.945998084683700,-4.124751783789400
Tahr and Nukupuʻu,FK1 2DT,55.971413674850800,-3.766782998304650
Thrasher and Philippine hawk-owl,G71 7BF,55.823028338199700,-4.088347814525650
Old World quail and Quetzal,ML1 9UT,55.783836625855800,-3.982601670694170
Jay and Perching duck,ML1 2PL,55.781832943236100,-3.979788850751440
Shearwater and Parrotbill,ML3 0BD,55.779567628994600,-4.049981758604970
Old World warbler and Grouse,G65 9PL,55.982095642564300,-4.058923000000000
Goose and Grosbeak,ML1 3BE,55.782444676108200,-4.007999172790070
Bunting and Mink,ML3 7LJ,55.765235416270600,-4.040669167320250
Thrasher and Scimitar babbler,FK4 1SW,55.987417447976500,-3.954920001218300
Cloud rat and Parakeet,ML6 9LF,55.862899204329500,-3.966636951923930
Tit-tyrant and Armadillo,G65 0QH,55.983918253899700,-3.993280308763690
Jay and Duck,ML2 8DA,55.772223483528500,-3.912993805413470
Stint and Fulmarine petrel,ML7 4AZ,55.820455420116800,-3.805442052210770
Herring gull and Triller,ML6 8TA,55.843149937388500,-3.947191381709110
Skunk and Thrasher,ML4 3DR,55.821252707803900,-4.029761243050180
Myna and Chickadee,ML4 3PS,55.820579000000000,-4.031961000000000
Greenbul and Nukupuʻu,ML1 1AZ,55.792977837325400,-3.990850705284280
Kite and Eagle,ML5 4NP,55.846515745134100,-4.021541764701830
Tattler and Old World quail,G65 0PG,55.976743569128500,-4.049360140377140
Darwin's finches and Magpie,G68 9DZ,55.946145499972100,-4.013807457813430
Treepie and Philippine hawk-owl,G71 8TD,55.810939163925200,-4.080196000000000
Francolin and Black cockatoo,ML5 4LT,55.845363307636500,-4.014549475949260
Cuscus and Lemming,ML3 8AP,55.764684000000000,-4.062754000000000
Chipmunk and Linsang,ML6 6LH,55.872040000000000,-3.977776000000000
Peafowl and Gull,ML6 9SQ,55.843810710983000,-3.966662997704250
Warbler and Rabbit,FK1 2DH,55.960327415347300,-3.752740955690440
Mink and Argus,G69 7TP,55.860685645116400,-4.070329078569950
Argus and Ice seal,G65 9AD,55.978212314636100,-4.066347679511180
Macaw and White ibis,ML6 7EE,55.884026000000000,-3.932424000000000
Black cockatoo and Maya,ML5 4DA,55.853171096418500,-4.022877969765340
Kite and Grosbeak,ML1 4GU,55.807241000000000,-3.961722000000000
Zebra and Tahr,G72 9AQ,55.797994253004800,-4.091409942030140
Towhee and Ground sloth,ML6 8QL,55.853661977418400,-3.912409220932960
Lemming and Chickadee,ML3 7BP,55.774508332913400,-4.031013219874200
Ice seal and Solitaire,G69 9JG,55.905187132532100,-4.123222832540490
Kestrel and Chipmunk,FK4 1JE,55.989862194422000,-3.952061336498800
Tahr and Siskin,ML1 5AQ,55.810342445064400,-3.951505070807410
Linsang and Kākāriki,ML4 3EL,55.820991314233200,-4.026538978477200
Boto and Mink,ML1 4GA,55.806147485218100,-3.970539386583710
Asiatic leopard and Stint,ML1 3TP,55.803971829141400,-4.008900133482750
Stilt and Siskin,G72 7SP,55.822637997166500,-4.140961012348720
Solitaire and Logrunners,ML1 3AR,55.781181931590700,-3.997249681874720
Civet and Hawaiian honeycreeper,G65 9QD,55.955774655683200,-4.084326498228340
Grosbeak and Ice seal,G33 6DW,55.893809407770000,-4.142929180385200
Condor and Black jay,ML7 5EQ,55.813843412246700,-3.786223557065740
Mamo and Francolin,G33 4QX,55.858071493286700,-4.142175086350480
Macaw and Masked owl,ML6 6BW,55.865375880323000,-3.979755060505230
Old World quail and Scimitar babbler,G66 3PD,55.935797000000000,-4.126899000000000
Partridge and Partridge,G65 9AN,55.978765560863500,-4.070865185866700
Kākāriki and Tattler,ML6 6SP,55.875649676807900,-3.985777120939900
Moluccan boobook and Armadillo,ML1 2UJ,55.798665000000000,-3.970135000000000
Thrasher and Guillemot,G67 1BD,55.948670223847800,-3.983231000000000
Mamo and Meadowlark,G71 7AP,55.824357036136700,-4.088035272815330
Ibex and Siskin,ML5 4UN,55.845236000000000,-3.998713000000000
Scimitar babbler and Kite,EH48 3SP,55.884810961731200,-3.761838126438800
Dolphin and Old World quail,ML2 8LJ,55.777508450148500,-3.904849672483490
Goose and Parakeet,ML4 2DB,55.807787136280300,-4.025152000000000
Polecat and Solitaire,G71 6BF,55.835149669584200,-4.085835758269050
Elephant and Marsh harrier,G65 0AZ,55.976390804138600,-4.055431932908810
Grackle and Night heron,FK1 1QE,55.995919040634500,-3.786132501788850
Dorcopsis and Tattler,G66 2BJ,55.939432560611400,-4.134912405364650
Maya and Jackal,EH48 3EF,55.884935000000000,-3.767367000000000
Lemming and Ice seal,G71 7QJ,55.822319497813600,-4.090001434073320
Grosbeak and Chipmunk,ML2 0HG,55.773404905751900,-3.930541809462240
Meadowlark and Parrotlet,G68 9DQ,55.947070692385100,-4.011084859996910
Triller and Mole,ML4 3NX,55.826430000000000,-4.034086000000000
Tree warbler and Parakeet,ML1 5DD,55.810965108591400,-3.955302577507970
Rat and Cuscus,ML2 7AL,55.773534762288300,-3.921109588219990
Guillemot and Thrasher,G69 8HF,55.895651650943700,-4.062451121758000
Kangaroo and Ground sloth,G69 0BX,55.911303716782500,-4.086643316485980
Diving bird and Parrotbill,G68 0BX,55.959392004630000,-4.000573872192370
Polecat and Francolin,ML6 7JS,55.880192504771600,-3.928997771124070
Tree warbler and Pheasant,G68 9PD,55.943641662509300,-4.050093063117080
Tattler and Kestrel,ML5 5SS,55.850612842012800,-4.063275202331040
Mockingbird and Songlark,FK1 2AW,55.983872381026400,-3.784615166814850
Duck and Macaw,G68 9EN,55.933431104266400,-4.038811057778480
Scimitar babbler and Pratincole,FK4 2FP,55.993520000000000,-3.886875000000000
Stilt and Ground sloth,FK4 2DH,55.993791288183100,-3.893173248452860
Pratincole and Mink,ML3 9FF,55.777286344387200,-4.070798602351880
Fish eagle and Night heron,G66 5JB,55.921268333549800,-4.150478621638000
Booted eagles and Chicken,ML6 8LZ,55.867090318855800,-3.943243283757610
Duck and Jackal,ML5 3AP,55.859716173639800,-4.025998605749190
Fish eagle and Puffleg,ML2 7UP,55.786385488613200,-3.918839515876570
Diving bird and Dorcopsis,ML1 3AT,55.783310000000000,-4.000165000000000
Siskin and Dorcopsis,ML6 6AW,55.867034308542400,-3.976659011851180
Logrunners and Old World warbler,G69 7RL,55.846928132900400,-4.108846225115920
Guillemot and Stint,EH48 3QP,55.902133583153600,-3.708509877026810
Darwin's finches and Ibex,FK1 3HF,55.934633105024600,-3.837374355369810
Puffleg and Crow,G69 6HL,55.851483643420400,-4.130804798394880
Linsang and Jay,ML1 4ZB,55.817306000000000,-3.984501000000000
Coati and White ibis,G67 4BZ,55.935426944376500,-4.024602538486850
Night heron and Thrasher,G66 5PJ,55.921460119456700,-4.142054518443660
Marsh harrier and Songlark,G68 9DW,55.950079113439800,-4.009014580494690
Songlark and Thicketbird,G71 6LY,55.826661000000000,-4.072952305678880
Elephant and Mink,ML4 2PD,55.814491929780800,-4.010224362337260
New World blackbird and Scimitar babbler,ML2 8BX,55.772990151596100,-3.914545993746160
Polecat and Francolin,ML4 1RR,55.823520998511000,-4.007098156520660
Bunting and Grackle,ML1 9EH,55.793564000000000,-3.994939000000000
Minke whale and Jay,G65 9AG,55.976805013606500,-4.069878856737730
Zebra and Siskin,G71 8JX,55.806932007338200,-4.065096108477210
Francolin and Masked owl,ML1 4YU,55.825742000000000,-3.963627000000000
Piping shrike and Jerboa,G34 9EG,55.867170991843300,-4.119997219133450
Lemming and Fox,ML3 6EA,55.779753986644800,-4.037696708843710
Francolin and Grosbeak,ML1 1UH,55.784160522432000,-3.989252579556840
Prion and Treepie,G72 9UF,55.778509666483700,-4.127618000000000
Mink and Duck,ML1 4FF,55.803422233356700,-3.969556001158730
Quetzal and Lemming,ML2 7AS,55.772904452059900,-3.924059984998640
Darwin's finches and American sparrow,ML6 6EL,55.869241894979100,-3.967325219892410
Skunk and Guillemot,ML6 9SG,55.845078000000000,-3.965439256468690
Polecat and Guillemot,ML3 6PW,55.770117088892300,-4.048130398389990
Logrunners and Mink,G71 8FA,55.801243000000000,-4.078759000000000
Dolphin and Polecat,ML6 7PJ,55.892269989476200,-3.882611877953350
Nukupuʻu and Buzzard,ML3 7YP,55.767699000000000,-4.038454000000000
Grosbeak and Skunk,ML2 8EG,55.766795733708700,-3.914068000000000
Chicken and Chickadee,FK2 9RR,55.990840105093000,-3.741664599700940
Parrotlet and Tahr,ML6 7BD,55.867101693753300,-3.960088960904400
Night heron and Parakeet,G34 9NW,55.870585434171800,-4.126416534078310
Old World vulture and New World blackbird,G72 0SD,55.788419314522100,-4.096367623065660
Elephant and Duck,ML4 2SP,55.806576326690700,-4.029795023385600
Old World vulture and Vole,G72 7XG,55.813813476959900,-4.133150226097540
Greenbul and Diving bird,FK2 9XT,55.986488483653000,-3.738006293733690
Tree warbler and Rabbit,ML2 7QQ,55.776616849569700,-3.919985676990760
Black cockatoo and Darwin's finches,ML1 1HP,55.798954254892100,-3.989735831088150
Stilt and Chipmunk,G67 3LW,55.962117496567900,-3.946562484949060
Kite and River dolphin,ML6 0ES,55.868005878360300,-3.990533295819160
Capuchin and B,FK2 0EZ,55.982856897690600,-3.718864930236260
Marsh harrier and Marmoset,FK2 9GP,55.985002223588600,-3.755172391896670
Recurvebill and Lemming,ML1 5QN,55.802243000000000,-3.915120000000000
Minke whale and Rat,G71 8AF,55.796461000000000,-4.060143000000000
Nukupuʻu and Piping shrike,G72 8ZD,55.804181000000000,-4.150864000000000
Buzzard and Triller,G72 8WT,55.806973000000000,-4.148449000000000
B and Gull,G71 6EU,55.828043953913200,-4.070366354102770
Ibex and Pitohui,G67 1BU,55.946862066550000,-3.990734850677670
Fox and Rabbit,G69 8DA,55.897689201106900,-4.088183436086370
Parakeet and Chickadee,ML1 3DZ,55.786507981356800,-4.012323176220820
Capuchin and Condor,ML1 3WE,55.798503259843000,-4.002013438936310
Fish eagle and Masked owl,G71 5SX,55.835556432844500,-4.079996103167560
Siskin and Puffleg,ML3 3WW,55.779567628994600,-4.049981758604970
Petrel and Jay,G71 8PP,55.808810321946100,-4.073637696580020
Ground sloth and Minke whale,FK1 2PS,55.986894771076400,-3.783167374319650
Bronzewing pigeon and Night heron,ML6 9BY,55.861573000000000,-3.992122000000000
Ice seal and Jerboa,ML1 4RB,55.817590781670600,-3.975731000000000
Viscacha and Mamo,G34 9LD,55.867257556410400,-4.109340847889680
Old World vulture and Ground sloth,G33 6HD,55.890641313537000,-4.144353000000000
Goose and Pitohui,G71 8SE,55.800235196234400,-4.065714739236490
Stilt and Guillemot,G69 8LH,55.886637470947400,-4.090691879701780
Triller and Eagle,G69 7NQ,55.848872918901100,-4.120661394205260
Songlark and Condor,ML2 9LF,55.789467968388600,-3.886915485201170
Chickadee and Fish eagle,ML7 4DX,55.821293139784600,-3.800404697428560
Parakeet and Cloud rat,G72 9AD,55.795864703408900,-4.088743216760620
Polecat and Solitaire,G72 7YD,55.815656937702700,-4.139811356999860
Diving bird and Recurvebill,ML3 0EF,55.794751096733000,-4.054034003831130
Ice seal and Asiatic leopard,G72 9AH,55.797291661037500,-4.090446937954760
Mockingbird and Booted eagles,ML2 9PS,55.763845722174000,-3.864417000000000
Guillemot and Parrotbill,G67 3AF,55.950877238593700,-3.961726539318420
Treepie and Civet,ML5 4LG,55.844575019149000,-4.022607032438360
Quetzal and Crow,G32 9LB,55.843054619644000,-4.140582094415450
Fish eagle and Chipmunk,ML3 9DZ,55.778626697799200,-4.066307000000000
Marsh harrier and Mouse,ML3 6LS,55.778463433789800,-4.043659000000000
Fulmarine petrel and Scimitar babbler,FK2 0HP,55.980267196628800,-3.720272680127560
Myna and Mink,ML6 9RE,55.850607000000000,-3.972150000000000
Crow and Dorcopsis,G69 6PP,55.854652149803700,-4.122717851488510
Diving bird and Night heron,ML2 8NZ,55.781382567901400,-3.901897233448650
Philippine hawk-owl and Gull,G71 6QR,55.826737692014300,-4.070552392638630
Night heron and Stilt,ML6 8TB,55.844010349446900,-3.951307420113190
B and Mouse,G71 5PL,55.841430000000000,-4.086619000000000
Magpie and White ibis,G34 0HT,55.869617088452400,-4.102228197991380
Mamo and Kestrel,G68 9EY,55.953690719314200,-4.004668621558640
Snipe and Logrunners,G33 4AG,55.867318000000000,-4.145897000000000
Old World vulture and Black jay,FK1 5DF,55.995956014427500,-3.810699392728730
Buzzard and Tit-tyrant,ML3 9RH,55.770880563480000,-4.086215000000000
Tree warbler and Maya,G65 0DR,55.977415932066800,-4.044202000000000
Civet and Magpie,ML6 9AL,55.863312000000000,-3.980438000000000
B and Fulmarine petrel,FK4 1HY,55.990875888873000,-3.944979000000000
New World blackbird and Piping shrike,ML5 2SP,55.893508855430900,-4.061073926473100
Old World vulture and Vulture,ML3 6UH,55.769092654972400,-4.048124487381220
Solitaire and Chickadee,ML2 7BB,55.773744556805700,-3.926078412425190
Cloud rat and Lemming,ML1 4PZ,55.817909136752200,-3.968995111936060
Buzzard and Wader,G67 2SS,55.964149737903500,-3.974158483609860
Eagle and Parakeet,FK1 5QW,55.995677166587000,-3.791460000000000
Polecat and Mouse,G71 7NN,55.816764160388600,-4.074156631327850
Elephant and Guillemot,G71 7RH,55.839767000000000,-4.111908000000000
Old World vulture and Armadillo,ML5 5QJ,55.849973485292900,-4.049374648644580
Kākāriki and Asiatic leopard,G72 0UL,55.783058458300800,-4.088185296587720
Lemming and Snipe,G71 6BZ,55.829851664887700,-4.083060580678900
Pitohui and Quetzal,G34 9PR,55.872298164426700,-4.127677070405330
Dolphin and Vulture,ML3 0PQ,55.787175218528100,-4.064209821212690
Viscacha and Mink,ML6 7UA,55.912703022878800,-3.942932883716940
Stint and Vole,G69 8HW,55.906660247196700,-4.073178834232460
Mockingbird and Stilt,G69 9AQ,55.901404550456800,-4.109050901193970
Chickadee and Cuscus,G72 7UJ,55.821952102427300,-4.123506370688590
Triller and Mink,G68 0GB,55.958778275812200,-4.019461901355450
Parakeet and Guillemot,ML4 2HS,55.816382456291900,-4.016610693600420
Herring gull and Asiatic leopard,G65 0BE,55.981563410597800,-4.037657637821610
Wader and Grackle,ML5 3PE,55.861685858451100,-4.020987530746050
Jay and Hawaiian honeycreeper,EH47 9BA,55.826351449745500,-3.708522106844520
Logrunners and Gull,G72 0RG,55.789296238077200,-4.101327563374690
Grackle and Masked owl,ML3 9PB,55.776780847135500,-4.088981579721260
Old World warbler and American sparrow,ML4 2UH,55.807432387973300,-4.032919462987220
Pheasant and Egret,G72 0YB,55.783708650497300,-4.082175652985830
Tattler and Goose,FK2 9YA,55.988351684342800,-3.731404831987940
Grouse and Skunk,ML4 1QG,55.818195430192000,-4.011820058577330
Buzzard and Solitaire,ML1 4RN,55.819882640077600,-3.975942851356150
Civet and Coati,ML4 2RH,55.815507440597200,-4.005823586414930
Coati and Elephant,G67 3PA,55.957112590876200,-3.945382084288360
Boto and Mink,EH48 3HE,55.895641990387200,-3.706817097383030
Vulture and Magpie,ML3 8LY,55.766831692473900,-4.066147187948680
Chickadee and Nukupuʻu,G74 2BF,55.763696358406000,-4.150784269218270
B and Jay,G69 6EH,55.855631257766500,-4.107304000000000
Mockingbird and Fulmarine petrel,ML2 8SL,55.788111416227400,-3.911890629487430
Rabbit and Duck,G71 8BF,55.798183102268400,-4.058794189580420
Thicketbird and Chicken,ML3 8HL,55.763129895250200,-4.056278000000000
Masked owl and Old World quail,ML6 8LE,55.862884589317600,-3.957974846334780
Flameback and Philippine hawk-owl,G66 3SZ,55.942100022392900,-4.120967226760510
Prion and Kite,G72 0LQ,55.787901459643400,-4.081362646115220
Capuchin and Mockingbird,FK1 5HL,55.993977378166600,-3.801611828474730
Vulture and Logrunners,ML1 2PE,55.772131410348800,-3.959637000000000
Treepie and Magpie,EH47 9AZ,55.826632077070500,-3.709667903543240
Darwin's finches and Kangaroo,ML4 3HA,55.826775749235100,-4.025642412403980
Siskin and Grouse,ML1 4QH,55.817824699291100,-3.973140947411060
New World blackbird and New World blackbird,FK1 2LZ,55.936387645817200,-3.748329373836250
Chicken and Skunk,FK1 2LR,55.934085662223900,-3.748433779151480
Armadillo and Diving bird,FK1 2PF,55.986580662135700,-3.785621653501520
Tahr and Argus,G67 2LZ,55.944104042762300,-3.986781985792300
Chickadee and Stilt,G71 6JX,55.822147124702300,-4.051678443017840
Ground sloth and Vole,FK2 0UQ,55.985524965175700,-3.713116305754520
Petrel and Zebra,FK1 5PE,55.991016856151700,-3.800656418159660
Macaw and Snipe,ML3 0JN,55.783309331766300,-4.063099000000000
Duck and Perching duck,G69 7LN,55.846648517418800,-4.132361217144610
Siskin and Night heron,G71 5AB,55.826184292431200,-4.052098587741390
Kite and Cloud rat,G67 4EX,55.931243170375800,-4.029266934588430
Ibex and Chicken,G67 4AJ,55.927251054347300,-4.039718964831050
Thicketbird and Magpie,ML3 8QR,55.767215000000000,-4.075720000000000
Grosbeak and Black cockatoo,G34 0PN,55.866508508368200,-4.106375451843380
Tit-tyrant and Gull,FK4 1TJ,55.990035976514100,-3.955837804615920
Viscacha and Chicken,ML3 7HY,55.771230000000000,-4.036375000000000
Dorcopsis and Tree warbler,G72 0GR,55.776155401550300,-4.096681588995740
Jackal and Fish eagle,ML5 2DG,55.867944000000000,-4.029528000000000
Dorcopsis and Viscacha,G67 2PU,55.942899198949100,-3.984590491051230
Peafowl and Hawk,G69 0LE,55.910740968535200,-4.090149198566560
American sparrow and Boto,ML7 5EP,55.822925227156200,-3.789561119372820
Elephant and Chipmunk,G32 0SD,55.849773393616600,-4.142341442903870
Black cockatoo and Viscacha,ML2 9EL,55.787260260543500,-3.879679469574140
New World blackbird and Cuscus,FK1 1TY,55.994614786358800,-3.778760779716350
Mole and Moluccan boobook,ML1 4ST,55.821819023818300,-3.965026178820990
Peafowl and Jerboa,FK1 2AY,55.982501801369700,-3.784936719325410
Magpie and Nukupuʻu,ML6 6JA,55.867357982007400,-3.981677911743830
Tahr and Marsh harrier,G66 3PX,55.938442403622700,-4.124610160628970
Badger and Wader,ML6 6AA,55.866662262884900,-3.979676686123820
Quetzal and Chipmunk,G33 6EA,55.893395777359500,-4.144489737955740
Night heron and Hawk,G65 9UP,55.979399190995700,-4.060945172001610
Coati and Perching duck,ML2 7DW,55.778411414505500,-3.910363072794520
Warbler and Bronzewing pigeon,G66 3EU,55.933789000000000,-4.127568769449140
Towhee and Herring gull,ML1 3NN,55.790406147673000,-4.011359824575440
Coati and Jerboa,G66 3EB,55.932237847444200,-4.146059475026270
Argus and Tit-tyrant,G72 0HF,55.784072694596400,-4.098287163541190
Ice seal and Thrasher,ML4 1HQ,55.824013797815700,-4.022545364040430
Linsang and Kangaroo,ML1 1EH,55.792981911371000,-3.988378380316380
Piping shrike and Stint,ML1 5JQ,55.814703015445200,-3.938316509736300
Darwin's finches and Jerboa,G69 6HH,55.852835155512800,-4.129568685760150
Pitohui and Zebra,ML7 4AS,55.821346206127600,-3.805978167113960
Kestrel and Solitaire,ML2 7AY,55.774237473830600,-3.924444561993510
Perching duck and Quetzal,G69 8DD,55.895687127055000,-4.093166000000000
Triller and Old World quail,G67 3LE,55.957771071287300,-3.950909789517090
Capuchin and Vulture,G65 0JJ,55.975931973061400,-4.056000600862490
Chicken and Kākāriki,G71 6DX,55.833268333791400,-4.089854333725900
Minke whale and Booted eagles,ML3 0AS,55.781179244269300,-4.046031767158720
Black cockatoo and Snipe,ML1 2FL,55.777619000000000,-3.981993777500000
Peafowl and Ice seal,G71 6TR,55.832687584044900,-4.071060284043900
Wader and Capuchin,ML6 0HD,55.870920762881900,-3.986446762925520
Tit-tyrant and Kangaroo,G67 4AT,55.934745614713400,-4.001095000000000
Fulmarine petrel and Nukupuʻu,ML1 3PA,55.795880051509400,-4.006361609657550
Herring gull and Buzzard,G71 7FG,55.817507000000000,-4.068514000000000
Thicketbird and Diving bird,G66 3QN,55.937239548405100,-4.124528277861230
Macaw and Mouse,G67 2UQ,55.943516263260700,-3.979193430442140
Cloud rat and Snipe,FK2 9NR,55.997557239207300,-3.742624222768720
Grosbeak and Lemming,ML5 5LW,55.851776855045000,-4.041449585249430
Skunk and Kestrel,G71 7EF,55.817398000000000,-4.072307000000000
Capuchin and Wader,ML1 4RD,55.817307277711200,-3.975141891809630
Lemming and Herring gull,ML1 3UD,55.801905186346800,-4.002267858416860
Tattler and Grosbeak,ML1 5RW,55.803133071859400,-3.911589909190150
Zebra and Shearwater,ML2 9AS,55.782459000000000,-3.875717000000000
Crow and Wader,G67 2PT,55.942960977554700,-3.985218175985280
Polecat and Pitohui,G69 7QZ,55.856016203551700,-4.082879022485320
Tattler and Dolphin,ML5 1DF,55.857993840500000,-4.027842930100000
Goose and Mink,FK1 5AL,55.995435406144900,-3.788499324997620
Partridge and Boto,FK4 2DF,55.994367224642700,-3.893121238647470
Night heron and Solitaire,G34 0PL,55.864312021921000,-4.105537359772570
Fulmarine petrel and Nukupuʻu,G66 5JH,55.923454384602900,-4.142129000000000
Skunk and Puffleg,G34 0LR,55.870894177696000,-4.103751784323050
Towhee and Mouse,ML4 2AW,55.809159544007600,-4.031732835869580
Hawk and Ice seal,ML2 0AA,55.775330887938900,-3.940473000000000
Zebra and Armadillo,G68 9LP,55.949499334134400,-4.034482458379240
Prion and Capuchin,G67 3PB,55.957618358764200,-3.945924000000000
Goose and Boto,ML4 1TQ,55.827094532958100,-4.008399858753250
Condor and Vulture,ML2 0DB,55.768745000000000,-3.957588000000000
Old World quail and Ice seal,G72 0HW,55.783522795856000,-4.097221000000000
Shearwater and Marsh harrier,G68 0AP,55.970351480694400,-4.005818891151140
Argus and American sparrow,ML6 7AY,55.870671415354000,-3.946379137188340
Mink and Stint,ML7 5NX,55.858341532672300,-3.764650072200970
Marmoset and Vole,G68 9YU,55.951909971136200,-3.983658134962640
Viscacha and Snipe,G65 9JU,55.975158849101000,-4.107857000000000
Coati and Jay,ML5 2TJ,55.896720713126900,-4.038739863075650
Wader and Snipe,ML6 0EB,55.869218830698500,-3.985544712794700
Booted eagles and Warbler,ML5 4BQ,55.850958668531500,-4.028434369117660
Elephant and Goose,ML6 8GA,55.846239946558700,-3.946147910472390
Ice seal and Kangaroo,G66 2JY,55.941783255104800,-4.143416857760930
Tree warbler and Cloud rat,ML1 5BJ,55.814744337677700,-3.945373133771000
Argus and Coati,ML1 2GZ,55.781038000000000,-3.991509000000000
Stilt and Perching duck,G67 4JJ,55.935071345622900,-4.017795609327580
Minke whale and Chicken,ML3 6HG,55.777400000000000,-4.039273435967780
Petrel and Duck,ML3 8AA,55.761265594009600,-4.048080614240680
Chickadee and Mockingbird,FK1 5AQ,55.996890359239100,-3.789175872260090
Buzzard and Towhee,G32 0HP,55.856192117905600,-4.150476224926210
Chickadee and Nukupuʻu,ML6 9TP,55.853527851105600,-3.994426023713930
Tahr and Tree warbler,ML5 4NN,55.847666020332200,-4.020451342789960
Black jay and Lemming,G66 3NG,55.932185885080300,-4.111636105932380
Piping shrike and Civet,FK1 5HJ,55.994736318580800,-3.800717158974670
Myna and Meadowlark,ML6 6PL,55.875822433387800,-3.977281514154640
Cuscus and Bronzewing pigeon,ML1 2ER,55.780383025181100,-3.973830995874090
Duck and Dolphin,G71 5BB,55.831890716855200,-4.048742000000000
Condor and Prion,ML5 2TB,55.894634000000000,-4.043189000000000
Dolphin and Minke whale,G67 1EY,55.952464463904700,-3.990509902341190
Diving bird and Badger,G33 6GX,55.885888934549900,-4.120857000000000
Tree warbler and Kestrel,ML4 2AE,55.812329482718000,-4.031339454573470
Snipe and Towhee,ML5 4DP,55.848920530112600,-4.023407904020210
New World blackbird and Stint,FK1 2AR,55.984803000000000,-3.784344845365400
Black cockatoo and Elephant,G69 0AY,55.908975947834900,-4.085590266410150
Rabbit and Condor,G71 7NF,55.817256237235300,-4.076417509476640
Argus and Zebra,EH48 3QR,55.902670439961100,-3.707381779610570
Partridge and Warbler,ML6 7PL,55.892371011264100,-3.884231986715560
Parakeet and Thicketbird,G32 8XU,55.839039332754500,-4.144593751822350
Gull and Darwin's finches,ML6 0PZ,55.887881354039500,-3.992414464354490
Capuchin and Stint,G69 7RW,55.852927188488500,-4.070476000000000
Perching duck and Goose,G33 5DY,55.875223433431100,-4.139858654894720
Treepie and Fish eagle,G66 2DZ,55.940544801393700,-4.139697456388110
Night heron and Black cockatoo,ML4 3EJ,55.822136330650000,-4.025225631354150
Cuscus and Stint,ML1 2JR,55.773425146776300,-3.957662995702250
Magpie and Jerboa,ML2 0PB,55.765168906079400,-3.915294292959670
Logrunners and Cuscus,ML5 5EP,55.846354357498100,-4.043273789494950
Parakeet and Boto,G72 0LS,55.788765404554900,-4.083944854642910
Tattler and Quetzal,G66 3UR,55.930810782712300,-4.143371083713940
Solitaire and Egret,ML3 6LW,55.779691000000000,-4.041520000000000
B and Jerboa,G71 6BH,55.835737958033700,-4.093132883921760
American sparrow and Vulture,G71 5QS,55.834032299634200,-4.077120140940740
Fulmarine petrel and Capuchin,ML4 3EY,55.828810234785800,-4.024343133810670
Scimitar babbler and Peafowl,ML6 9GD,55.859741000000000,-3.980315000000000
Asiatic leopard and Parakeet,G69 7JL,55.847495162889400,-4.113509578383420
Duck and Grouse,EH47 0SJ,55.861584437399200,-3.708503295400850
Cuscus and Duck,G65 9AZ,55.979193486706100,-4.070535430563560
Booted eagles and Ground sloth,G72 0RD,55.789661634901300,-4.102033131670890
Kite and Ground sloth,G32 0QG,55.848518164574300,-4.146809305185480
Quetzal and Old World warbler,G71 6HA,55.825306994430300,-4.059955205050710
Goose and Puffleg,ML3 6DR,55.777625234569200,-4.042496859987670
Gull and Argus,G67 2QJ,55.947068340624300,-3.975130685049960
Grackle and Thrasher,ML5 5DD,55.845623057346100,-4.033172061493350
Skunk and Mockingbird,ML6 7AQ,55.867437728339700,-3.950820217591760
Parakeet and Perching duck,ML1 1EB,55.793618304718000,-3.992366935919280
Vole and Lemming,G67 4JR,55.935005658103600,-4.016319248088850
Triller and Badger,ML1 4TS,55.824628885691400,-3.968025562652730
Parrotlet and Marsh harrier,G65 0QG,55.987800968778300,-4.010955088544240
Old World vulture and Perching duck,ML1 2LF,55.774711935870700,-3.963754453318650
Puffleg and Tattler,FK1 2AQ,55.984690613823100,-3.785823057993460
Peafowl and Ice seal,ML2 8QT,55.785598365221900,-3.912836053472990
River dolphin and Tahr,G67 3PE,55.956161904012500,-3.946968296508240
Ground sloth and Vole,G66 2PT,55.940140076495500,-4.137514003312350
Marsh harrier and Bunting,G32 0LA,55.849750034773400,-4.132307459287600
Chipmunk and Piping shrike,G69 8LS,55.886126168942500,-4.089577032626630
Crow and Booted eagles,ML5 4BA,55.852750000000000,-4.025540000000000
Puffleg and Booted eagles,G72 8TJ,55.812986668307600,-4.149421000000000
Lemming and Argus,G71 6AX,55.833496166316800,-4.084373299904030
Coati and Piping shrike,ML6 8BE,55.838742244332800,-3.940630740625060
Francolin and Partridge,ML7 5QU,55.861522574373900,-3.741960159618730
Elephant and Old World vulture,ML1 2RD,55.781268413566800,-3.988036714602670
Grackle and Stint,ML5 4JZ,55.843730390593600,-4.019863764775650
Elephant and Grackle,ML1 3YA,55.804110507654100,-3.999844025100110
Gull and Grosbeak,G32 9NG,55.844984129825800,-4.147956217783420
Wader and Tree warbler,ML4 1LG,55.825541417278200,-4.017084715650490
Capuchin and Jay,G72 8YE,55.802559000712200,-4.129662393553120
Moluccan boobook and Mole,G69 6AD,55.850517572843600,-4.110734128655870
Hawaiian honeycreeper and Rabbit,G32 9ND,55.846153173053100,-4.146886550635310
Duck and Mouse,FK2 0FS,55.971945403275600,-3.708686080847670
New World blackbird and White ibis,G65 0AR,55.978072482850800,-4.056979728570380
Bunting and Rabbit,ML1 3EE,55.787075925430100,-4.014409951525010
Duck and Dolphin,G32 8XZ,55.838240513840200,-4.144533788498900
Vole and Dorcopsis,G72 0BX,55.790012824210500,-4.092513353221150
Maya and Black jay,ML1 5TD,55.818410808937900,-3.935132915759650
Hawk and Kestrel,G66 3AH,55.936685691371500,-4.150740673158090
Black cockatoo and Partridge,G68 9DS,55.935507501102200,-4.041497862933330
Boto and Tattler,G72 9BD,55.783722000000000,-4.113295000000000
Elephant and Mole,G72 9RF,55.793363571350200,-4.104705233620190
New World blackbird and Moluccan boobook,ML5 4LE,55.846061061355500,-4.013100030754420
Coati and Ibex,G32 0QZ,55.848779710204500,-4.143149418561460
Polecat and Myna,ML1 3HG,55.789780384254300,-4.008408606528120
Thicketbird and Grosbeak,ML1 4QX,55.818407413156900,-3.975469002493400
Towhee and Guillemot,FK1 1QF,55.997242786726100,-3.782216844592740
Snipe and Flameback,ML1 2RR,55.778108794069200,-3.991686816028480
Black jay and Partridge,ML5 1LE,55.861815091582100,-4.047952844455410
Chipmunk and Civet,ML5 1DN,55.859307932975700,-4.036571534064250
Logrunners and Tattler,ML1 5AJ,55.806193921994700,-3.951855933462600
Tahr and Badger,G74 3SZ,55.766549441499000,-4.150159670581280
B and Crow,G69 6EQ,55.856108135054000,-4.107924000000000
Cuscus and New World blackbird,ML6 6HT,55.873038707071700,-3.972104842497120
Fish eagle and Booted eagles,G72 9LS,55.801844674710300,-4.107492513924240
Black jay and Booted eagles,G33 4LU,55.862162176976300,-4.131741162443580
White ibis and Solitaire,G69 7BS,55.846662039999100,-4.125349225369850
Magpie and Moluccan boobook,G69 6DP,55.856236982299000,-4.106330762551930
Mamo and Diving bird,ML4 2FD,55.815539194497500,-3.996695471701890
Hawaiian honeycreeper and Jerboa,G68 9FE,55.948737405005100,-4.041425473074110
Fox and Jackal,FK1 2JT,55.929020510476800,-3.750110424710040
Mamo and Pitohui,G68 9EB,55.934843589779900,-4.034370375804650
Cloud rat and Warbler,G72 0JX,55.789371759401700,-4.077325809206180
Lemming and Prion,G69 8BD,55.898118000000000,-4.082512000000000
Cloud rat and Treepie,G67 2HZ,55.949619771920300,-3.973498850936620
Pheasant and Linsang,ML1 3PX,55.792340485203700,-4.014522271016170
Maya and Ibex,EH47 9GZ,55.829241000000000,-3.712065000000000
Philippine hawk-owl and Old World quail,ML6 0DJ,55.864986135134700,-3.991097951259730
Booted eagles and Warbler,FK1 5HT,55.996534463279900,-3.804344522654110
Peafowl and Black cockatoo,G68 9EE,55.934028268863100,-4.037481588442680
Mouse and Polecat,FK2 0NL,55.972724199848100,-3.711492714860920
Minke whale and Zebra,ML4 2HF,55.809958000000000,-4.022008000000000
Gull and Snipe,ML5 4UB,55.848371340210200,-4.000391909885680
Mockingbird and Pratincole,G69 0AX,55.909108775020100,-4.086237393097160
Fulmarine petrel and Perching duck,G66 3JY,55.936103418825400,-4.119919508707380
Argus and B,ML2 8NY,55.780805232017400,-3.902618587516340
Condor and Quetzal,ML5 1PS,55.862187366574000,-4.034724703934360
Chicken and Philippine hawk-owl,ML2 8QS,55.784730669860600,-3.911421977588000
Condor and Black cockatoo,ML1 5RB,55.800545158591400,-3.921945276376280
Vulture and Zebra,G69 8EF,55.894706661186100,-4.080154157974940
Songlark and Night heron,ML5 3AE,55.862293853618000,-4.027299000000000
Quetzal and Capuchin,ML7 4DB,55.824846510690700,-3.800153805303910
Francolin and Magpie,G71 7FB,55.823195000000000,-4.085853000000000
Coati and Viscacha,ML6 9TN,55.841383936653500,-3.970613183453400
Greenbul and Tattler,ML1 2FG,55.775584000000000,-3.958712000000000
Chickadee and Polecat,ML6 7PQ,55.891267588786100,-3.882931135867810
Darwin's finches and Thrasher,ML1 1LJ,55.795724773167700,-3.984928785942130
Quetzal and Chicken,ML5 4AU,55.853912008670800,-4.021542463613650
Rat and Gull,G67 3PF,55.956777435682700,-3.948392861046070
Hawk and Logrunners,ML1 3YG,55.804166000000000,-3.998092000000000
Mamo and Kestrel,ML1 5GZ,55.805768969198500,-3.951451695187490
Tree warbler and Wader,G72 0DJ,55.784718995056500,-4.105039000000000
Duck and Pheasant,G68 0HA,55.977836020178500,-3.951054617982450
Asiatic leopard and Vole,G72 9DR,55.797554993545600,-4.096092840202780
Moluccan boobook and Shearwater,G69 0PB,55.914773566966400,-4.090830321532810
Puffleg and Fish eagle,ML1 1AB,55.783959000000000,-3.982815000000000
Macaw and Mouse,ML2 8LE,55.776802080978400,-3.906935877288380
Black cockatoo and B,G34 9PX,55.872906624839500,-4.126271698359060
Recurvebill and Hawaiian honeycreeper,ML1 2RS,55.776428031396500,-3.996129457906290
Darwin's finches and Hawk,ML6 0QF,55.886594079305800,-3.991437042252630
Badger and Recurvebill,ML7 4HZ,55.826262028662800,-3.801065337095460
Rabbit and Petrel,G66 2NN,55.943253474628800,-4.131199245387690
Mockingbird and Coati,ML6 7NN,55.882953492888500,-3.939159564923880
Fish eagle and Maya,G66 3SG,55.942151806277300,-4.128384369173430
Maya and Ibex,ML3 9GE,55.774907000000000,-4.082683000000000
Gull and Goose,ML5 4AY,55.844403211990900,-4.000328000000000
Dolphin and Elephant,ML5 2JR,55.871822532835200,-4.046577611363970
Linsang and Marsh harrier,G71 8TQ,55.805370051897700,-4.066593141862410
Treepie and Elephant,ML3 9DX,55.779663319764600,-4.066268291378560
Quetzal and Perching duck,ML1 5DL,55.814475244760100,-3.953276101920030
Dolphin and Prion,G65 9BB,55.980404389931600,-4.072812193382780
Marmoset and Solitaire,ML7 5LX,55.819640328542900,-3.776257564253210
Tahr and Logrunners,G71 8SB,55.797542666198700,-4.066034797022860
Maya and Chicken,G66 1QF,55.946203000000000,-4.142524000000000
Ice seal and Jay,G72 9EA,55.799164873991700,-4.093274000000000
Guillemot and Shearwater,G66 5LT,55.918918378183700,-4.144026821890350
Dorcopsis and Hawk,FK4 1RE,55.993249447012000,-3.926978438945860
Cloud rat and Tit-tyrant,ML3 9FD,55.775684000000000,-4.054370000000000
Puffleg and Warbler,G71 8PD,55.804784363179900,-4.072899000000000
Lemming and Parakeet,FK1 2ER,55.971656226310900,-3.774293554490080
Perching duck and Chickadee,ML1 2EY,55.779346000000000,-3.960049000000000
New World blackbird and Mole,ML3 0PT,55.790094673502400,-4.065895574195630
Diving bird and American sparrow,G69 8EH,55.884972475969000,-4.088715522346040
Vulture and Parrotbill,ML6 6LB,55.869443354373200,-3.979418644452080
Old World vulture and Tattler,ML1 3QL,55.797466149241000,-4.004991409818130
Vole and Warbler,G71 8FG,55.801635904996000,-4.068326475700030
Egret and Herring gull,G71 8RE,55.801922000000000,-4.065373000000000
Old World quail and Fox,ML4 2AJ,55.808439549409200,-4.030163318154840
Guillemot and Bronzewing pigeon,ML1 5JJ,55.802332361800100,-3.944307166749170
Jay and Kangaroo,ML6 0HE,55.870671147486600,-3.989103288286940
Civet and Armadillo,ML7 5RD,55.863761607592300,-3.740590237935930
Mouse and Scimitar babbler,ML6 6SB,55.873184877282200,-3.986482476910160
Bronzewing pigeon and Kākāriki,ML6 8LB,55.864702993960800,-3.954390703902050
Cuscus and Quetzal,G69 7EX,55.849802000000000,-4.108986000000000
Stint and Snipe,ML3 6NT,55.774780918882400,-4.058914479999770
Tree warbler and Kākāriki,G71 6EG,55.831249697435600,-4.089650224128670
Macaw and Coati,ML3 0JB,55.780129069078000,-4.047571390284940
Darwin's finches and Bunting,G71 6UE,55.832960784066900,-4.068555000000000
Ibex and Skunk,G71 7UL,55.843552000000000,-4.108136000000000
American sparrow and Macaw,ML3 6TH,55.768420753230100,-4.048535619050540
Mockingbird and Gull,ML1 4XQ,55.819581965575700,-3.977875052095700
Minke whale and Solitaire,FK4 1HA,55.991300254777300,-3.938778000000000
Cuscus and Minke whale,ML4 1NS,55.829671580400500,-4.015127057809820
Herring gull and Mink,G69 6LL,55.850333657174600,-4.122466364223210
B and Chicken,G71 8LG,55.807323877766800,-4.067446728478650
Kestrel and Kite,ML5 2PY,55.890462000000000,-4.037884000000000
Kestrel and Shearwater,G69 7RY,55.852496277875000,-4.077386439809690
Elephant and Rabbit,G72 0RT,55.788370601091700,-4.100799199411110
Asiatic leopard and River dolphin,ML4 3LB,55.830111604781400,-4.030989232064810
Macaw and Moluccan boobook,G69 8DN,55.886543307802700,-4.083108000000000
Night heron and Parrotlet,G66 2JA,55.942357320595100,-4.143480606796580
Black cockatoo and Capuchin,G67 2NZ,55.940893271231800,-3.993054614143900
Night heron and Boto,G66 4NH,55.924337849543800,-4.147623472133320
Moluccan boobook and Badger,G32 0EN,55.852334074788200,-4.149366000000000
Triller and Parrotlet,ML1 1BZ,55.796709164707100,-3.995731439684710
Grouse and Skunk,ML4 1FE,55.818725289507100,-4.016779808146330
Petrel and Condor,ML3 9EP,55.779268000000000,-4.069484000000000
B and Argus,FK1 3DR,55.945720752601100,-3.834472521454050
Mink and Fulmarine petrel,FK4 2HE,55.986953688322100,-3.922128273091800
Prion and Magpie,ML6 6LT,55.873915903712200,-3.972884630152770
Night heron and Logrunners,G72 9ER,55.798112218226200,-4.100829312402020
Hawaiian honeycreeper and Ground sloth,ML3 8LH,55.768923097611600,-4.058270788287840
Towhee and Jay,ML6 7UH,55.908942553949900,-3.959064046767270
Quetzal and Vole,G71 6JD,55.822248903899900,-4.056345301586270
Condor and Grosbeak,G66 3HP,55.934497626524200,-4.135489424455310
Rat and Greenbul,ML6 9EU,55.862558852687200,-3.980570540217120
Asiatic leopard and Chicken,ML6 7TB,55.908094761652700,-3.956429454536920
Old World vulture and Vulture,ML1 3BY,55.789228255376800,-3.994854302442150
Jay and Badger,ML3 9AJ,55.779112194473700,-4.057950000000000
Partridge and Triller,ML2 9JG,55.792260952641300,-3.889379441619390
Skunk and Lemming,G65 9JE,55.978107708884900,-4.061325253470340
Argus and Mole,ML5 4JU,55.849686300400000,-4.013288085000000
Dolphin and Tattler,G69 0QF,55.907431854819100,-4.085491356364860
Bunting and Minke whale,G71 8JW,55.808410883989500,-4.065334026504260
Diving bird and Armadillo,ML2 7NZ,55.776519000000000,-3.927427000000000
Crow and Puffleg,ML7 5SR,55.862314669262000,-3.747572437099960
Boto and Puffleg,G68 0BH,55.970532924782500,-3.964436126612770
Grouse and Badger,G33 4SP,55.856195000000000,-4.132009000000000
Zebra and Chipmunk,ML1 1DT,55.796361774739900,-3.993879044328770
Vole and New World blackbird,G67 3JW,55.957956000000000,-3.911639000000000
Shearwater and Booted eagles,ML3 0XQ,55.774400707476700,-4.039139260775750
Mamo and Bunting,G34 0NH,55.869489495799400,-4.115439767005050
Goose and Mockingbird,G72 9XD,55.787829914465500,-4.102460800267400
Kite and Vulture,G65 9BZ,55.980689142138300,-4.055275312889730
Parrotbill and Vole,FK1 3AT,55.967262698804400,-3.789153836912300
Kestrel and Vole,EH47 9BG,55.824219641946400,-3.708668093403840
Snipe and Mockingbird,ML4 1TJ,55.828163579144000,-4.009524712028620
Shearwater and Lemming,G65 0SW,55.978469771279600,-4.058745000000000
Ibex and Lemming,ML2 7HF,55.788626172564500,-3.917498276469650
Hawaiian honeycreeper and Solitaire,G66 3WG,55.927740278769000,-4.133354000000000
Shearwater and Goose,FK2 0JN,55.979867133024800,-3.717385938836390
Jerboa and Booted eagles,ML4 2EQ,55.814600955997100,-4.021115228135210
Triller and Peafowl,G66 2EG,55.940890073301500,-4.137410605576630
Kangaroo and Cuscus,ML3 0JJ,55.783323996093100,-4.061278969299880
Cloud rat and Boto,G67 3LU,55.958302073190400,-3.946883538653430
Badger and Boto,G66 3LG,55.933237354219100,-4.121571445842940
Duck and Elephant,FK1 2BL,55.974689748084000,-3.756371379777230
Fox and Booted eagles,G72 9QX,55.793777220884800,-4.103116342993330
Dorcopsis and Guillemot,G69 7PX,55.856011612737000,-4.078900257141040
Songlark and Wader,G66 3DG,55.929276428417600,-4.129360000000000
Towhee and Grouse,ML3 0DX,55.780921776757700,-4.040436788765350
Jerboa and Ice seal,G68 0HN,55.965142322914600,-3.993996957541230
Argus and Snipe,G66 2RY,55.945724292614600,-4.123952044446070
Bronzewing pigeon and Booted eagles,G66 2BX,55.938779000000000,-4.144621444883210
Goose and Marsh harrier,G67 2ED,55.954969548473800,-3.968409000000000
Chipmunk and Kestrel,ML6 9BD,55.861632261552300,-4.001728795245270
Tattler and Argus,G71 8RT,55.801285688005900,-4.062563330091490
Ice seal and Asiatic leopard,G65 0JB,55.979894801718900,-4.048468945918230
Cloud rat and Recurvebill,G69 7SR,55.852923471987800,-4.081355489798210
White ibis and Pitohui,G68 9PB,55.944253223280100,-4.050605812802590
White ibis and Jay,ML1 9WY,55.783843177100000,-3.982602577600000
Moluccan boobook and Skunk,ML5 1LY,55.862058390097900,-4.039799698438350
Hawk and Minke whale,ML6 9XG,55.854226000000000,-3.977382000000000
Philippine hawk-owl and Booted eagles,ML1 4RA,55.818076209719500,-3.976505709964490
Fish eagle and Pratincole,ML3 8HS,55.766794810123700,-4.064598920878310
Black jay and Skunk,ML1 4BQ,55.797040592609000,-3.978566503454140
Herring gull and New World blackbird,G69 6SE,55.858457228001200,-4.111548274754750
Chicken and Zebra,G33 6BA,55.886621316721700,-4.141285607003260
Pitohui and Parrotlet,G33 4QY,55.857468340084600,-4.142638000000000
Skunk and Wader,G71 7AU,55.826403195092400,-4.088735670756140
Ice seal and Scimitar babbler,G66 4NW,55.924721743804200,-4.148284973837440
Fulmarine petrel and Thicketbird,G69 6AF,55.851492430594000,-4.108281000000000
Grouse and Ground sloth,ML7 4EN,55.824499482388100,-3.812765380619970
Bronzewing pigeon and Kangaroo,G71 6PN,55.828079141606400,-4.066267000000000
Armadillo and Vole,G71 8HU,55.809599190894600,-4.068955815792690
Black cockatoo and Chickadee,FK1 2DW,55.974218998032100,-3.759763491495030
Snipe and Chicken,ML7 4DG,55.823649785100800,-3.799028950926000
Buzzard and Scimitar babbler,FK2 0SQ,55.991108126030200,-3.712273089495180
Maya and Lemming,FK1 1BN,55.997374391662300,-3.787402291832790
American sparrow and Badger,ML2 0EN,55.766364675982600,-3.938753931391550
Gull and Diving bird,ML6 7JA,55.878286212413900,-3.969349469679740
Thrasher and Ibex,ML6 9EQ,55.857668456270100,-3.990132331060280
Thicketbird and Vulture,G66 2PP,55.944869766160000,-4.122431892968200
Badger and American sparrow,ML3 9UT,55.768837557505300,-4.082546325605620
Vole and Moluccan boobook,G74 3QE,55.777891972202100,-4.142412705662800
Hawaiian honeycreeper and Siskin,ML1 5HP,55.816524097948800,-3.934528481876140
White ibis and Shearwater,FK2 9NQ,55.996371840494900,-3.738113219651700
Petrel and Crow,ML5 4DB,55.852534967095400,-4.020994000000000
Crow and Linsang,ML7 4EB,55.823413578173900,-3.804110448593400
Partridge and Grackle,G67 2JG,55.949277019944900,-3.975259186572330
Recurvebill and Parrotbill,G72 0DZ,55.784787943940600,-4.102711566479040
Peafowl and Night heron,ML5 3JN,55.866994715226800,-4.021135465917070
Logrunners and Maya,FK1 4SG,55.996935441448000,-3.831991838642550
Crow and Mockingbird,ML2 7TT,55.776911374624200,-3.952623774331950
Parakeet and Mamo,EH48 3PW,55.899017119439900,-3.706437528875070
Capuchin and Argus,G67 4EZ,55.931251032866600,-4.027698486471540
American sparrow and Duck,ML2 7SF,55.777397008755100,-3.940689090197620
Civet and Grosbeak,ML3 9HA,55.780857963946100,-4.072710403406730
Dorcopsis and Petrel,ML1 2JY,55.776077672945100,-3.966581613653240
Marsh harrier and Ground sloth,G71 8JU,55.807221353778700,-4.065526340240000
Zebra and White ibis,G69 9HU,55.907603000000000,-4.110795000000000
Snipe and Snipe,ML7 5QF,55.858640607545100,-3.753159504418100
Shearwater and Tattler,G66 3DA,55.930446935453100,-4.148777998705390
Cloud rat and Francolin,G74 3SA,55.773255653856900,-4.138220006546970
Nukupuʻu and Towhee,G72 0SG,55.789004322362700,-4.097898412404190
Mole and Minke whale,G32 9JD,55.845209730109900,-4.145844148352960
Siskin and Moluccan boobook,ML2 7PH,55.776752189397200,-3.930276836350410
Grackle and Ibex,ML5 1HZ,55.854810359717000,-4.043861507778210
Piping shrike and Masked owl,G65 0RH,55.988603993766100,-4.006347393341960
Buzzard and Wader,ML7 4AH,55.819306878763600,-3.809602809776320
Tree warbler and Greenbul,G34 9DT,55.868509008966300,-4.121936000000000
Polecat and Greenbul,G67 1JF,55.944306418858400,-3.999267278923510
Petrel and Mockingbird,G71 8PZ,55.811174000089200,-4.075231709013890
Duck and Piping shrike,G67 4AQ,55.936573071425900,-4.007290497829690
Kite and Mole,G72 0EG,55.786396882999600,-4.097439227035740
Thrasher and New World blackbird,G67 2AJ,55.950646727116300,-3.977827540205910
Argus and Jerboa,G33 4SQ,55.854898888250600,-4.134426996344440
Scimitar babbler and Jackal,ML6 7FH,55.915364000000000,-3.939497000000000
Condor and Jackal,G65 0NY,55.975823294497000,-4.050657749820940
Chipmunk and Boto,ML1 2HD,55.774580258370000,-3.968052768677390
Kākāriki and Cuscus,ML2 9EZ,55.785771969762800,-3.874153396653290
Capuchin and Bronzewing pigeon,ML1 4LG,55.808674833983600,-3.977688727563580
Duck and Jackal,G69 6TT,55.862014857069800,-4.096911400677730
Viscacha and Thrasher,FK2 0PS,55.990838321333000,-3.710994606253680
Pratincole and Vulture,ML4 1EE,55.821182784075600,-3.987278893624800
Black cockatoo and Cuscus,ML5 4EG,55.854635650050400,-4.014134678528730
Pratincole and Partridge,ML1 5EH,55.815611230850300,-3.960387777955630
Dorcopsis and Snipe,ML3 6LR,55.777479327519900,-4.044785403169210
Treepie and Pitohui,G71 5RD,55.835031833378300,-4.078067731438600
Stilt and Peafowl,G71 5JL,55.830396097916100,-4.062491684404350
Herring gull and Dolphin,G34 9HX,55.866629746695600,-4.114501108418000
Stint and Minke whale,ML5 4UQ,55.846348610528700,-4.004297385052750
Argus and Elephant,ML3 9LU,55.776343239495300,-4.074495720344050
Pitohui and Solitaire,ML6 7PY,55.889497623363400,-3.892280123054690
Tahr and Old World quail,ML4 1DQ,55.819192886768400,-4.009078089325050
Puffleg and B,ML7 4HQ,55.827301587480100,-3.805551728664950
Marmoset and Jay,G74 3JB,55.771695972598800,-4.144687435702090
Cuscus and Parrotbill,G67 3NL,55.967098545211300,-3.942422279915360
Booted eagles and Dorcopsis,ML2 9HG,55.789602941782100,-3.884561400359500
Hawaiian honeycreeper and Grosbeak,ML1 3PU,55.792165973673600,-4.016395546252050
Polecat and Mamo,ML1 1LT,55.792640968333000,-3.983894534068080
Booted eagles and Gull,ML6 8AN,55.863866261990300,-3.953885230757640
Ground sloth and Pitohui,FK2 9YJ,55.988280921655500,-3.738984489148360
Marsh harrier and Kākāriki,ML2 9AJ,55.788188205018500,-3.864779527736470
Maya and Armadillo,G69 0LQ,55.910567216247200,-4.087147760759000
Linsang and Grosbeak,G66 8AL,55.967553002045400,-4.111976454427300
Grackle and Rat,ML1 3FU,55.803629000000000,-4.007723000000000
Pheasant and Wader,G65 0FF,55.981932026862600,-4.038734993536340
Snipe and Kite,G32 0BJ,55.850870555142100,-4.146939048762900
Elephant and Vole,ML3 0DP,55.779955211576000,-4.050990812788710
Goose and Cuscus,G71 6DU,55.833495629078300,-4.091814721360490
Mockingbird and Macaw,FK1 5DU,55.998417006813000,-3.815673343914430
Rat and Perching duck,G74 3NR,55.772824396779300,-4.148002038617870
Mamo and Scimitar babbler,FK1 5EZ,55.994704587965400,-3.809021408658550
Parrotlet and Eagle,G65 0JZ,55.974504570863700,-4.058342000000000
Grouse and Thicketbird,G67 3JS,55.968340695946900,-3.947419864525300
Bronzewing pigeon and Cuscus,G74 3LS,55.773341219694700,-4.144140049151820
Pratincole and Triller,G67 3QA,55.964638700015000,-3.949092441712340
Condor and Bunting,ML2 8BQ,55.769988256781400,-3.916869832693710
Meadowlark and Thicketbird,G65 9QB,55.956046498405600,-4.084597000000000
Zebra and Black cockatoo,ML5 4LR,55.843116730395100,-4.015088108989040
Puffleg and American sparrow,G34 9PY,55.872212000000000,-4.125930000000000
Kangaroo and Capuchin,G68 0GQ,55.965473000000000,-3.997114000000000
Mole and Condor,G68 0HU,55.961676110647100,-3.984926889646930
Mockingbird and Marmoset,ML5 1RF,55.865195646069900,-4.037039553158880
Tit-tyrant and Egret,ML3 6LF,55.777196120825100,-4.046141886333780
Bunting and Skunk,ML1 4NY,55.817629598762000,-3.970736792506380
Condor and Chickadee,ML3 9JQ,55.777803667675900,-4.073696313965460
Macaw and Fox,ML5 4UP,55.844593565927000,-3.997274751132890
Tahr and Old World warbler,ML7 4NX,55.853483806076000,-3.830793994090150
Jerboa and Skunk,EH48 3SQ,55.883779643439300,-3.765452713645460
Partridge and Marmoset,ML6 0PF,55.886537632227400,-3.998357000000000
Vole and Pheasant,G66 3RY,55.938025587243800,-4.131568540087760
Fulmarine petrel and Treepie,G67 1LF,55.948444010058400,-3.992385593567800
Triller and Duck,ML7 5ES,55.821176313530400,-3.793024527295660
Fox and Old World quail,G68 9NE,55.945341000000000,-4.037050806148080
Linsang and Skunk,ML1 2RG,55.776607139026400,-3.991737756576260
Recurvebill and Parakeet,ML5 4FD,55.849118047077800,-4.005861737977990
B and Ice seal,ML3 6TP,55.767256358933200,-4.050993292975940
Hawk and Kākāriki,ML6 8BB,55.860516306285300,-3.949786090625570
Nukupuʻu and Cloud rat,ML3 0AL,55.782603086252800,-4.050796000000000
Fox and Cloud rat,G71 7JH,55.820745747831400,-4.074671857833820
Mink and Coati,G69 6AN,55.853849547912900,-4.104571878864090
Piping shrike and New World blackbird,ML2 9DY,55.788350029451700,-3.887148514479540
Grackle and Buzzard,FK2 0XR,55.989605167865500,-3.718891903873530
Quetzal and Booted eagles,ML3 9QS,55.775345252414300,-4.092540208855960
Bunting and Philippine hawk-owl,G66 3SX,55.942555564600900,-4.120607804481300
Marsh harrier and Black jay,ML1 5LH,55.810090337997500,-3.938470177265890
Jay and Black jay,G69 9LZ,55.903557617298800,-4.101392940777660
Crow and Cuscus,ML6 9RZ,55.852620494594000,-3.986631040836100
Duck and Mockingbird,G68 0BT,55.959471554726500,-3.993448940712180
Chicken and Grackle,ML5 4DY,55.850695057714400,-4.021519172526940
Jay and Linsang,ML5 5ET,55.846908420357600,-4.046705356871410
Coati and Piping shrike,G71 8NT,55.805137475742800,-4.085154894149120
White ibis and American sparrow,FK1 5PF,55.991474671573000,-3.799459209708530
Piping shrike and Jackal,G65 9LW,55.950793211725100,-4.071165035019520
Grosbeak and Chickadee,ML4 1NY,55.829986521702100,-4.012907960008110
Vole and Masked owl,G72 7ZE,55.815085889255500,-4.135438499832660
Moluccan boobook and Thicketbird,G33 5DL,55.874514664956200,-4.141338307758940
Snipe and Peafowl,ML5 4QY,55.854570866197300,-4.003794120195030
Quetzal and Armadillo,FK2 9LX,55.996218597091500,-3.746026000000000
Coati and Elephant,G68 0HH,55.974441109140000,-3.971253173770410
Scimitar babbler and Cloud rat,G66 2JF,55.942831454338000,-4.139471285458350
Mamo and Tree warbler,ML5 5HL,55.853980358096000,-4.035925280783890
American sparrow and Rat,ML7 5BW,55.824550139141700,-3.763550518507430
Mockingbird and Marsh harrier,ML5 2QT,55.892953359988300,-4.043919000000000
Thrasher and Booted eagles,G65 0PB,55.973328316817500,-4.047753159866720
Tahr and Wallaby,ML6 1AS,55.866668760400000,-3.979677589900000
Cloud rat and Jackal,EH47 9LP,55.827895715190500,-3.707328573004520
Grackle and Gull,ML1 5HT,55.799110000000000,-3.922959000000000
Perching duck and Black jay,ML1 4LL,55.813070212870900,-3.976523198261410
Lemming and Minke whale,G67 2DL,55.953539162346800,-3.975107890114510
Parrotbill and Tree warbler,ML3 9QE,55.773382304360200,-4.087476348670650
Parrotbill and Bronzewing pigeon,G71 6QB,55.825561279927900,-4.071032699341750
Armadillo and Dolphin,ML4 1JL,55.818517576758500,-3.988309000000000
Night heron and Solitaire,ML1 1LY,55.790887092238500,-3.991206592270600
Mink and Petrel,ML6 7HZ,55.882125000000000,-3.943851000000000
Vole and Old World vulture,ML3 7NG,55.767729578487300,-4.034422844076170
Guillemot and Recurvebill,G69 0DW,55.912567718297100,-4.089479456455900
Puffleg and Tahr,G68 0BY,55.958697828530200,-3.999048189747860
Tahr and Duck,G68 9DB,55.936625322751400,-4.038034252785710
Old World warbler and Duck,ML7 5BS,55.816116000000000,-3.811529000000000
Chicken and Elephant,ML1 2QT,55.776263317359600,-3.956867000000000
Pratincole and Mockingbird,G71 6BE,55.836288299039800,-4.090894730824600
Recurvebill and Nukupuʻu,ML3 7EA,55.769507000000000,-4.024248000000000
Egret and Meadowlark,G67 4AR,55.935435355718200,-4.002540000000000
Diving bird and Mouse,ML4 1ED,55.821195597581500,-3.992595351283540
Jay and Grackle,G68 0HF,55.980720689103200,-3.945942424233180
Vulture and Elephant,ML1 3QT,55.798003864746500,-4.009486155454910
Grouse and Ibex,ML6 7FB,55.872494000000000,-3.951633000000000
Tattler and Shearwater,G71 8AL,55.803763310072500,-4.060588123591820
Siskin and Asiatic leopard,G33 6GS,55.886432336452900,-4.123014430732290
Dorcopsis and Fulmarine petrel,ML1 1EF,55.794270377039400,-3.990948575679870
Fulmarine petrel and Badger,G69 9AY,55.902063026593300,-4.113101907054970
Puffleg and Chipmunk,G71 8HG,55.806103000000000,-4.069010000000000
Masked owl and Tahr,ML1 3LP,55.794638929448100,-4.005867053253430
Vole and Gull,ML1 5LL,55.797622844859700,-3.913984075756600
Black cockatoo and Mockingbird,ML4 2JD,55.814754516928000,-4.019974009624830
Nukupuʻu and Armadillo,G69 9AG,55.900684882457600,-4.109091815694910
Quetzal and Moluccan boobook,ML5 5JU,55.848441393187500,-4.030124315653560
Black jay and Solitaire,G72 7BD,55.810482217696600,-4.133494599404470
River dolphin and Pitohui,ML7 5HW,55.811069118896100,-3.774255224797850
Mink and Grouse,ML3 6TN,55.766966271910600,-4.049349000000000
Marsh harrier and Old World warbler,G72 0DX,55.785043230715700,-4.099870454454670
Wallaby and Tattler,G71 7BN,55.823180850985900,-4.086775498089570
Jay and Condor,G69 7FT,55.849844000000000,-4.099982000000000
Coati and Pratincole,ML2 9DJ,55.787343637060600,-3.881278400187420
Shearwater and Black cockatoo,ML4 2BY,55.809570743511300,-4.026966638456580
Polecat and Solitaire,ML2 8SX,55.792330535462600,-3.909880162445110
Magpie and Dorcopsis,G33 4UD,55.856731904016700,-4.129781924483070
Bunting and Snipe,ML7 5TP,55.857874968814000,-3.780814313294520
Magpie and Condor,ML4 3NR,55.823431000000000,-4.030114000000000
New World blackbird and Logrunners,ML1 5FF,55.805822596174800,-3.949204450453630
Duck and Tahr,G71 5NP,55.837585083439200,-4.053401985418590
Old World quail and Siskin,FK2 9QT,55.995298511624200,-3.739668459899890
Songlark and Tattler,ML5 2NU,55.876772391303000,-4.049395933817540
Tattler and Goose,G71 8DL,55.800744182252400,-4.068581740138170
White ibis and Skunk,ML1 2DN,55.779829898885100,-3.969656963023330
Thicketbird and Argus,ML1 3PL,55.792945701128600,-4.017073925561490
White ibis and Ground sloth,FK1 2QU,55.985447318311300,-3.766990293605260
Solitaire and Chipmunk,G69 7DQ,55.845107078983500,-4.113236000000000
Tahr and Macaw,G72 6AE,55.828556000000000,-4.130144000000000
Petrel and Warbler,G67 2SA,55.961034593030900,-3.978437618821920
Myna and Kākāriki,ML5 1BT,55.858384357510600,-4.031553794140740
Meadowlark and Argus,G69 7PT,55.855754570925400,-4.077624274200000
Ibex and Jackal,ML2 0BA,55.768449864392100,-3.948964461743450
Philippine hawk-owl and Jackal,G69 9FN,55.895429000000000,-4.112937000000000
Tattler and Fulmarine petrel,G66 3JE,55.933255265580100,-4.129385286093620
Petrel and Bunting,ML3 6DZ,55.776605413644900,-4.036256716322530
Black cockatoo and Snipe,ML6 7TX,55.915889000000000,-3.945525000000000
Mockingbird and White ibis,ML1 5HE,55.812033980915100,-3.962107063361050
Warbler and Fox,G67 4DW,55.934043730232800,-4.026195397737540
Zebra and Piping shrike,ML5 2QE,55.900420365335500,-4.028794000000000
Buzzard and Grackle,ML1 5FA,55.816201616060300,-3.923579111669310
Parrotbill and Booted eagles,G65 9LF,55.975184781591700,-4.108079000000000
Crow and Dolphin,G71 7RS,55.832769000000000,-4.108622000000000
Dolphin and Magpie,G71 6PB,55.814805000000000,-4.068849000000000
Masked owl and Badger,G34 0EZ,55.869453412523900,-4.098655012044480
Fulmarine petrel and Old World warbler,G71 5LF,55.833978583901500,-4.053563162884170
Pheasant and Myna,ML2 8JW,55.774886444864500,-3.907607620181160
Recurvebill and Tree warbler,ML3 3DH,55.774451470800000,-4.037563999900000
Solitaire and Ice seal,G66 3TF,55.929306000000000,-4.124926000000000
Armadillo and Francolin,G34 9BH,55.866648430625700,-4.121246739136950
Stint and Argus,G72 7YJ,55.816161919487200,-4.144356293226710
Goose and Linsang,ML6 7TS,55.918728816229700,-3.911051895043080
Puffleg and Old World vulture,G66 2BH,55.939118157479900,-4.136976718031920
Ibex and Civet,ML6 8RW,55.851851492031700,-3.957803245659010
Grosbeak and Herring gull,ML5 2QA,55.871767620255300,-4.037431691006040
Polecat and River dolphin,G71 7UY,55.845544000000000,-4.106011000000000
Puffleg and Perching duck,G72 0JW,55.769110464991300,-4.090819056327790
Polecat and Shearwater,ML6 8PX,55.853277000000000,-3.946707000000000
Coati and Guillemot,ML2 9HH,55.790144926277600,-3.884380225391510
Kangaroo and Triller,ML7 5BB,55.799948018527400,-3.835778626724480
Marsh harrier and Condor,G71 8SZ,55.803685327751100,-4.066838940155990
Jay and Wader,ML2 7LF,55.784898899195900,-3.924826764854090
Meadowlark and Logrunners,ML3 9UW,55.770216292520500,-4.079144325255430
Mockingbird and Eagle,G72 0XQ,55.785183660884400,-4.090579732008200
Jackal and Jerboa,G69 6ST,55.856266227500000,-4.122406436361960
Boto and Coati,ML1 4AR,55.802736362554200,-3.972536997217230
Warbler and Darwin's finches,ML6 8AU,55.861525820743500,-3.954694532164890
Darwin's finches and Masked owl,G69 9JE,55.889780040226600,-4.118191181821350
Fish eagle and Lemming,ML2 8JG,55.772356130806600,-3.907930393014130
Armadillo and Diving bird,ML1 3HH,55.789126109976500,-4.011596891455960
Polecat and Pratincole,ML5 4HY,55.848332829301200,-4.018153657567520
Marmoset and Wader,G68 9NF,55.945662025877900,-4.047493351492610
Old World quail and Tahr,ML5 5QH,55.849657153331100,-4.051099298780650
Kākāriki and Badger,ML5 3EN,55.864187320136800,-4.026263395552170
Quetzal and Dolphin,ML2 8LD,55.775027661204300,-3.906036045156900
Coati and Old World vulture,ML3 0RY,55.781583923625500,-4.066960033087120
Boto and Mole,ML6 8AB,55.865695615680500,-3.963166480967810
Jackal and Quetzal,FK4 1QT,55.996926824498400,-3.915327256457980
Parrotbill and White ibis,ML1 1LQ,55.796106034192500,-3.984692938023770
Vole and Eagle,FK2 9UU,55.988147390567700,-3.723540384179980
Maya and Buzzard,ML3 6UQ,55.769187000000000,-4.047316000000000
Perching duck and Philippine hawk-owl,ML5 5DJ,55.845519678959100,-4.041041608654020
White ibis and American sparrow,ML4 1QY,55.825126226963400,-4.025939817323040
Lemming and Lemming,ML4 2LR,55.814454635789900,-4.006455718393410
Bronzewing pigeon and Mole,ML6 8LF,55.862705670992200,-3.959052502782760
Ice seal and Moluccan boobook,FK1 2NP,55.931600040749000,-3.743743526035070
Civet and Prion,G33 6ED,55.889629678660000,-4.131584265494720
Tree warbler and Egret,G69 8BL,55.897130779365100,-4.091960220119940
Civet and Marmoset,G69 9DA,55.901842859257300,-4.102867885362770
Flameback and Jackal,G71 6TW,55.831667316036700,-4.075604813476770
Chickadee and Tit-tyrant,ML3 8PD,55.768628629388200,-4.059753824953170
Vulture and Maya,G72 9JH,55.804630102253200,-4.101228343846900
Old World vulture and Pheasant,G67 4QB,55.929405122147600,-4.035819000000000
Warbler and Thrasher,ML2 7SN,55.776427000000000,-3.945807000000000
White ibis and Puffleg,G72 7DY,55.817311662587500,-4.137683444610500
Marsh harrier and Badger,ML3 9XX,55.767176631180600,-4.094605269513130
Cloud rat and Vulture,ML3 6AF,55.774591350425700,-4.040648001123500
Chipmunk and Herring gull,ML2 7AE,55.772779717821400,-3.925711945246540
Bunting and Recurvebill,G69 0GG,55.911540342366700,-4.080095684235380
Ground sloth and Night heron,ML3 9LE,55.776260651624600,-4.079912735655350
Black jay and Partridge,ML5 4BD,55.853017978507200,-4.026720361315370
Kestrel and Mole,G72 7NS,55.808512327911900,-4.129444996206080
Ground sloth and Scimitar babbler,ML2 8PB,55.781094148755500,-3.900208779715790
Gull and Elephant,ML7 4BG,55.818498677441100,-3.804058516728360
Jackal and Mouse,ML4 2SW,55.806819496489200,-4.028674691013790
Pratincole and B,ML1 4EL,55.808593478766100,-3.966513894861120
Tattler and Boto,ML5 2BN,55.867832421916700,-4.023589000000000
Nukupuʻu and Ibex,ML4 1QR,55.833654952284600,-4.025936281007990
Linsang and Parrotlet,ML3 3XE,55.779567628994600,-4.049981758604970
Maya and Guillemot,ML5 4DL,55.849655307030700,-4.024085104063480
Cloud rat and Snipe,ML1 5AT,55.808415830458800,-3.956243914294320
Mockingbird and Rabbit,G71 6DA,55.827155678579000,-4.081990392689940
Partridge and Night heron,EH48 3TN,55.883614772877300,-3.776685000000000
Badger and Mockingbird,G67 1DP,55.946862066550000,-3.990734850677670
Prion and Ground sloth,ML6 6HJ,55.874469097045300,-3.965271783010190
Parakeet and Chicken,G32 9RS,55.841312208376100,-4.140518249096700
Kangaroo and Warbler,G69 7JY,55.851363332726500,-4.094772472963790
Peafowl and Stilt,G33 6DY,55.891514787350900,-4.146704905638330
Marmoset and Piping shrike,ML1 3QZ,55.796698340768100,-4.012928648735360
Parrotbill and Tit-tyrant,FK2 0ZZ,55.982247031357800,-3.741615346773640
Triller and Egret,ML2 0FD,55.767824641550200,-3.944182720518720
Black jay and Diving bird,ML6 7QZ,55.887209013066500,-3.885644745340410
Wallaby and Vulture,ML5 2JF,55.871786443221600,-4.054136313853540
Perching duck and Boto,FK2 0JY,55.982296154837400,-3.717189081421660
Ice seal and Jackal,ML2 7YN,55.784761585062600,-3.918089840603980
Hawk and Coati,G66 3DY,55.932657219248500,-4.143136867561920
Greenbul and Greenbul,ML7 4HD,55.826280851740500,-3.807132841592580
Black jay and Herring gull,FK4 2EY,55.980853744271100,-3.892973678554170
Marmoset and Linsang,FK1 1SX,55.998368568389500,-3.769568444121490
Grouse and Nukupuʻu,G72 7NP,55.808205492028200,-4.126922741893290
Capuchin and Old World warbler,ML1 1SH,55.793567700282000,-3.994932636084110
Francolin and Chickadee,G74 3QR,55.778247000000000,-4.138353000000000
Black jay and Fox,ML2 8QY,55.784909383930100,-3.908017806598270
Siskin and Grouse,ML4 2UG,55.808107383705600,-4.031773754330260
Peafowl and Philippine hawk-owl,ML1 1UG,55.783477949663300,-3.987559200473530
Meadowlark and Ibex,G67 1HE,55.949894688366900,-3.994926638921320
Goose and Eagle,ML3 7TU,55.766643892374400,-4.008095223923530
Snipe and Skunk,G72 0JG,55.795114395603800,-4.084236184135870
Dolphin and Herring gull,EH48 3SX,55.886860885243100,-3.754847655482210
B and Old World vulture,ML6 9TY,55.853045650790500,-3.991461648344960
Shearwater and Cloud rat,G69 7NE,55.851355727670900,-4.095746607978550
Quetzal and Pitohui,ML6 6SJ,55.876327475736700,-3.986099479458220
Eagle and Tree warbler,G71 5LN,55.834639235337900,-4.055977394823020
Kangaroo and Grosbeak,FK1 5DE,55.996797000000000,-3.812198000000000
Perching duck and Elephant,FK1 3AW,55.945265000000000,-3.796530000000000
Argus and Mouse,ML1 4TG,55.821641326013300,-3.974435675565550
Kestrel and Minke whale,ML3 8PB,55.768174481085600,-4.063253037820590
Piping shrike and Peafowl,ML6 0BU,55.865516365991700,-3.986650252064140
Goose and River dolphin,ML3 7LG,55.765921268037600,-4.041039768601110
Stint and Ground sloth,G72 0QL,55.790711926457000,-4.101052887399100
Viscacha and Coati,FK4 1JR,55.987173424099200,-3.951605171197990
Hawk and Gull,ML4 3GB,55.829569537235700,-4.024622094259870
Viscacha and Perching duck,ML1 3UP,55.804157840275900,-4.011813794343970
Fox and New World blackbird,G72 0QF,55.788749883856500,-4.089622385222860
Petrel and Dolphin,G34 9JJ,55.868287000000000,-4.127330000000000
Petrel and Wader,ML2 7RD,55.776874604867100,-3.945877158310970
Hawaiian honeycreeper and Tree warbler,ML4 2QB,55.816316000000000,-4.003662000000000
Coati and Greenbul,G33 6DT,55.893708335150100,-4.146666140707040
Quetzal and Solitaire,G69 6AE,55.850476352598000,-4.109580000000000
Ibex and Meadowlark,ML3 9HQ,55.782196660764300,-4.076991703022860
Shearwater and Boto,G65 9RG,55.955836789265300,-4.091794759540270
Partridge and Wallaby,ML7 5RS,55.861296323001300,-3.755979607585920
Warbler and Mouse,FK1 5NG,55.988595229392300,-3.800335406236400
Jackal and Cuscus,ML1 3XJ,55.803060585779200,-4.000300772344730
Masked owl and Fox,ML1 2PH,55.775765000000000,-3.955771000000000
Francolin and Cuscus,ML4 1JD,55.828945944332500,-4.010254000000000
Dolphin and Wallaby,G67 4ND,55.929694279645300,-4.021261929562260
Coati and Cloud rat,G74 3PH,55.778443182503800,-4.140178567871140
American sparrow and Ground sloth,ML5 4WD,55.845781187969200,-3.995530672776790
Lemming and Perching duck,ML6 8ED,55.860289515240000,-3.946514956530110
Darwin's finches and Goose,ML6 9AP,55.862674622551000,-3.996205253031170
Marsh harrier and Philippine hawk-owl,ML4 2NZ,55.815559920099600,-4.011412684074410
Ice seal and Siskin,ML4 1JG,55.819071457244600,-3.991129932047290
Macaw and Vole,ML6 9FB,55.860516677744300,-3.992946579999550
Pitohui and Puffleg,G71 8RP,55.802785623089800,-4.063153260346590
Recurvebill and Tree warbler,ML3 9SN,55.773593265782000,-4.073424818898180
American sparrow and Thrasher,ML3 9NG,55.778079293965000,-4.076533407284500
Goose and Goose,ML3 9DG,55.768845561842200,-4.085783040264580
Asiatic leopard and Recurvebill,FK1 1TR,55.996515827192200,-3.774053694287850
Booted eagles and Thrasher,ML1 4JS,55.812671525797000,-3.978402204264880
Armadillo and Old World quail,ML4 3PL,55.821479000000000,-4.046487000000000
Songlark and Crow,FK2 0UB,55.984043035519900,-3.716288724475470
Perching duck and Masked owl,ML4 1TG,55.827083066600100,-4.009101765340050
Puffleg and Mink,G69 7BD,55.845638219587900,-4.122705561500100
Viscacha and Kangaroo,ML1 5JF,55.813261105873200,-3.937430854465350
Chickadee and Triller,ML2 8JL,55.774358112150500,-3.905748252299310
Fox and Civet,FK2 9XH,55.988073039203000,-3.740979062448550
Francolin and Pitohui,G67 4YT,55.951909971136200,-3.983658134962640
Marsh harrier and Greenbul,G72 0NY,55.791290000000000,-4.086137000000000
Bunting and Night heron,ML1 9ST,55.783836625855800,-3.982601670694170
Booted eagles and Old World warbler,ML6 7RP,55.894861274465500,-3.872981530203360
Civet and Chicken,ML1 4FB,55.812330854539900,-3.967149297262370
Black jay and Francolin,ML1 4LY,55.814463338476600,-3.977072656195160
Kākāriki and Hawk,FK2 0NJ,55.977318235914600,-3.717801834753010
