name,postcode,lat,lon
Philippine hawk-owl and Solitaire,BS1 9LE,51.458433981649100,-2.574179466890470
Parrotlet and Elephant,BS21 5HF,51.426265945374200,-2.856822895351830
New World blackbird and Chickadee,BS4 4LD,51.437534211397000,-2.549315774898650
Songlark and B,BS13 8AH,51.414134491487700,-2.641954337537990
Triller and Badger,BA3 2XX,51.287277700000000,-2.478575472000000
Black jay and Towhee,BS4 1EH,51.426058063641600,-2.581568722940740
Tree warbler and Recurvebill,BA4 4JU,51.204894000000000,-2.518845000000000
Dorcopsis and Fulmarine petrel,BA3 4BG,51.280471830000000,-2.473916710000000
Quetzal and American sparrow,BS40 6LG,51.301647415718600,-2.686255986005040
Greenbul and Rat,BS14 8TG,51.410471551513900,-2.541097655814090
Old World quail and Fish eagle,BA3 5FG,51.246041300000000,-2.471829025000000
Mole and Jay,BA3 2LW,51.284415620000000,-2.496483449000000
Marmoset and Capuchin,BS4 5BN,51.431809964269500,-2.546657819273800
Zebra and Piping shrike,BS2 0AN,51.457545633309400,-2.572685519775240
Mamo and Viscacha,BS5 0EW,51.461183322856800,-2.564224162164640
Booted eagles and Pratincole,BS99 5EU,51.458428497190200,-2.574179075691890
Songlark and Puffleg,BS14 8TP,51.412560377663400,-2.538548520911620
River dolphin and Gull,BS5 9AR,51.463776078422500,-2.554136536536130
Skunk and Pheasant,BS39 5PD,51.330455387665600,-2.538834377932990
Philippine hawk-owl and Eagle,BS39 4AF,51.371988469459600,-2.550426990966360
Old World vulture and Moluccan boobook,BS40 7AR,51.327968801274900,-2.747589380536660
Prion and Herring gull,BS1 3QP,51.462285991219100,-2.590450042080760
Dorcopsis and Philippine hawk-owl,BS2 8DG,51.461718549853000,-2.601252814977550
Wallaby and Pitohui,BA3 4UG,51.243283000000000,-2.553788000000000
Hawk and Chickadee,BS5 5ZX,51.463530168410200,-2.556695834693420
Ibex and Meadowlark,BS5 8UE,51.454179173908100,-2.531453824601450
Francolin and Stilt,BS30 8DQ,51.449074922327600,-2.485158663508160
Guillemot and Goose,BS25 1LB,51.314276513007300,-2.829983740280750
Condor and Condor,BS40 5AR,51.345291000000000,-2.726683000000000
Philippine hawk-owl and Logrunners,BS13 7QG,51.417838869473900,-2.613460947675530
New World blackbird and Recurvebill,BS5 0PR,51.461453655543100,-2.573367797600040
Minke whale and Grouse,BS31 2PA,51.408330096651500,-2.509326927052000
Snipe and Thrasher,BS48 1BA,51.435711076076300,-2.750037967138110
Chickadee and Ground sloth,BS4 3RF,51.442989982636100,-2.555496310994070
Buzzard and B,BS25 5SB,51.332873593795800,-2.828467926257240
Thicketbird and Siskin,BS41 9EB,51.423851000000000,-2.671603000000000
Herring gull and American sparrow,BS24 9UP,51.322489470523400,-2.914055729362730
Solitaire and Mamo,BS13 0BD,51.404597074667600,-2.598979225571600
Siskin and Bunting,BS21 6JA,51.432096647846900,-2.852573299960990
White ibis and Mink,BS1 6WJ,51.450484000000000,-2.591379000000000
Vole and Perching duck,BS8 1LW,51.457724086994400,-2.612095826599510
Fox and Scimitar babbler,BS31 1HH,51.413042027171000,-2.494569012738900
Jerboa and Polecat,BS1 6RD,51.452284647197100,-2.585600610936580
American sparrow and Stint,BS30 7DR,51.440323520782700,-2.494374592247390
Perching duck and Stilt,BS24 7GJ,51.336045125582300,-2.901463580548260
Songlark and Treepie,BS24 6TP,51.364744891579400,-2.865226041206390
Dolphin and Wader,BS30 6JR,51.433618895846300,-2.474033181216750
Buzzard and Parrotbill,BS49 4NW,51.387681126308300,-2.785093809798910
Marmoset and Viscacha,BS31 2EP,51.418870357941500,-2.500513673663410
Flameback and Pitohui,BS14 9BS,51.421321157076600,-2.566537363487690
Egret and Pheasant,BS5 8PF,51.456582156398100,-2.524976279243390
Jay and Mouse,BS49 4QB,51.392296531381800,-2.805898135042490
Night heron and Thicketbird,BS15 8NH,51.458017535184200,-2.509419456828600
Kangaroo and Black cockatoo,BS1 4UL,51.453642227773200,-2.598095618348980
Polecat and Kākāriki,BS25 1HB,51.316221679090900,-2.829574038251230
Black jay and Dolphin,BS5 0AN,51.454657080163100,-2.565741180605650
Solitaire and Prion,BS6 5BG,51.465429950221700,-2.589281418969870
Kestrel and Thrasher,BS1 4HL,51.451257564980500,-2.593157119649310
Flameback and Lemming,BS48 3PA,51.415196843240400,-2.736501468477430
Argus and Eagle,BA5 2QW,51.212263820000000,-2.647402691000000
Cuscus and American sparrow,BS2 8LR,51.461163451880100,-2.595502271954420
Prion and Magpie,BS15 4BB,51.465064179353400,-2.501724506545100
Wallaby and Elephant,BS49 4EX,51.382940841358500,-2.822028980558290
Kestrel and Tree warbler,BS30 6UP,51.435380156443300,-2.478726847871680
Elephant and Vole,BS3 1NH,51.445008099806100,-2.602026083013920
B and Masked owl,BS31 1BB,51.406692296963800,-2.499187356879000
Chipmunk and White ibis,BS13 8EN,51.420124000000000,-2.631773000000000
Stint and Quetzal,BS29 6LL,51.352198184407600,-2.877712681355040
Tit-tyrant and Parakeet,BS3 2JR,51.442515352237300,-2.629791384499770
Boto and Polecat,BS40 7TU,51.319101730229700,-2.723423821053210
Minke whale and Pheasant,BS5 8SN,51.450118239958400,-2.526744101507980
Goose and B,BS13 7EG,51.423139932628800,-2.619356725641280
Wallaby and Boto,BS1 1EB,51.455157000000000,-2.595753561838530
Old World vulture and Bronzewing pigeon,BS13 9BP,51.408516952252600,-2.616412942568960
Philippine hawk-owl and Kākāriki,BS4 9GZ,51.445920000000000,-2.583435000000000
Bunting and Lemming,BS3 5RU,51.427414000000000,-2.605207066423160
Zebra and Towhee,BS5 8BZ,51.455876417620100,-2.529947949128640
Bunting and Francolin,BS48 1QA,51.436031366487000,-2.749165650349580
Black jay and Tattler,BS31 2TE,51.387891791373200,-2.481737407494430
Boto and Condor,BS5 7DB,51.465254940668400,-2.543445000000000
Elephant and Puffleg,BS27 3QP,51.279202952877800,-2.771543351440190
Hawaiian honeycreeper and Chipmunk,BS3 4QU,51.437743717278500,-2.589471625378890
Recurvebill and Towhee,BS1 3JD,51.457845500666500,-2.590176824978710
Chipmunk and Masked owl,BA5 3XA,51.206411160000000,-2.653661955000000
Triller and Vole,BS5 0LS,51.465949617606800,-2.567795493967320
Duck and Old World warbler,BS39 5BT,51.316831308738800,-2.537196744584640
Flameback and Ground sloth,BS21 7GX,51.465651000000000,-2.824177000000000
Magpie and Moluccan boobook,BS3 3DW,51.437597000000000,-2.609683000000000
Thicketbird and Minke whale,BS3 1BA,51.442938064014000,-2.597135583823730
Eagle and Tattler,BS31 1NS,51.411083401285100,-2.489918053037710
Grackle and Fox,BS39 5PB,51.332162219992700,-2.539184527917280
Crow and Vole,BS15 9QA,51.457411734455900,-2.506044778089750
Pratincole and Fish eagle,BS27 3QW,51.280837897616400,-2.773147907008400
Peafowl and Night heron,BS15 1QS,51.466078665150500,-2.506270250536760
Snipe and Armadillo,BS4 1HW,51.423490022512400,-2.582657927381100
Eagle and Solitaire,BS3 3DT,51.437439674137200,-2.606760452515530
Eagle and Cuscus,BS15 8AT,51.459466510041700,-2.525412404540890
Dolphin and Diving bird,BS5 0RZ,51.461101379330100,-2.570009564207870
Quetzal and Jay,BS5 8HF,51.459272660102100,-2.534478061802450
Night heron and Elephant,BS28 4AX,51.227745465738500,-2.816037805488660
Lemming and Pheasant,BS13 8DB,51.418959965667100,-2.624218457322450
Polecat and Argus,BS8 1RZ,51.458380072223800,-2.610449383126710
Moluccan boobook and Hawaiian honeycreeper,BS27 3EB,51.272923665836800,-2.784153567056690
Nukupuʻu and Buzzard,BS4 3JQ,51.440730171733500,-2.559885892303930
Fish eagle and Cloud rat,BS24 7GH,51.336136748125300,-2.900072930795790
New World blackbird and New World blackbird,BS8 1JW,51.456981817774500,-2.609797000000000
Triller and Partridge,BS8 1HF,51.455807000000000,-2.605937427378020
Grackle and Thrasher,BS15 1BX,51.461591709458500,-2.528704302060380
Tit-tyrant and Philippine hawk-owl,BS26 2NA,51.260783572097000,-2.843752546299910
Wader and Maya,BS8 4PY,51.451790387822200,-2.618794676310450
Wallaby and Bronzewing pigeon,BS1 5RH,51.453952812709500,-2.604158640531160
Thicketbird and Argus,BS48 2BP,51.434256222316300,-2.762299559437110
Thicketbird and Asiatic leopard,BS14 0QD,51.405301079265400,-2.556505745155970
Puffleg and Cloud rat,BA3 2QW,51.287696220000000,-2.490424450000000
Tree warbler and Crow,BS15 8AX,51.459944535258600,-2.527087562509140
Wader and Boto,BS3 1ES,51.440624744680700,-2.604630140271680
Guillemot and Thicketbird,BS3 4HH,51.442814320817200,-2.594946943349430
Greenbul and Civet,BS4 3EH,51.443317085483100,-2.568148000000000
Grosbeak and Kestrel,BS1 4TN,51.455717723320300,-2.596640338202140
River dolphin and Jay,BA3 4GG,51.283541381910000,-2.476629913124220
Petrel and Cloud rat,BS15 8DA,51.452401850554600,-2.512609354394990
Quetzal and Wallaby,BS6 6DZ,51.464783455599300,-2.601494644051640
Black jay and Ground sloth,BS40 7UZ,51.346846801892500,-2.686730143539050
Old World vulture and Mamo,BS4 4SU,51.440557480380700,-2.535266609160240
Shearwater and Black jay,BS3 2JX,51.442759309074400,-2.627895481836100
Civet and Vulture,BS39 4JZ,51.378003000000000,-2.511217000000000
Bronzewing pigeon and Puffleg,BS3 4HY,51.444757245249100,-2.593029695443150
Tattler and Eagle,BS13 8PH,51.409220095884600,-2.621181451472250
Night heron and Goose,BA5 2EL,51.205786420000000,-2.664002407000000
Pheasant and Ground sloth,BS41 8LS,51.395166451442100,-2.641128141409110
Songlark and Petrel,BS5 0DH,51.458084781935400,-2.569065204990890
Armadillo and Ibex,BA3 2LB,51.278127070000000,-2.499354661000000
Night heron and Pratincole,BS3 2AT,51.440092807719000,-2.615269849771790
Gull and Wader,BS4 1NE,51.429623357787400,-2.587856739422670
Kite and White ibis,BS31 2LL,51.408587218926600,-2.514275658183220
Minke whale and Meadowlark,BA3 4EY,51.263267000000000,-2.498821000000000
Booted eagles and Mink,BS4 4BL,51.451974117023200,-2.543675099215140
Coati and Mamo,BS3 2LU,51.436658456748900,-2.615180529858400
Boto and Hawk,BA2 0AZ,51.343622610000000,-2.497324000000000
B and Diving bird,BS15 8SB,51.450503000000000,-2.517438000000000
Kākāriki and Crow,BS49 4BA,51.387694657844300,-2.819872281005530
Magpie and Civet,BS40 5EL,51.341572691683800,-2.784822369187200
Mouse and Rabbit,BS8 4RT,51.451976755486700,-2.615846996554860
Petrel and Pitohui,BS41 9BL,51.429073289237700,-2.671794890450280
Chickadee and Partridge,BS3 2BN,51.443279000000000,-2.623413000000000
Marmoset and Chipmunk,BA5 2EF,51.206637110000000,-2.659863396000000
Pratincole and Tit-tyrant,BS4 3PE,51.440780890772900,-2.554893991993950
Hawaiian honeycreeper and Grackle,BS30 6PQ,51.437052451295400,-2.476557596922040
River dolphin and Eagle,TA9 4QH,51.225602857422300,-2.900935808981840
Magpie and Hawk,BS31 2SX,51.400757337631800,-2.495054566432850
Kākāriki and Siskin,BS2 0UL,51.448237000000000,-2.573390575486460
Kangaroo and Tahr,BS15 8PR,51.460310743423400,-2.505184440025620
Fox and Linsang,BS15 9PZ,51.456995715236400,-2.506601492257790
Jay and Herring gull,BS4 5DB,51.430557413973000,-2.549160143097600
Old World warbler and Lemming,BS31 1HE,51.413428761712100,-2.496672528935680
Vole and Mole,BS39 7AB,51.308686349770600,-2.504492450382820
Grosbeak and Myna,BS3 4PX,51.436546647239000,-2.593670000000000
Old World vulture and Ground sloth,BS3 2SL,51.432704136627500,-2.611358482847340
Ice seal and Civet,BA5 2HQ,51.205205000000000,-2.652270711000000
Mouse and Guillemot,BS48 3PY,51.421349755617800,-2.711346186629880
Egret and Darwin's finches,BS1 6AX,51.450534405965500,-2.586772641462200
Marsh harrier and Dorcopsis,BS3 1AS,51.445335841690600,-2.599483519685420
Parrotlet and Cloud rat,BS15 1DZ,51.465773118800200,-2.522620160231560
Stint and Parakeet,BS41 9AJ,51.428071419982400,-2.667738360826080
Buzzard and Maya,BS99 6AY,51.423233105392700,-2.630547333783150
Bunting and Linsang,BS3 5PU,51.432688892230700,-2.607373591276010
Gull and Booted eagles,BS3 3JH,51.436117819444100,-2.610238786191940
Hawaiian honeycreeper and Polecat,BS48 1QL,51.433949524857200,-2.749908409531260
Thrasher and Mockingbird,BS5 9QA,51.456525299345600,-2.558668724446600
Shearwater and Jackal,BS1 6QT,51.447321000000000,-2.593118525184200
Shearwater and Goose,BA5 3LQ,51.212582000000000,-2.628882000000000
Hawk and Ibex,BA3 2BG,51.290785270000000,-2.476188374000000
Nukupuʻu and Maya,BS3 4ET,51.441300033271200,-2.599200451455250
Wader and Marsh harrier,BS13 8BS,51.420569048095700,-2.631014006809170
Eagle and Egret,BS99 3EG,51.458428497190200,-2.574179075691890
Mamo and Philippine hawk-owl,BS25 5PF,51.333542048317800,-2.817800415751730
Fulmarine petrel and Ice seal,BS5 9DA,51.460868607891800,-2.560477843228050
Quetzal and Dorcopsis,BS14 8AX,51.417862649268200,-2.554573175434570
Towhee and Lemming,BS48 1RN,51.433675353333100,-2.760362222277620
Recurvebill and Jay,BS3 4AQ,51.444388000000000,-2.593413000000000
Treepie and Condor,BS1 3QU,51.462360890987100,-2.589860835746620
Philippine hawk-owl and Myna,BS15 8DU,51.451039200122600,-2.517817972212780
Jackal and Coati,BS15 3EN,51.448305585496300,-2.515815603049230
Boto and Thrasher,BS21 5HQ,51.425645747647300,-2.858019474568080
Black cockatoo and Fish eagle,BS39 7QQ,51.306027000000000,-2.502168000000000
Quetzal and Chicken,BS4 1JW,51.424893965425000,-2.587810411227070
Puffleg and Myna,BS15 4JJ,51.462548101824300,-2.488583530281760
Skunk and Piping shrike,BS13 0DJ,51.402580990433600,-2.602863068400250
Hawk and Black jay,BS22 6BA,51.360631965562200,-2.911928066503530
Booted eagles and Moluccan boobook,BS24 7FH,51.351471000000000,-2.900287000000000
Chicken and Tattler,BS15 9QW,51.453882359169200,-2.505041486352220
Crow and Mamo,TA9 4LN,51.216094254806000,-2.892059275264380
Siskin and Old World warbler,BS25 5QP,51.331201878449600,-2.825811093494540
Diving bird and Guillemot,BS3 5LW,51.431105372245300,-2.597067557477370
Hawaiian honeycreeper and Chicken,BS40 6PR,51.320837000000000,-2.691050779266020
Old World vulture and Thicketbird,BS2 8UA,51.463034643746500,-2.586400407306440
Triller and New World blackbird,BS14 0ER,51.406381004253800,-2.574935635375220
Bronzewing pigeon and Duck,BS13 0EE,51.404598000000000,-2.599061951975000
Snipe and Kestrel,BA3 5FF,51.223197120000000,-2.529633036000000
Quetzal and Magpie,TA9 4PB,51.247475650752700,-2.902753034121430
Flameback and Old World warbler,BS6 6LG,51.464848190685200,-2.608117316267820
Tahr and Quetzal,BA3 4HU,51.257440910000000,-2.508817710000000
Thrasher and Darwin's finches,BS13 9PB,51.410341901845200,-2.604402988316510
Cloud rat and Ground sloth,BS6 5SH,51.465104170716800,-2.591349000000000
Parakeet and Boto,BS1 3LH,51.458977000000000,-2.592420877278600
Capuchin and Maya,BS40 6PG,51.315661530860300,-2.673049226567560
Guillemot and Darwin's finches,BS40 7SH,51.323311113955400,-2.711492649121610
Lemming and Partridge,BS1 6AL,51.449656601928900,-2.589682650591380
Cuscus and Flameback,BS2 8HD,51.461120568311900,-2.598625230072290
Buzzard and Parrotbill,BS40 7BD,51.323341198062100,-2.713402140974530
Chicken and Siskin,BS39 4JQ,51.383293000000000,-2.552129000000000
Ice seal and Egret,BS48 2AN,51.431364637692400,-2.772709201168380
Quetzal and Masked owl,BA3 2DP,51.286191930000000,-2.482407105000000
Perching duck and Rabbit,BS40 8BE,51.357732185921700,-2.673436041271620
Pratincole and Skunk,BS31 2TG,51.385795926843500,-2.481930944902530
Armadillo and Black cockatoo,BS5 0RX,51.461101379330100,-2.570009564207870
Ground sloth and Recurvebill,BS5 6ED,51.465458942758200,-2.557626227334430
Dolphin and Magpie,BS15 4LW,51.464534615435100,-2.488734311461410
Civet and Linsang,BA3 4DA,51.281622530000000,-2.544255771000000
Tahr and Fish eagle,BS48 4PB,51.428733072495700,-2.751505909948180
New World blackbird and Egret,BS27 3EL,51.273434741608700,-2.782901000000000
Thicketbird and Mink,BS40 7TN,51.325618178685300,-2.718015328871030
Perching duck and Prion,BS8 3QY,51.462479000000000,-2.666871522613200
Goose and Vole,BS48 2FZ,51.430833687450800,-2.780913896606290
Chipmunk and Chicken,BS5 9NW,51.457401584870200,-2.555915991591320
Towhee and Siskin,BA3 5EF,51.245491610000000,-2.469889306000000
Piping shrike and Goose,BS39 4HY,51.377855417053000,-2.531977134389970
Treepie and Myna,BA3 2PE,51.278293210000000,-2.494109188000000
Bronzewing pigeon and Cloud rat,BS31 1LT,51.413697875722300,-2.490420524199630
Kestrel and Kākāriki,BS13 8JS,51.415388993850000,-2.617670161063750
Gull and Viscacha,BS99 1XH,51.458428497190200,-2.574179075691890
Hawaiian honeycreeper and Fox,BS13 8RS,51.404129476443600,-2.628171166861080
White ibis and B,BS15 8JE,51.460684344006400,-2.510269613468490
Guillemot and Zebra,BS48 1UD,51.423039379807300,-2.705533259299760
Moluccan boobook and Rabbit,BS13 0QJ,51.404320040547400,-2.587992154971760
Warbler and Quetzal,BS3 3PE,51.435967574425800,-2.602784740345900
Macaw and Grackle,BS26 2XP,51.309516000000000,-2.900039000000000
Old World warbler and Kangaroo,BS15 9QH,51.455999253388500,-2.503899000000000
Prion and Coati,BS40 7RS,51.324244437978400,-2.711794121482790
Hawk and Towhee,BS40 5JF,51.340284002385200,-2.782560766105950
Tattler and Recurvebill,BS15 8EH,51.456371549613600,-2.512049000000000
Piping shrike and Tattler,BS21 5BD,51.427467826370100,-2.846100767258170
Zebra and Tahr,BS4 2XQ,51.430242811069800,-2.573537859515250
Dorcopsis and Chickadee,BA3 4DY,51.278822040000000,-2.515347943000000
Bronzewing pigeon and Rabbit,BS14 8BS,51.416014850378300,-2.551717967266830
Nukupuʻu and Grouse,BS30 5LP,51.464768296465900,-2.480056519607200
Wader and Triller,BS15 9SZ,51.452057582172800,-2.504920602947820
Kestrel and Petrel,BS30 9DW,51.439660536182300,-2.493806326761390
Skunk and Fulmarine petrel,BS14 8AU,51.420954793819500,-2.554783192481110
Polecat and Armadillo,BS15 9SR,51.453274923986100,-2.504113719834960
Vulture and Wader,BS2 8BQ,51.459563728246300,-2.600634351324500
Partridge and Shearwater,BS3 3PF,51.436279687667700,-2.605033109835020
Crow and Chickadee,BS40 8ER,51.382826874233400,-2.659463611619870
Marmoset and Rat,BS48 3QD,51.415939289098600,-2.716827220856750
Vole and Jay,BS21 6HQ,51.434499955094000,-2.852229632995060
Kangaroo and Ice seal,BS25 5AF,51.332123000000000,-2.838910000000000
Jerboa and American sparrow,BS40 8PY,51.356261591315900,-2.630718533535850
Coati and Jackal,BS1 5PU,51.453998000000000,-2.602648000000000
Grosbeak and Stilt,BS5 6AF,51.462916532015300,-2.562806082256230
Egret and New World blackbird,BS40 7RX,51.323004195243300,-2.713166951334580
B and Recurvebill,BS40 6LB,51.304190000000000,-2.655466000000000
Recurvebill and Lemming,BS28 4DY,51.226530555275200,-2.803184766313260
Gull and Siskin,BS14 8PU,51.411193910757800,-2.544326942012230
White ibis and Boto,BS15 3JS,51.443521343618500,-2.524078233775760
Jay and Tattler,BS40 8TE,51.351263000000000,-2.596574000000000
Parakeet and Civet,BS5 0YR,51.466558063438300,-2.572107387503360
Black jay and Black cockatoo,BS27 3RP,51.267574229930300,-2.769126824300870
Parrotbill and Mamo,BS13 8DQ,51.417162385070700,-2.625761414057170
Maya and Vulture,BS15 1DD,51.462815000000000,-2.524904000000000
Hawk and Grouse,BS15 8DT,51.459765000000000,-2.508906000000000
Gull and Fish eagle,BS22 7XY,51.360175000000000,-2.902540000000000
Ground sloth and Armadillo,BS39 7AG,51.308895171685200,-2.503189534037710
Tahr and Thicketbird,BS5 0NU,51.465337000000000,-2.570192000000000
Old World vulture and Wallaby,BS8 4TQ,51.451032900149500,-2.608912258798460
Fish eagle and Solitaire,BS22 7RF,51.365309625112000,-2.898892076182660
Jay and Wader,BA3 4XW,51.273753000000000,-2.477933000000000
Prion and Grouse,BS21 7QP,51.442983576273200,-2.859020713732440
Kestrel and Towhee,BS28 4TU,51.207531254380300,-2.784487957470100
Recurvebill and Vulture,BS1 4RB,51.449323000000000,-2.595535000000000
Grouse and Kangaroo,BS14 0HQ,51.402887332084500,-2.572261039504100
Dorcopsis and Mole,BS8 9JQ,51.454512000000000,-2.614113000000000
Treepie and Flameback,BS14 9LJ,51.417302818595900,-2.568198919978050
Guillemot and Jay,BS5 9LQ,51.457989530825900,-2.557074583502600
Scimitar babbler and River dolphin,BS49 4DY,51.387530963349100,-2.823979499872830
Flameback and Siskin,BS5 0EL,51.461604587140800,-2.564502849410770
Kite and Night heron,BS15 8BF,51.461989803863800,-2.520115495986310
Old World vulture and Wader,BS4 4TT,51.435378000000000,-2.531705747494700
Diving bird and Songlark,BA5 2ET,51.205127310000000,-2.661301860000000
Solitaire and Meadowlark,BS48 3QS,51.424679127268800,-2.688356815376580
Civet and Badger,BS2 0XJ,51.446560263705200,-2.574030144052340
Philippine hawk-owl and Mamo,BS48 2EG,51.429712235461500,-2.772393630790470
Black jay and Guillemot,BS49 4EY,51.383591111862300,-2.824181750102050
Fish eagle and Thicketbird,BS25 5PE,51.334594319192600,-2.821623106803440
Jackal and Wallaby,BS13 9JX,51.408918922801000,-2.610049030117920
Grosbeak and Grosbeak,BS31 2FJ,51.420874000000000,-2.496868000000000
Recurvebill and Puffleg,BS1 4AJ,51.450332141378700,-2.593015606132070
Cloud rat and Treepie,BS13 0RY,51.406449638469300,-2.593626474068190
Piping shrike and Snipe,BS8 1TN,51.460757000000000,-2.604901225577250
Maya and Old World warbler,BS99 7DN,51.458428497190200,-2.574179075691890
Tattler and Moluccan boobook,BS1 4NH,51.450124254640300,-2.593228771107440
Maya and Flameback,BS4 1JG,51.425637038992600,-2.583059200308510
Old World quail and Egret,BS8 1JR,51.456258488904200,-2.609141000000000
Pheasant and Petrel,BA5 1FA,51.203291067966100,-2.646561500950920
Grackle and Grackle,BS3 1LX,51.442461299803100,-2.609402516564270
Bunting and Recurvebill,BS25 5NH,51.336195469923200,-2.792841119451820
Parakeet and River dolphin,BS6 6JP,51.462781037606700,-2.604274000000000
Mouse and Chickadee,BS21 7BZ,51.451358000000000,-2.850002540012030
Fox and Linsang,BS48 1UQ,51.424118459509900,-2.696503275523820
Triller and Pitohui,BA5 3NG,51.211152430000000,-2.631940098000000
Egret and Skunk,BS4 2NG,51.433292000302300,-2.564067360628150
Booted eagles and Marmoset,BS8 4SW,51.450521286893800,-2.619036546269750
Chicken and Mockingbird,BS26 2ES,51.287908244487700,-2.808686452990350
Songlark and Ibex,BS4 1HY,51.422886624939300,-2.581039459965070
New World blackbird and Mamo,BS1 4XG,51.452751012434900,-2.598299839154340
Towhee and Mouse,BS30 9DH,51.441976461694800,-2.501082874198870
Buzzard and Myna,BS30 6UW,51.435519662871500,-2.477591814865790
Greenbul and Chipmunk,BS4 1UJ,51.418332295199300,-2.589149887856650
Pheasant and Crow,BS14 8QF,51.414347011965900,-2.544968339034260
Rabbit and Puffleg,BS30 7DG,51.441629490281400,-2.495985757074060
Stint and Kite,BS21 6XS,51.398202252794600,-2.858080724740390
Bunting and Civet,BS41 9DY,51.429175996875600,-2.667984613511470
Marsh harrier and Bunting,BA3 5DR,51.244749170000000,-2.471156784000000
Flameback and Night heron,BA2 0AG,51.343260750000000,-2.485131160000000
Fox and Dorcopsis,BS21 7BL,51.448511885967400,-2.855555689794170
Bronzewing pigeon and Viscacha,BS1 9LL,51.458457000000000,-2.574165000000000
Dorcopsis and Darwin's finches,BS39 4EE,51.363522322295100,-2.568394666090640
Argus and Thrasher,BS40 6WE,51.310744000000000,-2.655003000000000
Herring gull and Jackal,BS15 9UY,51.458445000000000,-2.498068000000000
Mole and Dorcopsis,BS30 8JJ,51.455788528542500,-2.472838000000000
Pitohui and Mouse,BS14 8DA,51.419192659722500,-2.550922152448470
Shearwater and Petrel,BS40 7XF,51.347726004186000,-2.696205599009600
Quetzal and Treepie,BS31 1FS,51.414121000000000,-2.497025000000000
Grouse and Mockingbird,BA2 0JY,51.326651850000000,-2.474421516000000
Meadowlark and Condor,BS21 7TF,51.437647034975600,-2.854834000000000
Mink and Badger,BS3 1NU,51.443471701089400,-2.607027472634150
Marsh harrier and Meadowlark,BA2 0EU,51.324018000000000,-2.485602000000000
Asiatic leopard and Coati,BS13 8BN,51.417251442299600,-2.627603311451170
B and Cloud rat,BS98 1AH,51.459748838772900,-2.588963530140430
Eagle and Old World quail,BS8 1BL,51.457210109523300,-2.608922519122020
Pheasant and Hawk,BS3 5DT,51.436175985375900,-2.581107420282730
Capuchin and Vole,BS4 4PS,51.438518895513700,-2.548334892401020
Jay and Puffleg,BS13 0QG,51.405043442902200,-2.585384919547200
Fulmarine petrel and Gull,BS4 1NJ,51.426706071198200,-2.590437042634950
Vulture and Macaw,BS4 1BA,51.430710015376800,-2.579096134656920
Elephant and Lemming,BS1 4JP,51.451363358012300,-2.595345925456490
Grosbeak and Cuscus,BS26 2EX,51.291502684318700,-2.858557000000000
Prion and Cuscus,BA3 4HE,51.266815480000000,-2.503503308000000
Argus and Siskin,BS1 2BJ,51.455378000000000,-2.592908000000000
Jay and Mole,BS3 4LZ,51.440214423902600,-2.593431234598540
Pheasant and Maya,BS4 4HD,51.437842892546200,-2.550599899248250
Siskin and Towhee,BS4 1PP,51.430895801278300,-2.594072831108640
Egret and Mamo,BS2 8JW,51.461913512940600,-2.591208132815850
Crow and Badger,BS31 2SN,51.397346154721300,-2.512554015669240
Pitohui and Eagle,BS1 2AN,51.454851108085000,-2.591994775587830
Ibex and Partridge,BA5 1DG,51.225437940000000,-2.668051542000000
Old World warbler and Tree warbler,BA5 1DY,51.226033630000000,-2.701470317000000
Petrel and Ibex,BS21 6QN,51.431426950378600,-2.861767189276960
Stint and Warbler,BS13 9LR,51.405665392540000,-2.608036114680370
New World blackbird and Viscacha,BS3 2NX,51.436248163556600,-2.612830053162850
Logrunners and Bunting,BS15 4AP,51.460685409155000,-2.497473449899260
Buzzard and Mink,BS2 8AW,51.461109000000000,-2.592292000000000
Mamo and Nukupuʻu,BS1 6EH,51.450228397267800,-2.583228616488850
Old World warbler and Parrotbill,BS4 2NJ,51.431246587900000,-2.563092772057380
Stint and Kestrel,BA5 2DQ,51.206690100000000,-2.666377327000000
Warbler and Civet,BS4 4NS,51.448582438967100,-2.536267060970790
Jay and Pheasant,BS31 2UD,51.414029798531600,-2.503322253847040
Tree warbler and Maya,BA3 4HS,51.268726340000000,-2.504527570000000
Black jay and Buzzard,BS28 4BB,51.225905097891000,-2.818181999272490
Jackal and Capuchin,BS24 7DR,51.341575899485900,-2.911047239128990
Wallaby and Minke whale,BS15 1FB,51.462183000000000,-2.525516000000000
Piping shrike and Zebra,BS31 2LS,51.408899639195700,-2.514796759705320
Diving bird and Macaw,BS31 3AH,51.403262071704100,-2.467566240085500
Partridge and Philippine hawk-owl,BS3 1EG,51.441977779348000,-2.603799118529290
Kākāriki and Stint,BS21 5BE,51.427010399906700,-2.847185465251290
Skunk and Cloud rat,BS31 2PR,51.407895794824800,-2.505799656394140
Mamo and Prion,BS39 5TW,51.338360167890600,-2.587247988845590
Warbler and Nukupuʻu,BS13 8ZX,51.423234000000000,-2.630568049832070
Petrel and Grackle,BS8 9GJ,51.454490945862900,-2.614139736961700
Parrotlet and Jerboa,BS21 7FS,51.426910719890800,-2.865335990098160
Macaw and Greenbul,BS8 4PP,51.452088551766500,-2.620223443496310
Fish eagle and Fish eagle,BS21 5JG,51.425509571361700,-2.863094150662160
Rat and Darwin's finches,BA3 4DW,51.278791490000000,-2.528250889000000
Treepie and Warbler,BS31 2GH,51.422631000000000,-2.493321000000000
Kestrel and Diving bird,BS13 8BT,51.408395202785200,-2.620738943134370
B and Ground sloth,BS8 4SF,51.450241120988400,-2.619306178640980
Black jay and Prion,BS8 1HL,51.454644975236600,-2.605938004016630
Minke whale and Petrel,BS3 3AY,51.439440228982100,-2.605909347876180
Ice seal and Black cockatoo,BS14 8PZ,51.412409000000000,-2.542286591591780
Tahr and Perching duck,BS4 3HL,51.438231256604300,-2.559725843662470
Moluccan boobook and Elephant,BS49 5HH,51.364351455950000,-2.804358820117180
Marmoset and Philippine hawk-owl,BS4 2HZ,51.438632007691600,-2.566147344326340
Chipmunk and Parakeet,BS24 7GQ,51.356035102589500,-2.902516624234070
Treepie and Civet,BS31 2AJ,51.425547877645400,-2.509619091289220
Macaw and Pheasant,BS40 7XR,51.298728377104000,-2.715730954801030
Old World quail and Bunting,BA3 2EL,51.289099190000000,-2.488216675000000
Old World vulture and Pitohui,BS14 9JQ,51.416526820757500,-2.557533673888390
White ibis and Jay,BA3 2RA,51.286980130000000,-2.496052251000000
New World blackbird and Towhee,BS29 6BP,51.326716972893000,-2.861711313542830
Solitaire and Siskin,BS15 9QS,51.453238707064800,-2.506257662683650
Mouse and Towhee,BS8 2JB,51.464153894195500,-2.617090594196310
Francolin and Old World quail,BS39 6YB,51.326200000000000,-2.515592000000000
Tattler and Maya,BS5 9NZ,51.457352000000000,-2.559083892400240
Macaw and Black jay,BS31 2RB,51.407051482526500,-2.513855864489150
Polecat and Peafowl,BS15 4LA,51.463721752097600,-2.487444482409180
Treepie and Kākāriki,BS48 1BH,51.434358149380100,-2.745052712056730
Greenbul and Kākāriki,BS48 2JB,51.430964709408400,-2.759612358379990
Capuchin and Tree warbler,BS4 3QT,51.446282120673200,-2.551435297423220
Macaw and Goose,BS15 1HX,51.463857324765300,-2.516667564798590
Dolphin and Towhee,BS2 0EH,51.455729666682800,-2.581932000000000
Badger and Marsh harrier,BS1 3EX,51.457012040607100,-2.585344811963230
White ibis and Scimitar babbler,BS31 1JZ,51.398650375478200,-2.487169006028410
Crow and Scimitar babbler,BS8 1ER,51.456588000000000,-2.607703449162780
Black jay and Snipe,BS4 1HS,51.424536961841000,-2.576414825780650
Flameback and Black jay,BA5 3AJ,51.225980300000000,-2.651604973000000
Grosbeak and Ground sloth,BS15 8JS,51.462715093906300,-2.510580163295790
Armadillo and Magpie,BS30 6US,51.434994986467500,-2.480564203445680
Kangaroo and Stilt,BS24 7JS,51.336317000000000,-2.898164336992840
Grouse and Diving bird,BS3 2BL,51.439643843051300,-2.613436622200900
Mockingbird and Greenbul,BS31 2TL,51.399802000000000,-2.516060000000000
Vole and Fish eagle,BS8 1TH,51.459064537487300,-2.603290582795210
Eagle and Argus,BS15 4NY,51.463966250750100,-2.480494341986580
Viscacha and Philippine hawk-owl,BS27 3PU,51.278377746701000,-2.775314493866580
Cloud rat and Boto,BS13 9PN,51.409672023684400,-2.607010935315540
Grosbeak and Coati,BA5 1AW,51.210688200000000,-2.677916415000000
Argus and Songlark,BS14 0TR,51.404574158543800,-2.556209391833480
Mamo and Ibex,BS29 6EZ,51.329140106019700,-2.874473426506400
Armadillo and Chicken,BS39 5DE,51.321344112588600,-2.545213878633530
Thrasher and Duck,BS1 6XY,51.447228930865400,-2.612459070052280
Towhee and Petrel,BS5 8JS,51.459468602077300,-2.537043000000000
Grosbeak and Francolin,BS1 9LT,51.458456000000000,-2.574166000000000
Asiatic leopard and Fulmarine petrel,BS3 1RJ,51.444814894647500,-2.613275711291510
Mamo and Grosbeak,BS5 0JG,51.464540936634300,-2.569030380820710
Flameback and Eagle,BS15 9QE,51.457076089313800,-2.504644966591650
Chipmunk and Tree warbler,BS39 7QF,51.307040875908600,-2.502394260840070
Maya and Cloud rat,BS1 6SZ,51.446951000000000,-2.593002000000000
Quetzal and Vole,BS21 5DE,51.425919898584700,-2.853724032364960
Parakeet and Herring gull,BS21 7YN,51.427191966608100,-2.869051905641180
Magpie and Goose,BS25 5AB,51.332759000000000,-2.838427000000000
B and Boto,BA5 1BR,51.225148530000000,-2.671484246000000
Kite and Peafowl,BA3 4SH,51.255998780000000,-2.566322017000000
Grosbeak and Nukupuʻu,BS22 6DW,51.353915277735700,-2.908419904268990
Bunting and Dolphin,BS8 3LN,51.459008823950900,-2.624232289669870
Cuscus and Stint,BA3 3FQ,51.283308000000000,-2.468813000000000
Parrotlet and Minke whale,BS3 2EW,51.440868041818000,-2.618316081729220
Marmoset and Greenbul,BS39 6YA,51.324962002567300,-2.514717055049990
River dolphin and Solitaire,BS49 4BZ,51.388257753717300,-2.826751860747800
Tit-tyrant and Vulture,BS21 7QG,51.442079497139500,-2.857233987643640
Songlark and Stilt,BS5 7DF,51.464040739679900,-2.543703385285800
Fish eagle and Guillemot,BS8 2JG,51.463393449805700,-2.614647610141060
Marsh harrier and Songlark,BS26 2SQ,51.258135821625500,-2.890422421754940
American sparrow and Black jay,BS31 1XJ,51.400280144243000,-2.488781945501810
Black jay and Ibex,BS40 5TF,51.365853292004100,-2.721503096866500
Francolin and Puffleg,BS4 1PE,51.430166108663400,-2.589358000000000
Thrasher and Treepie,BS24 8BB,51.334451565756600,-2.911394034246380
Ibex and B,BS3 3BU,51.438433820172700,-2.604040108461890
Logrunners and Pratincole,BS39 5RU,51.331654352864200,-2.545939056368990
Old World warbler and Parrotbill,BA3 5BG,51.231588690000000,-2.517111455000000
Lemming and Minke whale,BS5 0DT,51.459513385760900,-2.569284489094770
Bunting and Ibex,BA3 5DD,51.240407150000000,-2.473117905000000
Pratincole and Stilt,BS39 7HA,51.308436145590600,-2.502524000000000
Black jay and Prion,BA5 3JR,51.215534000000000,-2.616535750000000
Mole and Parrotbill,BS39 5BZ,51.320090132629600,-2.544165814445100
Goose and Greenbul,BS1 5UD,51.450780163000000,-2.603886492588560
Pheasant and Chicken,BS8 4LS,51.451600509075700,-2.622389884483600
Marsh harrier and Mouse,BS21 6PJ,51.432557000000000,-2.859941704950570
Francolin and Piping shrike,BS3 4UE,51.442164182445100,-2.579341770805060
B and Towhee,BS48 1DZ,51.434420374092400,-2.760561610712860
Thicketbird and B,BS22 9WA,51.374357065072400,-2.913795568420550
Meadowlark and Skunk,BS8 2LA,51.464507277130700,-2.614864112571670
Bronzewing pigeon and Grackle,BS15 3DW,51.450053050207300,-2.519188304863960
Fulmarine petrel and Cuscus,BS30 9QW,51.439780693890000,-2.471176375553170
Parrotbill and Booted eagles,BS2 0AR,51.457468284465800,-2.573792806413250
Black jay and Kangaroo,BS14 8ER,51.411717445051700,-2.553492291089750
Wallaby and Maya,BS1 1NR,51.453147750422000,-2.594377000000000
Marmoset and Moluccan boobook,BS30 8TZ,51.452768381220900,-2.474692113806110
Macaw and American sparrow,BS48 3LY,51.420447163280800,-2.745171577772560
Thicketbird and Masked owl,BS6 6NF,51.465695608121400,-2.609424183187040
Buzzard and Jerboa,BS5 0UU,51.463001072133100,-2.575028189622460
Parrotbill and Dorcopsis,BS14 0QB,51.407204613961200,-2.557075193103120
Old World quail and Jerboa,BS30 9XT,51.439666225451700,-2.490310278065850
Mockingbird and Darwin's finches,BS21 7EY,51.445072648210900,-2.851217797997280
Rat and Shearwater,BS48 4RL,51.424568394006900,-2.779268114538040
Ice seal and Herring gull,BS5 8NQ,51.457273707246700,-2.521126936676940
Old World vulture and Bunting,BS5 7HY,51.462906000000000,-2.544382853428160
Asiatic leopard and Grackle,BS5 0DU,51.459513385760900,-2.569284489094770
Diving bird and Chicken,BS48 1HD,51.434146922746200,-2.741496006492880
Elephant and Kangaroo,BS41 8LB,51.401330245445700,-2.628693440701920
Rat and Songlark,BS27 3AY,51.278829723277900,-2.785745218753190
Quetzal and Stilt,BS6 5TA,51.463523320805200,-2.592927534415220
Asiatic leopard and Old World warbler,BS30 8UP,51.449704526870800,-2.474127877668540
Wallaby and Shearwater,BS30 8XZ,51.448948137269400,-2.467687623541840
Prion and Ice seal,BS49 4QF,51.391492924909100,-2.832099226044770
Nukupuʻu and Chicken,BS4 5EG,51.426784711737300,-2.552178533260600
Mockingbird and Pitohui,BS21 6SE,51.442781519472400,-2.774470269863740
Mockingbird and Kite,BS21 6SD,51.440736693329300,-2.777744864693420
American sparrow and Darwin's finches,BS21 7YH,51.428001077678800,-2.867859014936230
Old World warbler and Linsang,BS8 4QJ,51.449058960942900,-2.620110425704170
Petrel and Coati,BS3 4PA,51.438661614401300,-2.594662773793610
Rabbit and Herring gull,BS8 2QN,51.466242179738800,-2.611518844506490
Mole and Lemming,BS13 9JP,51.411136192241000,-2.609028928630050
Egret and Minke whale,BS21 7SH,51.438885293934900,-2.862425528637760
Magpie and Rabbit,BS26 2JG,51.277536000000000,-2.856264786081260
Chipmunk and Meadowlark,BS40 5LS,51.360005168866300,-2.767313607347010
Grouse and Duck,BS48 2DG,51.435139714123800,-2.766083409354180
Warbler and Petrel,BS3 1DR,51.443682888337500,-2.600943893389180
Parakeet and Buzzard,BS3 2JP,51.442113000000000,-2.631354000000000
Tit-tyrant and Skunk,BS8 4DJ,51.454084668390400,-2.623618206432900
Diving bird and Nukupuʻu,BS4 4RB,51.442238000000000,-2.541572474570110
Chickadee and Grackle,BS13 7JH,51.427739917241600,-2.613233990299960
Grackle and Mink,BS39 7SH,51.300788495662500,-2.490391904119480
Mamo and Quetzal,BS15 9AF,51.460873000000000,-2.495548000000000
B and Prion,BS13 7QZ,51.421048582814700,-2.606615197183390
Egret and Towhee,BS48 1LF,51.441922000000000,-2.730730000000000
American sparrow and Prion,BS1 2LA,51.456465350996000,-2.592836045306040
Jay and Parakeet,BA3 4XJ,51.260528730000000,-2.505913901000000
Recurvebill and Hawaiian honeycreeper,BS15 3LL,51.437997000000000,-2.522965970858650
Mouse and Petrel,BS5 0BL,51.456996639755800,-2.565381511074320
Grackle and Masked owl,BS48 2YQ,51.432455641261900,-2.758486278430640
Gull and Macaw,BS3 2QP,51.430172000000000,-2.624587000000000
Wader and Puffleg,BS40 7UB,51.329298118883000,-2.716178246670830
Petrel and Prion,BS4 1HZ,51.422359071200900,-2.580443109398080
Jay and Kākāriki,BS29 6ND,51.318054000000000,-2.878137000000000
American sparrow and Hawaiian honeycreeper,BS13 7DB,51.419100361297500,-2.619791054385430
Darwin's finches and Thicketbird,BS14 9QL,51.408235527501000,-2.572644132627980
Skunk and Boto,BS13 0NJ,51.402463281532200,-2.597758159034420
Ibex and Wallaby,BS14 9TD,51.426196995295100,-2.569761964463470
B and Prion,BS8 4LE,51.453047792141000,-2.624150952149540
Tit-tyrant and Mockingbird,BS4 1RE,51.426133814582800,-2.596902053726900
Logrunners and Boto,BS3 5HW,51.435235696743500,-2.592906342840260
Perching duck and Chickadee,BS30 5NU,51.452852594488100,-2.469411336704910
Tattler and Thicketbird,BS5 8HQ,51.460458759369100,-2.538579774332140
Bunting and Zebra,BS5 0LP,51.466707934454900,-2.567171493769220
Chipmunk and Piping shrike,BS4 1RN,51.426069480421100,-2.593636258635200
Fish eagle and Scimitar babbler,BA3 4TG,51.241183780000000,-2.540827174000000
Capuchin and Hawaiian honeycreeper,BS4 3AZ,51.441837469336000,-2.574474487545800
Linsang and Eagle,BS4 3BQ,51.441644949744600,-2.573392974908950
Perching duck and Vole,BS21 6QY,51.441130828197700,-2.818886673082790
Asiatic leopard and Shearwater,BS30 9QS,51.442764511996000,-2.473753817161180
Mink and Pratincole,BS2 0TH,51.447722000000000,-2.564634000000000
Capuchin and Mockingbird,BS5 7JP,51.463269075927000,-2.539462160146710
Kestrel and Nukupuʻu,BS41 9HA,51.430967333039800,-2.661293115505000
Polecat and Petrel,BS49 4JE,51.383514394257500,-2.814581293722680
Badger and Mockingbird,BS1 6BA,51.453765000000000,-2.590097006301800
Argus and Dolphin,BS31 1QY,51.404513071647900,-2.484974258682850
Black jay and Diving bird,BS15 9TR,51.462674189728200,-2.501309632615540
Pitohui and Scimitar babbler,BS5 5GE,51.463503000000000,-2.556653000000000
Tit-tyrant and Peafowl,BA5 2XQ,51.214440850000000,-2.635750516000000
Ground sloth and Fox,BS5 8QQ,51.454656742959600,-2.529243002510710
Towhee and Herring gull,BS27 3XF,51.250710729971700,-2.743226193978540
Hawaiian honeycreeper and B,BS3 5LY,51.433304068900000,-2.592593619911140
Booted eagles and Asiatic leopard,BS39 4JB,51.389546449493700,-2.545277133073060
Thrasher and Viscacha,BS48 4RW,51.424553322009500,-2.773399711218180
Darwin's finches and Cuscus,BS1 5EP,51.449663000000000,-2.598966000000000
Kākāriki and Boto,BS21 5HB,51.426035385618500,-2.855150125911240
Goose and Prion,BS40 7UN,51.337002589215200,-2.714963301100270
Prion and River dolphin,BS15 8DN,51.458604000000000,-2.519444000000000
Chicken and American sparrow,BS27 3LN,51.284027172863500,-2.780085000000000
Pitohui and Maya,BS8 3RB,51.461935766206000,-2.669024339633380
Nukupuʻu and Parrotbill,BS8 4QL,51.449566267385800,-2.621095852619680
Badger and Crow,BS49 4HL,51.385034297232500,-2.817123098512200
Siskin and Grackle,BA5 3JH,51.214794090000000,-2.631961335000000
Fulmarine petrel and Skunk,BS4 5HA,51.425657009339100,-2.543607000000000
Badger and Kestrel,BS5 8FP,51.455969931155300,-2.540196760164510
Capuchin and Magpie,BS2 8RH,51.459831598609300,-2.585123000000000
Scimitar babbler and Old World quail,BS8 3QX,51.460738000000000,-2.663177000000000
Dolphin and Quetzal,BS13 9PE,51.411420465424700,-2.606228903958000
Peafowl and Meadowlark,BS4 3AH,51.442142195680300,-2.576507035408970
Marmoset and Puffleg,BS49 4NR,51.386127213971100,-2.783500806664170
Maya and Logrunners,BS31 2QD,51.406651584852400,-2.506576653510190
Ice seal and Egret,BS14 9PE,51.412765777713500,-2.559946690583460
Dolphin and Lemming,BS8 4EA,51.456476299583700,-2.618555815889310
Moluccan boobook and Ibex,BS30 7DZ,51.442641414973400,-2.492701821902820
Flameback and Towhee,BS40 5EA,51.334706036640100,-2.781661905230760
Duck and Moluccan boobook,BS8 3SN,51.459282290045600,-2.693929567102060
Tree warbler and Perching duck,BS4 2BX,51.440118702780600,-2.576582260124870
Pratincole and Guillemot,BS48 1HN,51.431856357836000,-2.741128057337590
Masked owl and Old World vulture,BS40 5TW,51.375174024413600,-2.699897743350370
Parrotlet and Fulmarine petrel,BS15 4AJ,51.461642686326500,-2.496490663588450
Mole and Black cockatoo,BS15 1RY,51.463259098247200,-2.511824000000000
Cuscus and Kangaroo,BA5 1JN,51.210452890000000,-2.688950476000000
Booted eagles and Puffleg,BS6 5NH,51.464596000000000,-2.589027563302400
Armadillo and Chickadee,BS40 7AD,51.330497558418000,-2.748678304389050
Siskin and Partridge,BS31 2PW,51.408211667851000,-2.505529972319520
Pheasant and Capuchin,BS28 4QF,51.248032754759300,-2.842516176655700
Badger and Fish eagle,BS14 9PU,51.408043859000200,-2.565826850995510
Perching duck and Logrunners,BS2 8EQ,51.459755474381800,-2.598305096849360
Mamo and Rat,BS13 0LQ,51.409650276169000,-2.595479555872220
Grackle and Pheasant,BS8 4JF,51.455935930786300,-2.622117841274600
Piping shrike and Old World vulture,BS4 3LA,51.439541147892100,-2.558447006916650
Hawk and Nukupuʻu,BS48 1UE,51.422971000000000,-2.705067674152530
Egret and Tahr,BS39 5BS,51.316771294590700,-2.540467576760600
Hawaiian honeycreeper and Coati,BA5 3HG,51.208536110000000,-2.581600643000000
Pheasant and Mink,BA3 4RS,51.254251520000000,-2.491343678000000
Jerboa and Masked owl,BS6 5BE,51.466148364940700,-2.589463424859820
River dolphin and New World blackbird,BS4 5JX,51.428806919438600,-2.542752696365100
Wallaby and Argus,BS14 0AR,51.414664273188700,-2.576376874555690
Coati and Rabbit,BS2 0DT,51.457823441968100,-2.580187769821930
Mouse and Mockingbird,BS48 9DB,51.432482000000000,-2.758563000000000
Civet and Old World vulture,BS15 8ET,51.454224981027000,-2.513104715576730
Condor and Ibex,BS40 5DH,51.332127844518200,-2.767694890006730
Meadowlark and Stint,BS31 2GS,51.401119000000000,-2.515155000000000
Warbler and Bunting,BS41 9BS,51.428467260069600,-2.670851048177700
Magpie and Marmoset,BS15 3NT,51.430889000000000,-2.505730809288580
Stint and Mouse,BS6 6DR,51.462212908694300,-2.601288102918300
Vulture and Skunk,BA3 4QE,51.270169620000000,-2.468836676000000
Kangaroo and Meadowlark,BS48 1JG,51.435323171476600,-2.741759620370370
Night heron and Zebra,BS3 1RZ,51.443854809131200,-2.618025494423500
Mamo and Thicketbird,BS48 4BA,51.429538633278300,-2.774174352776500
Black cockatoo and Mink,BS39 5PF,51.330603209008700,-2.537974922524180
Vulture and Scimitar babbler,BS48 3PT,51.419607700241800,-2.725628346656970
Polecat and Cuscus,BS4 4DP,51.452100894201800,-2.547346366804750
Prion and Prion,BS3 4QP,51.437585638330000,-2.588721482250490
Coati and Dorcopsis,BS2 0BS,51.445153136897100,-2.565695622949530
Parrotlet and Mockingbird,BS2 8UQ,51.463842685732100,-2.586641087450470
Myna and Minke whale,BS3 3BA,51.440006293449700,-2.605988778519740
Rabbit and Jerboa,BS15 4AG,51.462203375402300,-2.499965794702690
Shearwater and Grosbeak,BS8 1US,51.455843342846300,-2.601967174434770
Meadowlark and Fish eagle,BS25 1HN,51.315040867310900,-2.831245855083150
Macaw and Duck,BS13 7EW,51.422642837098800,-2.616430456180520
Civet and Darwin's finches,BS31 1AP,51.409443405438700,-2.501373999806100
Shearwater and Ibex,BS1 5TR,51.452606273377200,-2.601982147049820
Capuchin and Grouse,BA2 0AT,51.343655960000000,-2.485235835000000
Tattler and Egret,BS30 6RE,51.436635004426900,-2.475287254106310
Siskin and Marmoset,BS5 7JL,51.463557454268700,-2.539321613808280
Rat and Philippine hawk-owl,BS31 2HJ,51.413083000000000,-2.512442000000000
Mole and Jay,BS1 6ZJ,51.446851000000000,-2.598440000000000
Condor and Old World quail,BS15 1JP,51.465452928750100,-2.513691349462620
Logrunners and Duck,BA3 2PD,51.280014080000000,-2.493296093000000
Mole and Old World vulture,BA3 4DJ,51.276998000000000,-2.541107273000000
Maya and River dolphin,BS28 4DD,51.225102000000000,-2.811079000000000
Chipmunk and Rat,BS99 7DG,51.458433981649100,-2.574179466890470
Jay and Moluccan boobook,BA5 2JQ,51.212533230000000,-2.660334246000000
Chipmunk and Boto,BS14 0AP,51.415449687100500,-2.577565893749080
Songlark and Chipmunk,BS2 0AX,51.457724014819200,-2.578358000000000
Pheasant and Old World vulture,BS40 6EE,51.307840538887000,-2.630714163946910
American sparrow and American sparrow,BA5 2HX,51.210624500000000,-2.655969222000000
Snipe and Zebra,BS5 9LT,51.458397000000000,-2.562376000000000
Goose and Philippine hawk-owl,BS24 7LW,51.337119000000000,-2.901160000000000
Vole and Fish eagle,BS5 0RD,51.462677965687300,-2.565667663100100
Tit-tyrant and Marsh harrier,BA3 4XF,51.261950000000000,-2.513240000000000
Chipmunk and Dolphin,BA3 4JJ,51.256033220000000,-2.512012061000000
Francolin and Goose,BS3 1BU,51.441765213584700,-2.599666957624300
Parakeet and Treepie,BS14 8EW,51.412563566803900,-2.553301209783700
Parrotlet and Pratincole,BS3 5AE,51.438616279836900,-2.582203038447370
Rat and Vole,BS8 1TY,51.459239539134800,-2.605970081604820
Badger and Fulmarine petrel,BS30 5NT,51.451910415969200,-2.468926761821680
Eagle and Bronzewing pigeon,BS30 7DQ,51.441672871472500,-2.494230901444260
Triller and Chicken,BS3 5HQ,51.435410517766800,-2.588549649274930
Rat and Jerboa,BS13 8LW,51.411231661963100,-2.625206000000000
Mamo and Grosbeak,BS25 1RS,51.307896159113800,-2.808865694688530
Cuscus and Black cockatoo,BS2 2EQ,51.458764000000000,-2.575336000000000
Marmoset and River dolphin,BS49 5HB,51.362303206606200,-2.802771699713810
Dorcopsis and Ground sloth,BS1 2AW,51.454237243916400,-2.592476157056380
Argus and Magpie,BS2 0EP,51.455849000000000,-2.581458000000000
Songlark and Tit-tyrant,BA3 2FB,51.296548850000000,-2.489644000000000
Moluccan boobook and Prion,BS21 6TA,51.432451521043100,-2.845790069374890
Triller and Solitaire,BS25 1JT,51.323970383925400,-2.833703527334460
Old World vulture and Greenbul,BS13 9DL,51.405693454409200,-2.619839746114350
Perching duck and Nukupuʻu,BS27 3HN,51.277722685427700,-2.781869722808510
Fish eagle and Grosbeak,BS14 8TS,51.413440969980900,-2.536718351154230
Perching duck and Francolin,BS28 4DX,51.225865751912600,-2.804404771841330
Ibex and Kangaroo,BS1 6UG,51.447175654195700,-2.605407400603120
Puffleg and Pheasant,BS20 8PU,51.465035000000000,-2.797670208056790
Old World quail and Perching duck,BS8 3HU,51.463016351529100,-2.624747617958930
Wader and Dolphin,BS8 1TD,51.457430000000000,-2.603082000000000
Greenbul and B,BS28 4HN,51.241376000000000,-2.807365394089570
Macaw and Armadillo,BS28 4JQ,51.255060656232600,-2.806046366871080
Buzzard and Bronzewing pigeon,BS3 1RL,51.445174856536700,-2.614935279491700
Peafowl and Fulmarine petrel,BS4 4PP,51.438455168973200,-2.550420234236760
Philippine hawk-owl and Pheasant,BS31 1PY,51.405587434491200,-2.483921761916250
Flameback and Diving bird,BS5 7RN,51.463778641761700,-2.532241937741670
Meadowlark and Mouse,BS13 0JL,51.406188071058000,-2.600840255051320
Egret and Grouse,BS4 5LF,51.428887000000000,-2.541346340477490
Stint and Maya,BS13 0QD,51.403212687138200,-2.588265465966830
Wallaby and Mockingbird,BS49 5DZ,51.371198460544600,-2.812868584336810
Jerboa and Egret,BS29 6DB,51.328667378703500,-2.866526000000000
Mamo and Ibex,BS15 3JH,51.445192007520000,-2.520442552147160
Pheasant and White ibis,BS13 0NG,51.402425944359600,-2.596262604332230
Tahr and Nukupuʻu,BS27 3AX,51.277907253490000,-2.786532340891430
Thicketbird and Vole,BS6 6EP,51.465515198065900,-2.604325781251930
Jerboa and Zebra,BS8 4QB,51.449084319889000,-2.618714908997930
Songlark and Wallaby,BS49 4BP,51.391527139519600,-2.831079406720780
Zebra and Ground sloth,BS5 9HL,51.459476152993000,-2.554545032560160
Coati and Solitaire,BS15 4EA,51.464920806056400,-2.497389969627140
Marsh harrier and Petrel,BS15 9YF,51.456609114009800,-2.487512606039850
Logrunners and Jay,BS5 9HF,51.459429630708100,-2.554875519680280
Prion and Wallaby,BS13 8HJ,51.411909938609900,-2.622627025330290
Hawaiian honeycreeper and Puffleg,BS26 2BX,51.287634223753500,-2.815779900467160
Coati and Diving bird,BS8 2AX,51.461180392472100,-2.611422375670470
Pheasant and Puffleg,BS8 2XE,51.466481837838500,-2.618964669148520
Chickadee and Recurvebill,BS4 2AP,51.435695000000000,-2.567249000000000
Meadowlark and Old World vulture,BS4 5BY,51.430074390374000,-2.552448354621210
Darwin's finches and Cuscus,BS4 1LY,51.426509046717600,-2.581286786432120
Pitohui and Eagle,BS21 9DG,51.440090000000000,-2.857518000000000
Tit-tyrant and Fulmarine petrel,BS4 5HE,51.426918554155900,-2.544715209846780
Civet and Snipe,BS27 3JQ,51.282942734296400,-2.773039873618240
Hawk and Kite,BS2 9LJ,51.464141290272900,-2.579029948498940
Darwin's finches and Black cockatoo,BS8 3NH,51.460185270343900,-2.626191509483230
Tit-tyrant and Old World quail,BS8 4DD,51.453646329077400,-2.623194870584890
Parrotlet and Pratincole,BS15 4ES,51.460996699486500,-2.491891967298950
Fulmarine petrel and Elephant,BS13 8SD,51.405160004185800,-2.625468128486590
Fox and Quetzal,BS4 4TD,51.437751248976000,-2.533478614618090
Old World vulture and Ground sloth,BS1 2NB,51.455989625974500,-2.592671562894840
Parakeet and Eagle,BS41 9BZ,51.427419035689700,-2.671756238647050
Pratincole and Scimitar babbler,BS4 1UL,51.419711909953100,-2.588376673957400
Solitaire and Nukupuʻu,BS41 9FF,51.426481245913000,-2.670649355817040
Black jay and Petrel,BS1 5UT,51.451419722532600,-2.605405993132830
Macaw and Argus,BS13 8AQ,51.414283386277100,-2.641036142440980
Kākāriki and Black jay,BS8 3DH,51.457438684825900,-2.615085738400820
Parrotbill and Siskin,BS20 8QD,51.463993769906000,-2.795831894671460
Petrel and Tahr,BS2 8BL,51.460409696463900,-2.600487128146030
Tit-tyrant and Boto,BS39 6XY,51.325033883845200,-2.512679961774520
Gull and Thrasher,BS5 0UQ,51.463599228593300,-2.572228714729040
Myna and Moluccan boobook,BS4 1EB,51.430465050892100,-2.579538954011530
Diving bird and Moluccan boobook,BS27 3NF,51.277320622683600,-2.773361240561950
Skunk and Recurvebill,BS8 2JQ,51.463057082051400,-2.615348429992180
Jay and Logrunners,BS21 5EU,51.429059529828000,-2.858443040852230
Coati and White ibis,BS3 1EZ,51.440109383996300,-2.608651828145890
River dolphin and Songlark,BS22 7AD,51.358855167402300,-2.898665158622270
Fulmarine petrel and Cuscus,BS15 4JT,51.461162742320500,-2.484408852070420
Recurvebill and Towhee,BS49 4JW,51.382354562672100,-2.811974185089220
Macaw and Stilt,BS5 8NZ,51.456319030494700,-2.527506345696560
Shearwater and Parrotlet,BS1 1BU,51.453618422682600,-2.594080000000000
Booted eagles and Guillemot,BA3 4DZ,51.278584980000000,-2.518126651000000
Booted eagles and B,BS30 8HF,51.445170133447600,-2.487908729667900
Old World vulture and B,BS27 3EA,51.275770486263600,-2.786037082134940
Tattler and B,BS31 3LD,51.400831373033600,-2.468303321033290
Argus and Cloud rat,BS40 6DL,51.294178993933300,-2.634571278606960
Greenbul and Parakeet,BS49 4JU,51.385388151377200,-2.812789523629070
Snipe and Old World warbler,BS25 5RT,51.331878392924800,-2.826784950988010
Philippine hawk-owl and Macaw,BS30 7EA,51.442609197384100,-2.491809406071380
Dolphin and Scimitar babbler,BA2 9HN,51.356481000000000,-2.484883000000000
Booted eagles and Mouse,BS39 6TQ,51.300061283486900,-2.533314566609010
Mockingbird and Parrotbill,BS15 4JB,51.463384000000000,-2.488866000000000
Cuscus and Francolin,BS48 3BL,51.405953923426500,-2.742103662586280
Duck and Chicken,BS40 5LY,51.358778621750300,-2.763745669352480
Pitohui and Masked owl,BS1 3NW,51.459952000000000,-2.593543000000000
Kite and Stilt,BS25 1NN,51.304817375918600,-2.826111964038210
Condor and Myna,BS49 4HY,51.386209915063200,-2.814873469995090
Ibex and Gull,BS3 3AU,51.438825562714900,-2.606534242964990
Kangaroo and Boto,BS13 7JB,51.425827905430500,-2.612618683303360
Bunting and Fish eagle,BS2 8DW,51.457490057686100,-2.596447561207260
Darwin's finches and Bronzewing pigeon,BS31 1XN,51.400253574049300,-2.486524800796540
Condor and Asiatic leopard,BS31 2GJ,51.422700000000000,-2.494055000000000
Polecat and Linsang,BS5 7PJ,51.459762088600100,-2.529661917890020
Black cockatoo and Philippine hawk-owl,BS14 0BD,51.410933694488600,-2.592404897196730
Kite and Kākāriki,BS8 9HH,51.454490945862900,-2.614139736961700
Snipe and Logrunners,BS26 2QP,51.268485700126100,-2.867673736330980
Logrunners and Polecat,BS15 3NH,51.437693378185800,-2.514242948733660
Puffleg and Jackal,BS21 6HA,51.437361472794100,-2.843233609306890
Chicken and Solitaire,BS5 0XH,51.462179888678300,-2.570109372659330
Hawk and Hawk,BS13 9LA,51.408182251782600,-2.609924203110130
Kestrel and Jackal,BS39 7PT,51.314085666007500,-2.486501946929880
Rat and Condor,BA3 4HA,51.261590690000000,-2.503618173000000
Old World vulture and Piping shrike,BS8 4PE,51.453485102192600,-2.617982879852880
Prion and Mouse,BS48 2ST,51.429335486449700,-2.744467541499190
Jay and Jay,BA3 4GY,51.262338710000000,-2.513572663000000
Towhee and Argus,BS40 8DT,51.362573743680700,-2.685155645129300
Bronzewing pigeon and Kestrel,BS21 7PH,51.442851000000000,-2.857694000000000
Magpie and Old World warbler,BS40 8BX,51.367911115436100,-2.660771925092700
Petrel and Viscacha,BS21 7JX,51.444252099115000,-2.846569292479610
Siskin and Francolin,BS4 4LR,51.434240102961700,-2.544212513303270
Eagle and Mamo,BS8 3DS,51.460753000000000,-2.616008000000000
Stint and Logrunners,BS5 0FE,51.461514682874100,-2.567380000000000
Jerboa and Jay,BS6 5PA,51.466114981904600,-2.579933074600570
Black jay and Philippine hawk-owl,BS28 4NQ,51.225657522730800,-2.842923720580970
Wader and Mockingbird,BS3 1XA,51.442324572925600,-2.599300194006650
Piping shrike and Tree warbler,BS48 1QH,51.433154506950800,-2.747680037487920
Black jay and Logrunners,BS41 8JB,51.400227544220600,-2.636412057249670
Puffleg and Pratincole,BA5 3DU,51.214826240000000,-2.589640256000000
Eagle and Peafowl,BA5 1DH,51.226008340000000,-2.664207546000000
Cloud rat and Fox,BS40 8AG,51.386631162186500,-2.664102581285160
Black cockatoo and Polecat,BS39 4DN,51.341739409363100,-2.580371285958300
White ibis and Warbler,BS31 1DE,51.410732786568200,-2.502639013598230
Kākāriki and Gull,BS21 7AB,51.449769000000000,-2.843427808362480
Scimitar babbler and Boto,BS15 1AT,51.462786488796600,-2.516856990331940
Badger and Mink,BS5 0EB,51.459374901014100,-2.566317700453260
Moluccan boobook and Cuscus,BS40 8RT,51.362718852889400,-2.597929835777870
Triller and Vulture,BS28 4PR,51.235509000000000,-2.839952000000000
Capuchin and Dolphin,BS13 8PY,51.407492647159600,-2.622941000000000
Treepie and Boto,BS1 6XS,51.447676000000000,-2.623401000000000
Linsang and Francolin,BS48 2XB,51.428363439560400,-2.771033177482410
Rabbit and Mole,BS48 3EJ,51.406104000000000,-2.719721000000000
Chicken and Shearwater,BS40 6EL,51.300922605825000,-2.655835968117070
Guillemot and Gull,BS39 4NT,51.360082882871800,-2.506708827600680
Hawk and Condor,BS40 5SR,51.366939079640300,-2.749071517487900
Coati and Partridge,BS4 2RZ,51.431696437194400,-2.577813976883020
Parakeet and Mole,BS24 8PA,51.328712402729800,-2.898893744201620
Marsh harrier and Grosbeak,BS41 9EN,51.431995143672100,-2.660804486310890
Hawk and Jackal,BS21 6XW,51.401513808756700,-2.872345762333140
Zebra and Hawaiian honeycreeper,BS21 6QH,51.430503868431400,-2.864023000000000
Ground sloth and Piping shrike,BS13 9QW,51.412682701719500,-2.603829954738380
Prion and Old World vulture,BS2 2EF,51.458766000000000,-2.575335000000000
Diving bird and Guillemot,BS39 5PP,51.331732478918700,-2.540729663101480
Ground sloth and Scimitar babbler,BS5 9DS,51.460825445716000,-2.558217460841700
Bunting and Gull,BS3 3LQ,51.439665712003300,-2.602286722064650
Puffleg and Marmoset,BS13 0JN,51.406188071058000,-2.600840255051320
Chickadee and Peafowl,BS15 3NA,51.441073057217000,-2.514511126463970
Crow and Triller,BS8 1PW,51.461402723050100,-2.603106000000000
Peafowl and Quetzal,BA3 2LA,51.278980650000000,-2.499507291000000
Solitaire and Wader,BS8 3PL,51.454208125431300,-2.638473000000000
Parrotbill and Kestrel,BS40 5RL,51.358752288770400,-2.716695097722880
Armadillo and Solitaire,BS1 3LZ,51.459079856949000,-2.587889801552030
Black cockatoo and Recurvebill,BS4 2JF,51.437473418754600,-2.567729930884790
Elephant and Treepie,BS4 4TY,51.434419008352200,-2.530692121024780
Siskin and Diving bird,BS13 9AQ,51.411379507982700,-2.614093383510630
Hawaiian honeycreeper and Lemming,BS24 6RQ,51.366008431559600,-2.873078478594460
Herring gull and Philippine hawk-owl,BS24 7AN,51.333832313632500,-2.894917246880010
Dorcopsis and Cloud rat,BS4 2JJ,51.436313062682900,-2.565960414860490
Argus and Lemming,BS31 1RB,51.404516158457400,-2.490710414912170
Tattler and Piping shrike,BS13 8RP,51.404409783051200,-2.629555132910600
Peafowl and Prion,BS39 5BA,51.299753878214100,-2.575437957923390
Cuscus and Dolphin,BS48 1JB,51.437245722722200,-2.753300113626150
Black cockatoo and Chicken,BS2 0PL,51.455918158524500,-2.578177447830370
Kite and Booted eagles,BS13 9DR,51.404716391045700,-2.619265852483600
Kangaroo and Fish eagle,BA3 4AX,51.279017990000000,-2.473213565000000
New World blackbird and Grosbeak,BS39 4HA,51.382253000000000,-2.584979000000000
Recurvebill and Ice seal,BS48 1JP,51.442117665925200,-2.745107072913940
Flameback and Chicken,BS30 6UU,51.433276497358500,-2.478632921900750
Bronzewing pigeon and Francolin,BS41 9AY,51.426944106083000,-2.663579507861610
Magpie and Tahr,BS21 7EA,51.449061946945100,-2.846672662051090
Tattler and Dorcopsis,BS15 9WZ,51.455651767941000,-2.501304628134530
Darwin's finches and Wader,BS30 8HS,51.447353000000000,-2.488764672091050
Chickadee and Vole,BS4 2LL,51.434772563469200,-2.562834040187060
Warbler and Maya,BS4 2UN,51.428331811217700,-2.567127531473540
Egret and Mamo,BS40 7XN,51.309963734023900,-2.697111484671410
Peafowl and Mamo,BS2 0DB,51.457528303668600,-2.579867381491030
Black jay and Hawaiian honeycreeper,BS2 0TZ,51.450798573520500,-2.560167000000000
Towhee and Nukupuʻu,BS48 1ND,51.435015407580900,-2.740661300096180
Rat and Coati,BS41 9NW,51.428964756926200,-2.662429300175950
Towhee and Jay,BA5 2XY,51.212135270000000,-2.638066633000000
Argus and Gull,BS40 7RL,51.329011138019000,-2.717522933613960
Flameback and Pratincole,BS13 0RQ,51.404141000000000,-2.591627000000000
Polecat and Duck,BS3 2BJ,51.441357000000000,-2.619512246830370
Stilt and Parakeet,BS21 6JH,51.430953468060900,-2.853976108435260
Lemming and Buzzard,BS41 8JZ,51.404182000000000,-2.637085000000000
Francolin and Magpie,BS41 9AR,51.426607613257700,-2.667414967824640
Mockingbird and Vole,BA3 4LW,51.262038220000000,-2.594156970000000
Jackal and Vole,BS48 4LX,51.426400061546000,-2.761895502165220
Kite and New World blackbird,BS30 6QY,51.436190000000000,-2.472306626077620
Mouse and Old World warbler,BS31 2ED,51.392646000000000,-2.478280000000000
Hawk and Mouse,BS8 9JN,51.454512000000000,-2.614113000000000
Grouse and Fish eagle,BS24 8PL,51.328380259006200,-2.903494465633790
Buzzard and Snipe,BS13 7NG,51.419195844000800,-2.613608549280000
Philippine hawk-owl and Stilt,BS28 4DW,51.222380504991300,-2.799933555079860
Minke whale and Capuchin,BS13 9EE,51.405534047835700,-2.619377537646080
Condor and Jackal,BS6 5SR,51.465710353913900,-2.594294675493920
Eagle and White ibis,BS21 6HH,51.435087264772500,-2.850600552138570
B and Marmoset,BS4 2RT,51.432550807768800,-2.575954697514780
Warbler and Mamo,BS21 7NH,51.437812974368500,-2.852909945499080
Tit-tyrant and Mouse,BA3 5DH,51.243080820000000,-2.472357427000000
Bronzewing pigeon and Old World vulture,BS8 4LF,51.453810629067600,-2.619340106183710
Dolphin and Grackle,BS8 1JL,51.456123551156300,-2.610376092676450
Warbler and Pitohui,BS1 5LE,51.455600767404100,-2.603676672299100
Cloud rat and Thrasher,BS22 7FH,51.372705911461800,-2.912211097045870
Gull and Old World vulture,BS48 4FN,51.428884898919000,-2.777845623329950
Cuscus and Thicketbird,BS41 8NB,51.401816140451700,-2.623582435493700
Myna and Coati,BS30 7AE,51.445120018646200,-2.489145649002850
Grouse and Thrasher,BS5 7LT,51.461386954697600,-2.534200493713750
Kite and Francolin,BS39 5XS,51.334076961162300,-2.596753179559350
Peafowl and Mockingbird,BS5 9PG,51.456068640289700,-2.552575131243550
White ibis and Diving bird,BS27 3DS,51.277544338847800,-2.787013591216520
Stilt and Mockingbird,BS5 8TL,51.452837315836000,-2.527941115440790
Kangaroo and Civet,BS48 1NE,51.434708713632900,-2.717696493683530
Maya and Gull,BS2 9NY,51.463431565278100,-2.578905803961680
Coati and Eagle,BS14 0TP,51.405173167792700,-2.555037789889110
Eagle and Guillemot,BS21 7DA,51.451193066144500,-2.847906559514010
Tahr and Grackle,BS40 8RE,51.367047390668400,-2.609320000000000
Capuchin and Crow,BS48 4YD,51.423960309106600,-2.754016446661980
Ibex and Cuscus,BS5 7DL,51.465575843229700,-2.550012453153950
Capuchin and Masked owl,BS48 3NE,51.416977824178300,-2.746510000000000
Petrel and Tree warbler,BS48 2AF,51.434368762711300,-2.768472935929820
Ibex and Siskin,BS25 1AR,51.311643956194500,-2.837267759795840
Partridge and Mockingbird,BS1 4RG,51.447595081869200,-2.595498354319260
Condor and Old World warbler,BS4 9GX,51.445920000000000,-2.583435000000000
Bronzewing pigeon and American sparrow,BS25 1LP,51.312744059803000,-2.825436535479430
Fulmarine petrel and Siskin,BS15 4BH,51.464614039484800,-2.503950813262340
Mamo and Vole,BS3 3JX,51.434167135215200,-2.610140856095350
Meadowlark and Fish eagle,BS4 1EX,51.425383230262300,-2.581660832786710
Recurvebill and Zebra,BS2 8DB,51.460959000000000,-2.602308000000000
Ground sloth and Egret,BS27 3DE,51.282657175077800,-2.786212020772790
Booted eagles and Eagle,BS48 4PE,51.426631161278200,-2.751169367328780
Bunting and Pratincole,BS21 6YL,51.436911583294500,-2.838261930260760
Kestrel and Petrel,BS41 8JD,51.398806231606700,-2.634868623260330
Condor and Egret,BS22 7LU,51.370000547213500,-2.912056759503540
Tahr and Black cockatoo,BS15 9PG,51.456004918607300,-2.494371350595850
Buzzard and Pitohui,BS21 6EF,51.435797887226600,-2.845592935823900
Mouse and Cuscus,BA3 4UQ,51.241973950000000,-2.550706748000000
Civet and Mink,BS3 4RX,51.441312392142400,-2.582481927382600
Pratincole and Hawaiian honeycreeper,BS28 4NY,51.225858017614000,-2.843800949381430
Lemming and Petrel,BS29 6AU,51.327867893423900,-2.876257637934830
Meadowlark and Polecat,BS48 1HP,51.437220193938900,-2.758651537015050
Myna and Kestrel,BS30 8YD,51.448025278677400,-2.469117180021820
Solitaire and Civet,BS8 3JA,51.459531351637500,-2.620655414349000
Old World warbler and Mouse,BA3 4FH,51.262301420000000,-2.513873216000000
Rabbit and Chicken,BA5 2LU,51.214074820000000,-2.658036959000000
Kangaroo and Chipmunk,BS14 9PB,51.410073390941500,-2.564500378481650
Perching duck and Crow,BS6 6AW,51.465916928527200,-2.596111204908470
Mink and Prion,BS15 4EE,51.463639410767600,-2.498470038466470
Kestrel and Piping shrike,BS49 4AX,51.393696414439400,-2.826950533534720
Coati and Quetzal,BS14 0PP,51.406319311786600,-2.559824786188100
Fox and Moluccan boobook,BS14 9TA,51.427213065751400,-2.566049303194730
Mamo and Towhee,BS15 9TF,51.459796273299800,-2.501450810155710
Piping shrike and Grackle,BA3 4DQ,51.281334000000000,-2.542689000000000
Dorcopsis and Mole,BS8 2LY,51.462257509006600,-2.608327574060100
Booted eagles and Lemming,BS3 4QH,51.438251412246900,-2.588643723751260
Goose and Dorcopsis,BS49 4RA,51.392468084281600,-2.835322032728170
Scimitar babbler and Mouse,BS31 2PG,51.407309849050700,-2.512349162378510
Guillemot and Linsang,BS48 3LF,51.416101204019900,-2.749860680051720
Chipmunk and B,BS40 6AE,51.296865276697100,-2.624970051466970
Songlark and Solitaire,BS8 4BS,51.454087000000000,-2.625159992200430
Kite and Wallaby,BS15 9QQ,51.455626566045200,-2.507162020950040
Mouse and Recurvebill,BS5 9JT,51.458730240761900,-2.560134986897290
Prion and Treepie,BS31 1PN,51.404856465869600,-2.484560978604220
Viscacha and Pheasant,BA5 1BT,51.225144790000000,-2.670567686000000
Cuscus and Fulmarine petrel,BS30 7BB,51.446477752958200,-2.489145773864700
Kangaroo and Armadillo,BS4 1DN,51.428522684556300,-2.583196630592040
Condor and Songlark,BS49 4FL,51.396880000000000,-2.835579000000000
Mink and B,BS13 7RN,51.416334131629000,-2.615770361012890
Grackle and Scimitar babbler,BS1 6FF,51.447625258399300,-2.585943894874930
Fulmarine petrel and Logrunners,BS1 6PB,51.447688901984700,-2.587715000000000
Vole and Ice seal,BS6 6EF,51.464042731285900,-2.607386855120530
Songlark and Perching duck,BS31 2LW,51.408376883274500,-2.515078435925690
Siskin and Masked owl,BS2 0AG,51.457771302344000,-2.574343542261410
Marmoset and Tahr,BA2 0FD,51.339782000000000,-2.480914077000000
Perching duck and Capuchin,BS5 9AX,51.464267096361300,-2.556776780931240
Chipmunk and Asiatic leopard,BS3 2AN,51.442386000000000,-2.615461469095860
Condor and Vulture,BS40 8EA,51.355080585500000,-2.630659558200000
Asiatic leopard and Black cockatoo,BS1 1UB,51.453898676430200,-2.593637509035780
Mamo and Boto,BS13 0QS,51.403907998591700,-2.589467608014870
Pheasant and Lemming,BS2 0FH,51.456533441372800,-2.581034965898150
Chickadee and Marsh harrier,BS13 0BZ,51.403600955976700,-2.605593553468200
Armadillo and Capuchin,BS31 1HX,51.406909590612400,-2.492461286276090
Polecat and Vulture,BS5 9EE,51.460693898774800,-2.555624948186060
Macaw and Cloud rat,BS13 9PR,51.410664518403500,-2.608088073472470
Macaw and Dolphin,BS1 6RJ,51.446293218422900,-2.589783202307020
River dolphin and Myna,BA5 1PQ,51.203615490000000,-2.738159282000000
Old World vulture and River dolphin,BS49 5HW,51.365599107645500,-2.805989482017490
Black cockatoo and Eagle,BS49 5AD,51.380317405276100,-2.810098910888590
Thrasher and Night heron,BS15 9SB,51.458524411174500,-2.489648823160430
Parrotbill and Chickadee,BS8 2BD,51.461680149647100,-2.610421457818970
Siskin and Crow,BS8 4NQ,51.450054907228700,-2.620512470159490
Jerboa and Puffleg,BA5 1PF,51.205301350000000,-2.737470526000000
Stint and Jackal,BS14 0AJ,51.417548517956600,-2.576801435478810
Chipmunk and Egret,BS25 5QN,51.336295000000000,-2.810055000000000
Grackle and Jerboa,BS15 4JU,51.462628534451200,-2.486540370412830
Duck and Cloud rat,BS1 4ST,51.454092000000000,-2.596674449436920
Mockingbird and Meadowlark,BS40 6AF,51.295506037965600,-2.621868005068070
Black jay and Capuchin,BS48 3DA,51.401094953947300,-2.738373661985740
Quetzal and Prion,BS1 6BY,51.452559967570200,-2.588079453551840
Black jay and Chipmunk,BS40 8TR,51.355240013065500,-2.633404348137160
Bronzewing pigeon and Masked owl,BS4 3BT,51.441066083611600,-2.572249089292560
Darwin's finches and Treepie,BS26 2HB,51.294450284046800,-2.864620741991060
Macaw and Chickadee,BS8 4BG,51.454594780867700,-2.624071313581430
Peafowl and Meadowlark,BS31 2JN,51.412226867219100,-2.508550662923780
Old World vulture and Crow,BS5 0EA,51.460617715613800,-2.564044457634570
Guillemot and Goose,BS8 1DY,51.451252719621300,-2.608138070931160
Petrel and Kākāriki,BS5 7BY,51.464275778059500,-2.549219483766390
Moluccan boobook and Warbler,BS21 7XY,51.433135447452600,-2.864201719650790
Capuchin and Black cockatoo,BA5 1GD,51.208261000000000,-2.646977000000000
Partridge and Ice seal,BS13 0PS,51.403682575796200,-2.591376722190050
Myna and Parrotbill,BS15 9SQ,51.453387143625900,-2.494458000000000
Argus and Myna,BS31 1SW,51.412030729261100,-2.489151738735460
Pitohui and Marmoset,BS39 4HQ,51.383050175999800,-2.574384468747930
Puffleg and Asiatic leopard,BS31 2TF,51.386624596207900,-2.483764725425750
Eagle and Herring gull,BS4 3EW,51.442533975229700,-2.564225000000000
American sparrow and Black jay,BA5 1SZ,51.204974810000000,-2.651623323000000
B and Snipe,BS30 8AH,51.442515000000000,-2.488929683658720
Argus and Crow,BS31 2RG,51.406470768898600,-2.513001116825210
Hawk and Towhee,BS13 7RW,51.416372732915700,-2.616978803011000
Hawk and Lemming,BS40 5PA,51.355790000000000,-2.761765821254770
Herring gull and Polecat,BS5 0DP,51.457569023128000,-2.567878566413210
Maya and Kite,BS30 7BT,51.449023615851500,-2.491000550074380
Chickadee and Macaw,BS4 1RF,51.426411034415100,-2.598962461521860
Egret and Petrel,BS2 0SU,51.447886016684100,-2.569528344172200
Old World vulture and Moluccan boobook,BS39 5TY,51.338828158551100,-2.599585557396200
Perching duck and Zebra,BS31 1UT,51.409287808137200,-2.495678707751540
Elephant and Greenbul,BS14 9LP,51.416552288142700,-2.563487329423290
Pratincole and Chickadee,BS40 8YA,51.348276399734800,-2.635792355250020
Perching duck and Stilt,BS31 2SR,51.395186199838400,-2.500528131329170
Coati and Treepie,BS48 2JU,51.431062439690100,-2.762562852483120
Armadillo and Towhee,BS15 4EG,51.465611338720700,-2.499931079417690
Coati and Grackle,BS1 5SH,51.452505240713900,-2.598771000000000
Ground sloth and White ibis,BS3 1AR,51.445194893883100,-2.597309000000000
Perching duck and Francolin,BS40 5LW,51.358501095345800,-2.766311851592020
New World blackbird and Recurvebill,BS21 5JF,51.425983535643300,-2.861003131084610
Kite and Nukupuʻu,BS15 8BJ,51.460310489741500,-2.513518437531590
Ibex and Siskin,BS21 7UN,51.431537624162500,-2.869911169456240
Meadowlark and Recurvebill,BS24 7TG,51.356543526515300,-2.897270000000000
Civet and Herring gull,BS40 5DG,51.331937000000000,-2.758454138152610
Capuchin and Kangaroo,BS31 1UN,51.409089696061200,-2.495748452940300
Duck and Prion,BS25 1AN,51.312387000000000,-2.831646533298880
Piping shrike and Perching duck,BS13 9QN,51.412625834381500,-2.602650139240200
Egret and Fish eagle,BS49 4NA,51.391704000000000,-2.796675000000000
Tattler and Grouse,BS8 4BA,51.454840853508900,-2.625139687765760
Marsh harrier and Scimitar babbler,BS4 3HZ,51.436450668940900,-2.559776002713440
Siskin and Prion,BS49 4EP,51.384008060776100,-2.819863861986040
Siskin and Songlark,BS3 3NL,51.437334216173200,-2.602802736431050
Darwin's finches and Petrel,BS27 3FB,51.278382000000000,-2.789653874100000
Ibex and Linsang,BS31 1LS,51.413676941706800,-2.491124877173410
Shearwater and Warbler,BA5 1TU,51.203501910000000,-2.651301944000000
Treepie and Marsh harrier,BS4 4NZ,51.439859902113200,-2.540322804582570
Pratincole and Warbler,BA2 0NB,51.325732510000000,-2.474957385000000
Nukupuʻu and Maya,BS4 2JU,51.432936143593900,-2.561401713002430
Stilt and Maya,BS21 7FW,51.465216744264800,-2.825277984785580
Kangaroo and Armadillo,BS14 0DJ,51.408190977817700,-2.581686990651680
Nukupuʻu and Grouse,BS49 4JH,51.383248267848900,-2.814059255131480
Fulmarine petrel and Marmoset,BS8 3SJ,51.458518000000000,-2.691183000000000
Cloud rat and Dolphin,BS31 2NR,51.409666226953900,-2.510161318641250
Argus and Goose,BS49 4NQ,51.387531123430000,-2.787347506118300
Grosbeak and Vulture,BA5 2TL,51.213869000000000,-2.638703718000000
Grosbeak and Egret,BS8 1QL,51.456481805298300,-2.607056000000000
Maya and Jerboa,BS15 9TA,51.452881372939000,-2.501533314682820
Warbler and Zebra,BS4 3HJ,51.438560352782000,-2.560477990523240
Cuscus and Jay,BA3 2RP,51.293335960000000,-2.487831386000000
Vulture and Ground sloth,BS3 5QP,51.431106290123700,-2.602159736432460
Nukupuʻu and Quetzal,BS21 7UQ,51.431565787693300,-2.870961808796080
Argus and Parakeet,BS22 7YN,51.366529602396800,-2.907434194399780
Wader and Polecat,BS48 1HL,51.437785185979700,-2.761653366409060
Mamo and Civet,BS30 5LG,51.449735969182300,-2.470789621473520
Mole and Marmoset,BS5 0QX,51.459451237316100,-2.576480488658170
B and Condor,BS21 7UX,51.429393818951600,-2.870417047605320
Hawk and Old World vulture,BA3 4WR,51.274870000000000,-2.479737000000000
Hawaiian honeycreeper and Black cockatoo,BS4 2NZ,51.434183437253300,-2.554382452413200
Ground sloth and Nukupuʻu,BS21 6AT,51.443394364518200,-2.840812342444900
Marmoset and Diving bird,BS4 4NY,51.439958158053800,-2.538511152155380
Dolphin and Grosbeak,BS13 0AQ,51.409903629052300,-2.596935026002700
Chickadee and Asiatic leopard,BS30 7JB,51.447285755567400,-2.493730329531530
Dorcopsis and Minke whale,BS26 2DF,51.287329869063300,-2.811701994411530
Badger and Francolin,BS15 3QQ,51.448418316820800,-2.512665453920280
Flameback and Grouse,BS21 6FQ,51.422983000000000,-2.849474000000000
Moluccan boobook and Ibex,BS26 2EA,51.294394652992600,-2.830069680771120
Hawk and Marsh harrier,BS26 2BE,51.286053399844800,-2.818103550109880
Crow and Capuchin,BS49 4RN,51.394323585265800,-2.824719615097610
Armadillo and Coati,BS48 1UR,51.422908411402900,-2.694341935509330
Francolin and Rat,BA3 4DT,51.279468000000000,-2.477949000000000
New World blackbird and Buzzard,BS22 7XJ,51.360730725104000,-2.900324871882690
Meadowlark and Armadillo,BS48 2JE,51.432260832527500,-2.762180027500690
Towhee and Perching duck,BA5 3JT,51.215715550000000,-2.632833002000000
Parrotlet and Logrunners,BS31 2HR,51.415039000000000,-2.509459000000000
Stilt and Francolin,BS5 8AN,51.455904542119900,-2.545376940176310
Gull and Hawk,BS2 0EX,51.456536436438100,-2.580430513321640
Moluccan boobook and Egret,BS5 8DH,51.457721535298800,-2.550997477068930
Wallaby and Minke whale,BS14 9AZ,51.424675340296500,-2.566478178988620
Quetzal and Solitaire,BS4 2JR,51.437046064248400,-2.564991195688640
Cloud rat and Condor,BS3 2NG,51.433386111412300,-2.609900281351730
Night heron and Rabbit,BS4 3JG,51.436909397074600,-2.561623078433660
Herring gull and Marsh harrier,BS48 2UY,51.432133863853200,-2.748397009519430
Chickadee and Parakeet,BS27 3NH,51.278056746902700,-2.773545648145810
Parrotlet and Chickadee,BS14 0SA,51.416261000000000,-2.575408806323770
Grosbeak and River dolphin,BS26 2QJ,51.268250000000000,-2.870536000000000
Diving bird and Tit-tyrant,BS2 0UJ,51.448208768828200,-2.575245195631200
Fulmarine petrel and Viscacha,BS13 7AT,51.423138965510200,-2.624620584662270
Boto and Towhee,BS48 2LG,51.427253286963200,-2.759277507679650
White ibis and Myna,BA5 3DW,51.214235860000000,-2.610077343000000
Recurvebill and Fox,BS2 8NQ,51.461120527886500,-2.593328206448110
Grouse and Black jay,BS13 0JJ,51.405913840583700,-2.599959678048230
Cuscus and American sparrow,BS4 1DW,51.428087744893800,-2.583867124759000
Peafowl and River dolphin,BS21 5AB,51.428136822755400,-2.846846706042340
Pratincole and Eagle,BS21 5EJ,51.429652970626300,-2.857217109065600
Herring gull and Elephant,BS49 4FJ,51.390832000000000,-2.827579000000000
Marmoset and Skunk,BS14 0EH,51.406675171387400,-2.575456897035890
Stint and Perching duck,BS48 3GZ,51.416522505224000,-2.748659641374260
Fulmarine petrel and Black cockatoo,BA3 4UL,51.231623010000000,-2.569732095000000
Recurvebill and Masked owl,BS49 4LN,51.391768078169200,-2.799033188896100
Magpie and Stint,BA3 4LZ,51.260319490000000,-2.569083741000000
Tattler and Jackal,BS14 9LL,51.417317701526100,-2.565121719251400
Crow and Minke whale,BS1 6DD,51.447214473298900,-2.585377436233980
Songlark and Mouse,BS5 7JD,51.461462691634900,-2.543154546132100
Marsh harrier and Piping shrike,BS39 5QP,51.340135469400900,-2.539723155154460
Greenbul and Wallaby,BS39 4AT,51.367909099928100,-2.545968060126500
Magpie and Shearwater,BA3 2HB,51.285209500000000,-2.482785000000000
Herring gull and Logrunners,BS25 1NE,51.308744516567500,-2.827717579547220
Grosbeak and Stilt,BS1 4UT,51.453173224268700,-2.598261000000000
Cuscus and Polecat,BS4 2BZ,51.439628011982200,-2.575799163771690
Jackal and Badger,BS6 6JB,51.466580359301700,-2.607003082563870
Piping shrike and Minke whale,BS4 2ST,51.430837003033800,-2.571545849906750
Prion and Gull,BS3 3DP,51.437238000000000,-2.607664000000000
Crow and Vulture,BS3 1JQ,51.440131047508600,-2.609673628228760
Herring gull and Jackal,BS15 4LB,51.464701313238200,-2.487570085684810
Shearwater and Grouse,BS30 7BP,51.448914213463700,-2.491359130764100
Boto and Moluccan boobook,BS4 1QA,51.427226634325200,-2.594183446505950
Wader and Kite,BS31 2AA,51.417804051320000,-2.510079385525510
Grosbeak and Maya,BS1 9JJ,51.458433981649100,-2.574179466890470
Masked owl and Lemming,BS48 3AA,51.429321708525100,-2.732384604374350
Myna and Bunting,BS1 4LH,51.450424411735400,-2.596096416079930
Jackal and Mole,BS49 5DN,51.365274769064300,-2.809991386630330
Prion and Cloud rat,BS15 8FL,51.460478000000000,-2.518760000000000
Duck and Magpie,BS28 4SN,51.213758000000000,-2.771895000000000
Partridge and Stilt,BS39 4BT,51.365137000000000,-2.550718000000000
Quetzal and Partridge,BS48 4PL,51.423314875936600,-2.749504159361100
Tahr and Towhee,BS4 1NG,51.428109334793800,-2.590325683226200
Vole and Kangaroo,BS4 3QE,51.443805477962300,-2.557966663417880
Stint and Ibex,BS13 9PU,51.410627314009100,-2.606592243862460
Elephant and Rabbit,BS39 6EN,51.311853831600100,-2.528415434917380
Partridge and Rat,BS13 7LF,51.424241963312100,-2.614984964325450
Stint and Armadillo,BS39 7PZ,51.308510911623500,-2.497159599205300
Perching duck and Jay,BS8 1PX,51.458157529824900,-2.608287439114920
Fox and Condor,BS5 7SP,51.466613944800900,-2.535125000000000
Chicken and Dorcopsis,BS1 6RB,51.447704000000000,-2.590271243739300
Perching duck and Bronzewing pigeon,BS28 4NU,51.225468701703400,-2.846657951928510
Stint and Masked owl,BS4 3HR,51.434991471126800,-2.556535729183550
Maya and Crow,BS3 3ES,51.438239320072800,-2.612065430927930
Kestrel and Solitaire,BS6 6EZ,51.464160956811500,-2.607129314475950
Tit-tyrant and Mink,BS25 1PT,51.320049313808800,-2.812035610895100
Egret and Myna,BS39 4BS,51.367816100100000,-2.549716480700000
Philippine hawk-owl and Nukupuʻu,BS21 5AS,51.429444989813100,-2.843749503967410
Piping shrike and Crow,BS14 8QS,51.415315249843000,-2.539760039358060
Fox and Tattler,BS1 6SU,51.447742570176300,-2.593010825092280
Rat and White ibis,BS8 1DN,51.454949472306600,-2.609640819870140
Kangaroo and Kangaroo,BS39 7SF,51.300544839193700,-2.492741681051170
Mink and Skunk,BS4 4LF,51.434724000000000,-2.548650575688290
Jerboa and Elephant,BS49 4EB,51.388565349111200,-2.820089047385170
Viscacha and Solitaire,BS5 9UD,51.452495569177300,-2.564606316608630
Marsh harrier and Warbler,BS5 8JX,51.457855116425000,-2.543572282657990
Chickadee and Chipmunk,BS31 2RQ,51.406107842976800,-2.513744645417630
Thicketbird and Polecat,BA3 5ER,51.249668130000000,-2.471063798000000
Viscacha and Booted eagles,BS14 9QG,51.411072000000000,-2.566569000000000
Grouse and Kākāriki,BS4 5RQ,51.429933788052400,-2.534293730754500
Piping shrike and Perching duck,BS27 3UR,51.248579092472600,-2.734767121058970
Rat and Old World quail,BS5 8QU,51.452641449959000,-2.525506711927520
Thicketbird and Vole,BS8 2EH,51.459026355724000,-2.612386728659390
Francolin and Parakeet,BS4 1PD,51.430017398140800,-2.586380215195950
Egret and Jackal,BA3 4UZ,51.241114450000000,-2.501904601000000
Old World warbler and Goose,BS39 5QQ,51.336889450467600,-2.519846260770960
Hawk and Lemming,BA3 4NY,51.268044940000000,-2.608138134000000
Fish eagle and Skunk,BS20 7SF,51.451295177471600,-2.788185189072510
Thrasher and Ice seal,BS30 7DD,51.443081577887000,-2.494936756461430
Thicketbird and Wader,BS13 0NQ,51.401516450023700,-2.596523904542340
Mamo and Mamo,BS1 6BG,51.450853902722000,-2.587611408266650
Badger and Petrel,BS13 8BY,51.419045000000000,-2.627093064072810
Wader and Minke whale,BS27 3EU,51.281679093763400,-2.781764000000000
Recurvebill and Kite,BS8 3TZ,51.457159329626900,-2.704634468668960
Egret and White ibis,BA3 2HD,51.282114240000000,-2.483468392000000
Greenbul and Vole,BS40 7SQ,51.329398763856400,-2.697607000000000
Fox and Old World vulture,BS5 0NW,51.466618922776800,-2.568840302345240
Ibex and Masked owl,BS1 3NY,51.459497473631100,-2.594100000000000
Marmoset and Dolphin,BS3 5HU,51.434724520563000,-2.589073103895880
Kestrel and Bunting,BS4 5HN,51.427939533525000,-2.547517779354720
Partridge and Skunk,BS39 6HW,51.321327669308000,-2.508921909660370
Shearwater and Mole,BS24 7FT,51.350330921392300,-2.898356000000000
Pratincole and Wallaby,BS5 8LW,51.456347988748400,-2.529061074634350
Wader and Night heron,BS15 4BG,51.465446425303200,-2.500649046094790
Kestrel and Lemming,BS3 9JB,51.438707000000000,-2.601529000000000
Vulture and Black jay,BS27 3JT,51.281833762684500,-2.776204306935360
Ice seal and Tit-tyrant,BS40 6PQ,51.321700291957600,-2.682451422635950
Tit-tyrant and Scimitar babbler,BS15 8FQ,51.457580000000000,-2.508652000000000
New World blackbird and Black cockatoo,BS6 5NX,51.466473555575300,-2.580153558586340
Marmoset and Skunk,BA5 3AQ,51.221983150000000,-2.649214450000000
Puffleg and Parrotbill,BS14 9SL,51.421539963475000,-2.571472969713270
Maya and Parakeet,BA2 0AW,51.343335920000000,-2.488678157000000
Condor and Armadillo,BS1 3DA,51.459094044500100,-2.584940000000000
Philippine hawk-owl and Cloud rat,BS21 5HN,51.424781810462100,-2.858118352423880
Tahr and Thicketbird,BS8 2DG,51.462565383545300,-2.611368918657060
Lemming and Maya,BA5 1NG,51.204377000000000,-2.679498000000000
Treepie and Kestrel,BS39 4DJ,51.358814000000000,-2.577052043058160
Pheasant and Grosbeak,BS14 0DE,51.413400000000000,-2.584803373108890
Crow and Mamo,BS3 5DA,51.437166497004800,-2.582630581832990
Greenbul and Triller,BS40 8RA,51.366059646252100,-2.610929929083350
Mole and Wader,BS4 3SP,51.446018067746800,-2.550223413350200
Marsh harrier and Petrel,BS21 7RZ,51.436218542558000,-2.858231996453170
Black jay and Old World vulture,BS48 2NG,51.436782610493900,-2.765103843204810
Kangaroo and Guillemot,BS5 8BU,51.456680865354800,-2.531007932774890
Ice seal and Gull,BS1 5LL,51.448619787739600,-2.600850437483140
Stilt and Zebra,BA3 2TY,51.292402230000000,-2.485326116000000
Dolphin and Vole,BS21 6XL,51.399812878093500,-2.899884719643060
New World blackbird and Badger,BA5 1EN,51.233319300000000,-2.718897594000000
Siskin and Prion,BS1 5NL,51.454058975634200,-2.602548000000000
Kangaroo and Fulmarine petrel,BS5 7HG,51.461765000000000,-2.536393000000000
Dolphin and Nukupuʻu,BA3 4GR,51.276211470000000,-2.577595155000000
Herring gull and Capuchin,BS8 3TP,51.447569925766800,-2.690585000000000
Chipmunk and Old World quail,BA5 1PS,51.205726700000000,-2.763672720000000
Scimitar babbler and Jackal,BS4 1DP,51.427022610299000,-2.581077555225330
Argus and Maya,BS30 8US,51.448890453664100,-2.473097738960800
Bunting and Puffleg,BS30 5JF,51.458845835003800,-2.472682553480470
Grosbeak and Petrel,BS40 5DR,51.358179132832400,-2.764669220072750
Coati and Badger,BS48 2HP,51.430492711706900,-2.760294987530790
Grackle and White ibis,BS15 4NQ,51.461365853450900,-2.476537430276050
Jerboa and Crow,BS4 2UL,51.428436082485800,-2.567876780316860
Boto and Myna,BS15 3FF,51.448258216237900,-2.521643332063050
Ibex and Tit-tyrant,BS5 9TF,51.453004393002500,-2.561633552973130
Ground sloth and Tit-tyrant,BS40 8DL,51.372370112421900,-2.673564659793010
Snipe and Coati,BS2 0ES,51.451364000000000,-2.578927000000000
Minke whale and Petrel,BS40 8EQ,51.382446087749400,-2.661613551189300
Skunk and Stint,BS39 7RT,51.306370888517300,-2.503462859242630
Diving bird and Piping shrike,BS40 7XX,51.303491050428200,-2.714757888653150
Mamo and Black cockatoo,BS40 8YT,51.338792141733400,-2.683307900121880
Chickadee and Ibex,BA5 3EQ,51.234327000000000,-2.581496000000000
Tit-tyrant and Tahr,BS21 6UL,51.422726129138900,-2.848890000000000
Flameback and Marmoset,BS31 2TN,51.390679895157700,-2.527498154674110
Skunk and Puffleg,BA2 0EG,51.349643000000000,-2.483720824000000
Fulmarine petrel and Goose,BS21 7PY,51.445470263480100,-2.859571014332380
Tree warbler and Minke whale,BS3 1BY,51.441459517489400,-2.599662952357810
Cuscus and Kestrel,BS40 8EH,51.382007311445600,-2.661291097720590
Quetzal and Rat,BS3 1EN,51.441085000000000,-2.602823000000000
Fish eagle and Hawk,BS5 9FB,51.454419675298600,-2.563896394569140
Triller and Philippine hawk-owl,BS21 7AJ,51.454806978522500,-2.826615409715110
Condor and Cuscus,BS8 2SP,51.465908653857300,-2.616998000000000
Herring gull and Gull,BS14 0DS,51.405461213223000,-2.579122060674820
Linsang and Dolphin,BS31 1BD,51.413061702745900,-2.500522103964360
Mouse and Stilt,BS14 0HE,51.404525526327900,-2.570067545863140
Ground sloth and Armadillo,BS26 2XW,51.313236229170900,-2.888418477063430
Recurvebill and Triller,BS25 1TH,51.314819778620700,-2.797092667469370
Puffleg and Macaw,BS40 8PU,51.369045338298200,-2.617706959518250
Armadillo and Fulmarine petrel,BS3 2SZ,51.430086000000000,-2.622155000000000
Recurvebill and Grouse,BS3 1PU,51.445449134696300,-2.607168815739840
River dolphin and Boto,BS15 3DN,51.450430679422600,-2.519192590206520
Wallaby and Condor,BS21 7UP,51.431167132516700,-2.867732016507760
Grackle and Old World quail,BA5 3LW,51.212867200000000,-2.630775305000000
Peafowl and Hawk,BS5 0AS,51.455604269570300,-2.565105239862290
Old World warbler and New World blackbird,BS1 5LP,51.455710553830100,-2.599806569201080
Hawaiian honeycreeper and Snipe,BS1 5HS,51.453295131242200,-2.600911839187400
Hawaiian honeycreeper and Warbler,BS30 9AB,51.433072820842400,-2.490915761361170
Tit-tyrant and Skunk,BS40 9UU,51.386605390941300,-2.700934430763430
Egret and Mockingbird,BS4 1JH,51.425981172484700,-2.584372438003080
Bronzewing pigeon and Kite,BS39 4NW,51.355296351756500,-2.525727205131770
Parrotbill and Chicken,BS15 3AP,51.447827359772200,-2.528300613703160
Marsh harrier and Snipe,BS40 6EA,51.308885683264600,-2.630499000000000
Kestrel and Herring gull,BS3 3NH,51.438255372011800,-2.602023587624220
Kestrel and Hawk,BS3 4PN,51.436748963072000,-2.592379258829870
Meadowlark and Piping shrike,BS15 3GF,51.442680544257500,-2.502543795325340
Old World warbler and Scimitar babbler,BS3 2TL,51.429369835241700,-2.624691193206350
Masked owl and Myna,BS4 4EU,51.452289000000000,-2.545840200086560
Prion and Rabbit,TA9 4QQ,51.224892640465800,-2.902081897765560
Recurvebill and Wallaby,BA3 2TR,51.293323010000000,-2.477892594000000
River dolphin and Old World quail,BS15 1FG,51.462649000000000,-2.521390000000000
Mole and River dolphin,BA4 4LA,51.208917650000000,-2.503200612000000
Ice seal and Stilt,BS4 1XB,51.417784599485700,-2.596102989410920
Parrotlet and Fish eagle,BS5 8PZ,51.452500295897700,-2.520871081085940
Chickadee and Minke whale,BS21 7UB,51.432514174605100,-2.870146000000000
Songlark and Dorcopsis,BS28 4PD,51.225317000000000,-2.872346000000000
Scimitar babbler and Coati,BS25 1BT,51.307832205628300,-2.845906536608720
Petrel and Armadillo,BS21 6LP,51.428527273466800,-2.850047178301720
Treepie and Bunting,BS48 3LL,51.418467722131200,-2.749597420564100
Jerboa and Coati,BS15 1TE,51.466317676920300,-2.515385358335140
Parakeet and Greenbul,BS3 2BA,51.438456724185600,-2.613478260906600
Cloud rat and Thicketbird,BS48 2EE,51.430200960072000,-2.770546276259110
Masked owl and Mockingbird,BS14 0HB,51.404530907873200,-2.567106095952460
Ice seal and Shearwater,BS4 4RX,51.439101700138700,-2.535076938741980
Pitohui and Goose,BS29 6AF,51.326656278102400,-2.869919596722340
Stilt and Linsang,BA3 3UU,51.285969870000000,-2.468452736000000
Rat and Hawk,BS48 1NJ,51.424825982783800,-2.690904767065890
Mouse and Bunting,BA5 2JZ,51.215298000000000,-2.668352000000000
Petrel and Jerboa,BS8 4AB,51.455532015898700,-2.618586224716200
Viscacha and Fox,BS13 7NB,51.421235286286800,-2.610486309196950
New World blackbird and American sparrow,BS4 3DT,51.446658599235100,-2.581441983686140
Bunting and Cloud rat,BS2 0UQ,51.450721000000000,-2.558095575914920
Vulture and Logrunners,BA3 2DG,51.287997070000000,-2.478568613000000
Towhee and Piping shrike,BS4 3DD,51.440131345324100,-2.570323868797640
Armadillo and Armadillo,BA3 4RQ,51.263246460000000,-2.497014829000000
Nukupuʻu and Parrotlet,BS15 1DA,51.462524875203400,-2.523130028975890
Mockingbird and Peafowl,BS2 8XJ,51.464059446836600,-2.582843587356620
Fulmarine petrel and Maya,BS3 3PJ,51.435593979064900,-2.603743687348820
Badger and Ibex,BS15 8EU,51.455518849838100,-2.515364424420450
Cloud rat and Linsang,BA5 3HU,51.213483480000000,-2.626531654000000
Mink and Kangaroo,BS31 1HP,51.411373654006500,-2.493602027785130
Philippine hawk-owl and Ground sloth,BS14 0UB,51.401619559692800,-2.570405161243060
Marsh harrier and Wader,BS48 1EH,51.435714485020100,-2.760669426634070
Egret and Linsang,BS14 0FQ,51.401979000000000,-2.549494000000000
Night heron and Minke whale,BS3 2DH,51.439386593468900,-2.616195528983190
Tahr and Prion,BA3 4PR,51.293296890000000,-2.595377988000000
Asiatic leopard and Dolphin,BS8 1PL,51.461168000000000,-2.603721000000000
Petrel and Solitaire,BS48 1EN,51.437207345647900,-2.762017806082610
Argus and Diving bird,BS3 2QU,51.431085819484700,-2.624959144294610
Tit-tyrant and Rat,BS15 3QA,51.442920739031200,-2.511452799491740
Pheasant and Rabbit,BS14 8DG,51.414502977942000,-2.551987347595950
Herring gull and Coati,BS48 3JD,51.410556146171900,-2.742350733331630
Dorcopsis and Hawaiian honeycreeper,BS5 5BD,51.463530168410200,-2.556695834693420
Skunk and Recurvebill,BS5 7LA,51.460909423458600,-2.540528000000000
New World blackbird and Duck,BS27 3NA,51.276009000000000,-2.776161002055200
Triller and Viscacha,BA2 0BG,51.344999070000000,-2.490906929000000
Hawk and Solitaire,TA9 4PA,51.240809026981700,-2.906950000000000
Hawk and Solitaire,BS5 9PF,51.456547842173900,-2.553919433902630
Hawaiian honeycreeper and Pheasant,BS4 4FL,51.443348947200000,-2.549170058800000
Flameback and Ice seal,BS39 5BP,51.316648504644400,-2.541743175849150
Thrasher and Wader,BS5 9DX,51.460891808784800,-2.557498571270680
Chipmunk and Stint,BS30 6JH,51.434571794614400,-2.474086206047390
Zebra and Kangaroo,BS2 8FE,51.462017000000000,-2.584964000000000
Treepie and Tree warbler,BA3 4BL,51.283751220000000,-2.472344565000000
Rat and Egret,BS3 3AP,51.439818962195000,-2.603957676018330
Partridge and Perching duck,BS28 4TH,51.210474171251100,-2.790794037143460
Philippine hawk-owl and Marmoset,BS39 4AS,51.368067000000000,-2.547172492986320
Minke whale and Condor,BA3 4AB,51.280537190000000,-2.477745498000000
Chipmunk and Boto,BS49 5BF,51.369013372441300,-2.804613272620890
Tit-tyrant and Tattler,BS48 1NX,51.441744673082300,-2.718310000000000
Mink and Nukupuʻu,BS4 3PT,51.441073575520700,-2.553847234161460
Perching duck and Armadillo,BS3 4NQ,51.440812455454500,-2.599596923901300
Wallaby and Fulmarine petrel,BS1 2NZ,51.457961617510400,-2.595159000000000
Partridge and Stint,BS15 3EP,51.446614396923100,-2.518026907764640
Darwin's finches and Fox,BS4 2ET,51.435258395345400,-2.568364213362080
Grosbeak and Partridge,BS5 8HJ,51.460104001285200,-2.539468008219660
Masked owl and Mink,BS8 3GH,51.465591891439800,-2.620622502017850
Booted eagles and Hawaiian honeycreeper,BS40 8DZ,51.386694253375300,-2.678201216972900
Rat and Hawk,BS14 8QG,51.414367267340300,-2.544479681486060
Recurvebill and Chicken,BS40 5LJ,51.359902732367500,-2.766478873240950
Tree warbler and Jerboa,BS31 2AH,51.419323024004600,-2.512282199174750
Fulmarine petrel and Old World warbler,BS4 1TU,51.419842608248900,-2.594547849718550
Towhee and Flameback,BS3 2EE,51.441426851827800,-2.618064648579920
Vole and Puffleg,BS8 4YB,51.448531583073800,-2.617815246509360
Mamo and Crow,BS2 9AD,51.459046869994300,-2.581887319018870
Kākāriki and Skunk,BS15 1DF,51.463369901286100,-2.521153219821810
Stint and Snipe,BS14 0NZ,51.404139533082200,-2.582728156451100
Meadowlark and Tahr,BS4 5LD,51.427775188103100,-2.544193208046860
Elephant and Maya,BS31 2HS,51.413898427061400,-2.508756148431290
Old World warbler and Siskin,BS40 5ER,51.350370079342600,-2.784326532457880
Flameback and Partridge,BS13 8QN,51.406302076836500,-2.623758489811570
Wader and Nukupuʻu,BS24 7GA,51.354737440992700,-2.901715626673230
Stint and Mockingbird,BS28 4BZ,51.225484482488300,-2.812732710249950
Nukupuʻu and Kite,BS31 2FL,51.417186110693200,-2.500323017556280
Skunk and Dorcopsis,BS15 1EU,51.463517936486100,-2.514101456774350
Night heron and Cloud rat,BS49 4AS,51.398491934994600,-2.835417414765250
Masked owl and Kite,BS6 5SG,51.466562000000000,-2.593341000000000
Snipe and Ibex,BS4 4NT,51.439701208054600,-2.541587015306930
Chipmunk and Gull,BS13 7BE,51.415194000000000,-2.601792000000000
Argus and Darwin's finches,BS48 2JS,51.430097924387000,-2.767063505937450
Recurvebill and Dorcopsis,BS20 8PS,51.464583827179200,-2.795007234324990
Ice seal and Maya,BS5 0FN,51.457935000000000,-2.568503000000000
Triller and Grouse,BS25 5QG,51.333447831253400,-2.829913702003860
Mockingbird and Polecat,BS5 0BW,51.456350620015200,-2.568813349998100
Hawk and Egret,BS39 4BU,51.361491216826500,-2.551249042076610
Siskin and Elephant,BS24 7DJ,51.355580201283800,-2.908237426042970
Bunting and Jay,BS48 2SR,51.430441068557000,-2.741694916052960
Tahr and Mole,BS27 3FS,51.280498000000000,-2.789994000000000
Macaw and White ibis,BS13 0RZ,51.406449638469300,-2.593626474068190
Puffleg and Kestrel,BS13 7DG,51.422245708399600,-2.621704000000000
Fulmarine petrel and Kite,BS25 1LU,51.312981170465100,-2.819845137019100
Greenbul and Parakeet,BS30 7BJ,51.445696745609600,-2.490993628956450
Peafowl and Pratincole,BS41 9DU,51.431837175424200,-2.666469865451790
Condor and Snipe,BS15 9RY,51.457943347787300,-2.488836592916960
Parakeet and Tattler,BS48 1NL,51.425280000000000,-2.691832000000000
Pitohui and Old World vulture,BS25 1DS,51.311013000000000,-2.855032000000000
Logrunners and Armadillo,BS49 4HH,51.385509363323900,-2.818626094293960
Diving bird and Dorcopsis,BS3 2RT,51.431205046052700,-2.622831836376040
Guillemot and Black cockatoo,BS13 9LX,51.406550485335700,-2.605546268850550
Grackle and Magpie,BS40 8EU,51.381705903833300,-2.658930203965950
Moluccan boobook and Jackal,BS48 3DB,51.391341652834500,-2.710291299196530
Tit-tyrant and Armadillo,BS5 0AY,51.456072736088200,-2.566780554792450
Magpie and Prion,BS2 8EX,51.460286130234600,-2.594742370496540
Linsang and Chicken,BS4 4PD,51.441266134244100,-2.543447173649310
Bronzewing pigeon and Eagle,BS5 0UZ,51.461738648115200,-2.575760818770010
Mink and Tahr,BA5 3LL,51.212006000000000,-2.623877000000000
Marmoset and Grosbeak,BS3 1NG,51.444308275534800,-2.601729100777430
Night heron and Marsh harrier,BS3 4DW,51.441864000000000,-2.591179000000000
Shearwater and Booted eagles,BS31 1JS,51.399429059672800,-2.485869189119240
Wader and Dolphin,BS15 1HR,51.464581606985600,-2.517582641442020
Meadowlark and Darwin's finches,BS3 1SW,51.444935871319700,-2.614212617871470
Rat and Warbler,BS40 5PW,51.378675597951400,-2.764048136064820
Armadillo and Peafowl,BS3 1FJ,51.442197000000000,-2.597848000000000
Pheasant and Kangaroo,BA5 2LT,51.213818900000000,-2.657174297000000
Lemming and Snipe,BS49 5BL,51.373306120239600,-2.801915418281870
Asiatic leopard and Greenbul,BS4 2UP,51.428295890476100,-2.565257198939020
Vulture and Civet,BS30 9QF,51.440193944376200,-2.471266954735110
Wader and Lemming,BS29 6LQ,51.348305000000000,-2.882601253613590
Herring gull and Pratincole,BS15 3AD,51.449395527168500,-2.521468910104700
Philippine hawk-owl and Masked owl,BS13 7QB,51.417585657702400,-2.610293865341600
Treepie and Puffleg,BS27 3AZ,51.280387756968500,-2.785384693556200
Tree warbler and Badger,BS31 1RQ,51.403982297836000,-2.491509758994780
Ground sloth and Parakeet,BS3 5LG,51.433579056625800,-2.602149103404920
Dolphin and Mouse,BS2 0AP,51.457213079614400,-2.574494854400970
Black cockatoo and Capuchin,BS24 8PQ,51.326127996764500,-2.893504258465730
B and Ground sloth,BS4 5DW,51.428687060173100,-2.551093916407540
Capuchin and Solitaire,BS5 7NN,51.460635000000000,-2.537763281098130
Parrotlet and Tree warbler,BS14 0HU,51.403152356026800,-2.571387420913780
Booted eagles and Ground sloth,BS5 6DF,51.465605419481800,-2.562724011818050
Asiatic leopard and Vulture,BS39 5TZ,51.336016872003900,-2.595443374193790
Greenbul and Stint,BS1 6JN,51.447452068104800,-2.604115976419920
Tree warbler and River dolphin,BS3 3AG,51.439542723711900,-2.608687454923990
New World blackbird and Chicken,BS8 2AW,51.460117388177900,-2.613524051000880
Darwin's finches and Condor,BS39 4BR,51.370784715446100,-2.547510994403520
Ice seal and Chicken,BS4 3AQ,51.443953000000000,-2.564617000000000
Moluccan boobook and Thicketbird,BS8 3TF,51.448119000000000,-2.662390000000000
Perching duck and Bunting,BS49 5AB,51.379256000000000,-2.816876000000000
Moluccan boobook and New World blackbird,BS30 7XF,51.450228739680100,-2.490941530510420
Ibex and Songlark,BS31 2RD,51.407029485022200,-2.512719830859690
Grackle and White ibis,BS30 9BP,51.434371332444000,-2.498554066470670
Badger and Grackle,BA3 2BH,51.292144000000000,-2.476360000000000
Fulmarine petrel and Tree warbler,BS3 2JH,51.439988843144300,-2.628087675462160
Coati and Hawk,BS49 5ES,51.363989326679400,-2.808632873074260
Mamo and Goose,BS3 1ED,51.442633310743900,-2.603966037886260
Rabbit and Warbler,BS40 8SS,51.363775879590800,-2.612623156272800
Guillemot and Stilt,BS8 3DN,51.460466901919900,-2.617170393585730
Egret and B,BA3 4HJ,51.269023690000000,-2.502294733000000
Fox and Fulmarine petrel,BS48 2DF,51.435552818876500,-2.766162252756150
Rabbit and Grosbeak,BA3 4SB,51.277520700000000,-2.469900763000000
Civet and Mole,BS14 0JP,51.406767043633200,-2.565825462241360
Cloud rat and Herring gull,BS40 6LA,51.309729102507900,-2.652001863039280
Songlark and Kākāriki,BS13 9RG,51.411331664619000,-2.604272259944790
B and Egret,BA5 3BX,51.264211740000000,-2.712213335000000
Fish eagle and Coati,BS30 8GN,51.452910298562700,-2.483961674498330
Kākāriki and Maya,BS3 1PN,51.444451801054900,-2.603543982653000
Hawaiian honeycreeper and Treepie,BS21 5AQ,51.431616899181600,-2.843070275556930
Capuchin and Fish eagle,BA5 1UJ,51.205455100000000,-2.649339819000000
Dorcopsis and Cloud rat,BS40 7XH,51.317515809486900,-2.710886000000000
Moluccan boobook and Booted eagles,BS4 5HD,51.426252271259800,-2.544908647473090
Black jay and Nukupuʻu,BS1 6LW,51.450808349589400,-2.585236659448130
Partridge and Siskin,BS13 9LF,51.406725619167500,-2.609919192861440
Old World vulture and Zebra,BS21 7RW,51.440090270831800,-2.857513263412680
Cuscus and Viscacha,BS14 9TG,51.425139292170700,-2.570928191303100
Civet and Mole,BS21 7LN,51.439508746329100,-2.852323000000000
Rabbit and Fish eagle,BS31 1NF,51.413389839688800,-2.486161000000000
Booted eagles and Eagle,BS14 0BF,51.419924000000000,-2.574933000000000
Grackle and Zebra,BS48 1JH,51.436328200412800,-2.753356947994800
Meadowlark and Perching duck,BS4 4JT,51.436727388339000,-2.546874792891010
Kestrel and Condor,BS99 7NB,51.458428497190200,-2.574179075691890
Parakeet and Parrotbill,BA3 3AL,51.282981000000000,-2.471937387000000
Black cockatoo and Towhee,BS49 5DL,51.365683557723700,-2.808088150690470
Jay and Partridge,BS8 2AH,51.460072370701900,-2.615380000000000
Petrel and Masked owl,BS1 3LT,51.458876426086100,-2.590794648564250
Gull and Thrasher,BS13 9DG,51.407270708570800,-2.620521000000000
Crow and Guillemot,BS8 1DS,51.452798295798300,-2.610058289974180
Booted eagles and Chipmunk,BA5 1JS,51.208675370000000,-2.689983275000000
Vulture and Treepie,BS5 8RX,51.450752725454200,-2.525614534401930
River dolphin and Guillemot,BS1 5DY,51.453228952710800,-2.599788424755140
Capuchin and Ground sloth,BS30 9SH,51.442241332110900,-2.474165655443640
Kangaroo and Cuscus,BS15 9PU,51.459191000000000,-2.504570506391710
Minke whale and Lemming,BS31 1LW,51.413312100690600,-2.492357560704750
Kite and Kestrel,BS26 2DL,51.287537061839100,-2.807747838406470
Thrasher and Peafowl,BS3 2RB,51.429390967723900,-2.627352000000000
Asiatic leopard and Fulmarine petrel,BS14 0PF,51.408606778317100,-2.559076344116070
White ibis and Kākāriki,BA5 3AS,51.252752840000000,-2.647599000000000
Rabbit and Chicken,BS30 8TT,51.443953212361100,-2.471075451354290
New World blackbird and Philippine hawk-owl,BS22 7SY,51.370554000000000,-2.911594000000000
Snipe and Badger,BS8 3TY,51.451567277770600,-2.704505172492900
Old World warbler and Ibex,BS4 1TX,51.420164585115600,-2.593113907681370
Pheasant and Stint,BS8 4RH,51.450448804177700,-2.614013197207060
Gull and Francolin,BS3 1LN,51.441587372430400,-2.609736191159740
Wallaby and Tattler,BS3 2RH,51.430529900802000,-2.628029836779070
Kākāriki and White ibis,BS13 0SA,51.406568686746500,-2.584254247538790
Zebra and Ice seal,BS1 9JP,51.458433981649100,-2.574179466890470
Mouse and Puffleg,BS40 6PN,51.321708000000000,-2.680442000000000
Puffleg and Marmoset,BS1 5QJ,51.451083000000000,-2.604682000000000
Kestrel and Masked owl,BS26 2RF,51.270455245560600,-2.884453684950530
Marmoset and Egret,TA9 4NX,51.227803842082800,-2.896524846427410
Philippine hawk-owl and Mockingbird,BS3 1AG,51.443311139968100,-2.598032537689880
Petrel and Skunk,BS5 7DR,51.466599004337800,-2.550413446248940
Mole and White ibis,BA5 1AG,51.216378760000000,-2.673489949000000
Coati and Booted eagles,BA3 4QD,51.270472290000000,-2.474057469000000
Fulmarine petrel and Zebra,BS21 7XU,51.434764559436700,-2.861542289791410
Masked owl and Rabbit,BS13 0JY,51.408647208636200,-2.601735155616350
Kite and Linsang,BS14 9QN,51.408560543988500,-2.572375020723030
Armadillo and Egret,BS1 1EH,51.453506005097600,-2.594826923859950
Rabbit and Greenbul,BS21 7RA,51.440070007692300,-2.858809000000000
Hawk and Mole,BS1 5BB,51.456739916979400,-2.597200593595860
Cloud rat and Stint,BA5 2LG,51.214732000000000,-2.668358000000000
Old World warbler and Crow,BS5 7BS,51.462873551577700,-2.552945242357540
Francolin and Mole,BA3 5TF,51.246207630000000,-2.472948221000000
White ibis and Towhee,BS30 8SG,51.450649436841000,-2.489247938240800
Kākāriki and Ground sloth,BS39 7SR,51.292984854239100,-2.506973425848270
