id,postcode,lat,lon
PPL,LECK,54.1863,-2.54711
PPL,LECKFORD,51.13736,-1.46571
PPL,LECKHAMPSTEAD,52.03407,-0.93822
PPL,LECKHAMPTON,51.88276,-2.07928
PPL,LECKMELM,57.86667,-5.08333
PPL,LECKWITH,51.46167,-3.21278
