name,postcode,lat,lon
The Kings Arms Northgate Street LTD,NR30 1BG,52.6125,1.7266
Marine Lodge,NR30 1EB,52.6102,1.7370
Palm Court Hotel,NR30 1EG,52.6128,1.7373
Imperial Hotel,NR30 1EQ,52.6130,1.7372
the market tavern,NR30 1LY,52.6088,1.7263
PANDO,NR30 1NU,52.6088,1.7272
Palace Bingo Hall Great Yarmouth,NR30 1PL,52.6100,1.7256
Palace Casino Great Yarmouth,NR30 1PL,52.6100,1.7256
Mocha,NR30 1RR,52.6068,1.7266
K Foley Ltd T/A McDonalds Great Yarmouth,NR30 2AB,52.6069,1.7289
KFC GREAT YARMOUTH,NR30 2AB,52.6068,1.7287
KFC,NR30 2AB,52.6068,1.7287
McDonalds,NR30 2AB,52.6069,1.7289
Fish O Licious (Norfolk) Ltd,NR30 2AE,52.6071,1.7301
21 East Coffee Company,NR30 2AF,52.6076,1.7306
Charlies Tapas,NR30 2AJ,52.6077,1.7342
SAVOY TANDOORI,NR30 2AJ,52.6077,1.7342
Burger King,NR30 2AX,52.6075,1.7287
Starbucks,NR30 2AX,52.6075,1.7287
The Boulevard Restaurant,NR30 2AX,52.6075,1.7287
Costa Coffee,NR30 2BE,52.6073,1.7275
Burger King,NR30 2BG,52.6081,1.7286
Starbucks ,NR30 2BG,52.6081,1.7286
The Jube,NR30 2BG,52.6081,1.7286
The Prom Hotel,NR30 2DH,52.6091,1.7363
The Dining Room,NR30 2DQ,52.6085,1.7364
DIXIES,NR30 2EH,52.6082,1.7379
JOYLAND AMERICAN FAMILY DINER,NR30 2EH,52.6082,1.7379
A VARINA,NR30 2EJ,52.6066,1.7364
Hotel Ocean,NR30 2EJ,52.6069,1.7362
LEKTHAI,NR30 2EJ,52.6069,1.7362
Metropole Restaurant,NR30 2EJ,52.6069,1.7362
Othello Taverna ,NR30 2EJ,52.6069,1.7362
SPRINKLES,NR30 2EJ,52.6056,1.7362
nickys cafe & diner,NR30 2EJ,52.6058,1.7364
  FISH & GRILL,NR30 2EN,52.6044,1.7362
KFC,NR30 2EN,52.6045,1.7359
KFC ATLANTIS,NR30 2EW,52.6045,1.7359
LANDMARK,NR30 2EW,52.6045,1.7359
Columbia Taverna,NR30 2JQ,52.6060,1.7349
Grumpies ,NR30 2NU,52.6065,1.7266
pop into lobos,NR30 2NU,52.6065,1.7266
Best Chilli Ltd T/A - Bombay Nite,NR30 2NZ,52.6063,1.7282
Jaipur Restaurant,NR30 2PA,52.6058,1.7280
Peggottys lounge,NR30 2PA,52.6060,1.7279
The Yankee Traveller,NR30 2PN,52.6042,1.7297
Barking smack pub ,NR30 3AB,52.5987,1.7305
Buddys cafe ,NR30 3AH,52.6015,1.7358
Harry Ramsdens,NR30 3AH,52.6015,1.7358
Las Palmas cafeteria ,NR30 3AH,52.6014,1.7357
Planet Papadum Indian Restaurant,NR30 3AH,52.6014,1.7357
Sunshine cafe (gy) ltd,NR30 3AH,52.6014,1.7357
The corner fish bar,NR30 3AH,52.6014,1.7357
Urchins at The Sealife Centre,NR30 3AH,52.6015,1.7358
Sara's Tearooms,NR30 3EH,52.5945,1.7362
The Embassy Hotel,NR30 3JB,52.6004,1.7342
Wellington Pier Bowl,NR30 3JF,52.5992,1.7379
Merryvale Tearooms,NR30 3JG,52.5986,1.7362
COMFORT HOTEL,NR30 3JH,52.5999,1.7338
Hotel Victoria ,NR30 3JW,52.5987,1.7350
Furzedown Hotel Ltd,NR30 4EN,52.6140,1.7375
Spicy Papadum Indian Restaurant,NR30 5DN,52.6459,1.7294
The Gate,NR30 5EL,52.6473,1.7279
The Ship Caister ,NR30 5HA,52.6467,1.7319
Yarmouth Stadium,NR30 5TE,52.6371,1.7264
Margo's Lounge,NR31 6AG,52.5712,1.7280
NUMBER 1 BAR AND KITCHEN,NR31 6DA,52.5745,1.7299
The Cliff Hotel,NR31 6DH,52.5705,1.7313
JAY JAYS at THE BEACH CAFE,NR31 6EY,52.5615,1.7305
Best Currymart Ltd,NR31 6LY,52.5771,1.7266
SW1 restaurant ,NR31 6PJ,52.5717,1.7324
The Pier Hotel,NR31 6PL,52.5711,1.7337
The Dock Tavern,NR31 6PY,52.5791,1.7300
Costa Coffee,NR31 6QX,52.5782,1.7271
Cafe smiles,NR31 6RB,52.5791,1.7277
KFC GORLESTON ON SEA,NR31 6RE,52.5786,1.7279
KFC,NR31 6RE,52.5785,1.7279
Subway Gorleston,NR31 6RE,52.5786,1.7279
BG's Diner,NR31 6RF,52.5795,1.7282
GORLESTON SPICE LIMITED,NR31 6RF,52.5795,1.7282
Palace Cinema Gorleston,NR31 6RG,52.5801,1.7280
The Turnstone,NR31 9BH,52.5395,1.7279
Stardust fish and chips,NR31 9BN,52.5406,1.7320
Potters  Resort,NR31 9BX,52.5347,1.7319
