name,postcode,lat,lon
The Kings Arms Northgate Street LTD,NR30 1BG,52.612461881750700,1.726630630854880
Marine Lodge,NR30 1EB,52.610145592510300,1.737042857871410
Imperial Hotel,NR30 1EQ,52.612999182537100,1.737460000000000
the market tavern,NR30 1LY,52.608867713293700,1.726159000000000
PANDO,NR30 1NU,52.608672504930600,1.727283700502420
Palace Bingo Hall Great Yarmouth,NR30 1PL,52.610038398147900,1.725611945722200
Palace Casino Great Yarmouth,NR30 1PL,52.610038398147900,1.725611945722200
Mocha,NR30 1RR,52.606732668300100,1.726378000000000
K Foley Ltd T/A McDonalds Great Yarmouth,NR30 2AB,52.606793254991900,1.728690071714980
KFC GREAT YARMOUTH,NR30 2AB,52.606793254991900,1.728690071714980
Taco Bell - 114a Regent Road,NR30 2AB,52.606793254991900,1.728690071714980
Fish O Licious (Norfolk) Ltd,NR30 2AE,52.607038045943600,1.730055403800350
21 East Coffee Company,NR30 2AF,52.607420000000000,1.730618465272090
Charlies Tapas,NR30 2AJ,52.607732000000000,1.734311000000000
SAVOY TANDOORI,NR30 2AJ,52.607732000000000,1.734311000000000
The Boulevard Restaurant,NR30 2AX,52.607531176158300,1.728565000000000
Costa Coffee,NR30 2BE,52.607366000000000,1.727956000000000
Burger King,NR30 2BG,52.608084000000000,1.728578000000000
Starbucks ,NR30 2BG,52.608084000000000,1.728578000000000
The Jube,NR30 2BG,52.608084000000000,1.728578000000000
The Prom Hotel,NR30 2DH,52.609060822764000,1.736359367260140
JOYLAND AMERICAN FAMILY DINER,NR30 2EH,52.608228241497100,1.737943248411300
LEKTHAI,NR30 2EJ,52.606789389256700,1.736445000000000
Metropole Restaurant,NR30 2EJ,52.606789389256700,1.736445000000000
Othello Taverna ,NR30 2EJ,52.606789389256700,1.736445000000000
SPRINKLES,NR30 2EJ,52.606789389256700,1.736445000000000
nickys cafe & diner,NR30 2EJ,52.606789389256700,1.736445000000000
KFC ATLANTIS,NR30 2EW,52.604469714781800,1.735749000000000
Columbia Taverna,NR30 2JQ,52.605950280608200,1.734882784486100
Grumpies ,NR30 2NU,52.606517370515400,1.726598152117540
pop into lobos,NR30 2NU,52.606517370515400,1.726598152117540
Best Chilli Ltd T/A - Bombay Nite,NR30 2NZ,52.606248680539400,1.728274395368450
Jaipur Restaurant,NR30 2PA,52.605772619869600,1.728163000000000
Peggottys lounge,NR30 2PA,52.605772619869600,1.728163000000000
The Yankee Traveller,NR30 2PN,52.604064000000000,1.729714000000000
Harry Ramsdens,NR30 3AH,52.601470725059100,1.735742195726900
Planet Papadum Indian Restaurant,NR30 3AH,52.601470725059100,1.735742195726900
Sunshine cafe (gy) ltd,NR30 3AH,52.601470725059100,1.735742195726900
The corner fish bar,NR30 3AH,52.601470725059100,1.735742195726900
Sara's Tearooms,NR30 3EH,52.594495330262700,1.736167282268600
Wellington Pier Bowl,NR30 3JF,52.599262134672800,1.737900000000000
COMFORT HOTEL,NR30 3JH,52.599932090988500,1.733907000000000
Furzedown Hotel Ltd,NR30 4EN,52.613990731380800,1.737474109359050
The Gate,NR30 5EL,52.647267775916600,1.727891942014520
The Ship Caister ,NR30 5HA,52.646698988941700,1.731954655973510
The Cliff Hotel,NR31 6DH,52.570498000000000,1.731320000000000
JAY JAYS at THE BEACH CAFE,NR31 6EY,52.561456190778600,1.730507327280140
Best Currymart Ltd,NR31 6LY,52.577069123182700,1.726577902499330
The Pier Hotel,NR31 6PL,52.571049992771000,1.733758348563330
Costa Coffee,NR31 6QX,52.578222332091000,1.727089240090750
Cafe Smiles,NR31 6RB,52.579086152703600,1.727649855123920
Cafe smiles,NR31 6RB,52.579086152703600,1.727649855123920
KFC GORLESTON ON SEA,NR31 6RE,52.578494233629000,1.727880122314150
BG's Diner,NR31 6RF,52.579435851215800,1.728255413442200
GORLESTON SPICE LIMITED,NR31 6RF,52.579435851215800,1.728255413442200
Palace Cinema Gorleston,NR31 6RG,52.579997000000000,1.728147000000000
The Turnstone,NR31 9BH,52.539134000000000,1.728155000000000
Stardust fish and chips,NR31 9BN,52.542152081911500,1.731686324565940
Potters  Resort,NR31 9BX,52.535291000000000,1.732785000000000
