name,postcode,lat,lon
The Kings Arms Northgate Street LTD,NR30 1BG,52.61247400000000,1.72661600000000
Marine Lodge,NR30 1EB,52.61015800000000,1.73702900000000
Palm Court Hotel,NR30 1EG,52.61281100000000,1.73732900000000
Imperial Hotel,NR30 1EQ,52.61301100000000,1.73724200000000
the market tavern,NR30 1LY,52.6089,1.7262
PANDO,NR30 1NU,52.60875620000000,1.72722340000000
Palace Bingo Hall Great Yarmouth,NR30 1PL,52.6100,1.7256
Palace Casino Great Yarmouth,NR30 1PL,52.6100,1.7256
Mocha,NR30 1RR,52.60678800000000,1.72659810000000
K Foley Ltd T/A McDonalds Great Yarmouth,NR30 2AB,52.60691250000000,1.72892830000000
KFC GREAT YARMOUTH,NR30 2AB,52.60680500000000,1.72867600000000
KFC,NR30 2AB,52.60680500000000,1.72867600000000
McDonalds,NR30 2AB,52.60691250000000,1.72892830000000
Taco Bell - 114a Regent Road,NR30 2AB,52.6068,1.7287
Fish O Licious (Norfolk) Ltd,NR30 2AE,52.6070,1.7301
21 East Coffee Company,NR30 2AF,52.60758972167970,1.73058998584747
Charlies Tapas,NR30 2AJ,52.60765600000000,1.73423000000000
SAVOY TANDOORI,NR30 2AJ,52.60765600000000,1.73423000000000
Burger King,NR30 2AX,52.60754300000000,1.72866500000000
Starbucks,NR30 2AX,52.60754394531250,1.72866499423981
The Boulevard Restaurant,NR30 2AX,52.60754300000000,1.72866500000000
Costa Coffee,NR30 2BE,52.60725402832030,1.72753298282623
Burger King,NR30 2BG,52.6081,1.7286
Starbucks ,NR30 2BG,52.6081,1.7286
The Jube,NR30 2BG,52.6081,1.7286
The Prom Hotel,NR30 2DH,52.60907200000000,1.73634500000000
The Dining Room,NR30 2DQ,52.60848600000000,1.73641400000000
DIXIES,NR30 2EH,52.6082,1.7379
JOYLAND AMERICAN FAMILY DINER,NR30 2EH,52.60824000000000,1.73792900000000
Hotel Ocean,NR30 2EJ,52.60687300000000,1.73621700000000
LEKTHAI,NR30 2EJ,52.60687300000000,1.73621700000000
Metropole Restaurant,NR30 2EJ,52.60687300000000,1.73621700000000
Othello Taverna ,NR30 2EJ,52.60687300000000,1.73621700000000
SPRINKLES,NR30 2EJ,52.6068,1.7364
nickys cafe & diner,NR30 2EJ,52.60584100000000,1.73638670000000
  FISH & GRILL,NR30 2EN,52.6045,1.7362
KFC,NR30 2EN,52.60448200000000,1.73589500000000
KFC ATLANTIS,NR30 2EW,52.60448074340820,1.73589503765106
LANDMARK,NR30 2EW,52.60448074340820,1.73589503765106
Columbia Taverna,NR30 2JQ,52.60596200000000,1.73486800000000
Grumpies ,NR30 2NU,52.60652923583980,1.72658395767212
pop into lobos,NR30 2NU,52.60652923583980,1.72658395767212
Best Chilli Ltd T/A - Bombay Nite,NR30 2NZ,52.60628000000000,1.72820300000000
Jaipur Restaurant,NR30 2PA,52.60578500000000,1.72795400000000
Peggottys lounge,NR30 2PA,52.60601910000000,1.72787720000000
The Yankee Traveller,NR30 2PN,52.60417938232420,1.72969996929169
Barking smack pub ,NR30 3AB,52.5987,1.7304
Buddys cafe ,NR30 3AH,52.6015,1.7357
Harry Ramsdens,NR30 3AH,52.60149765014650,1.73576498031616
Las Palmas cafeteria ,NR30 3AH,52.60143000000000,1.73566400000000
Planet Papadum Indian Restaurant,NR30 3AH,52.60143100000000,1.73566500000000
Sunshine cafe (gy) ltd,NR30 3AH,52.60143100000000,1.73566500000000
The corner fish bar,NR30 3AH,52.60143100000000,1.73566500000000
Urchins at The Sealife Centre,NR30 3AH,52.6015,1.7357
Sara's Tearooms,NR30 3EH,52.59450700000000,1.73615300000000
Wellington Pier Bowl,NR30 3JF,52.5993,1.7379
Merryvale Tearooms,NR30 3JG,52.59855400000000,1.73618800000000
COMFORT HOTEL,NR30 3JH,52.59994400000000,1.73375100000000
Furzedown Hotel Ltd,NR30 4EN,52.61400200000000,1.73746000000000
Spicy Papadum Indian Restaurant,NR30 5DN,52.64587400000000,1.72940000000000
The Gate,NR30 5EL,52.64728164672850,1.72787797451019
The Ship Caister ,NR30 5HA,52.64671100000000,1.73194000000000
Yarmouth Stadium,NR30 5TE,52.63709000000000,1.72641900000000
Margo's Lounge,NR31 6AG,52.57119900000000,1.72796900000000
NUMBER 1 BAR AND KITCHEN,NR31 6DA,52.57451810000000,1.72989630000000
The Cliff Hotel,NR31 6DH,52.5705,1.7313
JAY JAYS at THE BEACH CAFE,NR31 6EY,52.56146800000000,1.73049400000000
Best Currymart Ltd,NR31 6LY,52.57708100000000,1.72656400000000
SW1 restaurant ,NR31 6PJ,52.5717,1.7325
The Pier Hotel,NR31 6PL,52.57106200000000,1.73374500000000
The Dock Tavern,NR31 6PY,52.57911400000000,1.72997000000000
Costa Coffee,NR31 6QX,52.57823400000000,1.72707500000000
Cafe smiles,NR31 6RB,52.5791,1.7276
KFC GORLESTON ON SEA,NR31 6RE,52.5785,1.7279
KFC,NR31 6RE,52.57853300000000,1.72788300000000
Subway Gorleston,NR31 6RE,52.5785,1.7279
BG's Diner,NR31 6RF,52.57949066162110,1.72823703289032
GORLESTON SPICE LIMITED,NR31 6RF,52.5794,1.7283
Palace Cinema Gorleston,NR31 6RG,52.58007431030270,1.72802901268005
The Turnstone,NR31 9BH,52.53950300000000,1.72792000000000
Stardust fish and chips,NR31 9BN,52.5422,1.7317
Potters  Resort,NR31 9BX,52.53470900000000,1.73190900000000
