name,postcode,lat,lon
Guillemot and Kestrel,NR30 1DY,52.609658677446200,1.735656754389320
Elephant and blue tongue,NR30 1NL,52.609886172074300,1.727874487667940
boa and python,NR30 1QG,52.616842859258900,1.726042535215620
lizard and Pheasant,NR30 2AB,52.606793254991900,1.728690071714980
Civet and Wallaby,NR30 2AY,52.605765775333500,1.729556000000000
frill-necked lizard and Marsh harrier,NR30 2BN,52.607694000000000,1.731896181700020
puff adder and rattlesnake,NR30 2DD,52.608238064246900,1.733644468648030
diamond snake and Eagle,NR30 2DG,52.608951056576900,1.735847643507540
Marsh harrier and Parakeet,NR30 2FD,52.601647721838000,1.729848041968400
Ground sloth and Viscacha,NR30 2LH,52.604716000000000,1.733285000000000
Boto and Peafowl,NR30 2NU,52.606517370515400,1.726598152117540
Towhee and blue racer,NR30 2QS,52.605464397384100,1.725474455504790
dugite and boomslang,NR30 2QZ,52.604686000000000,1.730792000000000
Old World warbler and Flameback,NR30 2RB,52.605181653310400,1.735866287501660
Rabbit and rattlesnake,NR30 2RT,52.601348024299200,1.728227072280330
adder and Pratincole,NR30 2RU,52.601592000000000,1.727989841598030
rat snake and Darwin's finches,NR30 3EA,52.592892518696600,1.731378178335890
Marsh harrier and Scimitar babbler,NR30 3EE,52.593714338681700,1.732984206200000
Eagle and Mamo,NR30 3HJ,52.600120117684200,1.732081729762830
asp and thorn lizard,NR30 3JN,52.597876215093600,1.734209962133080
Tit-tyrant and tortoise,NR30 3LF,52.598384579720000,1.728359228790160
gopher snake and Old World vulture,NR30 3NG,52.592231000000000,1.731278000000000
loggerhead and thorny devil,NR30 4AY,52.626453845358000,1.728855000000000
Tit-tyrant and cobra de capello,NR30 4DS,52.623244124327300,1.730134110876010
anole and frilled lizard,NR30 4EP,52.616264022092100,1.737549730984540
mountain devil and Quetzal,NR30 4EX,52.623740000000000,1.737829679175630
Grouse and Stint,NR30 4LL,52.614268000000000,1.729592000000000
Meadowlark and Peafowl,NR30 4NB,52.621365998932700,1.730077700594000
Polecat and Kākāriki,NR30 4NQ,52.619157726155900,1.731766000000000
Marmoset and blind snake,NR30 4NR,52.615463630561000,1.734126929110440
tree snake and Zebra,NR30 4NX,52.617177531692500,1.731405954792690
Tattler and Meadowlark,NR30 5DH,52.644235833701200,1.727914760229910
black snake and Grouse,NR30 5JA,52.652713420275400,1.731195449707430
deaf adder and Hawk,NR30 5LT,52.652609548930800,1.730210436176310
constrictor and Old World vulture,NR30 5XA,52.655720575006200,1.725106323195460
amphisbaena and B,NR30 9SN,52.605993053535900,1.725253431968420
Black cockatoo and Prion,NR30 9SQ,52.605993053535900,1.725253431968420
indigo snake and diamond python,NR30 9ST,52.605993053535900,1.725253431968420
Songlark and tokay,NR31 0PA,52.585695611908900,1.725700000000000
crocodile and caiman,NR31 0QP,52.587175944142300,1.725826519750280
Parakeet and flying lizard,NR31 6AG,52.571187220215100,1.727983001856860
Peafowl and Gila monster,NR31 6AL,52.571585323298700,1.729050212319640
jew lizard and bushmaster,NR31 6AT,52.572394414602400,1.726765000000000
Old World warbler and loggerhead,NR31 6AY,52.573908621323200,1.727254470741190
hognose snake and Cuscus,NR31 6BT,52.570010723339500,1.731632751012570
gavial and Lemming,NR31 6DG,52.573681993118500,1.729877918171300
Condor and Parrotlet,NR31 6EU,52.565377545588800,1.725954625377330
amphisbaena and bull snake,NR31 6HW,52.557864506512400,1.727457223453870
rock python and Lemming,NR31 6NN,52.582358636950400,1.726273970239430
jew lizard and Chickadee,NR31 6RS,52.583072573644600,1.728165674866680
blue tongue and tiger snake,NR31 6SQ,52.575864408446000,1.726844732145580
copperhead and garter snake,NR31 6TT,52.557154000000000,1.725017214790530
