name,postcode,lat,lon
Black cockatoo and slowworm,NR30 1AE,52.611388319975000,1.737281783763540
tortoise and diamondback terrapin,NR30 1DN,52.612294944033900,1.728788606812300
sidewinder and Zebra,NR30 1EP,52.611413003518000,1.732511115760540
smooth snake and blind snake,NR30 1EQ,52.612999182537100,1.737460000000000
milk snake and flying lizard,NR30 1HF,52.607942639637800,1.725321000000000
Myna and swift,NR30 1NL,52.609886172074300,1.727874487667940
Francolin and dugite,NR30 1NU,52.608672504930600,1.727283700502420
Puffleg and Egret,NR30 1PB,52.608092000000000,1.725562634761010
galliwasp and Vulture,NR30 1PZ,52.613728005088000,1.725556100972350
glass snake and smooth snake,NR30 1QR,52.620553196060400,1.725042625717060
elapid and perentie,NR30 1RL,52.606342139060000,1.725276000000000
Kestrel and Towhee,NR30 2AU,52.607716667466900,1.731354248038920
Cloud rat and Stilt,NR30 2BF,52.604510772788900,1.730047250803110
Puffleg and python,NR30 2BZ,52.608462580583400,1.732230376696250
Elephant and Argus,NR30 2DL,52.607869000000000,1.737661000000000
Thrasher and Snipe,NR30 2DZ,52.608889405616600,1.730390221364130
taipan and Old World vulture,NR30 2HB,52.605960000000000,1.735445217901750
iguana and Fish eagle,NR30 2HG,52.606957116805400,1.735470896518320
Gull and crocodile,NR30 2NR,52.602798654666700,1.734422295130960
agama and bearded lizard,NR30 2PG,52.605055000000000,1.729367747355500
Myna and Chickadee,NR30 2RD,52.606443925100000,1.727448803600000
boa and Night heron,NR30 3AF,52.600863846290900,1.735306404992060
Parrotlet and Macaw,NR30 3AG,52.600706692718800,1.735440747205680
Masked owl and Dorcopsis,NR30 3BG,52.602240539390800,1.733296316598230
rattlesnake and mountain devil,NR30 3DL,52.597066615788400,1.729650488909860
Ground sloth and turtle,NR30 3EB,52.593700628953900,1.731993422944420
skink and gecko,NR30 3EE,52.593714338681700,1.732984206200000
Rabbit and harlequin snake,NR30 3HR,52.598871609027400,1.732595916604730
brown snake and asp,NR30 3JE,52.599999000000000,1.735085000000000
grass snake and diamond snake,NR30 3JH,52.599932090988500,1.733907000000000
elapid and Old World quail,NR30 3JW,52.598686766165000,1.735032351281330
blindworm and rock python,NR30 3ND,52.592375680539400,1.729798142529400
Thrasher and Wallaby,NR30 4AU,52.628098021738700,1.732267000000000
black snake and galliwasp,NR30 4DP,52.625768996421100,1.728220564912550
bearded dragon and gavial,NR30 4DY,52.622139519107200,1.734355842254750
Masked owl and Stilt,NR30 4DZ,52.622206103477000,1.733386034804870
Egret and habu,NR30 4ES,52.618287622337600,1.736702570504570
cobra de capello and Tahr,NR30 4EX,52.623740000000000,1.737829679175630
Greenbul and Francolin,NR30 4HY,52.614532000000000,1.728624000000000
Mole and Solitaire,NR30 4NE,52.621297872007200,1.727958404945750
chuckwalla and Duck,NR30 5AA,52.644843478866900,1.728898118409990
Old World vulture and carpet snake,NR30 5BT,52.642716037980000,1.728761308353590
coral snake and dugite,NR30 5DR,52.645190915749500,1.730717029322300
Thicketbird and turtle,NR30 5EH,52.648314761846200,1.726635311322560
Cloud rat and Mole,NR30 5LL,52.651250371223300,1.725672457072850
caiman and Dolphin,NR31 0PJ,52.588250581480400,1.725976850846080
soft-shelled turtle and Minke whale,NR31 6AN,52.572158223811400,1.728452000000000
giant tortoise and swift,NR31 6AZ,52.573021000000000,1.727720294903590
Tit-tyrant and bandy-bandy,NR31 6DN,52.570352322181500,1.726790157001490
turtle and Puffleg,NR31 6HN,52.559209659895400,1.728442148427890
Maya and cayman,NR31 6HT,52.561475099610200,1.727055205777700
Rat and caiman,NR31 6HZ,52.573675070212700,1.727780000000000
gopher snake and carpet snake,NR31 6PT,52.576087000000000,1.730991445273630
Kangaroo and brown snake,NR31 6RL,52.581021000000000,1.728178526714880
Guillemot and Warbler,NR31 6SP,52.571677203942100,1.725147000000000
agama and Gila monster,NR31 9ET,52.539405162469800,1.731512107392030
leathery turtle and adder,NR31 9RW,52.542292863969400,1.726652729630460
lizard and flying lizard,NR31 9SG,52.537413940974900,1.731903619490220
Vulture and Stilt,NR31 9SH,52.538112008904200,1.728879789491390
Pheasant and viper,NR31 9ST,52.539581046997800,1.730214097388210
Solitaire and constrictor,NR32 5LG,52.527389445130500,1.734031885513380
milk snake and swift,NR32 5NG,52.527522382662900,1.726683869014460
