name,postcode,lat,lon
Myna and Viscacha,GL15 5NU,51.733191130376100,-2.525555541735790
Armadillo and Nukupuʻu,GL11 4QA,51.673556239278600,-2.345039118326640
Puffleg and Polecat,NP25 3BG,51.827170352911100,-2.718521312520960
Scimitar babbler and Moluccan boobook,GL15 4RB,51.756223447019700,-2.538152018501450
Mink and Bronzewing pigeon,NP16 9AQ,51.640742436000000,-2.672939914600000
Jackal and Jackal,GL16 8NE,51.786511069441100,-2.632716730413970
Peafowl and Rabbit,NP25 5DN,51.812255210479800,-2.731455242777250
Tahr and Chicken,GL2 8JX,51.837538000000000,-2.357003000000000
Night heron and Coati,GL15 5PB,51.726443608452500,-2.526476247850210
Myna and Elephant,GL12 8RR,51.626147254921300,-2.365178170190130
Viscacha and Vulture,NP16 5TJ,51.625161088773600,-2.665514849946950
Hawaiian honeycreeper and Vole,NP25 5BY,51.816707457885600,-2.731193691245480
Chickadee and Duck,GL15 4EU,51.740265569511500,-2.521886667861280
Pratincole and Lemming,NP16 7LD,51.645972816261800,-2.675546245412370
Minke whale and Fish eagle,GL2 7AD,51.728044139096000,-2.362524370705260
Chipmunk and Night heron,GL15 5LP,51.732858637291300,-2.527520991555640
Grackle and Parakeet,GL11 4JT,51.679227927835300,-2.354685697039850
Crow and Snipe,GL15 5UA,51.727894423955900,-2.525754700361070
Gull and Old World vulture,GL17 1BA,51.823065604219000,-2.498047618550480
Stilt and Hawk,GL14 2JB,51.818861816162400,-2.506386411653240
Peafowl and Partridge,NP16 6NU,51.715928000000000,-2.767607000000000
Grosbeak and Chipmunk,NP16 5JS,51.633994808405200,-2.677520000000000
Dolphin and Dorcopsis,GL14 1EA,51.785765798304500,-2.460248000000000
Cuscus and Grosbeak,GL2 8JY,51.834326000000000,-2.360462098589680
Buzzard and Hawaiian honeycreeper,NP25 3PX,51.814406000000000,-2.711605000000000
Philippine hawk-owl and Maya,GL14 1QS,51.822816719462500,-2.374761699980080
Shearwater and Grackle,NP16 7RH,51.622763240183600,-2.653808022345310
Lemming and B,GL14 2DL,51.819585286314000,-2.496978847181290
Boto and Tattler,GL12 8JP,51.634431580092900,-2.375517819022920
Bunting and Fish eagle,GL14 1BS,51.805042898906700,-2.448769409108480
Civet and Fox,GL14 2UF,51.783097287266600,-2.486763637346860
Meadowlark and Guillemot,GL11 5PA,51.697150593653000,-2.356605547628560
Siskin and Minke whale,NP25 4TU,51.755024355258300,-2.676231117485510
Scimitar babbler and Bronzewing pigeon,GL16 8EX,51.796930000000000,-2.623118000000000
Wallaby and Dorcopsis,NP16 5NJ,51.626557258506200,-2.672960749078750
Songlark and Quetzal,GL12 8RA,51.627607664827500,-2.366981000000000
Boto and Eagle,NP25 5HA,51.807767353664100,-2.721259000000000
Kestrel and Black jay,GL16 7RZ,51.793197763221300,-2.602433722881440
Wader and Herring gull,GL12 7DP,51.640763000000000,-2.358142000000000
Guillemot and Partridge,NP16 6FD,51.707515000000000,-2.745240000000000
Old World warbler and Boto,GL15 6LQ,51.753706205247500,-2.574179954992780
Stint and Coati,NP26 5AG,51.613737842900000,-2.765924855500000
Pratincole and Linsang,GL14 1LW,51.827602000000000,-2.414705000000000
Scimitar babbler and Skunk,GL17 9WQ,51.823060300596800,-2.498047249935830
Flameback and Piping shrike,NP25 3ER,51.811079000000000,-2.716122000000000
Triller and Bunting,GL11 6LB,51.694451481666800,-2.377302315585050
Rabbit and Kākāriki,NP25 4TB,51.732979000000000,-2.688714954158730
Thrasher and Diving bird,GL16 9SP,51.792044303845400,-2.618512463921110
Vole and Bunting,BS35 1LP,51.617424692382800,-2.516258290869290
Darwin's finches and Parakeet,NP16 7NP,51.711128376020200,-2.660552721888130
Chipmunk and Night heron,GL14 1JT,51.827016943792600,-2.453471568702790
Myna and American sparrow,GL11 6NG,51.696083402938400,-2.373076654769120
Peafowl and Greenbul,BS35 1UP,51.614156519620000,-2.511079700990910
Quetzal and Capuchin,BS35 3UG,51.619792415878600,-2.501046557970420
Goose and Diving bird,GL15 5BT,51.725105105205400,-2.518121520987520
Fulmarine petrel and B,BS35 1SJ,51.618427694098800,-2.521354000000000
Petrel and Vulture,GL14 1NF,51.829183462064900,-2.404271928809970
Puffleg and Tit-tyrant,GL15 6SE,51.730901000000000,-2.652501000000000
Ground sloth and Wallaby,GL15 4PP,51.744719387558300,-2.558350804566880
Towhee and Jerboa,GL12 8BZ,51.636478878969800,-2.461956848908620
Recurvebill and Elephant,GL15 4LP,51.739808000000000,-2.492916000000000
Diving bird and Grouse,NP16 5DS,51.637903904469100,-2.676177704288480
Francolin and Boto,GL15 6HD,51.747177648542200,-2.576211924787490
Solitaire and Old World quail,NP16 6BL,51.655294000000000,-2.721596000000000
Triller and Gull,GL12 8JN,51.634436000000000,-2.360318000000000
Philippine hawk-owl and Herring gull,NP25 3NW,51.821949000000000,-2.716828000000000
Kestrel and White ibis,GL15 5SX,51.740748319946800,-2.524528088814160
Fulmarine petrel and Solitaire,GL15 5ER,51.713766408002400,-2.530381717707920
Ground sloth and Argus,GL16 8NN,51.782178664078900,-2.650587726748210
Myna and Chicken,GL13 9JS,51.656546794929800,-2.435924000000000
Wader and Vole,NP25 3LD,51.805465155723800,-2.699234369207020
Linsang and Treepie,NP16 5EE,51.637610107050100,-2.674106991529030
Perching duck and B,GL14 3AG,51.805371804107100,-2.505973000000000
Chicken and Badger,GL17 9DA,51.842302820325800,-2.518450435224710
Peafowl and Guillemot,NP16 5SU,51.624817408327900,-2.664281920663030
Lemming and Viscacha,NP16 6QX,51.728948588083200,-2.769912398729140
Snipe and Tree warbler,GL14 2QJ,51.827391113496600,-2.494467416993720
Vole and Mamo,GL2 7EH,51.759481985148500,-2.372469165673960
Thrasher and Darwin's finches,GL17 9HS,51.858893388213500,-2.511801984655100
Grosbeak and Old World vulture,GL16 7PJ,51.832744615263700,-2.612104223898920
Civet and Magpie,GL11 5HN,51.701226994773600,-2.346465183837710
Rat and Pheasant,GL16 7AB,51.810041750786300,-2.620746074441410
Buzzard and Vulture,GL15 5NN,51.731757000000000,-2.522802000000000
Darwin's finches and Parakeet,BS35 1UN,51.612804481000500,-2.511844375128630
Kangaroo and Kestrel,GL15 6DJ,51.718535254665000,-2.571794454165910
New World blackbird and Shearwater,GL17 9RN,51.844693807800900,-2.576513187777150
Diving bird and New World blackbird,GL14 2TQ,51.828644593233800,-2.504174424215620
Marmoset and Crow,GL13 9UA,51.719927475768600,-2.479715223890680
B and Solitaire,GL15 5LD,51.727276412964200,-2.531220372000750
Grackle and Crow,NP25 3EH,51.811756300894100,-2.717579801901790
Rat and Duck,BS35 1BG,51.621851000000000,-2.524571000000000
Marmoset and Bronzewing pigeon,GL16 8LG,51.768209878180800,-2.623403476834330
Viscacha and Booted eagles,GL15 5QU,51.721999333476600,-2.518983560467470
Hawk and Grackle,GL14 1NE,51.831512792702500,-2.406687239633000
Puffleg and Tattler,GL11 4DD,51.689785828293000,-2.356923757642680
Siskin and Gull,GL12 7BQ,51.635945667991200,-2.351139997510140
Warbler and Minke whale,GL17 1AL,51.823065604219000,-2.498047618550480
Piping shrike and Viscacha,NP26 5NS,51.613169000000000,-2.761409000000000
Fulmarine petrel and River dolphin,NP16 7QL,51.657329368207600,-2.664439310207880
Chicken and Kangaroo,GL15 4JD,51.768161226121900,-2.557959020246330
Bronzewing pigeon and Egret,GL12 7AA,51.636982475970000,-2.353315000000000
Polecat and Fish eagle,GL2 8LA,51.831434271719900,-2.364863715099780
Thicketbird and Thicketbird,GL12 7AH,51.636856551068800,-2.356189925166380
Skunk and Elephant,GL11 5LL,51.706815000000000,-2.366001000000000
Peafowl and Boto,NP16 6JY,51.629518989725100,-2.693967733327500
Condor and Hawk,GL14 2XQ,51.827986246421800,-2.502541873791220
Argus and Darwin's finches,GL12 7BD,51.636063426637800,-2.353842923592440
Chipmunk and Vulture,GL14 1JH,51.817419910274200,-2.435400678098790
Crow and Treepie,GL16 7ER,51.824052579761700,-2.592340534428320
Magpie and Goose,GL14 1JB,51.813356367301000,-2.440119444961930
Recurvebill and Kestrel,GL12 8DT,51.619952000000000,-2.467047000000000
Kite and Eagle,GL15 6QX,51.730466905995200,-2.631426796736430
Polecat and Siskin,NP16 6LB,51.629833660872000,-2.693972536697720
Masked owl and Nukupuʻu,NP25 5BA,51.813436902624500,-2.726484265237340
Parakeet and Black cockatoo,NP16 7DU,51.646833058586100,-2.663606000000000
Dolphin and Piping shrike,GL12 8SF,51.625211777085300,-2.365300667332000
Duck and Masked owl,GL16 9BP,51.792723000000000,-2.617248000000000
Egret and Vole,GL15 4NG,51.749743649710000,-2.511349030621130
Old World quail and Perching duck,GL15 4HA,51.768190193817800,-2.555640733221210
Night heron and Myna,NP25 3DH,51.810650356606800,-2.713152636774410
Bunting and Logrunners,GL15 6HY,51.713630836462700,-2.555811081292940
Dolphin and Black jay,GL15 6SP,51.727369000000000,-2.657083000000000
Towhee and Lemming,GL17 1BY,51.823065604219000,-2.498047618550480
Buzzard and Lemming,GL11 5RE,51.698206443416900,-2.367017114188870
Maya and Elephant,NP25 3BS,51.812698543820900,-2.716405288218730
Philippine hawk-owl and Magpie,GL16 8QW,51.808850954907200,-2.623195491882010
Partridge and Petrel,GL14 3PA,51.807244504183400,-2.478698530357840
White ibis and Mamo,NP16 6SL,51.662249756590600,-2.793026846765640
Gull and Snipe,GL17 9EP,51.857589528706400,-2.515954482732070
Kite and Kite,GL12 8HW,51.622558000000000,-2.439469958251960
Skunk and Siskin,GL14 3JQ,51.828360334964300,-2.549546560706920
Linsang and Skunk,GL11 5JY,51.701623645772900,-2.366842198266250
Masked owl and Cuscus,GL14 2LD,51.824839136134200,-2.504697795187940
Macaw and Civet,GL17 9PU,51.833068890664600,-2.580065316651140
Condor and Snipe,GL12 7ES,51.637752919219700,-2.351139515035900
Parakeet and Songlark,GL11 5DF,51.713426000000000,-2.363550000000000
Bunting and Petrel,GL13 9RU,51.709658188276100,-2.462108948464940
Parrotbill and Old World vulture,NP16 5JW,51.631340813445500,-2.674388000000000
Puffleg and Partridge,GL16 7HJ,51.792013614943000,-2.601910466971450
B and Chicken,NP25 4XJ,51.813633000000000,-2.713794000000000
Recurvebill and Treepie,GL2 7EP,51.770536532912400,-2.365314120371860
Mole and Grackle,GL16 8RE,51.788233391278100,-2.613110560027770
Chipmunk and Maya,GL11 6LQ,51.695106709811400,-2.374848193041470
Linsang and Piping shrike,GL15 5TJ,51.719803575425800,-2.535432140371470
Chicken and Egret,GL15 6XW,51.752325442315800,-2.567831855965470
Guillemot and Asiatic leopard,NP16 7JF,51.663299535304500,-2.645109440768690
Boto and Stint,NP16 5FY,51.644776000000000,-2.669690000000000
Kestrel and Bunting,GL15 5FJ,51.729045542729100,-2.526897737377400
River dolphin and Ice seal,GL16 7LU,51.776374385500600,-2.592005677214420
Bronzewing pigeon and Polecat,GL11 4AZ,51.674884532306800,-2.348896013418310
Rat and Dolphin,GL14 2QH,51.827461328914800,-2.494874480434500
Warbler and Puffleg,NP16 6DS,51.639675690964500,-2.693053471633140
Crow and Magpie,GL16 8ND,51.786855124080800,-2.629952844522060
Old World warbler and Black jay,NP25 3GE,51.827822133925100,-2.713365856089640
Dorcopsis and Gull,BS35 1LT,51.617348655290600,-2.513094320846190
Ground sloth and Solitaire,NP25 5SR,51.818437467890100,-2.733484915343960
Petrel and Linsang,GL17 9PA,51.856578818577000,-2.574908226604140
Tree warbler and Chicken,NP25 3NX,51.814163974041800,-2.713469234004190
Masked owl and Civet,GL12 7JN,51.637589370532000,-2.348696240317730
Old World vulture and Piping shrike,GL15 5GL,51.719174000000000,-2.519675000000000
Treepie and Linsang,GL15 6JT,51.753389754445100,-2.572698286659090
River dolphin and Chickadee,GL14 1BH,51.805256538492400,-2.446973115934230
Black cockatoo and Jay,GL12 8UF,51.628773359973900,-2.398152827391030
Night heron and Hawk,GL15 6UR,51.716376432765700,-2.636644109671780
Duck and Zebra,GL14 1LB,51.828189000000000,-2.462074000000000
Triller and Chipmunk,GL11 4DP,51.689931003186500,-2.362364278199320
Snipe and Darwin's finches,NP16 7AJ,51.638365128390200,-2.658309697825530
Crow and Mole,GL16 8PN,51.786243920196300,-2.611851302326520
Chickadee and Thrasher,GL17 9ET,51.856482649745600,-2.513982000000000
Ice seal and Rabbit,NP16 6RX,51.646747699304300,-2.767449178276080
Rat and Rabbit,GL15 4QY,51.757099750449800,-2.539205573747620
B and Bronzewing pigeon,GL11 5JT,51.698891839266300,-2.363463217517010
River dolphin and Pitohui,HR9 6DZ,51.842592000000000,-2.655218000000000
Bunting and American sparrow,GL17 9DR,51.852339000000000,-2.525971000000000
Hawk and Myna,NP16 6QJ,51.724981000000000,-2.758060000000000
Hawaiian honeycreeper and Mamo,GL12 8TU,51.627159307894600,-2.402140362293400
Polecat and Old World quail,GL15 6ER,51.744022038725500,-2.570624464251350
Pratincole and Magpie,GL16 7EL,51.806517116097300,-2.552443000000000
Dorcopsis and Chicken,BS35 1EB,51.613487067305300,-2.518163291231930
Logrunners and Zebra,NP16 7AE,51.641969570155800,-2.658506427113360
Fox and Grouse,GL13 9BY,51.690800873333000,-2.462799263221690
Wader and Marsh harrier,NP16 6JD,51.619706701996000,-2.692893562249300
Mouse and Partridge,GL14 2LS,51.826723090046200,-2.503572549290310
Magpie and Viscacha,GL15 4TS,51.758900956566700,-2.534619681836010
Stilt and Kestrel,HR9 6DW,51.848996627266000,-2.667346150404520
Hawk and Parakeet,GL13 9SH,51.720350709340100,-2.457006575231850
Macaw and Warbler,BS35 1AQ,51.621919000000000,-2.525381000000000
Songlark and Greenbul,GL2 3SW,51.822572000000000,-2.349471000000000
Grouse and Flameback,GL15 5HE,51.725807000000000,-2.532448000000000
River dolphin and Perching duck,NP25 5AX,51.814107768101900,-2.730410000000000
Kite and Philippine hawk-owl,GL14 2GA,51.820780542622700,-2.508613000000000
Guillemot and Grouse,NP16 6BJ,51.648811759567400,-2.703498193554990
B and Shearwater,GL13 9FH,51.695100000000000,-2.454582000000000
Peafowl and Warbler,GL15 6QR,51.755730526448500,-2.602644714125840
Pitohui and Thrasher,GL14 3DR,51.804651993968700,-2.505211876223940
Egret and Logrunners,GL12 8PT,51.613653025442000,-2.470216988246270
Shearwater and Dolphin,GL14 1DH,51.808021732844900,-2.452729657638380
Booted eagles and Condor,NP26 5NT,51.613099998952500,-2.763574122265590
Pheasant and Jay,NP16 5AR,51.627487313110100,-2.673841318726370
Minke whale and Rat,GL15 4RS,51.760445909970600,-2.525336000000000
Booted eagles and Linsang,NP16 5NS,51.626944213520900,-2.671334016217400
Ibex and Mouse,GL15 4JP,51.775650000000000,-2.556573000000000
Zebra and Kite,GL13 9AP,51.695297952145300,-2.460139606594680
Asiatic leopard and Dorcopsis,GL14 3AD,51.809529094870600,-2.504294612597100
Goose and Egret,GL11 6HB,51.694455852976600,-2.373121134896760
Grouse and Parrotbill,NP25 5UX,51.806642413874100,-2.726026896850330
Duck and Booted eagles,NP16 5JF,51.634596013079300,-2.677820000000000
Philippine hawk-owl and Partridge,GL14 2EF,51.818903859268200,-2.502876004606830
Buzzard and Jackal,NP16 5BG,51.633447869422500,-2.686384387802050
Snipe and Herring gull,GL14 3HX,51.811205473533400,-2.519877513223170
Capuchin and Treepie,GL14 2AT,51.821829023704000,-2.493666547564980
Thicketbird and Pratincole,GL16 7BW,51.798234102717300,-2.598658054255150
Myna and Marmoset,GL11 4NU,51.676911974951100,-2.344487000000000
Zebra and Civet,GL17 1AP,51.823065604219000,-2.498047618550480
Wallaby and Siskin,GL11 4EY,51.687546378937100,-2.362996180509170
River dolphin and Stint,GL15 6HQ,51.746800766797100,-2.574222724645200
Tree warbler and Quetzal,GL17 9TY,51.842052346586900,-2.561252945941350
Mockingbird and Fox,GL12 7AE,51.637627439075200,-2.353999601819860
Viscacha and Viscacha,GL14 2AB,51.822571831394800,-2.496619984832620
Stilt and Dorcopsis,GL14 2AU,51.821523951306300,-2.493634000000000
New World blackbird and B,GL16 8RU,51.788930109688800,-2.613989902843620
Scimitar babbler and Snipe,GL12 8AH,51.613958854066800,-2.440050174134960
Francolin and Puffleg,GL14 3GB,51.813441692233600,-2.498869851102830
Polecat and Meadowlark,GL14 3EZ,51.811352734721100,-2.508826136883960
Stint and Stint,GL15 5GD,51.719174000000000,-2.519675000000000
Argus and Thicketbird,NP16 7HJ,51.618213304011300,-2.650622758698340
Ibex and Greenbul,HR9 6DX,51.828436065927500,-2.655796161975450
Logrunners and Herring gull,GL15 6PZ,51.707826000000000,-2.568432000000000
Jackal and Boto,BS35 1LY,51.617132642608900,-2.511084259404920
Stilt and Kangaroo,GL14 3HQ,51.814560294762100,-2.507266579216640
Fox and Moluccan boobook,NP25 5BQ,51.808234139155800,-2.725979957433580
Parakeet and Moluccan boobook,GL12 8HJ,51.630949806208100,-2.426157053461760
Black jay and Boto,BS35 1AR,51.620973000000000,-2.527696000000000
Vole and Vole,GL14 9DN,51.823068000000000,-2.498121000000000
American sparrow and American sparrow,GL15 5PL,51.726339993975900,-2.523507028247840
Old World vulture and Maya,GL11 4LP,51.681652539389700,-2.358638805821830
Magpie and Thrasher,GL12 7AL,51.636976929829300,-2.357997065808480
New World blackbird and Tit-tyrant,GL15 6UL,51.715935304165800,-2.624812000000000
Old World warbler and Mouse,NP25 4BL,51.787051085572700,-2.761478025418010
Vulture and Kestrel,NP16 6LR,51.620910116645700,-2.706706542064220
Moluccan boobook and Stilt,NP25 4TE,51.731349953459000,-2.690227123556780
Vole and Thicketbird,GL11 6HY,51.695893707341500,-2.381741628622940
Tree warbler and Tattler,GL15 5PF,51.725448943728400,-2.525726318293760
Wader and Asiatic leopard,GL14 2RA,51.826246308777300,-2.499417335654880
Quetzal and Dorcopsis,GL2 7DP,51.721746849915800,-2.375083076283080
Pratincole and Mamo,NP16 5QG,51.629584736445000,-2.671849771732100
Hawk and Condor,NP16 7BD,51.637370324239000,-2.657731744092980
Ground sloth and Mole,GL15 5DG,51.724498282248200,-2.533171218115240
Tattler and Partridge,GL16 8NR,51.790930065695900,-2.640216506111180
Greenbul and Jay,GL14 2SU,51.826287066152200,-2.500404475613650
Ice seal and Lemming,GL15 4NN,51.756617000000000,-2.516816000000000
Lemming and Crow,NP25 3TH,51.809341105235400,-2.699105805888300
Puffleg and B,GL14 2RX,51.823746607724400,-2.499737000000000
Boto and Cloud rat,GL13 9UY,51.719595096050100,-2.481839668947090
Macaw and Jay,GL17 0EU,51.853526534421500,-2.488365652291790
Grackle and Rabbit,GL2 7HJ,51.774693914375800,-2.361275032660040
Tahr and B,GL17 9YN,51.856720982769400,-2.543111343246790
White ibis and Argus,NP25 4AJ,51.779054596427600,-2.681460774852580
Shearwater and Meadowlark,GL15 5RS,51.725142569955400,-2.529877875027050
Ibex and Minke whale,GL13 9BL,51.692373547153300,-2.458417266950030
Viscacha and Grosbeak,GL14 9FQ,51.823068000000000,-2.498121000000000
Stilt and Old World quail,GL14 2SA,51.821331297101900,-2.507096013023920
River dolphin and Mink,GL14 2PB,51.828104000000000,-2.508884000000000
Parrotlet and Pratincole,GL11 4ED,51.683055534133800,-2.358519720209740
Argus and Perching duck,BS35 1JW,51.615667967305000,-2.519069153734100
Civet and Marmoset,GL13 9BZ,51.692428791922700,-2.462671202464760
Cuscus and Crow,BS35 3UE,51.615128152168800,-2.500518562304470
Eagle and Thicketbird,NP25 3PD,51.816421326749900,-2.713374334366650
Kākāriki and Badger,GL14 1BW,51.805440870097500,-2.448149716466520
Logrunners and Stint,GL16 7HR,51.788240387228400,-2.599555042195190
Thicketbird and Greenbul,GL2 7DW,51.718406071234100,-2.376662199520940
Partridge and Darwin's finches,GL16 7LF,51.777527000000000,-2.602529000000000
Booted eagles and Fox,GL15 6DR,51.713583289811100,-2.571341177006040
Vole and Stint,GL11 5PN,51.701100659368500,-2.361527478213130
Crow and Herring gull,GL16 7HD,51.796971809822100,-2.599351868808450
Grackle and Maya,GL16 7LP,51.779721000000000,-2.600689000000000
Crow and Mamo,GL12 7EJ,51.639108000000000,-2.346425000000000
Polecat and Vole,GL11 5UX,51.698380504347800,-2.368856102530120
Grouse and Coati,GL17 1DP,51.823065604219000,-2.498047618550480
Fulmarine petrel and Herring gull,GL11 6BL,51.695938940636000,-2.392564340229380
White ibis and Siskin,GL11 4PF,51.679623000000000,-2.349149000000000
Stint and New World blackbird,GL16 7LT,51.783324131582100,-2.597416856603170
Tit-tyrant and Mole,GL16 7EP,51.816490178000700,-2.590732594694750
Treepie and Quetzal,GL12 7SB,51.631306656711600,-2.347954537485780
Dolphin and Lemming,GL14 2PY,51.824694675936100,-2.492116339615910
Ibex and Masked owl,GL14 3YA,51.802487590350700,-2.508813293866640
Black jay and Kestrel,GL12 7DX,51.643013319618100,-2.362799178000110
Dolphin and Vole,GL16 8PL,51.784998000000000,-2.609674000000000
Meadowlark and Buzzard,NP25 3JN,51.804620725107700,-2.697596929930080
Masked owl and Peafowl,GL2 7DY,51.766849721078500,-2.368341940894410
Jerboa and Grosbeak,GL12 7LP,51.631984239892300,-2.346861678770400
B and Duck,GL13 9HU,51.737736774757400,-2.448420590534510
Coati and Francolin,GL14 2HP,51.820955126984600,-2.504668881108570
Dolphin and Buzzard,BS35 1QA,51.628715000000000,-2.567731000000000
Ibex and Asiatic leopard,NP25 3TF,51.809776000000000,-2.700211554245040
Philippine hawk-owl and Rat,GL14 2NP,51.820530222593400,-2.496771625172980
Prion and Diving bird,GL17 1DR,51.823065604219000,-2.498047618550480
Darwin's finches and Treepie,GL12 7AZ,51.639531555330300,-2.360574914404140
Chicken and Boto,NP16 6ST,51.706811646538600,-2.687349818793940
Chipmunk and Hawk,NP25 3JP,51.808153352615800,-2.705280816720430
Jackal and Argus,GL13 9FL,51.695607000000000,-2.453560000000000
River dolphin and Mouse,GL14 2AZ,51.828845611027200,-2.493511000000000
Black jay and Thrasher,GL11 4EH,51.687628000000000,-2.360335000000000
American sparrow and Tree warbler,GL11 5JN,51.705175627532600,-2.369562606740430
Boto and Boto,GL17 9NX,51.856415000000000,-2.579218000000000
Treepie and Hawk,GL15 4DU,51.763482083160700,-2.477163039341170
Prion and Partridge,GL12 8TR,51.625474624052300,-2.397835015232430
Treepie and Asiatic leopard,NP16 6SE,51.699295000000000,-2.682924000000000
Moluccan boobook and Bunting,GL15 6PG,51.702838847137500,-2.593085400946230
Piping shrike and Peafowl,GL11 5DL,51.711086279593200,-2.360406000000000
Old World vulture and Condor,GL14 2HL,51.819856526558400,-2.505062826317010
Marsh harrier and Dorcopsis,NP16 7BR,51.650981358323800,-2.667627557067450
Mole and Capuchin,NP16 5PU,51.639016479539400,-2.678145060290830
Gull and Shearwater,GL15 4SN,51.761854563424700,-2.519585521939280
Dorcopsis and Goose,GL15 5AJ,51.728452136219800,-2.521663673872160
Stilt and Dorcopsis,GL14 2EU,51.821952000000000,-2.501067000000000
Warbler and Warbler,GL15 4TB,51.760832264847800,-2.531049191419420
Goose and Myna,BS35 1LQ,51.626865090730900,-2.510211307636630
Booted eagles and Dolphin,GL14 9DQ,51.823068000000000,-2.498121000000000
New World blackbird and Shearwater,GL17 1AN,51.823065604219000,-2.498047618550480
Stilt and Crow,NP25 5EU,51.805849918268700,-2.723316469949260
Parrotbill and Gull,GL15 4TT,51.755403122035800,-2.534679769122920
Petrel and Macaw,NP25 4JF,51.780286000000000,-2.735432000000000
Guillemot and Parakeet,GL11 6HQ,51.695358354567400,-2.369207688812960
Kestrel and Mamo,GL16 7QT,51.810062295735400,-2.613406832251260
Elephant and Ibex,GL15 6EB,51.713187413360600,-2.556413548876850
Wader and Recurvebill,GL11 4FH,51.685166000000000,-2.351722000000000
Boto and Viscacha,GL2 7EQ,51.760064317680700,-2.370286146112070
Logrunners and Bunting,GL14 1JY,51.820861033848200,-2.464232970933640
Old World vulture and Parrotbill,GL15 4LA,51.766368000000000,-2.562820000000000
Peafowl and Duck,NP25 3LL,51.804318274171000,-2.698563974143690
Tree warbler and Egret,HR9 6DU,51.845184436621300,-2.662571952735380
Jay and Magpie,GL13 9PY,51.678043984338900,-2.436535078763740
Crow and Prion,GL15 5JA,51.725257850499400,-2.540100538637310
Logrunners and Warbler,GL15 6EY,51.744149459359100,-2.584936110162580
Skunk and Kite,NP16 5RT,51.624213805017800,-2.673951709422450
Perching duck and Pheasant,GL11 6EE,51.667995000000000,-2.364980000000000
Badger and Zebra,GL15 5LQ,51.730786016736900,-2.532535733899710
Fish eagle and Towhee,NP16 5UZ,51.640736819086300,-2.672939493146550
Treepie and Dolphin,GL14 3NT,51.813106787762300,-2.474234836478040
Peafowl and Piping shrike,GL15 6UB,51.737087000000000,-2.637806007210790
Marsh harrier and Skunk,NP25 5NJ,51.837976032103200,-2.786227259438300
Bunting and Magpie,GL13 9NL,51.714113129167000,-2.472329730886600
Kestrel and Wallaby,GL17 9TT,51.848243000000000,-2.560502000000000
Guillemot and Armadillo,GL14 2JF,51.823990191508600,-2.503484023405040
Piping shrike and Chipmunk,GL14 2HN,51.819879000000000,-2.506413726083260
Warbler and Guillemot,NP16 7DY,51.647009672450200,-2.665603595284460
Maya and Mouse,GL16 9SB,51.792044303845400,-2.618512463921110
Warbler and Fish eagle,GL15 4TG,51.764943641266800,-2.528518150342430
Fox and Quetzal,NP25 3UY,51.810696372199800,-2.714458836677930
Snipe and Chipmunk,GL11 5RQ,51.696448807788100,-2.368406331802370
Prion and Cloud rat,GL12 8LJ,51.619099156668800,-2.408482169785800
Pheasant and Diving bird,GL17 9UZ,51.855609551603400,-2.548179811359170
Masked owl and Booted eagles,GL14 2QU,51.827539535906400,-2.497646849702120
Pratincole and Kangaroo,BS35 1QB,51.629234619063100,-2.566032978194060
Kite and Minke whale,GL11 4AE,51.681455073927600,-2.355570934208210
Logrunners and Gull,GL11 5HB,51.683266869702700,-2.348049234112870
Chicken and Fish eagle,GL13 9UW,51.724310818746500,-2.469670857082760
Duck and Kite,GL14 1BU,51.804588705056900,-2.449983160240250
Vulture and Dolphin,GL11 6EA,51.665613489025000,-2.369804293809690
Fulmarine petrel and Darwin's finches,NP16 6RD,51.646688000568400,-2.791338821149430
Guillemot and Parrotbill,GL13 9RN,51.705443217709700,-2.459330881055190
Chicken and Quetzal,GL17 9DD,51.842093027164800,-2.519130239613780
Stilt and Night heron,GL15 6QL,51.699803013577900,-2.589963974188720
Diving bird and Hawaiian honeycreeper,GL15 5AZ,51.725729933826400,-2.521183509798960
Civet and Goose,GL17 9JL,51.846349000000000,-2.518658163079540
Puffleg and Bronzewing pigeon,NP16 7LS,51.685182000000000,-2.617358000000000
Parrotlet and Capuchin,GL15 5FL,51.728900000000000,-2.517138000000000
Parrotlet and Ibex,NP16 6PU,51.681327367280200,-2.762118103861510
Mink and Tree warbler,NP25 4EE,51.804718000000000,-2.735630000000000
Macaw and Skunk,GL17 1BZ,51.823065604219000,-2.498047618550480
Coati and Chipmunk,GL14 3BL,51.818977163423000,-2.494070596712750
Mink and Herring gull,GL13 9AS,51.696067875802800,-2.460986588058120
Parrotlet and Parakeet,NP16 7BE,51.640536959706500,-2.655826709293930
Mockingbird and Rat,GL16 7AW,51.813208412566800,-2.618700735372010
Fulmarine petrel and Moluccan boobook,GL11 6ED,51.666898398742400,-2.361414028097150
Lemming and Towhee,NP16 6QB,51.724953656832700,-2.759145000000000
Chicken and Siskin,GL2 7AQ,51.797814000000000,-2.424974000000000
Diving bird and Grackle,GL2 7ET,51.767896064318700,-2.367263612579590
Elephant and Piping shrike,GL15 5PR,51.722371000000000,-2.524707616033120
Egret and Puffleg,GL15 5GE,51.722427000000000,-2.536057000000000
Old World vulture and Flameback,GL13 9HD,51.698869237859700,-2.408621692895050
Philippine hawk-owl and Towhee,NP16 7ES,51.641875867203700,-2.663967656352550
Masked owl and Myna,NP16 6AZ,51.640147510212400,-2.695372788881520
Jay and Boto,GL11 5DW,51.716699000000000,-2.356340000000000
Snipe and Chickadee,GL17 9AN,51.851645271513700,-2.526368680188300
Shearwater and Francolin,GL15 4RF,51.755091731108000,-2.547627758803880
Stint and Asiatic leopard,NP16 5HE,51.644811749205200,-2.671048791534160
Macaw and Skunk,NP25 5RA,51.831064000000000,-2.712818674654700
Rabbit and Warbler,NP16 6SB,51.657564168514000,-2.782464162202180
Petrel and Triller,NP16 6RR,51.643711696856600,-2.748870512677910
New World blackbird and Gull,GL15 5AD,51.727792101602000,-2.524508354179990
Kangaroo and Pitohui,GL11 5NP,51.699718407807000,-2.360749568630750
Bunting and Pheasant,GL16 8DR,51.795072388430000,-2.620583932836320
Bronzewing pigeon and Booted eagles,NP16 6TD,51.695500632404000,-2.685803890642860
Cuscus and Night heron,GL13 9AR,51.696146633961400,-2.461537189992680
Diving bird and Parrotbill,GL16 7RW,51.811408411907900,-2.619038712557570
Capuchin and Triller,NP16 7AF,51.643056626687500,-2.657669000000000
Bunting and Francolin,GL16 7AA,51.810152117496200,-2.616860246135500
Zebra and Tahr,GL13 9DU,51.636168000000000,-2.502831000000000
Egret and Polecat,GL11 6DU,51.661018928038700,-2.375477470324950
Asiatic leopard and Wader,GL12 8SP,51.631507000000000,-2.393120000000000
Ice seal and Armadillo,GL15 4PS,51.742762155392100,-2.552040875462830
Peafowl and Eagle,GL11 4LD,51.679380965126400,-2.351635186525890
Philippine hawk-owl and Parakeet,GL12 8SW,51.624419738703800,-2.396034528839800
Minke whale and Argus,GL12 7NP,51.639999000000000,-2.345955000000000
Mink and Rat,GL17 9XW,51.847643473759700,-2.538937000000000
Tahr and Parrotbill,NP25 5BW,51.807794269036900,-2.727321791484550
Armadillo and Greenbul,NP16 7DN,51.638459259054900,-2.663946640304390
Black jay and Armadillo,GL15 5GB,51.719686000000000,-2.519956000000000
Viscacha and Duck,GL15 5SU,51.742483398573700,-2.524577157358850
Old World warbler and Ground sloth,GL16 7BG,51.797260836899600,-2.599094686767840
Goose and Pitohui,GL15 5SN,51.734933273339200,-2.530035867923730
Ice seal and Shearwater,NP25 3EG,51.809568419302400,-2.719546719986000
Grosbeak and Puffleg,GL17 9UA,51.845696953767600,-2.551064229380720
Elephant and Peafowl,GL16 7LR,51.780477958786700,-2.598393933253050
Tattler and Rat,GL16 9SZ,51.792044303845400,-2.618512463921110
Linsang and Badger,GL17 0AQ,51.850544458347600,-2.439465000000000
American sparrow and Shearwater,GL15 6TW,51.738191153650200,-2.634619156834420
Recurvebill and Macaw,GL16 7LE,51.778525401971900,-2.605702494867300
Mockingbird and Macaw,NP16 6SQ,51.703933000000000,-2.680103612764640
Mink and Zebra,GL16 8BB,51.795395640501900,-2.613816739799820
Towhee and Rabbit,GL16 8HU,51.791257168257400,-2.619444124250490
Wader and Tahr,GL16 8LN,51.760202000000000,-2.593446000000000
Egret and Wader,GL17 9AF,51.854898913287800,-2.518522656479120
Stint and Darwin's finches,GL12 7EW,51.637428072140300,-2.351527146804260
Masked owl and Logrunners,GL14 1PH,51.832273052518300,-2.397333845546900
Philippine hawk-owl and Mouse,NP16 7JU,51.647978680071700,-2.661195103168670
Greenbul and Ground sloth,NP25 3HF,51.817219296357700,-2.710775616909600
Thrasher and Bronzewing pigeon,NP25 5AR,51.806352000463100,-2.725006958283560
White ibis and Cloud rat,GL12 7BL,51.638606362553000,-2.360278569806550
Tahr and Greenbul,GL13 9HX,51.737772043654200,-2.453286804493960
Songlark and Perching duck,GL14 2XB,51.823570421608700,-2.492205647707740
Ice seal and Jackal,BS35 1AZ,51.613306000000000,-2.512601000000000
American sparrow and Booted eagles,GL17 0AL,51.857177645473600,-2.428190569141210
Kākāriki and Mamo,GL14 9DE,51.823068000000000,-2.498121000000000
Buzzard and White ibis,NP25 3BQ,51.812035836474500,-2.714494530888580
Masked owl and Mamo,NP25 5DW,51.813388613965700,-2.735694885403850
Meadowlark and Thicketbird,GL14 2XP,51.827357275613200,-2.502447807716140
American sparrow and Ground sloth,GL15 5PN,51.725281021447800,-2.523060457060940
Jerboa and Philippine hawk-owl,GL14 2EB,51.817762471245300,-2.500658167842540
Booted eagles and Wader,NP16 6TB,51.698467623411300,-2.679641418190250
Parrotlet and Perching duck,GL17 9UT,51.855788252921900,-2.552262004764260
Grosbeak and Kestrel,NP25 4QL,51.754484641932200,-2.685581796600190
Goose and Old World vulture,GL14 2TF,51.829714102251800,-2.504273439508310
Petrel and Booted eagles,NP25 3DJ,51.813524551930400,-2.710673948603900
Peafowl and Scimitar babbler,GL17 9SF,51.844273247331400,-2.576101366070870
Petrel and Piping shrike,GL11 5DR,51.722236504166700,-2.350462196746470
Black jay and Rat,GL15 5GH,51.719174000000000,-2.519675000000000
Civet and Ground sloth,GL2 7BL,51.731443370383500,-2.379420415753010
Triller and Marmoset,NP25 5QF,51.846103641040200,-2.779531543751710
Elephant and Francolin,GL16 8HD,51.792716231252500,-2.617260209672640
Old World vulture and Snipe,GL14 3JJ,51.835824000000000,-2.521888000000000
Rabbit and Recurvebill,BS35 1FL,51.620785000000000,-2.519417000000000
Shearwater and Recurvebill,GL15 4DY,51.760563718861100,-2.478624000000000
Fulmarine petrel and Wallaby,NP25 5UB,51.804892328904400,-2.722590471369240
Piping shrike and Magpie,GL11 5HP,51.704310154464300,-2.349773670970090
Nukupuʻu and Logrunners,NP16 5GF,51.620561448770300,-2.666400874029890
Mink and Kākāriki,GL11 4DE,51.689334649899800,-2.357455457545100
Diving bird and Mole,GL15 5AP,51.726623927625700,-2.522337574265910
Parrotlet and Maya,GL14 1AP,51.802000654347200,-2.449623826280330
Peafowl and Masked owl,GL15 5NX,51.733533226706700,-2.523126000000000
White ibis and Minke whale,NP16 6ZD,51.640736819086300,-2.672939493146550
Macaw and Kangaroo,GL2 7EA,51.765704377173500,-2.369448392129220
American sparrow and Grosbeak,GL2 7LH,51.790406928563000,-2.362372052761440
Jay and Mink,GL11 5QB,51.689431000000000,-2.361709000000000
Grouse and Mamo,NP25 4BS,51.773375679294000,-2.790046025968020
Rat and American sparrow,NP25 5RH,51.858698534983900,-2.729333316815990
Mamo and Coati,BS35 1BT,51.613698000000000,-2.507435000000000
Skunk and Snipe,GL12 8SN,51.629191138721400,-2.398445724220450
Kestrel and Fulmarine petrel,GL14 3GA,51.813547178511500,-2.499436752104790
Gull and Minke whale,GL17 9QQ,51.828392635518900,-2.578423534110210
Viscacha and Old World quail,GL14 3LF,51.825634972966600,-2.486540273275440
Wallaby and Piping shrike,GL14 1HG,51.807149607111700,-2.455056053607890
Peafowl and Old World vulture,NP16 6EJ,51.665682730696700,-2.698453154323150
Minke whale and Rat,GL16 8PF,51.784873762811400,-2.609063849107210
Parrotlet and Mouse,NP16 7FL,51.649669000000000,-2.660256000000000
Old World vulture and Chipmunk,GL12 8BY,51.636299628373500,-2.461810532716670
Night heron and Greenbul,NP16 6NJ,51.716137756971600,-2.694627411475090
Eagle and Ground sloth,NP25 3NB,51.805757000000000,-2.704750000000000
Coati and Stilt,BS35 3UB,51.612503330818100,-2.498251188991090
Logrunners and Guillemot,GL12 8SX,51.627767342391900,-2.397855081858970
Marsh harrier and B,GL15 6DD,51.715605754498100,-2.554576002489650
Polecat and Coati,GL11 4LF,51.679098728480300,-2.352804499966150
Songlark and Chicken,GL14 2DX,51.820759808282700,-2.499878939630620
Chickadee and Fox,GL15 6ET,51.748891189546900,-2.584258629245180
Fish eagle and Jerboa,GL16 9TB,51.792044303845400,-2.618512463921110
Recurvebill and Pratincole,GL17 9NY,51.857475940355700,-2.580800349255680
Partridge and Old World vulture,NP16 6TW,51.699144018062100,-2.693006000000000
Buzzard and Hawaiian honeycreeper,GL16 8NP,51.786205000000000,-2.647931806801880
Condor and Grosbeak,NP25 3DU,51.826691113414300,-2.716017895654630
Thrasher and Hawk,GL12 7LB,51.632968701555300,-2.345366570309010
Grouse and Viscacha,GL11 5UP,51.700262432275700,-2.368379000000000
Pratincole and Moluccan boobook,NP25 3BU,51.812826011546200,-2.714666596804310
Macaw and Zebra,NP25 4NA,51.783306411214300,-2.670696014461120
Piping shrike and Mockingbird,GL14 3EL,51.813738081118900,-2.504022481558890
Cloud rat and Prion,GL16 8GA,51.797145000000000,-2.623425000000000
Ibex and Hawaiian honeycreeper,GL16 8RL,51.790429892790100,-2.616040092724600
Skunk and Goose,GL11 5JR,51.698992541388200,-2.365779116370850
Goose and Crow,GL14 1PL,51.845208000000000,-2.396040000000000
B and Kangaroo,GL15 4QR,51.749397000000000,-2.556279000000000
Minke whale and Kangaroo,NP25 5YZ,51.813633000000000,-2.713794000000000
Viscacha and Warbler,GL11 6LL,51.696576693289700,-2.376278264478880
Linsang and Elephant,NP25 3PU,51.821000376669200,-2.714433263256330
Chipmunk and Siskin,GL16 8JD,51.772462417337700,-2.606273475022370
Hawk and Chickadee,BS35 1EA,51.615245901811900,-2.516912367807400
Stilt and Argus,BS35 1TQ,51.614388619549400,-2.513523086424180
Diving bird and American sparrow,GL12 7HG,51.638346595000200,-2.348037351642680
Jerboa and Flameback,GL15 6AJ,51.722527504667400,-2.602347751494670
Puffleg and Mouse,GL14 2QZ,51.826812000000000,-2.499902000000000
Mamo and Fulmarine petrel,GL11 4JB,51.682204404188700,-2.351570289266270
Lemming and Polecat,GL14 3ND,51.820253939900100,-2.478850973081210
Cloud rat and Night heron,NP25 5GF,51.815146762400000,-2.737261586100000
Cuscus and New World blackbird,GL14 2RG,51.826239043399700,-2.499010972006150
Grackle and Fish eagle,GL15 5BZ,51.727605878134700,-2.521089579241290
Masked owl and Booted eagles,GL16 8EB,51.798532053573100,-2.622647127109180
Chipmunk and Peafowl,GL14 1DT,51.799608026057900,-2.454559540907560
Condor and Vulture,GL15 5PZ,51.720879613495000,-2.522648000000000
Pheasant and Lemming,GL15 5PA,51.727524183225000,-2.526112365681830
Perching duck and Chickadee,NP25 4BZ,51.785247626787500,-2.784150171013430
Parrotbill and Francolin,GL17 9RQ,51.846162785916000,-2.581293396721630
Treepie and Towhee,GL14 2LB,51.826222569052000,-2.504974446134020
Jackal and Vole,GL14 1LF,51.827102162002800,-2.428354982641690
Booted eagles and Black jay,NP16 7PR,51.647242503015500,-2.672081950354550
Chipmunk and Mamo,GL14 3NA,51.819285605932900,-2.480393044638780
Kite and Myna,GL11 4LB,51.679342441829100,-2.352488208096530
Macaw and Stint,GL11 5FD,51.700777000000000,-2.362985000000000
Flameback and Mamo,NP16 6UA,51.640163195944700,-2.755401607110810
Towhee and Condor,GL17 9SQ,51.836723940487400,-2.575453459696420
Solitaire and Nukupuʻu,NP16 5DJ,51.639228936023800,-2.677165599368130
Macaw and Crow,GL16 9BG,51.792721733652900,-2.617260613924670
Snipe and Kite,NP16 6ND,51.723502074921000,-2.718468653630750
Greenbul and Pratincole,GL15 5HJ,51.726356213913100,-2.531904531387610
Parrotlet and Diving bird,GL11 5UN,51.702800555035100,-2.370006300039060
Skunk and Maya,GL12 8HF,51.638646574916100,-2.428570158031410
Lemming and Grouse,GL15 4TU,51.756137885205900,-2.533254172867990
Solitaire and Guillemot,GL15 5LS,51.728036914434500,-2.526060406215520
Argus and Flameback,GL11 4DL,51.690772733046100,-2.360562666706220
Warbler and Partridge,GL14 3AN,51.803543259238600,-2.507955014362040
Stilt and Stilt,GL16 7QA,51.798485506874700,-2.612684110171180
Tahr and American sparrow,BS35 1TE,51.615223764226100,-2.513763599724550
White ibis and Maya,NP16 5RN,51.626569710966600,-2.677049274236950
Argus and Coati,BS35 1SN,51.618243638096100,-2.522189503418030
Grackle and New World blackbird,NP25 4PD,51.748503209425600,-2.724905766908590
Cuscus and Mamo,NP25 5QD,51.837593000000000,-2.750081000000000
Stint and Asiatic leopard,GL14 2HU,51.816751018454800,-2.505898511976150
Vole and Wader,GL14 1EN,51.777508170595900,-2.433073958187010
Rabbit and Thicketbird,GL17 9UG,51.841598065853600,-2.556573436355420
Black cockatoo and Capuchin,GL15 6PU,51.696316000000000,-2.620331000000000
Petrel and Ground sloth,GL16 8PZ,51.780020164618100,-2.607012604449880
Moluccan boobook and Petrel,GL2 7PN,51.778175775013700,-2.348605561613810
Wader and Gull,GL16 8QQ,51.805631741153900,-2.618161852237940
Lemming and Kākāriki,BS35 1SX,51.619703289681600,-2.519476318404870
Black jay and Myna,BS35 1RX,51.631789001600200,-2.556456851608740
Coati and Tree warbler,NP25 3HG,51.818095630555200,-2.713052601875820
American sparrow and Mouse,GL16 7JN,51.791326221192300,-2.597421131709700
Treepie and Philippine hawk-owl,GL13 9HZ,51.723937000000000,-2.462139000000000
Herring gull and Night heron,GL15 6UG,51.731369423272800,-2.641242000000000
Egret and Vulture,GL11 5UL,51.705695000000000,-2.367628000000000
Nukupuʻu and Flameback,NP16 6LN,51.634687679287800,-2.782807210344470
Parakeet and Tit-tyrant,BS35 1PW,51.627888195275400,-2.559934118447760
Rabbit and Dorcopsis,NP15 1DU,51.712902000000000,-2.776500000000000
River dolphin and Stint,NP16 6AY,51.639937161188000,-2.752796717067550
Vulture and Viscacha,GL11 6AJ,51.690889687171500,-2.383247446344120
Tattler and Old World quail,GL15 5LT,51.729760078502500,-2.530757206821160
Marmoset and Magpie,GL15 4EN,51.711158328657300,-2.518439691949070
Ground sloth and Petrel,GL14 2QW,51.826934551926200,-2.496131104032240
Petrel and Skunk,GL14 3BU,51.817071891016200,-2.496008215510560
