name,postcode,lat,lon
Fish eagle and Partridge,CV4 9QS,52.409463412666300,-1.580238055526400
Darwin's finches and Shearwater,CV23 0WQ,52.398234181781100,-1.245177864115700
Nukupuʻu and Mole,CV21 2LP,52.375873963129600,-1.266389111351740
Kākāriki and Polecat,B92 7PQ,52.453267900000000,-1.792383603000000
Tahr and Cloud rat,CV23 9SX,52.380145398205900,-1.296141391947210
Zebra and Quetzal,CV2 1NF,52.436747463500400,-1.470214419880210
Maya and Macaw,B75 6AP,52.572030130000000,-1.806150900000000
Vulture and Black cockatoo,LE10 3BL,52.485426000000000,-1.335759000000000
Shearwater and Hawk,CV4 9HG,52.398165178355100,-1.578375814123230
Viscacha and Towhee,CV10 8NU,52.516093915777500,-1.516476203474600
Fox and Diving bird,LE9 8FG,52.577033149500200,-1.342163433316140
Gull and Prion,CV4 9SP,52.403093234526900,-1.594218032798790
Macaw and Chicken,CV7 8NX,52.503816753545600,-1.570957846618380
Ibex and Buzzard,B27 6LN,52.452974110000000,-1.815870292000000
Ibex and Argus,CV2 4HE,52.409370000000000,-1.489756000000000
Fish eagle and Pratincole,LE9 4DJ,52.555883438735800,-1.282139000000000
Myna and Greenbul,CV1 4DN,52.413123255702500,-1.516852698505540
Grouse and Petrel,CV5 8HE,52.416805966727900,-1.550232769135780
Coati and Mole,CV3 5ES,52.392699686845600,-1.508625907637140
Boto and Myna,B37 7HJ,52.466896090000000,-1.745922897000000
Eagle and Scimitar babbler,LE9 7GQ,52.572559781163200,-1.311170347881380
Ice seal and Triller,B26 3YA,52.461606060000000,-1.775109667000000
Quetzal and Magpie,CV1 4FD,52.417218368577600,-1.515778735030200
Ice seal and B,B26 1UB,52.463931310000000,-1.809171767000000
Dorcopsis and Pheasant,CV10 8LS,52.517478096049000,-1.512144000000000
River dolphin and Moluccan boobook,CV6 6NB,52.453892245937300,-1.492935619389380
Hawk and Greenbul,CV3 6QA,52.384337233712300,-1.534915225378040
Moluccan boobook and Siskin,B76 2PB,52.551548180000000,-1.798911257000000
Bronzewing pigeon and Warbler,B26 1TU,52.466908240000000,-1.804419151000000
Old World warbler and Greenbul,B37 5PJ,52.471857870000000,-1.754108904000000
Crow and Logrunners,CV12 8LH,52.477260354219700,-1.475043338622750
Chickadee and Elephant,B33 9DZ,52.486465560000000,-1.801490364000000
Recurvebill and Capuchin,CV10 0TE,52.542317027331900,-1.525212266432720
Cloud rat and Polecat,CV8 1PP,52.344937502438400,-1.592108057778440
Old World quail and Hawk,B91 9ST,52.411339410000000,-1.778114252000000
Solitaire and Argus,LE10 1UA,52.537441890873200,-1.363676200796070
Elephant and Ibex,B90 4JD,52.377231960000000,-1.815347700000000
Eagle and Diving bird,LE10 2SH,52.528115497721000,-1.366331556684050
Pratincole and White ibis,B26 3QE,52.448364150000000,-1.748486600000000
Logrunners and Elephant,LE10 0XF,52.545970185434100,-1.388666026399230
Songlark and Logrunners,CV6 9NL,52.433882000000000,-1.493290000000000
Partridge and Bronzewing pigeon,CV5 7EN,52.417360550327000,-1.591602305271650
Pratincole and Herring gull,B33 0LD,52.477485000000000,-1.771274000000000
Fox and Tattler,B92 7QX,52.450173370000000,-1.791265144000000
Mockingbird and Maya,B92 7JH,52.439490700000000,-1.811189606000000
Kestrel and Parakeet,CV12 8AG,52.484619356226000,-1.474175315755050
Grosbeak and Masked owl,CV3 2TX,52.402225874748000,-1.441159000000000
Triller and Armadillo,CV21 3EY,52.375647359145600,-1.256021951459020
Black cockatoo and Viscacha,LE10 3DP,52.524722603174600,-1.405498378562890
Vole and Marsh harrier,CV5 9EF,52.437202000000000,-1.558822000000000
Viscacha and Diving bird,B36 0SE,52.505317770000000,-1.749458463000000
Parrotlet and Black cockatoo,CV2 3JR,52.425203384573400,-1.476691000000000
Dolphin and Egret,CV1 4AP,52.411180987995300,-1.518961495621050
Thrasher and Warbler,CV1 5FF,52.414592012378900,-1.498223361987030
Herring gull and Capuchin,CV4 8NE,52.392924000000000,-1.556535000000000
Eagle and Old World quail,CV6 6QB,52.453110733869400,-1.505835170265110
Mole and Cuscus,CV22 6PU,52.343292966992400,-1.286950372794920
Macaw and Capuchin,CV11 6EX,52.530621151174600,-1.435107576739910
Towhee and Shearwater,CV10 9BP,52.528173874833000,-1.496444158377220
Jerboa and Black cockatoo,B37 6RA,52.490393000000000,-1.740000000000000
Guillemot and White ibis,CV5 6ET,52.399174064105800,-1.533891000000000
Kangaroo and Shearwater,CV2 4DF,52.406916855040300,-1.478009841541330
Grouse and Francolin,LE10 0NN,52.553332049325000,-1.384360502484810
Partridge and Crow,B26 1NE,52.459970080000000,-1.800299537000000
Meadowlark and Nukupuʻu,B92 7BD,52.435315290000000,-1.808677440000000
Peafowl and Thicketbird,B93 8HZ,52.375248540000000,-1.761887044000000
Kestrel and Philippine hawk-owl,B25 8SG,52.468401610000000,-1.816291782000000
Night heron and Pratincole,CV7 9AL,52.457773637368800,-1.507417000000000
White ibis and Tree warbler,CV11 5XJ,52.518817176705700,-1.478188504023480
Solitaire and Jackal,CV4 9SS,52.403639774650300,-1.580793052248440
Marmoset and Hawaiian honeycreeper,B90 4TG,52.389300610000000,-1.801117781000000
Jay and Myna,CV3 1PD,52.399747965321300,-1.484546788331230
Buzzard and Bunting,CV3 1DA,52.398318048467300,-1.479095965209460
Buzzard and Recurvebill,CV13 6EJ,52.571183888462300,-1.411245000000000
Vole and Buzzard,B92 9LJ,52.429850690000000,-1.769094020000000
Bunting and Mouse,B92 7QJ,52.447171690000000,-1.797002740000000
Quetzal and Old World vulture,B36 0AA,52.502476590000000,-1.771513132000000
Ice seal and Stilt,CV6 5GX,52.427266265404400,-1.489387892630520
Tit-tyrant and Maya,CV21 9SH,52.375390081872100,-1.263753000404210
Ibex and Songlark,CV3 6LR,52.384789294404700,-1.522025128871640
Fish eagle and Petrel,CV1 3GJ,52.404628839558900,-1.521590373581630
Chickadee and Night heron,B35 7NE,52.517380790000000,-1.785347285000000
Civet and Asiatic leopard,B26 3UN,52.458231870000000,-1.768916320000000
Asiatic leopard and Pratincole,CV33 9BU,52.321577000000000,-1.460616000000000
Skunk and Greenbul,CV1 2XB,52.401013000000000,-1.508113000000000
Marsh harrier and Kite,B91 3UA,52.397950700000000,-1.791599512000000
Jerboa and Capuchin,CV9 1AZ,52.577584645799600,-1.548250767299080
Parrotbill and Piping shrike,CV11 4BH,52.523778152625600,-1.461784314363140
Thicketbird and Triller,B94 6BE,52.357842000000000,-1.771267000000000
Macaw and Tattler,B76 1TP,52.543777810000000,-1.802397157000000
Snipe and Mamo,B37 7GH,52.468805720000000,-1.739376054000000
Buzzard and Meadowlark,B94 6RR,52.365096700000000,-1.805029986000000
Parrotlet and Siskin,CV32 6HU,52.308979012169400,-1.529852613246190
Perching duck and Cuscus,CV6 5QB,52.419336250820100,-1.497009000000000
Tit-tyrant and Civet,B93 8JW,52.374079490000000,-1.744486996000000
Kangaroo and American sparrow,LE9 8JG,52.583698034064700,-1.360837229711330
Dorcopsis and Grouse,CV8 1PT,52.367731210333800,-1.622975620134460
Parakeet and Viscacha,CV22 7BT,52.371540370076400,-1.279504104531310
Kākāriki and Marmoset,B75 6LA,52.587786000000000,-1.787675000000000
Kestrel and Chipmunk,B33 8BN,52.482940220000000,-1.811725433000000
Bunting and Solitaire,B76 1DE,52.543771870000000,-1.788536459000000
Dolphin and Tree warbler,CV5 6AB,52.396704324335100,-1.536343122029630
Fox and Crow,LE10 0SU,52.544587346016900,-1.392474931363300
Pheasant and White ibis,CV11 6RE,52.504648991856400,-1.374315122098030
American sparrow and Vole,LE10 2NX,52.523719149349200,-1.367971863265380
Elephant and Stint,CV9 2SJ,52.580809222586000,-1.630463701185520
Kite and Zebra,B75 6BG,52.570856490000000,-1.808634829000000
Partridge and Goose,CV6 7FB,52.437513152585200,-1.484812360281390
Logrunners and Dorcopsis,B91 2SD,52.422395200000000,-1.763162724000000
Polecat and Diving bird,CV4 8LJ,52.394324591547200,-1.597428771565820
Moluccan boobook and Condor,B90 4UZ,52.385702480000000,-1.789511979000000
Mamo and Pitohui,CV8 2XJ,52.352876140370900,-1.557194829095510
Diving bird and Old World warbler,CV5 9HN,52.412643686659400,-1.562257029480940
Old World quail and Tit-tyrant,B26 3DH,52.457381050000000,-1.784947127000000
Badger and Macaw,CV22 5QS,52.356340204215400,-1.268195512300380
Capuchin and Egret,CV6 2PX,52.423380000000000,-1.532393000000000
Fulmarine petrel and Argus,B90 8AD,52.376523730000000,-1.794726336000000
Macaw and Marsh harrier,B46 1NW,52.519796000000000,-1.738367000000000
Solitaire and Chicken,CV21 1HB,52.391443656472800,-1.286718651605160
Greenbul and Darwin's finches,CV22 7NP,52.357259201886200,-1.289148469686640
Thicketbird and Kangaroo,B40 1QA,52.463627570000000,-1.715959749000000
Chipmunk and Meadowlark,LE9 7EG,52.577077998305200,-1.313622988032620
Coati and Ibex,CV6 2BQ,52.430534456195000,-1.531840825564350
Duck and Parrotbill,CV11 9SH,52.521780504004600,-1.467335553123500
Goose and Viscacha,CV10 9BD,52.529705853312400,-1.497311097291830
Chickadee and Chickadee,B91 1NT,52.407492480000000,-1.798698791000000
Mouse and Petrel,CV6 7BP,52.444212174670300,-1.485131487807480
Parrotlet and Civet,CV11 6DS,52.538096212089400,-1.447470118361060
B and Tattler,CV6 7PN,52.437978000000000,-1.488256000000000
Pitohui and Tree warbler,CV22 7LZ,52.358968349780100,-1.290809727775090
Capuchin and Grouse,CV6 5BY,52.429353542920900,-1.493937775576000
Tit-tyrant and Pratincole,B90 4XY,52.386070270000000,-1.794167867000000
Thicketbird and Towhee,CV6 7AS,52.445214566031500,-1.486164405277790
Old World vulture and Grosbeak,B92 8NT,52.438319870000000,-1.783671771000000
Mockingbird and River dolphin,CV22 5AZ,52.366737816095300,-1.247477039047340
Capuchin and Macaw,LE9 4NH,52.540057544040000,-1.275422486059420
Jay and Piping shrike,CV6 1JE,52.422459559907200,-1.524632609714820
Towhee and Fulmarine petrel,CV2 4AJ,52.409985613108600,-1.474651223426780
Argus and Pratincole,CV3 5LA,52.392847863220400,-1.501070920421720
Old World vulture and Wallaby,B92 8QH,52.442199150000000,-1.791229227000000
River dolphin and Moluccan boobook,LE9 8DN,52.564108057549100,-1.360841000000000
Maya and Perching duck,CV12 0LH,52.475205629117700,-1.505190316978050
Magpie and Thrasher,CV22 7LJ,52.366480438840400,-1.291673484579390
Grouse and Mamo,B34 7QZ,52.490794440000000,-1.778775470000000
Hawk and Chicken,B93 0HX,52.385235120000000,-1.735783420000000
Cloud rat and Fox,B34 7LN,52.499362700000000,-1.760702267000000
Kangaroo and Herring gull,B26 2ER,52.472232670000000,-1.790042088000000
Francolin and Wallaby,CV8 2DA,52.346080657777200,-1.559905027767870
Kangaroo and Cuscus,B33 9RE,52.483876180000000,-1.785848886000000
Magpie and Peafowl,B35 6JR,52.523598200000000,-1.788338450000000
Minke whale and Egret,CV5 6TF,52.381624000000000,-1.460987000000000
Parrotbill and Siskin,CV21 3AQ,52.370582381731900,-1.251509000000000
Elephant and Greenbul,CV23 9AZ,52.381038442629000,-1.307307378712250
Bunting and Grosbeak,CV5 6AZ,52.395718178115400,-1.546332138918510
White ibis and Linsang,CV33 9DG,52.322102000000000,-1.421450000000000
Mockingbird and White ibis,CV32 7DY,52.309873268249500,-1.524166739286210
Ice seal and Thrasher,CV3 3GE,52.383260986331200,-1.463346914068160
Piping shrike and Gull,CV5 8LD,52.415822633167500,-1.537686547581280
Treepie and Petrel,B90 3EX,52.404208440000000,-1.813544884000000
Triller and Stilt,CV22 5JZ,52.359057778050900,-1.242893842185010
Stilt and Treepie,LE10 9TA,52.540369000000000,-1.369595000000000
Grouse and Kite,B92 9DG,52.448861440000000,-1.762932671000000
Partridge and Polecat,CV6 6DL,52.459699944517300,-1.474413217772970
Old World vulture and Chicken,CV8 3LW,52.340471548413400,-1.478044000000000
Pheasant and Grosbeak,LE9 7PQ,52.574078317077300,-1.333029501425200
New World blackbird and Crow,B91 9ZA,52.411104000000000,-1.778005000000000
Prion and Armadillo,CV35 7BQ,52.319698773462000,-1.645727671244700
Old World quail and Armadillo,CV22 5DT,52.368092089680500,-1.259776576909080
Parrotbill and Boto,B92 8HA,52.452233250000000,-1.786870389000000
Petrel and Boto,CV2 2GQ,52.438762512722000,-1.452714171702520
Philippine hawk-owl and Recurvebill,CV11 4AZ,52.522012000000000,-1.462646000000000
Rabbit and New World blackbird,CV23 0PQ,52.432790916619100,-1.331560052311350
Bronzewing pigeon and White ibis,CV1 5FG,52.415307944370200,-1.497450700643570
Fulmarine petrel and Solitaire,CV4 8JB,52.389218000000000,-1.572583000000000
Moluccan boobook and Logrunners,LE10 0UU,52.540840688984900,-1.389400764334030
Shearwater and Jay,LE9 7FN,52.571521028964500,-1.318091963010630
Jay and Herring gull,B36 8AR,52.501424480000000,-1.806711612000000
Kākāriki and Crow,CV5 6GL,52.402798383350600,-1.531458165847830
Maya and Macaw,CV32 7AQ,52.303186664533000,-1.522478519862610
Kangaroo and Mole,CV22 7HZ,52.367567800252800,-1.288601208088680
Vulture and Grackle,CV3 4FW,52.383987704682500,-1.481145169219980
Elephant and Prion,CV2 5BL,52.416471295780000,-1.447843961503380
Magpie and Petrel,B90 4RJ,52.400503350000000,-1.812796202000000
Asiatic leopard and Meadowlark,CV8 1EB,52.342916697281600,-1.579840639193830
Shearwater and Petrel,CV21 3EX,52.373629925088900,-1.256878425186760
Condor and Black jay,CV9 1JH,52.577853181527400,-1.533683000000000
Macaw and Chickadee,CV3 6BN,52.385636417697000,-1.533799619790870
Rat and Grackle,CV21 3NN,52.375065798274500,-1.246527617913640
Flameback and Chipmunk,CV2 1TE,52.452872623821600,-1.459587948273920
Coati and Francolin,B26 3XH,52.460725610000000,-1.766121634000000
Zebra and Petrel,LE9 3GN,52.556673978011600,-1.239114285005750
Prion and Parrotlet,CV11 6DA,52.525990000000000,-1.434730000000000
Songlark and Chipmunk,CV22 7FP,52.357986642490000,-1.304128953908050
Stilt and Grosbeak,CV22 5RX,52.351891195264700,-1.272761595849800
Warbler and Logrunners,CV23 0PY,52.408864438577500,-1.366233121214720
Ice seal and Capuchin,CV10 8NY,52.515426285409800,-1.511517470966530
B and Wader,CV10 8LR,52.515993820059000,-1.534116602528130
Flameback and Zebra,B92 9QL,52.431375940000000,-1.762996979000000
Mole and Gull,B34 6LB,52.497489330000000,-1.792219830000000
Myna and Partridge,B92 8AB,52.433734530000000,-1.793504900000000
Prion and Guillemot,CV6 6LR,52.449919238808200,-1.474529592870380
Partridge and Old World quail,CV7 8DL,52.488502703325400,-1.572314402335780
Crow and Warbler,CV10 7HS,52.512461433023300,-1.486456468755740
Grosbeak and Badger,CV5 6JU,52.402968563680400,-1.526782219419120
Chicken and Petrel,CV2 1PD,52.450145000000000,-1.470436000000000
Francolin and Cuscus,CV11 6YG,52.535905000000000,-1.423413000000000
Dolphin and Tree warbler,B36 8AL,52.500387580000000,-1.804845325000000
Linsang and Macaw,B34 7LU,52.498168890000000,-1.761622013000000
Viscacha and Siskin,CV32 6QN,52.319298187831200,-1.545514459596380
Kākāriki and Night heron,CV22 5HX,52.358002516846800,-1.236774023815030
B and Herring gull,CV12 8TE,52.485984682869500,-1.475940920104230
Rabbit and Thrasher,CV1 2GT,52.401870462712400,-1.513168722518890
Thrasher and Vulture,CV10 8DW,52.523006265459600,-1.490519339706550
Prion and Goose,B93 8NJ,52.374741470000000,-1.769131494000000
Myna and Fish eagle,CV7 7GS,52.384801893511200,-1.636817565068980
Perching duck and Warbler,CV10 0EU,52.539614728552700,-1.466913415763800
Capuchin and Mouse,CV23 0QR,52.408353924780100,-1.297162687615250
Cuscus and Mink,LE10 0FE,52.554388000000000,-1.390776000000000
Old World quail and Cuscus,B26 3LA,52.452671160000000,-1.775729014000000
Triller and Black cockatoo,B37 7LT,52.471718530000000,-1.731350437000000
Booted eagles and Tattler,B37 6PE,52.484260000000000,-1.760298000000000
Herring gull and Piping shrike,B78 2NW,52.559551570000000,-1.681148913000000
Buzzard and Asiatic leopard,B33 8QS,52.481470860000000,-1.809228513000000
Egret and Egret,CV6 1EP,52.417985936252900,-1.532267730333080
Ice seal and Pratincole,CV21 1US,52.397955000000000,-1.254987000000000
Ibex and Boto,CV7 9JG,52.454929648015200,-1.509994306072780
Chipmunk and Prion,B76 1TR,52.544837650000000,-1.801817318000000
Prion and Eagle,LE10 2LQ,52.527772471599800,-1.371127089245220
Duck and Chicken,CV11 6RW,52.498237997463000,-1.407299090569020
Kite and Hawaiian honeycreeper,CV7 8DY,52.484658778280300,-1.588608894852810
Macaw and Polecat,CV10 9RJ,52.527480000000000,-1.530951000000000
Kangaroo and Puffleg,CV10 9SU,52.533133084552400,-1.521566000000000
Magpie and Jerboa,CV6 5LQ,52.433262663270200,-1.499908866262620
Parakeet and Coati,CV3 2NF,52.390525549105600,-1.453633975013920
Elephant and Thicketbird,B27 6BY,52.445350810000000,-1.816019733000000
Hawaiian honeycreeper and Triller,CV7 8EX,52.485134311175400,-1.583200051707620
Tree warbler and Logrunners,B36 8JN,52.501789650000000,-1.810157160000000
Warbler and Coati,B34 6ND,52.499343660000000,-1.793595775000000
Triller and Mink,LE9 4HA,52.554744100781400,-1.281331013809070
Moluccan boobook and Marsh harrier,CV23 0US,52.396604462624300,-1.243383277605200
Booted eagles and Badger,CV4 9GL,52.398679015043200,-1.599475973431920
Treepie and Stint,B91 3XZ,52.398939260000000,-1.776618486000000
Thicketbird and Asiatic leopard,LE17 5BU,52.485750935479600,-1.257494464158460
Quetzal and Boto,CV2 5FB,52.413955909075000,-1.459931218779830
Snipe and Elephant,CV33 9DS,52.309544000000000,-1.454044000000000
Fulmarine petrel and Quetzal,CV5 7NU,52.415218685908800,-1.591152000000000
Partridge and Mamo,B94 5DE,52.344389980000000,-1.803594341000000
Tit-tyrant and Hawk,B26 3RF,52.447160000000000,-1.748140000000000
Old World warbler and Thrasher,B46 1QR,52.518333240000000,-1.740203393000000
Diving bird and Zebra,CV2 3DH,52.419666085420500,-1.464199214112880
Black jay and Elephant,CV4 9UP,52.396970000000000,-1.575625293678490
Boto and Shearwater,CV21 2BB,52.372114000000000,-1.268831000000000
Marmoset and Night heron,B37 7JJ,52.475527720000000,-1.730223064000000
Coati and Guillemot,CV3 2DW,52.406515128827700,-1.445057661359480
Ground sloth and Armadillo,LE9 7HF,52.568929092680600,-1.325450201821030
American sparrow and Kite,CV6 5BH,52.427551579030100,-1.494723000000000
Rat and Buzzard,CV5 7JS,52.411769301508000,-1.571439400891230
Nukupuʻu and Grosbeak,B91 1DY,52.425740690000000,-1.803071718000000
Triller and Kite,B76 1JN,52.531225480000000,-1.790498274000000
Armadillo and Grouse,LE9 6SG,52.538095724311200,-1.236973177797760
Elephant and Boto,CV21 2YX,52.379670000000000,-1.260838249870440
Marsh harrier and Philippine hawk-owl,B33 0HH,52.476779560000000,-1.765020731000000
Thicketbird and Bunting,CV2 3ES,52.421929301380500,-1.473700571819860
Rat and Quetzal,B92 9QW,52.432579530000000,-1.758019116000000
Scimitar babbler and Zebra,LE9 4AP,52.556031000000000,-1.276919000000000
Scimitar babbler and Chickadee,B35 7QH,52.515453440000000,-1.793490922000000
Flameback and Solitaire,CV8 2LF,52.338455989398500,-1.531580372926770
Kangaroo and Boto,CV32 7DF,52.306045984755200,-1.524809073372100
Tattler and Argus,CV21 2QA,52.374125000000000,-1.259705000000000
Goose and Cuscus,CV7 9BZ,52.471872000000000,-1.484367000000000
Herring gull and Petrel,LE9 8HD,52.568889525912700,-1.347272134543450
Prion and Bronzewing pigeon,B34 7QY,52.490925950000000,-1.776992750000000
Francolin and Linsang,B46 1SY,52.517398190000000,-1.744290951000000
Mouse and Pratincole,LE9 7DD,52.579488759232100,-1.309231832582170
Gull and Pitohui,CV7 9AD,52.462671792874000,-1.504786196886300
Civet and Badger,B93 0EY,52.362781000000000,-1.688675000000000
Crow and Eagle,CV6 2PQ,52.437575000000000,-1.520748000000000
River dolphin and Goose,CV3 2SD,52.392223314026400,-1.412099490320830
Magpie and Philippine hawk-owl,CV32 7SW,52.303836629853700,-1.518702440676340
Mouse and Crow,B78 2HU,52.570167820000000,-1.684214659000000
Pitohui and Partridge,B93 0LX,52.386649530000000,-1.733100847000000
Pitohui and Darwin's finches,B75 7DR,52.560542320000000,-1.806894772000000
Cloud rat and Hawaiian honeycreeper,B92 8JJ,52.442979110000000,-1.784987750000000
Kite and Perching duck,B46 3LR,52.494247070000000,-1.708398232000000
Parakeet and Jackal,LE10 0GR,52.533036013803000,-1.392634294906630
Egret and Marsh harrier,CV21 3FB,52.372744173549500,-1.249020130871100
Prion and Bunting,B94 6HJ,52.349784370000000,-1.773562869000000
Cuscus and Crow,B33 8PH,52.476194580000000,-1.804230808000000
Egret and New World blackbird,LE9 3AL,52.574054065446100,-1.233899834838180
Tit-tyrant and Solitaire,B33 8NF,52.476338420000000,-1.788535558000000
Grouse and Asiatic leopard,LE10 0UW,52.541821060691800,-1.389490382295350
Kangaroo and Stilt,B94 6NT,52.360900290000000,-1.780495942000000
Thicketbird and Puffleg,CV21 9SZ,52.375390081872100,-1.263753000404210
Prion and Marsh harrier,CV32 7TJ,52.311458839880600,-1.513925981809440
Rabbit and Ice seal,CV22 7NS,52.360068483569500,-1.288369180564590
Recurvebill and Jackal,CV5 6EX,52.400051398828800,-1.534750113682340
Kangaroo and Marsh harrier,B78 2JR,52.569748530000000,-1.682063555000000
Puffleg and Warbler,CV6 1BQ,52.416634659070600,-1.536134234101940
Skunk and Lemming,CV1 4LQ,52.417061000000000,-1.509973000000000
Grackle and Parakeet,B94 6QQ,52.351342690000000,-1.779926616000000
Perching duck and Triller,CV1 5LF,52.411563995728900,-1.493553421451560
River dolphin and Snipe,CV6 6EL,52.449995142699900,-1.481547386056630
Parakeet and Mole,B37 6HW,52.490859700000000,-1.752677557000000
Black jay and Partridge,CV3 5BG,52.389274338774000,-1.506445125579940
Argus and Fox,CV6 5GP,52.432036742141600,-1.494907220280460
Bronzewing pigeon and Francolin,B37 7RT,52.478741150000000,-1.731985000000000
Kākāriki and Crow,B91 3UZ,52.401018400000000,-1.782751687000000
Philippine hawk-owl and Asiatic leopard,LE10 0HR,52.547456872682100,-1.375520650439570
Stilt and Shearwater,B36 9HN,52.507563450000000,-1.766168050000000
Night heron and Solitaire,CV10 9FL,52.531402714629900,-1.508775481221290
Capuchin and Mole,B92 8SS,52.439238650000000,-1.789654464000000
Herring gull and Pratincole,B36 8QD,52.507650530000000,-1.809807810000000
Hawk and Old World quail,CV5 6HE,52.404825839625300,-1.534920405227600
Meadowlark and Stilt,B76 9PP,52.553993500000000,-1.738990121000000
Magpie and Old World warbler,CV1 1QT,52.409239000000000,-1.512161000000000
Kestrel and Philippine hawk-owl,LE10 0GT,52.537333177377600,-1.375339881900020
Old World warbler and Stilt,CV3 5EY,52.391259309377800,-1.508156969992350
Mole and River dolphin,CV21 3XP,52.379070000000000,-1.239878000000000
Old World vulture and Crow,CV3 3BU,52.390453130667100,-1.459395093984430
Asiatic leopard and Night heron,B37 6QQ,52.488945130000000,-1.740214412000000
Eagle and Kākāriki,CV12 9JX,52.480753000000000,-1.405414000000000
Darwin's finches and Herring gull,CV12 8EN,52.481962235779300,-1.477093063718580
Vulture and Bronzewing pigeon,CV3 1NE,52.397408294871700,-1.482795555960820
Lemming and Tit-tyrant,CV2 3EN,52.418993908462500,-1.468647945409750
Ground sloth and Dolphin,CV6 2GY,52.441151439367400,-1.524990599067610
Thicketbird and Parakeet,CV22 5LB,52.360616054994100,-1.239151985453890
Egret and Argus,CV12 8AR,52.489004106506600,-1.473637051738180
Tit-tyrant and Shearwater,B37 7LJ,52.472751060000000,-1.730770009000000
Warbler and New World blackbird,B93 9LW,52.400751000000000,-1.746905000000000
Mink and Crow,CV12 8AY,52.489197803159900,-1.476771661627410
Peafowl and Jackal,CV12 9QQ,52.479265675053500,-1.437959115077460
Parakeet and Gull,CV6 6FR,52.439911295969700,-1.496832614505810
Songlark and Mamo,LE9 7FP,52.573785274423600,-1.321008002925240
Recurvebill and Old World vulture,B93 8EW,52.372342890000000,-1.760977289000000
Viscacha and Minke whale,B37 7HE,52.456408860000000,-1.731487675000000
Mouse and Armadillo,CV8 2DZ,52.352348483767200,-1.557934186769460
Scimitar babbler and B,CV2 5EY,52.416068120927800,-1.457861715665330
Magpie and Mamo,CV12 0AB,52.480704000000000,-1.491302000000000
Snipe and Myna,CV2 4GF,52.413611111878300,-1.489589638930380
Marsh harrier and Partridge,LE9 8HX,52.572320517493400,-1.348327852910330
Francolin and Dorcopsis,B34 6DU,52.494105830000000,-1.806198692000000
Cuscus and Kākāriki,B46 3NZ,52.494159940000000,-1.705880170000000
Recurvebill and Cuscus,CV10 0JR,52.536292153107600,-1.511551435962830
Cuscus and Badger,CV23 0EQ,52.421612659854600,-1.250013767765330
Linsang and Towhee,CV2 3BG,52.425014000000000,-1.449884000000000
Herring gull and Polecat,CV3 5ED,52.385977875506700,-1.502852714156710
Nukupuʻu and Magpie,CV35 7DJ,52.323466910918600,-1.717752289108890
Gull and Greenbul,CV5 7JA,52.411987715816900,-1.564777484757130
Kite and Piping shrike,B92 7JQ,52.438334940000000,-1.808061260000000
Petrel and Chickadee,B90 4YU,52.387143580000000,-1.785993456000000
Stilt and Booted eagles,LE10 1HA,52.541525577769000,-1.355772883676680
Duck and Linsang,CV8 2DS,52.340452461648500,-1.569589516622700
Siskin and Mole,B90 3QX,52.411232990000000,-1.815646981000000
White ibis and Viscacha,CV21 1RU,52.379810503978400,-1.250428164603760
Parrotbill and Elephant,B94 5PF,52.328283370000000,-1.752879890000000
Hawaiian honeycreeper and Viscacha,LE10 0XW,52.542806546047100,-1.394461000000000
Greenbul and Kangaroo,LE9 8EG,52.569916390401500,-1.344379777243050
Boto and Viscacha,CV10 7SQ,52.505592286800900,-1.484208704011400
Asiatic leopard and Vole,B33 8JS,52.480728500000000,-1.790207839000000
Ibex and Dolphin,CV12 9SH,52.485456898276300,-1.464475570859490
Fish eagle and Grackle,B76 9BU,52.528327090000000,-1.769182859000000
Thrasher and Solitaire,CV9 9DL,52.576618000000000,-1.546658000000000
Guillemot and Stint,CV9 2EH,52.581977519609700,-1.561768567962910
Bronzewing pigeon and Ice seal,CV10 8BH,52.521680415048700,-1.485361568544000
Greenbul and Minke whale,CV5 9FS,52.429937694808900,-1.568792452504070
White ibis and Polecat,B91 2JY,52.426626000000000,-1.774508000000000
Mole and Skunk,B33 9NZ,52.486177880000000,-1.791036066000000
Maya and Asiatic leopard,B92 8AS,52.431809140000000,-1.797838056000000
Solitaire and Vole,B94 6BL,52.359421500000000,-1.814717009000000
Mouse and Mouse,CV6 5AQ,52.426606204651200,-1.501145967529870
Diving bird and Prion,CV6 2GX,52.441490980440200,-1.524472050851890
Thrasher and Linsang,B75 6NG,52.584433690000000,-1.810228803000000
Fulmarine petrel and Skunk,LE17 5HH,52.504520383541100,-1.227683636730860
Treepie and Fox,CV4 9BP,52.400261425849000,-1.571300976278530
Grackle and Francolin,CV11 5DZ,52.528588000000000,-1.477542000000000
Masked owl and Mockingbird,CV2 1FR,52.441375156722100,-1.467716850810390
Thrasher and Thicketbird,B26 3JX,52.453296700000000,-1.778507017000000
Grackle and Solitaire,CV21 1EL,52.389208602196600,-1.278408381877410
Cloud rat and Wader,CV23 0SF,52.393728034101200,-1.235070599425730
Perching duck and Buzzard,LE9 7JZ,52.573645562729700,-1.324876157615560
Chipmunk and Capuchin,CV8 1RA,52.346232447272100,-1.576858602458550
Marsh harrier and Black cockatoo,B76 2SH,52.550735660000000,-1.796894520000000
Black jay and Booted eagles,CV11 4NT,52.517357787393700,-1.455555402400140
Vulture and Ground sloth,B92 0BH,52.427870980000000,-1.700085510000000
Kite and Hawk,B92 7FD,52.421705430000000,-1.815015179000000
Stint and River dolphin,CV3 9LG,52.381624000000000,-1.460987000000000
Logrunners and Black jay,B36 0RG,52.505712060000000,-1.744653355000000
Fish eagle and Siskin,B75 6ES,52.573628660000000,-1.805140488000000
Nukupuʻu and Mouse,B37 5BP,52.480382660000000,-1.755209924000000
Macaw and River dolphin,CV11 6BB,52.541705000000000,-1.455874000000000
Philippine hawk-owl and Songlark,LE10 3FT,52.511162000000000,-1.363102000000000
Buzzard and Maya,CV32 6LN,52.307679556895600,-1.528634344078090
New World blackbird and Chipmunk,CV12 8BL,52.488652106893900,-1.475349600884130
Wader and Partridge,CV11 5AH,52.524670697860400,-1.470322144335930
Eagle and Ground sloth,B34 6PT,52.500982370000000,-1.784911473000000
Quetzal and Fish eagle,B26 2UN,52.460341610000000,-1.786404000000000
Grouse and Masked owl,CV5 7ND,52.417167812954200,-1.572666283153040
Bunting and Tree warbler,CV22 6LH,52.348286972998100,-1.281731843897510
Viscacha and Herring gull,CV2 2LU,52.414605929525700,-1.441162914180980
Moluccan boobook and Kangaroo,CV12 8LF,52.476992037376100,-1.475355718590970
Wallaby and Francolin,CV35 7HR,52.307658000000000,-1.670596000000000
Wallaby and Mink,B26 3PW,52.450917960000000,-1.770955720000000
Boto and Siskin,B90 3LE,52.415339800000000,-1.814468000000000
Dorcopsis and Meadowlark,CV6 5DQ,52.426212790304200,-1.496562211497500
Kite and Fish eagle,CV1 2JT,52.402772000000000,-1.500619155455500
Black jay and Hawk,B33 9RP,52.481974350000000,-1.788096276000000
Old World warbler and Shearwater,CV5 6PB,52.399015299643800,-1.520681034474870
Ibex and Goose,B26 1AU,52.464791540000000,-1.807431205000000
Tahr and Ice seal,CV9 1EQ,52.571852790864300,-1.542186328152900
Prion and Fish eagle,CV2 5GP,52.412179334125900,-1.466642167995570
Thrasher and Condor,CV3 2XH,52.403324948441200,-1.435837466138650
Warbler and Wader,B24 0JG,52.525695240000000,-1.811027055000000
Argus and Diving bird,CV13 6EE,52.572467811332000,-1.405384333390960
Duck and Puffleg,CV8 9BA,52.341798186194500,-1.578794400516440
Linsang and Gull,CV23 0WN,52.397779009027000,-1.245700024785040
Dorcopsis and Warbler,CV2 1JB,52.426630828744800,-1.455746828452000
Tit-tyrant and Myna,CV23 8SY,52.326014213518000,-1.250735784808740
Maya and Hawk,CV21 2UR,52.373969616062600,-1.275395704003240
Tit-tyrant and Peafowl,CV6 5EZ,52.421295695476200,-1.493309461592730
Booted eagles and Treepie,B46 3DL,52.497036000000000,-1.687699000000000
Wallaby and Kestrel,B33 8ED,52.482032450000000,-1.806281127000000
Tattler and Prion,CV22 5LE,52.362669688215900,-1.239058000000000
Dolphin and Jerboa,LE10 3LQ,52.484195794175900,-1.370776550214380
Mink and Polecat,CV4 9WB,52.410744544085700,-1.599704888212040
Polecat and Wallaby,CV2 1HG,52.439237985867700,-1.462299644188080
Stilt and Mouse,B92 0HS,52.410551000000000,-1.715683000000000
Ground sloth and Nukupuʻu,B36 8LJ,52.504646420000000,-1.803397452000000
Tree warbler and Bronzewing pigeon,B33 9LX,52.488247220000000,-1.791968792000000
Duck and Black cockatoo,B33 0DS,52.478969190000000,-1.776935345000000
Black jay and Meadowlark,CV21 1RQ,52.396275153221400,-1.251883657417940
Wallaby and Cuscus,LE9 7LW,52.576393507095600,-1.319639627244270
Kite and Triller,B76 1DS,52.532653000000000,-1.799823003000000
Dolphin and Marsh harrier,CV2 4RQ,52.414785688138300,-1.480607547278120
Flameback and Mamo,CV6 6FN,52.438334033468800,-1.495894399083820
Fish eagle and Parakeet,CV21 2SB,52.374140000000000,-1.259369000000000
Towhee and Kite,B91 1LU,52.416145310000000,-1.795998229000000
Francolin and Petrel,B93 9PQ,52.391162280000000,-1.749414003000000
Vulture and Nukupuʻu,CV2 3GR,52.417592218092200,-1.470826194897790
Tit-tyrant and Siskin,CV23 9DY,52.378000000000000,-1.301038000000000
Rat and Ice seal,B33 0HW,52.477400040000000,-1.765105769000000
Eagle and Mockingbird,CV7 7PF,52.437024782522500,-1.641243121102540
Jay and Lemming,LE10 0BY,52.540582989967700,-1.376178449073270
Greenbul and Mink,LE9 7BD,52.575393000000000,-1.305101280127800
Towhee and Pheasant,B91 1NW,52.411872410000000,-1.799737379000000
New World blackbird and Peafowl,CV10 0SU,52.553590371973500,-1.516315096527790
Quetzal and Old World vulture,CV5 6UJ,52.399355000000000,-1.554568121714990
Bunting and Wader,CV21 2HH,52.372788555092800,-1.273387982624440
Logrunners and Polecat,CV10 7DG,52.515229861266200,-1.492598604044440
Grosbeak and Fulmarine petrel,B46 2PE,52.526262560000000,-1.643508975000000
Bronzewing pigeon and Tahr,B35 7AZ,52.510473500000000,-1.798995397000000
Grosbeak and Masked owl,CV3 2AA,52.394654224613200,-1.448292507626070
Kākāriki and Civet,B78 2LR,52.563646870000000,-1.682978014000000
Tattler and Ibex,CV6 5JS,52.430799861164200,-1.500024973838330
Jerboa and Egret,CV22 6AY,52.364992068980200,-1.277481110803610
Francolin and Pitohui,CV7 7RT,52.394760614382700,-1.647934069921450
Argus and Myna,B33 0RB,52.467582070000000,-1.769220693000000
Kestrel and Perching duck,CV6 5PB,52.426701056063400,-1.502321415427930
Tree warbler and Treepie,CV8 3JD,52.349975746362500,-1.466568659005450
Philippine hawk-owl and Guillemot,CV3 5NG,52.380032547378200,-1.506474666766820
Moluccan boobook and Guillemot,CV10 0GH,52.539247000000000,-1.470934000000000
Jackal and Armadillo,B37 7DX,52.459523070000000,-1.741211606000000
Kākāriki and Wader,CV10 7BW,52.508065671964100,-1.470212279820400
Greenbul and Parakeet,CV1 5AB,52.409221256932900,-1.508060216680760
Guillemot and Triller,CV2 2HH,52.426540810366900,-1.440306158983010
Hawaiian honeycreeper and Cloud rat,B91 1TJ,52.407982520000000,-1.806840435000000
Bunting and Parrotlet,LE10 0HD,52.549654201891100,-1.390253000000000
Kangaroo and Cloud rat,B78 2NJ,52.559260040000000,-1.679720209000000
Egret and Lemming,CV7 8QH,52.490501000000000,-1.570755000000000
Tit-tyrant and Peafowl,CV10 0EW,52.536068722156700,-1.468032582006340
Linsang and Bunting,LE9 7RW,52.577046000000000,-1.311016000000000
Petrel and Black jay,CV21 1LE,52.387479141433000,-1.241952344977450
White ibis and Jackal,B94 6JZ,52.338043000000000,-1.733980000000000
Mouse and Rat,CV7 7DS,52.387377650288500,-1.650270230666140
Badger and Civet,B27 6NN,52.448835950000000,-1.814107163000000
Warbler and Vulture,B26 1NU,52.458291920000000,-1.796760351000000
Rat and Snipe,LE9 7BL,52.573493624828800,-1.310978651081060
Magpie and Fish eagle,CV6 4FG,52.441958507413600,-1.517817401542760
Cloud rat and Coati,CV4 7AS,52.389299953085900,-1.537243529453060
Fish eagle and Black jay,CV4 9LW,52.408001338311500,-1.583721175980500
Tit-tyrant and Lemming,CV3 2JY,52.400490231172200,-1.446661787513360
Badger and Vulture,CV3 5AB,52.380021421706800,-1.503815726967800
Parrotbill and Skunk,CV12 0AS,52.477580244489900,-1.490808000000000
Lemming and Hawaiian honeycreeper,CV22 7UN,52.364656921000400,-1.304038881020780
Diving bird and Treepie,CV10 0US,52.541762974050100,-1.520823000000000
Perching duck and Jay,B34 6NB,52.499511640000000,-1.797159804000000
Mole and Shearwater,LE10 1EE,52.538665813764600,-1.362346000000000
Pitohui and B,CV2 1AP,52.431591819203300,-1.455406295050580
River dolphin and Puffleg,CV22 6AU,52.366907631888100,-1.271722030268380
Fulmarine petrel and Bronzewing pigeon,B35 6LB,52.522472100000000,-1.787017407000000
Zebra and Kite,CV6 5QH,52.428287341318100,-1.488508386213380
Cloud rat and Wallaby,CV1 2JJ,52.405718713736600,-1.496104368429670
Myna and Marmoset,B76 1JT,52.534804470000000,-1.812580190000000
Songlark and Tree warbler,CV6 7FQ,52.432877438448300,-1.487616887947740
Fox and Guillemot,CV10 9FZ,52.530428000000000,-1.491377000000000
Bunting and Mink,CV2 4PB,52.418442000000000,-1.488070000000000
Coati and Asiatic leopard,CV22 6HE,52.355077368750100,-1.276277247860000
Duck and Snipe,B91 2QX,52.413057510000000,-1.760184114000000
Coati and Marmoset,CV11 4PG,52.516224053054400,-1.453388425357490
Vole and Grosbeak,CV2 2AH,52.437011342304300,-1.449249601800120
Hawk and Booted eagles,CV5 6JF,52.407528058073300,-1.529408872069330
Polecat and Peafowl,CV8 1DQ,52.335731488702800,-1.587056000000000
American sparrow and Treepie,LE9 4DA,52.549190026399400,-1.278663922454270
Bunting and Songlark,CV7 8BL,52.471896651096600,-1.564510967139280
Tahr and Parrotlet,CV9 2AL,52.572508256760500,-1.549011156667050
Songlark and Condor,B92 0PU,52.430276500000000,-1.757252215000000
Prion and Lemming,B94 6HB,52.356859690000000,-1.722899161000000
Nukupuʻu and Capuchin,CV7 9NU,52.472160827532500,-1.478622461147110
Meadowlark and Macaw,B75 7HT,52.569405200000000,-1.795510036000000
Black cockatoo and Boto,CV1 5AQ,52.415141021081200,-1.493880000000000
Grosbeak and Black cockatoo,LE10 1LN,52.549722420691500,-1.360372159203860
Grackle and Myna,CV2 2RS,52.439408000000000,-1.457965000000000
Treepie and Ibex,B36 8PB,52.502884450000000,-1.808929714000000
Parrotbill and Darwin's finches,LE17 5HA,52.509967000000000,-1.227331102078710
Polecat and Towhee,B76 1XH,52.534259920000000,-1.788169315000000
Quetzal and Linsang,LE10 0TA,52.544053668715900,-1.381422990625410
White ibis and Pratincole,B76 1RF,52.542382860000000,-1.801489223000000
Nukupuʻu and Skunk,CV21 1LP,52.388444544293200,-1.239687639186780
Grouse and Mamo,CV1 1ET,52.404726013044800,-1.514548426261460
Moluccan boobook and Flameback,CV1 2BQ,52.404068704792500,-1.494976639705450
Booted eagles and Quetzal,CV3 1LL,52.404875752929600,-1.488220485433360
Macaw and Kite,B34 6TF,52.496889240000000,-1.783428985000000
Pratincole and Herring gull,CV7 9BJ,52.469317835660000,-1.482233166758540
Recurvebill and Kite,B37 6LY,52.488977000000000,-1.758739738000000
Hawk and Armadillo,B46 2PD,52.540543920000000,-1.645295418000000
Tahr and Mamo,CV2 5HE,52.411976801534000,-1.469584929446650
Masked owl and Vole,B75 5PQ,52.590176360000000,-1.803591095000000
Black jay and Viscacha,CV22 5BX,52.369874999072700,-1.253078536811730
Thrasher and Tree warbler,CV5 6BW,52.395640352760000,-1.551858678623960
Moluccan boobook and Macaw,CV5 7LN,52.415060244512900,-1.574083386436040
Tattler and Black jay,B26 3EX,52.455250510000000,-1.780101256000000
Diving bird and Darwin's finches,B75 6JP,52.578202360000000,-1.798494345000000
Elephant and Chickadee,CV8 2QX,52.350610751531600,-1.562062242158550
Fish eagle and Polecat,CV35 7AU,52.306741429016600,-1.684316039305980
Bronzewing pigeon and Songlark,CV9 1AW,52.572741068178800,-1.538488445811400
Badger and Rabbit,CV2 3GE,52.419832698774000,-1.477328053873670
Pratincole and Peafowl,CV3 2AS,52.397026000000000,-1.441855000000000
Pratincole and Condor,CV5 9NL,52.416916750641700,-1.555760043206980
Linsang and White ibis,LE10 3BJ,52.523018033700000,-1.289704629900000
Grackle and Mink,CV10 7LF,52.514843611312100,-1.482287924456830
Dolphin and Kangaroo,CV3 6JP,52.378433871528400,-1.519963603466160
Zebra and Mink,CV21 3WR,52.379803000000000,-1.250443000000000
Boto and Grouse,B33 8BU,52.484134560000000,-1.805344199000000
Piping shrike and Elephant,B92 8PA,52.439490020000000,-1.779576495000000
Dorcopsis and Grouse,B93 8QL,52.370400800000000,-1.752131099000000
Mockingbird and Linsang,CV21 3TF,52.369795224715000,-1.247586664650240
Guillemot and Buzzard,CV4 9XJ,52.405766899809100,-1.600558385066830
Old World warbler and Dolphin,LE10 0XJ,52.546508386615700,-1.390060000000000
Bronzewing pigeon and Magpie,CV3 6DE,52.384797145364100,-1.528460374138910
Goose and Gull,CV1 2NT,52.405007233922900,-1.510797031150410
Goose and Badger,CV9 9SS,52.576243303719600,-1.545416553225390
Chicken and Old World vulture,CV12 8AU,52.489982497641500,-1.475319050174420
Fox and Rat,LE9 8BW,52.569503137543700,-1.339576032836090
Songlark and Kite,B91 9YF,52.411104000000000,-1.778005000000000
Grackle and Kangaroo,CV7 7US,52.394129954664400,-1.653567489717670
Minke whale and Polecat,B76 9PG,52.553349860000000,-1.757636262000000
Ground sloth and Philippine hawk-owl,CV1 4LL,52.413492574797100,-1.510467964228330
Hawk and Bronzewing pigeon,B46 1HF,52.505089840000000,-1.708223000000000
Cuscus and Piping shrike,B91 2LR,52.421715250000000,-1.774047846000000
Quetzal and Magpie,CV8 1PS,52.359856964805500,-1.596097052105080
Duck and Magpie,B93 0DZ,52.364068780000000,-1.718654030000000
Maya and Petrel,CV5 6EL,52.398175328216300,-1.533197257857570
Vulture and Treepie,LE10 0JY,52.538147217077200,-1.383142530021840
Tit-tyrant and Piping shrike,LE9 6SQ,52.533725617096100,-1.231269884664230
Snipe and Myna,B46 1AH,52.501437000000000,-1.703357000000000
Puffleg and Perching duck,CV9 1HY,52.581206000000000,-1.535846000000000
Minke whale and Francolin,B91 3DP,52.412561650000000,-1.773153666000000
Coati and Pratincole,B36 9LN,52.510511242637500,-1.759227496299750
Cuscus and Elephant,B35 7LU,52.518019070000000,-1.785344178000000
Rabbit and Ground sloth,CV33 9BN,52.320995222626300,-1.469484546208830
Moluccan boobook and Prion,B36 9NB,52.510355680000000,-1.755456164000000
Goose and Thrasher,CV6 2LT,52.433738698824100,-1.526011622432240
Francolin and Kākāriki,CV5 9LU,52.418216672438900,-1.564451531418570
Kite and Rabbit,CV8 1RG,52.336173941212700,-1.582355457403010
Argus and Warbler,CV8 1AL,52.350742752313500,-1.583671688089360
Kangaroo and Mockingbird,CV2 4EZ,52.408288268753900,-1.485285041297380
New World blackbird and Black jay,CV3 1GQ,52.404412361909100,-1.472777116799630
Pitohui and Hawaiian honeycreeper,CV6 2DF,52.426130486569400,-1.529872696407880
Boto and Elephant,LE9 7PT,52.567866902135000,-1.328372986017890
Cloud rat and Mockingbird,LE9 4AQ,52.556569000000000,-1.276645000000000
Stint and Magpie,B93 9LQ,52.395948570000000,-1.742685480000000
Dolphin and Rat,B91 3XL,52.396890670000000,-1.777231372000000
Mink and Chipmunk,B33 8UE,52.480632910000000,-1.813693604000000
American sparrow and Partridge,CV10 9NZ,52.530592540379400,-1.529318758158270
Herring gull and New World blackbird,CV10 9RR,52.524376588275900,-1.532878322376060
Tahr and Tit-tyrant,CV3 4AZ,52.388971688497500,-1.481924317442010
Skunk and Philippine hawk-owl,B24 0HH,52.528540360000000,-1.813756565000000
Old World vulture and Wader,B76 1NJ,52.539975320000000,-1.802532161000000
Egret and White ibis,CV12 9JH,52.475775176164600,-1.422529826177980
Greenbul and Triller,CV22 6TR,52.338405730680000,-1.290522155938520
Masked owl and Peafowl,B93 8QF,52.379823000000000,-1.764815000000000
Thrasher and Guillemot,B92 7PT,52.457074130000000,-1.799606230000000
Grackle and Mouse,CV22 7BP,52.371707665109700,-1.281880896939540
River dolphin and Logrunners,CV10 7JA,52.513748438316800,-1.484717415991740
Goose and Tahr,CV21 3SJ,52.374267036034600,-1.243926523282210
Towhee and Mamo,CV2 1BN,52.431127466337500,-1.461986480538090
Scimitar babbler and Marmoset,CV10 7HX,52.510776921946100,-1.481554759217210
Polecat and Herring gull,CV21 1LT,52.390001000000000,-1.245230000000000
Warbler and Wallaby,B92 9DW,52.447295040000000,-1.766383965000000
Songlark and Jackal,LE9 3AD,52.572773634571200,-1.240281761959550
Booted eagles and B,LE17 4LR,52.477165033378300,-1.227941687166320
Argus and Old World quail,B34 7QX,52.491243530000000,-1.778552301000000
Greenbul and Puffleg,CV10 0LT,52.540792366978700,-1.521645777826700
Night heron and Scimitar babbler,B36 8QQ,52.506475070000000,-1.811197775000000
Thrasher and Solitaire,CV12 8FB,52.482204073138300,-1.476089071531130
Zebra and Herring gull,CV10 9NE,52.524249401826300,-1.534825220918670
Chipmunk and Asiatic leopard,CV2 5NY,52.407996624483900,-1.455123000000000
Capuchin and Mamo,B27 7AB,52.441725420000000,-1.814475410000000
Capuchin and Quetzal,CV3 3BJ,52.390212828994700,-1.463879810974100
Bronzewing pigeon and Fox,B91 1LB,52.415320310000000,-1.786974652000000
Armadillo and Partridge,CV21 2JL,52.376344348172600,-1.277075567829760
Kangaroo and Guillemot,CV8 2EA,52.350747846933400,-1.548319260354270
Dorcopsis and Thrasher,CV6 5LL,52.432114124135400,-1.498303948938030
Triller and New World blackbird,CV22 6SP,52.363468083061500,-1.278196187214230
Dolphin and Boto,CV9 2NN,52.562613884634800,-1.645220818727100
Egret and Parrotlet,CV3 2GS,52.394829638025500,-1.453154667184260
Thrasher and Ice seal,LE17 5HP,52.505258795393600,-1.232016898604360
Thrasher and Mamo,CV11 9SF,52.521780504004600,-1.467335553123500
Black cockatoo and Vulture,CV13 6JU,52.581012494056300,-1.482940659782570
Peafowl and Stint,CV2 3RA,52.413764098567500,-1.469195942942550
Shearwater and Tahr,CV6 3GQ,52.431759581160200,-1.514604610652760
New World blackbird and Guillemot,B76 1GQ,52.538397790000000,-1.794710351000000
Francolin and Jackal,CV12 8AW,52.488182124103000,-1.472763240022960
Old World quail and Black jay,CV21 9AG,52.379803000000000,-1.250443000000000
Booted eagles and Logrunners,B93 8EA,52.372516060000000,-1.757715538000000
Badger and Duck,B37 5PX,52.478371570000000,-1.743721948000000
Hawaiian honeycreeper and Fulmarine petrel,LE10 3AS,52.522093359260400,-1.346698187648250
Black jay and Boto,LE10 0ZH,52.537848000000000,-1.377357000000000
Moluccan boobook and Diving bird,CV11 6LY,52.506945000000000,-1.433776000000000
Hawk and Ice seal,B33 8EX,52.481439260000000,-1.795667291000000
Marmoset and Lemming,CV5 8FD,52.405101072083200,-1.536328642745820
Civet and Petrel,CV5 8DQ,52.407310481961400,-1.535776290168130
Dorcopsis and Tattler,CV1 5TE,52.409718000000000,-1.504385000000000
Dolphin and Logrunners,LE10 1QW,52.544179855855900,-1.369550855211130
Philippine hawk-owl and Francolin,B91 2QU,52.417750000000000,-1.768495000000000
Vole and Thicketbird,CV6 3EN,52.426724120760400,-1.518762998933700
Pratincole and Wader,LE10 0LG,52.554388467915500,-1.389375038969360
Meadowlark and Pheasant,B90 4JA,52.378319760000000,-1.815343169000000
Booted eagles and Mockingbird,LE10 0XP,52.542420306057500,-1.392386874860080
Macaw and Vole,B37 5RL,52.476111280000000,-1.741968326000000
Maya and Cuscus,B26 3SN,52.456727840000000,-1.776885738000000
Moluccan boobook and Diving bird,CV8 2QG,52.343915074910700,-1.569966924746740
Maya and Grackle,CV6 5LZ,52.435863286293700,-1.502630123657020
Chickadee and Siskin,CV3 6BE,52.383937807373200,-1.533935039883940
Minke whale and Asiatic leopard,CV10 7EA,52.516244066152000,-1.494311081279240
Mouse and Buzzard,CV1 1DG,52.406188203112600,-1.513768002819390
Bronzewing pigeon and Puffleg,CV6 3EG,52.423488537012600,-1.518974676436920
Black jay and Mink,B46 9DJ,52.498146196092000,-1.705794874062090
Snipe and Thrasher,CV2 2NN,52.433393980776400,-1.444690841096640
Quetzal and Coati,LE10 0RS,52.544389042733100,-1.399422962073870
Chickadee and Badger,B46 1SD,52.511312180000000,-1.744370443000000
Boto and Linsang,CV3 3AD,52.384734019530400,-1.473040834477790
Wader and Zebra,CV6 6JZ,52.451855629383700,-1.483497341916240
Rabbit and Snipe,LE9 8EU,52.563104686754900,-1.349762575958720
Night heron and Polecat,CV8 1RJ,52.338412157937500,-1.577197390462020
Rabbit and Eagle,CV11 6BG,52.537533467151000,-1.434415000000000
Argus and Snipe,CV32 7DW,52.309735050888800,-1.523332163234160
Wallaby and Vulture,CV6 1GR,52.423586279658200,-1.543649313152640
Petrel and Asiatic leopard,CV8 3HJ,52.377341969880100,-1.395550294439790
American sparrow and Boto,LE10 0PY,52.536280171443100,-1.380249543462140
Magpie and Asiatic leopard,CV8 3DX,52.363743000000000,-1.408380000000000
Viscacha and Flameback,CV21 1XQ,52.384409038944600,-1.250117000000000
Triller and Kestrel,B78 2JS,52.571302480000000,-1.684944251000000
Chickadee and Guillemot,LE10 0YJ,52.532697809544200,-1.398446000000000
Pratincole and Pitohui,B26 1NB,52.459505530000000,-1.796740053000000
Piping shrike and Stilt,LE10 0FA,52.545597593203000,-1.398418474713070
Chipmunk and Warbler,CV6 5TF,52.432917342565000,-1.501162999351060
Skunk and Petrel,B34 7AZ,52.495352888879300,-1.776911673135360
Magpie and Ice seal,CV12 8EH,52.481207079392900,-1.479134015575740
Pitohui and Zebra,B92 7RU,52.444290540000000,-1.805122395000000
Capuchin and Ice seal,B24 0JL,52.524955170000000,-1.814891883000000
Capuchin and Tit-tyrant,CV32 7AA,52.301801401948700,-1.526760942293870
Logrunners and Wallaby,B75 7ST,52.568271520000000,-1.800221722000000
Hawaiian honeycreeper and Duck,B36 0YP,52.510990000000000,-1.795398000000000
Herring gull and Marsh harrier,CV6 2GW,52.443061386694000,-1.525999902200720
Old World quail and Zebra,B26 3DA,52.458729480000000,-1.784911131000000
Minke whale and Stint,CV1 1FL,52.409459874589500,-1.509233622394380
Greenbul and Elephant,CV3 3ET,52.383526674463400,-1.462462165271530
Myna and Booted eagles,CV3 1DS,52.397225117116400,-1.473876806706430
Towhee and Dorcopsis,B75 7JU,52.561611930000000,-1.796047779000000
Logrunners and Myna,LE10 1TY,52.554412427052600,-1.363194838616160
Vole and Wader,B94 5NQ,52.388931740000000,-1.736540144000000
Ice seal and Songlark,CV4 8FN,52.391701147340400,-1.558628776543700
Chipmunk and Wader,B36 8ED,52.498039470000000,-1.809304211000000
American sparrow and Solitaire,CV6 5NT,52.430650000000000,-1.504821000000000
Duck and Chipmunk,CV4 9TX,52.403107827478200,-1.598495186020770
Rat and Songlark,B76 1LP,52.538679130000000,-1.806990579000000
Mouse and Parrotlet,CV5 9GJ,52.425963000000000,-1.563287000000000
Duck and Chipmunk,B46 1NN,52.519601610000000,-1.740564353000000
Fulmarine petrel and Prion,B46 2QB,52.490478710000000,-1.679939854000000
Ice seal and Recurvebill,CV8 3JQ,52.349124208447100,-1.465140191894350
Booted eagles and Old World quail,CV2 2GY,52.426161506898600,-1.439943302354390
Wallaby and Eagle,CV2 1PT,52.445540262724300,-1.472330620946880
Capuchin and Ibex,B37 7YN,52.467327290000000,-1.721647000000000
Gull and B,CV6 7JN,52.431371964042800,-1.480486229895170
Bunting and Flameback,LE10 3HS,52.491348964637100,-1.355195247667840
Black jay and White ibis,CV11 5LT,52.520019527462600,-1.479706979378970
Ice seal and Armadillo,CV8 2TZ,52.342038523202500,-1.530426982037900
Thrasher and Stint,CV21 3NP,52.376242465793700,-1.246360699485440
White ibis and Badger,B34 6AH,52.494284320000000,-1.810955340000000
Tahr and Wader,CV23 0QZ,52.443069116999200,-1.319370106457370
Fish eagle and Chickadee,B26 1TD,52.464599800000000,-1.811185380000000
Perching duck and Old World vulture,CV2 4GX,52.413384219220700,-1.491180078608610
Vole and Magpie,LE10 0FZ,52.551619389460600,-1.381759266746940
Ground sloth and Maya,B92 8QF,52.441933810000000,-1.793716711000000
Tattler and Mamo,B75 6DR,52.572517420000000,-1.801825512000000
Snipe and Grackle,CV23 9NF,52.352718829850700,-1.402860042987390
Macaw and Scimitar babbler,CV4 9DP,52.402584279115500,-1.567295204376410
Fulmarine petrel and New World blackbird,B36 9JG,52.507466940000000,-1.758389375000000
Shearwater and Jerboa,CV23 9BB,52.382447290102000,-1.306859273366510
Capuchin and Bunting,CV10 8NW,52.517754711961400,-1.527024302448620
Myna and Macaw,B37 7EQ,52.464582040000000,-1.752706942000000
Kite and Mole,B94 6HR,52.346036960000000,-1.731319457000000
Fox and Fulmarine petrel,CV23 0UA,52.394997498739200,-1.242337934695950
Mockingbird and Tree warbler,B37 7FZ,52.462433997422900,-1.742666587773650
Goose and Egret,B91 2AS,52.422756970000000,-1.778204056000000
Wallaby and Kestrel,CV10 0LY,52.543003533957800,-1.519336232894230
Macaw and Thicketbird,CV35 7NN,52.344422599690300,-1.685486505736750
Elephant and Bunting,CV2 5AS,52.409364299902500,-1.452622204761560
Black cockatoo and Linsang,B92 7NA,52.448231000000000,-1.800529000000000
Black cockatoo and Vulture,B33 0PE,52.477602470000000,-1.767460425000000
Grosbeak and Recurvebill,B92 7JS,52.437992200000000,-1.807371372000000
Vole and Chickadee,CV2 3GW,52.420817719933300,-1.474419618760000
Kestrel and Darwin's finches,CV6 7DY,52.437855164758100,-1.486970772627130
Condor and Gull,LE9 4TG,52.544438235468100,-1.285244759411240
Skunk and Petrel,CV11 6GX,52.518599432327200,-1.448009365770550
Nukupuʻu and Armadillo,LE10 2RZ,52.529058388179800,-1.360997000000000
Skunk and Rabbit,B34 6PX,52.500194220000000,-1.786550441000000
Masked owl and Lemming,CV5 7PQ,52.418000735247000,-1.576789931735400
Wallaby and Myna,B46 2RB,52.497091550000000,-1.650004969000000
Gull and Myna,CV5 6BL,52.395057863622800,-1.549983496621310
Goose and Parrotbill,B36 8DN,52.500769720000000,-1.802177313000000
Perching duck and Puffleg,CV21 3TN,52.366889655268300,-1.240292620190250
Francolin and Rabbit,B33 8UL,52.477258950000000,-1.811970496000000
Nukupuʻu and Thrasher,B33 0XG,52.473379310000000,-1.782793456000000
Maya and Polecat,B92 7RR,52.443027780000000,-1.802612243000000
Linsang and Asiatic leopard,B76 1FR,52.559409270000000,-1.806693230000000
New World blackbird and Flameback,B93 9QJ,52.388621420000000,-1.755305861000000
Asiatic leopard and Meadowlark,CV2 1NQ,52.455059984213100,-1.460945000000000
Fish eagle and Partridge,CV3 6LB,52.384130547012800,-1.516992774685160
Jackal and Chicken,CV7 9HR,52.453165061352100,-1.508086001428220
Herring gull and Condor,B76 9BX,52.533164700000000,-1.774390900000000
Lemming and Old World vulture,CV1 1DE,52.408292013168300,-1.511613332680680
Herring gull and Bunting,CV4 9JD,52.399511041477500,-1.580156076156780
Black cockatoo and Grouse,B37 7QL,52.472197380000000,-1.736411732000000
River dolphin and Wallaby,CV12 9LP,52.476059810312500,-1.431183209762510
Tree warbler and Coati,CV6 1BF,52.414816859973400,-1.524361886270970
Triller and Herring gull,CV21 9NX,52.379813697463100,-1.250428259812030
Perching duck and Elephant,CV9 2RQ,52.556479663106900,-1.553865866622960
Goose and Duck,LE10 0EP,52.551584000000000,-1.385727000000000
Stilt and Minke whale,CV2 2BS,52.425166000000000,-1.434441000000000
Marsh harrier and Pitohui,B92 8QZ,52.436143080000000,-1.787977593000000
Tattler and Argus,CV1 4EB,52.419732713109800,-1.512883897252440
Parrotbill and Bunting,CV21 2QN,52.377466367960900,-1.260795115496240
Mouse and Snipe,LE10 0UH,52.545078250848700,-1.386554977244930
Grackle and Lemming,CV11 4NP,52.510934506074400,-1.466435210862750
Night heron and Badger,B37 7HS,52.467238400000000,-1.737986913000000
Fish eagle and Maya,CV4 7DZ,52.381135699389300,-1.550932990536700
Fox and Partridge,CV6 1FB,52.418955202542400,-1.538712483379900
Nukupuʻu and Herring gull,B24 9PS,52.517351000000000,-1.809265000000000
Partridge and Booted eagles,B24 0SP,52.524264190000000,-1.815690685000000
Thrasher and Condor,CV3 1AW,52.404095872199200,-1.488743969137550
Lemming and Partridge,B26 1QY,52.464623600000000,-1.798350319000000
Philippine hawk-owl and Bronzewing pigeon,CV7 9FH,52.467428746563100,-1.479914832888210
Bronzewing pigeon and Old World quail,B37 7WH,52.467932000000000,-1.747868000000000
Fish eagle and Prion,CV4 9PL,52.407212457578900,-1.579274511817500
Chipmunk and White ibis,CV11 4YA,52.504034114029200,-1.449620778173200
Kākāriki and Mamo,LE10 1PL,52.544439944631500,-1.371360000000000
Guillemot and American sparrow,CV21 3AD,52.368258054291200,-1.246202798824690
Chipmunk and American sparrow,CV22 7ZG,52.353245000000000,-1.298980000000000
Meadowlark and Rat,B27 6EL,52.450672200000000,-1.815570877000000
Mole and Jackal,B46 2NG,52.515898490000000,-1.626439891000000
Vole and Guillemot,CV5 9BH,52.425000690376000,-1.570870006544400
Songlark and Boto,CV3 6PB,52.380270352546700,-1.520575413354090
Kākāriki and Kite,CV3 2LJ,52.393703820948000,-1.452713014034830
Jackal and Elephant,CV5 9PU,52.432638000000000,-1.557681000000000
Mockingbird and Boto,CV4 8NL,52.394503000000000,-1.555534000000000
Tahr and Kangaroo,CV11 5PD,52.519609157033000,-1.474317901451850
Mole and Greenbul,CV6 3LH,52.423798993824500,-1.511368554410780
Asiatic leopard and American sparrow,CV10 9AE,52.526749000000000,-1.490830000000000
Vulture and Herring gull,CV8 2SL,52.342571684670700,-1.554362010518090
Asiatic leopard and Pratincole,B94 6RU,52.366275300000000,-1.805568197000000
Triller and Logrunners,LE10 2AG,52.533500962033200,-1.351467614012380
Kestrel and Old World quail,CV22 7XG,52.360189153528200,-1.290496499376630
Maya and Thicketbird,CV21 2NW,52.378969412708000,-1.259624144049590
Fish eagle and Magpie,B91 1SE,52.411610420000000,-1.793755120000000
Darwin's finches and Macaw,CV7 9BA,52.462750272591800,-1.512865763368110
Mamo and Ice seal,B37 6TN,52.481124650000000,-1.724652445000000
Hawk and Snipe,CV6 1AT,52.416282468698300,-1.533447280066530
Cloud rat and Polecat,CV6 5FX,52.428155545650600,-1.489215845431440
Towhee and Jay,CV11 6AQ,52.529079696137600,-1.453376315130680
Badger and Peafowl,CV3 1NT,52.399518784287900,-1.487665316419320
Asiatic leopard and Scimitar babbler,CV11 4HR,52.525742506359900,-1.468761604678800
Ibex and American sparrow,B91 9QW,52.413684429189100,-1.775235809521320
Duck and American sparrow,B76 1LE,52.537710000000000,-1.801849000000000
American sparrow and Piping shrike,B24 0PS,52.522903270000000,-1.802387542000000
Pitohui and Old World quail,CV3 2HF,52.400672179257000,-1.452920796992870
Dolphin and Wader,B92 7RA,52.450385950000000,-1.789469002000000
Triller and Crow,CV9 3LR,52.572746123594400,-1.507162756752800
Darwin's finches and Logrunners,CV7 8AN,52.460892736849500,-1.594864615258320
Jerboa and Philippine hawk-owl,CV21 3HT,52.378549547389100,-1.254327840792350
Jerboa and Hawaiian honeycreeper,CV11 6FE,52.524803467965100,-1.438645903846420
Buzzard and Peafowl,CV10 8BL,52.519845000000000,-1.486930000000000
Viscacha and Eagle,B91 3HX,52.409797980000000,-1.780724008000000
Grouse and Mockingbird,CV8 1EY,52.340357149225600,-1.585825000000000
Pratincole and Vole,CV1 2HX,52.406904493879700,-1.493782980621600
Bronzewing pigeon and Songlark,B92 0AB,52.425906870000000,-1.701761000000000
Logrunners and Fox,CV7 8JU,52.459720810405200,-1.537565648371930
Lemming and Wader,LE10 0TF,52.543275113464200,-1.380387001028590
Egret and Meadowlark,B91 2JN,52.425085480000000,-1.773501226000000
Parrotbill and Diving bird,CV6 7FF,52.435757326157100,-1.492496475256240
Vulture and New World blackbird,CV10 0LJ,52.534239320334100,-1.500030922092340
Eagle and Parrotlet,LE10 2BX,52.532925060854000,-1.346463801276510
Moluccan boobook and Crow,B93 9PS,52.392649310000000,-1.746907432000000
Shearwater and American sparrow,CV22 7UF,52.363812059989800,-1.301996305698130
Viscacha and River dolphin,CV10 9EX,52.527159004600300,-1.520511445791970
Quetzal and Argus,CV10 8PA,52.518587807245600,-1.528533284951390
Macaw and Ice seal,CV6 1AS,52.416562020678800,-1.533664877688110
Parrotlet and Rabbit,CV22 7WN,52.355502000000000,-1.311219000000000
Songlark and Tahr,CV13 6JE,52.569327637045100,-1.412051424718720
Linsang and Greenbul,CV22 5EU,52.358844000000000,-1.224983000000000
Rat and Minke whale,CV10 7HY,52.511343908207500,-1.481695437597680
Booted eagles and Logrunners,CV2 3GQ,52.418615208672000,-1.472416669132970
Old World vulture and Tahr,CV3 2JN,52.389902014383800,-1.419007248163300
Tree warbler and Condor,LE10 3LD,52.484784000000000,-1.369634000000000
Meadowlark and Meadowlark,CV12 0DB,52.471804126518700,-1.495895011325290
Vulture and Grosbeak,LE10 0AT,52.539505000000000,-1.374407899688180
River dolphin and Dolphin,CV9 1JP,52.577410000000000,-1.544534000000000
Minke whale and Marsh harrier,B35 7AA,52.514995000000000,-1.797883484000000
Piping shrike and Stilt,B33 8QF,52.477442600000000,-1.814413777000000
Parrotbill and Solitaire,CV6 5TL,52.423857379863600,-1.495294766342940
Petrel and Logrunners,B92 7DR,52.426932630000000,-1.811831447000000
Cloud rat and Nukupuʻu,CV32 7RL,52.303723694682700,-1.524115302413160
Moluccan boobook and Magpie,CV8 3JR,52.377379641187700,-1.390628578912180
Jerboa and Perching duck,CV2 1UR,52.444685293286300,-1.475371775752270
Fox and Fox,CV22 7PT,52.357674994440000,-1.283561995080630
Thrasher and Badger,B36 8NS,52.506922550000000,-1.799041040000000
Marmoset and Peafowl,LE10 2QH,52.534859677732100,-1.359954131954000
Wader and Eagle,CV7 8AF,52.455696000000000,-1.576282000000000
Black cockatoo and Night heron,LE9 4WH,52.548988973461600,-1.285539541840100
Boto and Chickadee,CV10 9SJ,52.524816167075900,-1.523617438776700
Polecat and Siskin,CV10 8DA,52.520174889870800,-1.494826003353220
Linsang and Piping shrike,CV2 5NN,52.406746722373500,-1.454256875153620
Prion and Snipe,B34 6AA,52.491097850000000,-1.814091283000000
Viscacha and Mole,CV21 9RR,52.379820000000000,-1.250430000000000
Perching duck and Shearwater,CV9 2PE,52.588354096967100,-1.585011821116760
Piping shrike and Recurvebill,LE9 6EX,52.529082469500800,-1.227371049979090
Darwin's finches and River dolphin,B26 2JB,52.469381700000000,-1.794515973000000
Cuscus and Minke whale,CV13 6HF,52.573401000000000,-1.413900000000000
Ground sloth and Lemming,CV6 5LH,52.432858021903900,-1.497765999112600
Bronzewing pigeon and Zebra,CV11 5LA,52.522552806639400,-1.473177394739030
Booted eagles and Duck,CV8 2GU,52.348823957984300,-1.577509180426110
Pheasant and Songlark,B91 3PD,52.404542940000000,-1.793979000000000
Pratincole and Rabbit,CV10 9YE,52.522739274836300,-1.464641545738940
Fox and Piping shrike,CV22 7TQ,52.367268992161200,-1.300296756938130
Eagle and Meadowlark,B90 4YR,52.388419070000000,-1.785384857000000
Fulmarine petrel and Old World quail,B76 1YR,52.537038480000000,-1.788554026000000
Logrunners and Argus,CV22 7XW,52.362462235743500,-1.298742753214060
Old World warbler and Skunk,CV21 9LB,52.379813697463100,-1.250428259812030
Recurvebill and Zebra,B33 0BB,52.480029000000000,-1.766667000000000
Piping shrike and Puffleg,CV4 9XU,52.401305872062800,-1.574230458330700
Mamo and Maya,B46 1TA,52.516973980000000,-1.747697541000000
Herring gull and Old World quail,CV2 4RF,52.410638576345800,-1.484111007173170
Darwin's finches and Diving bird,CV2 1PQ,52.446084621149200,-1.473442303625940
Mamo and Mole,B92 9QF,52.430425800000000,-1.759928180000000
Ibex and Solitaire,CV10 7GB,52.510617125148500,-1.484076235454780
Meadowlark and Egret,CV10 0PB,52.536180962799300,-1.521754839482280
Night heron and Flameback,LE9 3AF,52.572695662636400,-1.239338759300730
Thrasher and Stint,CV10 8PR,52.517960999297400,-1.522424170521750
Old World vulture and Hawk,B36 9TJ,52.510874580000000,-1.772235823000000
Chicken and Mink,CV12 9QG,52.480296532693700,-1.437327560824460
Coati and Black cockatoo,B91 2SL,52.424482960000000,-1.764416000000000
Magpie and American sparrow,B93 8EU,52.376025080000000,-1.750439729000000
Viscacha and Songlark,CV5 6BX,52.397148290900800,-1.548859997677510
Treepie and Vulture,CV23 9SH,52.382468226095600,-1.305830512177780
Eagle and Tit-tyrant,CV3 9DU,52.381624000000000,-1.460987000000000
Cloud rat and River dolphin,CV2 2NY,52.437176387239500,-1.448011905445460
Argus and Kākāriki,B37 7BU,52.464316050000000,-1.745967173000000
Nukupuʻu and Stilt,CV11 6PB,52.507825340689800,-1.426353325155880
Wader and Zebra,CV22 7LQ,52.364990917099800,-1.292152568225670
Viscacha and Civet,B35 6BE,52.522281560000000,-1.791086087000000
Scimitar babbler and Magpie,CV6 4QH,52.457474304698300,-1.524211680124900
Parakeet and White ibis,CV12 9PF,52.479310747278100,-1.424883580062320
Mink and Prion,CV7 9BB,52.464220943951700,-1.520768343254940
Francolin and Francolin,B95 5QY,52.313524280000000,-1.791717042000000
Ibex and Partridge,CV12 8LN,52.478600000000000,-1.476765000000000
Black cockatoo and River dolphin,LE10 0AL,52.539950000000000,-1.373706787372870
Chickadee and White ibis,B37 6ET,52.494051620000000,-1.752910059000000
Stint and Lemming,LE9 3BN,52.575388000000000,-1.241314000000000
Darwin's finches and Jackal,CV32 6RE,52.314076000000000,-1.538512000000000
Jay and Condor,B92 7NR,52.449494820000000,-1.793946286000000
Prion and Argus,CV6 1PR,52.421333460726900,-1.546951700449710
Tree warbler and Kite,CV3 1BB,52.402551000000000,-1.487004000000000
Vulture and Dorcopsis,CV23 0FD,52.396671448316200,-1.231611000000000
Linsang and Perching duck,CV6 4NY,52.435862811194800,-1.504660043417980
Dorcopsis and Grouse,CV4 8LW,52.395738140037900,-1.558016000000000
Nukupuʻu and Stint,B93 8JP,52.372469230000000,-1.744011563000000
Warbler and Chickadee,CV6 1QE,52.418690890200500,-1.540097396301330
New World blackbird and Parakeet,B78 2DJ,52.586846000000000,-1.687962000000000
Siskin and Prion,CV10 9PE,52.522097000000000,-1.549807000000000
White ibis and River dolphin,B46 1HH,52.509937110000000,-1.709443756000000
Mockingbird and Prion,B76 2TJ,52.554978590000000,-1.796727462000000
Solitaire and Elephant,CV3 1PB,52.399485340684300,-1.484108923961270
Cuscus and Jay,CV4 9QA,52.409339891764700,-1.583443971043110
Wader and Parrotbill,B35 6PF,52.524535280000000,-1.784531287000000
Hawaiian honeycreeper and Warbler,B92 8RJ,52.437393700000000,-1.793634917000000
Chicken and New World blackbird,CV2 1UE,52.443094000000000,-1.471860000000000
Triller and Greenbul,CV7 8FT,52.514183168253500,-1.581275038309720
Piping shrike and Magpie,LE9 8FY,52.572426291301100,-1.349580484702070
Snipe and Prion,CV3 2PT,52.396577734858400,-1.463846806984380
Philippine hawk-owl and Linsang,CV22 5LZ,52.365173914489100,-1.251791977866930
Grackle and Kite,CV2 2GX,52.426333492690500,-1.440191132364310
Scimitar babbler and Ice seal,CV4 0EH,52.381624000000000,-1.460987000000000
Masked owl and Coati,CV6 2DL,52.425934384654100,-1.532566016841740
Old World quail and Boto,LE17 5DF,52.484916447597100,-1.254887271980540
Minke whale and Rabbit,CV6 2HX,52.444339889370500,-1.524397000000000
Coati and Elephant,B76 0DH,52.548400790000000,-1.711534000000000
Jay and Triller,B37 6LH,52.494082060000000,-1.746046250000000
Herring gull and Old World quail,CV3 1BZ,52.397433173962600,-1.480267423291070
Magpie and River dolphin,CV22 5JP,52.363568082646700,-1.242449629631860
Condor and Kite,CV11 4FL,52.526946349620000,-1.466580313611980
Goose and Darwin's finches,CV1 4GB,52.418099832543600,-1.505020746368140
Mouse and New World blackbird,B76 1EJ,52.527234000000000,-1.800201901000000
Buzzard and Chipmunk,CV10 0DA,52.532383373027500,-1.460204985120100
Rat and Nukupuʻu,CV11 4XS,52.519976897763000,-1.464100341224900
Boto and Warbler,CV11 6TN,52.523385748366100,-1.448258000000000
Recurvebill and Partridge,B93 0LL,52.389973000000000,-1.735388000000000
Duck and Minke whale,LE9 7SE,52.554203288579900,-1.308271912165330
Minke whale and Meadowlark,B76 1HA,52.532663690000000,-1.795415000000000
Crow and Vole,B92 7DE,52.433131000000000,-1.808246532000000
Snipe and Recurvebill,CV21 3TP,52.367069552942800,-1.238908971038550
Chickadee and Eagle,B92 9EJ,52.443141300000000,-1.761698123000000
Mockingbird and Parakeet,LE10 2HG,52.520168592970800,-1.368067010559460
Macaw and Quetzal,CV2 4JR,52.414322497241700,-1.479539713135680
Thrasher and Stilt,LE10 2PY,52.533620674104800,-1.366945230326690
Quetzal and Partridge,CV3 5AN,52.381128311241900,-1.501937527009020
Egret and Tattler,CV10 8HH,52.519921337850700,-1.500753420447400
Zebra and Kite,CV2 2EF,52.426549135206100,-1.445894508675360
Pitohui and Wader,CV9 2JR,52.549849647939900,-1.605844501800710
Ground sloth and Capuchin,CV10 9JU,52.526680115758400,-1.517701348919110
Shearwater and Macaw,B91 2PL,52.420831390000000,-1.763391660000000
Fulmarine petrel and Jackal,B35 7JD,52.516331040000000,-1.791541626000000
Egret and Hawaiian honeycreeper,CV22 5AW,52.364690622114300,-1.242254202899140
Kestrel and Parakeet,B91 9XR,52.411104000000000,-1.778005000000000
Perching duck and Stint,B78 2DX,52.556729780000000,-1.678204637000000
Mink and Kākāriki,CV8 1TT,52.376209000000000,-1.604178000000000
Maya and Marsh harrier,CV6 5BB,52.427780157675500,-1.498132527197360
Jay and Stilt,CV3 6BD,52.387031573709600,-1.531948271931380
Ground sloth and Scimitar babbler,B26 1SL,52.467748700000000,-1.807094477000000
Eagle and Ice seal,CV6 7FA,52.437531000000000,-1.484805000000000
Old World quail and Ground sloth,CV8 1FJ,52.332752000000000,-1.575361330668450
Kangaroo and Macaw,CV21 1NH,52.393577994776800,-1.248122929041860
Siskin and Parakeet,CV2 3HP,52.421101098198400,-1.475474984022250
Civet and Asiatic leopard,CV8 3BY,52.351813000000000,-1.515084000000000
Mouse and Goose,B36 9DU,52.504368780000000,-1.778515893000000
Puffleg and Chickadee,CV1 4LG,52.414215521603200,-1.511371507287360
Hawk and Ice seal,CV7 8AP,52.463768000000000,-1.594191000000000
Marmoset and Bronzewing pigeon,B92 0DD,52.428478170000000,-1.702008006000000
Rat and Mockingbird,CV23 9QL,52.331591803163900,-1.364945477444440
Treepie and Quetzal,CV12 9EX,52.476468051394000,-1.462758989147250
Cuscus and Masked owl,B35 7LR,52.519005270000000,-1.783865661000000
Mink and Buzzard,CV6 4JR,52.448435499186600,-1.510066159824220
Old World warbler and Magpie,CV21 1PJ,52.392364819937500,-1.245380832914380
Cuscus and Ground sloth,CV5 7DB,52.418664644393000,-1.594369274407400
Boto and Parrotlet,LE10 1AP,52.537398023578900,-1.372301796734190
Capuchin and Egret,CV12 9LD,52.477301228046600,-1.415869773504860
Philippine hawk-owl and Argus,CV1 3HL,52.406334633555600,-1.521013342448390
Ground sloth and Tit-tyrant,CV3 5NX,52.383105935311400,-1.499755563021060
Black cockatoo and Rabbit,B37 6JN,52.490697610000000,-1.756890589000000
Kite and Tattler,CV12 9SD,52.492003398411100,-1.447252375750880
Ibex and Booted eagles,CV9 1PP,52.573000325162300,-1.536744413160140
Grouse and Booted eagles,CV22 6NY,52.338243522641600,-1.293460202126060
Peafowl and Capuchin,B37 6LA,52.491146210000000,-1.747859942000000
Myna and Tattler,B34 6NY,52.501009730000000,-1.790140895000000
Asiatic leopard and Francolin,CV2 2RZ,52.430865438869700,-1.438486456705720
Treepie and White ibis,CV12 0HF,52.471133817059600,-1.504913000000000
Marsh harrier and White ibis,CV1 9ZZ,52.407090000000000,-1.507613000000000
Jackal and Tit-tyrant,CV7 7UL,52.393359227735200,-1.654396457642480
Francolin and Mole,CV7 7PB,52.436344622880700,-1.643528439123850
Francolin and Maya,CV23 0TR,52.396102377319600,-1.236602083932290
Parrotlet and Capuchin,CV5 7QW,52.419985916988800,-1.573830096203480
Masked owl and Peafowl,CV3 3FQ,52.385136209555400,-1.454670195505820
Civet and Stilt,CV2 3LW,52.428364894904300,-1.469373626035710
Black jay and Piping shrike,CV6 4GN,52.449086720559500,-1.519799555284970
Siskin and Scimitar babbler,CV7 7JJ,52.440782317760000,-1.616556626710700
Shearwater and Fish eagle,CV6 2LA,52.430075656691700,-1.527242210255430
Zebra and Kangaroo,B36 8QY,52.505849870000000,-1.808372000000000
Greenbul and Pheasant,CV12 8TQ,52.486905917914300,-1.476901930013630
Fulmarine petrel and Eagle,CV22 7FQ,52.358183287428100,-1.303934976043320
Thicketbird and Stilt,CV11 4JZ,52.512843364598000,-1.455242789235650
Diving bird and Bronzewing pigeon,B35 6BJ,52.522830380000000,-1.791334040000000
Argus and Piping shrike,B26 2JY,52.467485440000000,-1.794878071000000
Kangaroo and Egret,CV7 8QA,52.512867873631200,-1.583041019124290
Skunk and Peafowl,CV10 8QB,52.520262864978700,-1.519922000000000
Grackle and Snipe,B92 9HN,52.444269710000000,-1.773226418000000
Elephant and Mockingbird,CV11 5NE,52.523436000000000,-1.471296753971020
Condor and Recurvebill,CV11 5BT,52.523701610247500,-1.470731744659130
Goose and Mockingbird,CV10 7NJ,52.515633218434400,-1.498488000000000
American sparrow and American sparrow,CV11 4YY,52.522585777846900,-1.466485723226490
Puffleg and Eagle,B35 6QJ,52.521643000000000,-1.785031082000000
Ibex and Grosbeak,LE9 4BP,52.553983013485700,-1.280355251161660
Perching duck and Greenbul,B93 0DS,52.382722000000000,-1.733007000000000
Thrasher and Masked owl,LE9 7NS,52.572590642921200,-1.321188758152760
Pratincole and New World blackbird,B26 3XX,52.460115910000000,-1.776265215000000
Ice seal and Zebra,LE17 5EU,52.508359210399700,-1.227690039195430
Nukupuʻu and Shearwater,CV21 9QT,52.379820000000000,-1.250430000000000
Asiatic leopard and Buzzard,CV10 7BL,52.510308963476100,-1.469271785835910
Cloud rat and Gull,CV32 7BU,52.302613489445800,-1.512013643398890
Snipe and Armadillo,CV2 5FT,52.409680338226000,-1.456822735234660
Jackal and Kite,CV10 0QE,52.537030340268400,-1.518546000000000
Vulture and Songlark,LE9 4NP,52.540607000000000,-1.275919000000000
Goose and Jay,CV2 1SU,52.439487354654500,-1.461781733545020
Recurvebill and Asiatic leopard,CV7 9EN,52.464740723889300,-1.479917058331970
Chipmunk and Shearwater,B76 1XB,52.532832460000000,-1.789252326000000
Recurvebill and Siskin,CV3 3DP,52.388981439394700,-1.463131000000000
Chicken and Treepie,CV2 1ST,52.427304000000000,-1.453356000000000
Argus and Argus,B36 9BH,52.502999850000000,-1.786978823000000
Wallaby and Cloud rat,B46 2BT,52.516810000000000,-1.621796000000000
Dolphin and Partridge,LE10 0QX,52.552340578749600,-1.369138981586970
Pheasant and Diving bird,B37 5LA,52.482912380000000,-1.744122618000000
Chicken and Pheasant,B35 7EE,52.514460820000000,-1.796531111000000
Prion and Night heron,CV23 0AD,52.399731000000000,-1.234601000000000
Hawaiian honeycreeper and Cloud rat,CV11 6GW,52.524068177831200,-1.446688033117970
Tit-tyrant and Snipe,B26 1LN,52.460890510000000,-1.802355862000000
Vulture and Skunk,CV12 9JL,52.474596640441500,-1.415036776984920
Moluccan boobook and Ice seal,LE10 1PH,52.555870741780500,-1.370283097536140
Pratincole and Buzzard,CV3 5FX,52.396399780072200,-1.505542678912720
White ibis and Coati,CV10 0BA,52.529967821192800,-1.460809486068310
Vulture and Vole,CV1 2DS,52.406038388484100,-1.503671024231060
New World blackbird and Capuchin,CV4 8GP,52.385709910538200,-1.582343924378450
Siskin and Eagle,LE10 3PB,52.523875312818800,-1.292284727422500
Snipe and Magpie,CV11 4TJ,52.500644234125200,-1.428612240603050
Kite and Peafowl,CV23 9SG,52.382030562518700,-1.298697176198320
Asiatic leopard and Dolphin,CV2 4NW,52.410951602750800,-1.481681650937170
Night heron and Pheasant,CV1 3ER,52.405974031214200,-1.520767353240230
Bunting and Grackle,B76 9EY,52.532892920000000,-1.738392771000000
Myna and Prion,CV22 6RA,52.337986550053000,-1.292583665907210
Skunk and Eagle,CV22 7HL,52.365758101820900,-1.297177736230870
Warbler and Rabbit,CV23 0JQ,52.397406000000000,-1.235229000000000
Egret and Pratincole,B36 9LL,52.510157380000000,-1.750889659000000
Quetzal and Tit-tyrant,LE10 0QU,52.551971860207500,-1.369114770379250
Recurvebill and Rabbit,CV6 2GL,52.448586244004400,-1.527235439794150
Vulture and Parrotbill,CV6 1PL,52.422780531580200,-1.546863350168780
Parrotbill and Shearwater,B36 8AN,52.500322120000000,-1.803313600000000
Zebra and Recurvebill,B93 8LH,52.372756100000000,-1.752073863000000
Pheasant and Treepie,CV1 3HH,52.406802788246600,-1.523404349494250
Vulture and Siskin,B93 8AQ,52.382655740000000,-1.757131197000000
Capuchin and Pheasant,B33 0HE,52.470468189469500,-1.781483094022350
Cuscus and Grosbeak,CV1 5PL,52.412223447222000,-1.495133476234620
Dolphin and Maya,CV11 9XF,52.522739274836300,-1.464641545738940
Duck and Grouse,B91 2QZ,52.415423860000000,-1.761156367000000
Tattler and Zebra,B91 2UE,52.416141500000000,-1.778854728000000
Buzzard and Civet,B26 3EJ,52.452537890000000,-1.781380238000000
Ground sloth and Dolphin,CV12 8HF,52.484537109482600,-1.479978249909170
Piping shrike and Badger,B92 8SN,52.439893030000000,-1.788592178000000
Old World quail and Dolphin,CV11 6YR,52.527151926074300,-1.448653945052590
Chickadee and Cloud rat,B94 5RB,52.335673830000000,-1.728505671000000
Jay and Black jay,CV3 6QG,52.377276892443600,-1.509678421444340
Ground sloth and Rabbit,B33 8JE,52.479440010000000,-1.793659361000000
Crow and Tree warbler,CV2 4ED,52.410606794015300,-1.483008792844820
Fish eagle and Treepie,B33 0XT,52.471882180000000,-1.761601973000000
Mouse and Pratincole,CV4 8BQ,52.395455074825900,-1.574727614219570
Warbler and Crow,B90 4RX,52.401733710000000,-1.806412048000000
Argus and Tree warbler,CV10 0EB,52.541845612608700,-1.468434796968030
Skunk and Songlark,CV6 6FF,52.439755103296500,-1.493936360201390
Tattler and Mole,B26 3QZ,52.452981000000000,-1.733627000000000
Kākāriki and Prion,CV7 7GR,52.384376751142500,-1.641860524004830
Old World quail and Tattler,B91 2LF,52.425848470000000,-1.772894371000000
Mockingbird and Petrel,CV9 9SR,52.576243303719600,-1.545416553225390
Duck and American sparrow,CV2 4FA,52.415160000000000,-1.485932000000000
Zebra and Mink,CV10 8BT,52.520757250639500,-1.496469968081910
Mamo and Ibex,CV10 0BN,52.534409277041800,-1.458927044871480
B and Prion,CV21 2BT,52.374128743232800,-1.271883000000000
Parrotbill and Crow,CV35 7AH,52.327512129868600,-1.706516040257490
Black cockatoo and White ibis,B26 1HX,52.455481640000000,-1.804234255000000
Elephant and Polecat,CV12 0HZ,52.467616391491800,-1.509117327305410
Peafowl and Wallaby,CV13 6AW,52.549436433647700,-1.427462877336160
Thrasher and Boto,B91 2UP,52.427393170000000,-1.772062872000000
Old World warbler and Chicken,B91 3PW,52.403642750000000,-1.797540395000000
Petrel and Asiatic leopard,CV21 3TL,52.367884192760400,-1.242566755233120
Cuscus and Polecat,CV21 2TD,52.374750000000000,-1.258899225733880
Prion and Masked owl,CV9 3BZ,52.582621840328000,-1.541970892257460
Egret and Black cockatoo,CV12 0AX,52.481089520953600,-1.493477177988940
Grosbeak and Parrotbill,CV2 3NU,52.422184454155000,-1.464448094958810
Chipmunk and Elephant,B36 9TW,52.508990860000000,-1.769740801000000
Warbler and Meadowlark,CV1 2EW,52.404200000000000,-1.513099000000000
Cloud rat and Viscacha,B90 4ET,52.378788710000000,-1.810581516000000
Linsang and Stint,CV33 9BX,52.320670028482400,-1.470999000000000
River dolphin and Tree warbler,CV3 2XE,52.403300582245100,-1.434500192028480
Towhee and Eagle,LE10 1HN,52.542952753430400,-1.368713196349200
Kangaroo and Siskin,CV6 9GY,52.433882000000000,-1.493290000000000
Jay and Puffleg,CV32 6NS,52.303774663745100,-1.530113027187840
Tree warbler and Stilt,CV5 9LG,52.415787188565600,-1.566313304283450
Mamo and River dolphin,CV2 2PX,52.431896945959200,-1.439885344843190
Viscacha and Chipmunk,LE9 3LE,52.586016027926700,-1.237499405558530
Diving bird and Wallaby,B91 2AJ,52.419217610000000,-1.774884015000000
New World blackbird and Parrotlet,B92 7BB,52.436309420000000,-1.806363741000000
Chickadee and Eagle,CV8 3LQ,52.377958000000000,-1.387477000000000
Vulture and Egret,B78 2AJ,52.580175960000000,-1.732725122000000
Gull and New World blackbird,CV21 1LF,52.386472714960100,-1.242028351893290
Tit-tyrant and Chicken,CV10 8LJ,52.522037996723400,-1.508157536997960
Kākāriki and Tattler,CV8 2RN,52.339421527651600,-1.525596000000000
Lemming and Kite,B24 0LB,52.522005400000000,-1.814035000000000
Hawk and Mamo,CV21 1EG,52.386608971518700,-1.275232922302720
Black jay and Moluccan boobook,B37 6AG,52.496482010000000,-1.754398874000000
Parrotlet and River dolphin,CV9 2RR,52.583817327403400,-1.647012710111240
Nukupuʻu and Bronzewing pigeon,CV10 9PF,52.518632787394400,-1.554072254114380
Nukupuʻu and Grouse,CV8 3FZ,52.380188877052500,-1.379351238121320
Grosbeak and Guillemot,CV6 3DD,52.427095687780900,-1.519494284631040
Thicketbird and Asiatic leopard,B92 0HZ,52.416605000000000,-1.728950000000000
Perching duck and Prion,CV2 5EQ,52.416519489470100,-1.458267870150880
Treepie and Booted eagles,CV1 2UB,52.400280769549200,-1.504882016924490
Petrel and Snipe,B92 0AW,52.425015868721000,-1.696487434698620
Chickadee and Mole,CV11 6JW,52.532991285245500,-1.425096839152990
Stint and Old World quail,CV12 8BQ,52.488530214669700,-1.478281744493000
Black jay and Ibex,CV4 7HB,52.376781856059200,-1.547892258647960
Rat and Jackal,CV10 8JX,52.517093148575700,-1.503762261544210
Pratincole and Flameback,CV21 3TX,52.377176493243700,-1.237795105962450
Bunting and Jerboa,CV23 8EL,52.311561703212400,-1.368371083382390
Stint and Coati,LE10 0SP,52.546040151457200,-1.384816242480850
Hawaiian honeycreeper and Stint,B91 3DE,52.406768480000000,-1.785722221000000
Songlark and Herring gull,LE10 0GN,52.533410541797200,-1.392039442714170
Herring gull and Grouse,B91 3PA,52.401794430000000,-1.794432852000000
Cuscus and Ground sloth,CV3 4EW,52.379865404431400,-1.467927558779190
Egret and Kestrel,CV22 5ER,52.357080576953800,-1.236011674068270
Moluccan boobook and Hawk,CV6 6LH,52.440667270915400,-1.494911560187780
Parakeet and Vulture,CV5 9EQ,52.423283093298900,-1.558519512161150
Hawk and Marmoset,B76 9RJ,52.531929340000000,-1.772436605000000
Eagle and Magpie,CV22 7QL,52.357183278274400,-1.286991208071560
Philippine hawk-owl and Kestrel,CV22 6AX,52.366673443390800,-1.274575098407320
Goose and Stilt,B92 9LB,52.432086910000000,-1.763375581000000
Meadowlark and Old World warbler,B94 5NR,52.343905350000000,-1.773857088000000
Treepie and Quetzal,CV6 3FU,52.431289973764500,-1.511903495498820
Kite and Vulture,CV22 6QG,52.335623967055100,-1.297420527938860
Polecat and Tahr,B46 3BT,52.498142280000000,-1.705794700000000
Pheasant and Warbler,CV22 5AJ,52.367458282825700,-1.246260468590320
Dorcopsis and Old World quail,B26 2RU,52.466340500000000,-1.777661000000000
Crow and Mink,B90 3JH,52.413265620000000,-1.816211891000000
Kangaroo and Fox,CV8 2LX,52.349412000294000,-1.573525088008730
Parrotbill and Marsh harrier,CV4 7JT,52.388209050811400,-1.548069462947090
Mouse and Viscacha,B94 5QZ,52.336673310000000,-1.729189352000000
Peafowl and Asiatic leopard,CV2 5LU,52.408922633978800,-1.468136788442280
Bunting and Partridge,CV6 4DE,52.441608550109000,-1.509229743307170
Condor and Puffleg,B36 0QY,52.502383690000000,-1.743685602000000
Thicketbird and Grosbeak,LE17 5AN,52.492260703006800,-1.275044342239350
Songlark and Parakeet,CV22 6AT,52.367082268267700,-1.273804688979440
Perching duck and Herring gull,CV21 1DB,52.389490802703800,-1.262900000000000
Quetzal and Piping shrike,CV22 7PA,52.364385384928000,-1.282675136929090
Badger and Black cockatoo,CV4 9TL,52.412868951188900,-1.602067550495040
Treepie and Maya,B34 7JB,52.498791620000000,-1.767363508000000
Tit-tyrant and Minke whale,CV5 8FF,52.407170793900500,-1.536836152900900
Flameback and Peafowl,B33 0NU,52.473657900000000,-1.763947911000000
Gull and Piping shrike,CV21 2SW,52.375623255268100,-1.256477736319070
Badger and Parakeet,CV1 2LX,52.404039158495300,-1.505001653959060
Guillemot and Masked owl,B36 8RD,52.505476980000000,-1.811069452000000
Logrunners and Solitaire,CV32 7TG,52.313256676542400,-1.516062618033640
Jerboa and Badger,CV3 6BU,52.381026439613000,-1.534303576843300
Parrotlet and Buzzard,LE10 2JH,52.520214994501100,-1.370026468523310
Marmoset and Tahr,CV6 5EW,52.421131171403500,-1.492679047676770
Polecat and Rat,B91 2PE,52.416172870000000,-1.762563800000000
Rat and Quetzal,CV7 8DW,52.471391000000000,-1.612892198196690
Quetzal and Tit-tyrant,CV1 9FN,52.381624000000000,-1.460987000000000
Zebra and Darwin's finches,CV6 1JX,52.421199955253700,-1.528881083226050
Rat and Cloud rat,CV22 6RD,52.338560000000000,-1.302717000000000
Cuscus and Francolin,B91 3LG,52.400981770000000,-1.802917257000000
Diving bird and Jay,B91 1NU,52.409182000000000,-1.797530000000000
Elephant and Tahr,B33 0PP,52.466363130000000,-1.771125887000000
Eagle and Old World warbler,CV3 1GS,52.405684293987600,-1.473746827770030
Moluccan boobook and Gull,LE17 4XT,52.465146000000000,-1.238927000000000
Black jay and Argus,CV11 4YH,52.522739274836300,-1.464641545738940
Rat and Old World warbler,CV3 2DX,52.409848977150100,-1.444736524288480
Darwin's finches and Cuscus,CV12 0LW,52.476948980626800,-1.507173129602790
Minke whale and Pitohui,LE17 4XH,52.451379572507600,-1.247227583334470
Jackal and Bronzewing pigeon,CV4 9RX,52.403554675790300,-1.584703722024240
Lemming and Old World vulture,CV3 5BP,52.386321731289300,-1.514206580832800
Minke whale and Jackal,B46 1BT,52.498973190000000,-1.711003751000000
Minke whale and Old World quail,LE10 2BQ,52.528879000000000,-1.352656000000000
Songlark and Mouse,CV6 2BT,52.429521920919200,-1.534969515727810
Old World warbler and Quetzal,CV6 2EW,52.435740240966300,-1.527446396901530
Night heron and Solitaire,B33 9DS,52.487895500000000,-1.807256824000000
Triller and Partridge,CV5 7AF,52.406397941626200,-1.553278506603070
Parakeet and Zebra,CV3 5GA,52.395938201880000,-1.506958674567110
New World blackbird and Parrotbill,B34 7DA,52.497282620000000,-1.777402526000000
Black jay and Petrel,B92 0AS,52.417603930000000,-1.707109798000000
Chipmunk and Condor,B78 2FD,52.578405500996100,-1.664277893210420
Mink and Petrel,LE9 7PL,52.574377133260100,-1.325469919590970
Hawaiian honeycreeper and Booted eagles,CV21 2NQ,52.379125426056200,-1.264454819541760
Minke whale and Thicketbird,B37 5PE,52.474051600000000,-1.749900878000000
Warbler and Jay,LE9 7GT,52.570443325073500,-1.316721737383110
Eagle and Dolphin,CV2 3HG,52.420598509621800,-1.477701318700510
Kangaroo and Gull,CV5 7LZ,52.415926741755800,-1.572545946796350
Fulmarine petrel and Pheasant,CV2 1LY,52.436936261808100,-1.472080000000000
Magpie and Partridge,CV21 1RZ,52.396668407765400,-1.250098712335170
Pheasant and Warbler,B93 0FG,52.379258000000000,-1.741158000000000
Grouse and Mouse,LE10 2NS,52.531701000000000,-1.376009000000000
Tree warbler and Siskin,CV2 1LA,52.441587245168800,-1.470906681023370
Partridge and Grosbeak,CV10 7PQ,52.507419406739000,-1.482640318226430
Crow and Vulture,CV22 6SE,52.363662953118900,-1.279191639458380
Civet and Snipe,CV4 9GZ,52.402866084005900,-1.546523441018860
Maya and Darwin's finches,CV12 0GN,52.475175610074800,-1.500184958968660
Goose and Songlark,CV11 4JF,52.516500216124900,-1.460679551430090
Quetzal and Rat,CV10 7AZ,52.514848668995800,-1.495962776154560
Guillemot and Flameback,CV1 4BU,52.415214800507000,-1.516080018608700
Gull and Tree warbler,CV2 3BZ,52.418660507604500,-1.458565128419920
Herring gull and Minke whale,CV21 3JJ,52.377754829851600,-1.250918362889020
Ground sloth and New World blackbird,LE10 1LU,52.550235383763700,-1.357149676365830
Puffleg and Eagle,CV12 8JJ,52.478379997480600,-1.468080424480330
Fox and Linsang,CV5 6RN,52.400813358585300,-1.543413833199890
Booted eagles and Towhee,CV6 4LQ,52.447106704011300,-1.499737466633420
Jackal and Meadowlark,B92 8HG,52.448253970000000,-1.788714050000000
Marsh harrier and Marsh harrier,LE9 6NY,52.533898296832300,-1.234333302208330
Shearwater and Kestrel,B33 9PE,52.485667200000000,-1.792025126000000
Armadillo and Elephant,B94 6QE,52.351345730000000,-1.781570911000000
Armadillo and White ibis,CV22 7QW,52.355482533838700,-1.285241929891740
Flameback and Prion,CV21 2JQ,52.374877768285400,-1.279831737203090
Cuscus and Mockingbird,CV5 6AH,52.396716807353300,-1.541854173303440
Puffleg and Booted eagles,B92 9BT,52.447777980000000,-1.774356066000000
Cuscus and Polecat,CV12 9PD,52.479776485580700,-1.428234630590940
Tree warbler and Jackal,CV22 5NZ,52.362156790140800,-1.263826056240970
River dolphin and Grosbeak,B78 2NH,52.560228570000000,-1.678842852000000
Bunting and Flameback,B36 0AN,52.503030010000000,-1.778905641000000
Pitohui and Hawk,B93 8AU,52.380608390000000,-1.758303011000000
White ibis and Magpie,CV5 6PR,52.399487050833700,-1.526202153197680
Fish eagle and Marsh harrier,B90 4SG,52.388378750000000,-1.782989992000000
Philippine hawk-owl and Diving bird,LE10 2DA,52.528277784811300,-1.348198433650540
Zebra and Kangaroo,CV6 3AA,52.424115913792800,-1.522938365074580
Chipmunk and New World blackbird,LE10 3BE,52.537277000000000,-1.402498000000000
Triller and Mole,B76 1PD,52.557979770000000,-1.801182925000000
Badger and Scimitar babbler,CV10 0BP,52.534085519574000,-1.454980071524490
River dolphin and Prion,CV35 7AS,52.304539013725300,-1.684390353587370
Greenbul and Booted eagles,B76 1LJ,52.537663560000000,-1.807171948000000
Wallaby and Gull,CV6 2AA,52.422232000000000,-1.534855000000000
Chickadee and Fish eagle,CV35 7NJ,52.338736051809400,-1.657874976809700
Treepie and Songlark,CV5 6UF,52.400714208481700,-1.554834000000000
Shearwater and Black jay,CV9 1DN,52.574511644117300,-1.543958866076900
Vole and Fox,CV21 1GS,52.382058000000000,-1.253316000000000
Puffleg and Siskin,LE10 0NH,52.535233826842800,-1.402304730341440
Armadillo and Linsang,CV11 5EG,52.529355181093200,-1.476545379571430
Kākāriki and Crow,CV3 6PQ,52.367221311885300,-1.515120976698880
Chipmunk and Tattler,CV7 8PR,52.504190000000000,-1.574534000000000
Grosbeak and Pitohui,CV6 3GJ,52.426857641482200,-1.516232024385610
Puffleg and Logrunners,CV32 6NR,52.302120624015000,-1.527901422938560
Old World quail and Solitaire,LE9 7FG,52.571849516870200,-1.315814581242900
Kite and Philippine hawk-owl,CV12 9PU,52.478925361932400,-1.434459155804660
Civet and Grouse,B92 8LX,52.440239240000000,-1.781220378000000
Booted eagles and Thicketbird,CV21 9SQ,52.375390081872100,-1.263753000404210
Lemming and Chicken,CV12 0LQ,52.475347538580200,-1.506881834995050
Eagle and Badger,LE10 2AT,52.536919077461900,-1.340006000000000
Wader and Petrel,CV5 6QE,52.395612162331100,-1.526170148840240
Linsang and Tit-tyrant,CV1 1JB,52.410462486639100,-1.510487000000000
Parrotlet and Coati,B91 2AR,52.423476080000000,-1.778156335000000
Parrotbill and Puffleg,B92 9NW,52.430323700000000,-1.767326642000000
Elephant and Fish eagle,CV1 5NT,52.410968595218800,-1.498132149829400
Old World quail and Buzzard,CV8 1HF,52.341902084381700,-1.575167877345550
B and Jerboa,LE10 1TD,52.551521871299400,-1.360640971379980
Greenbul and Darwin's finches,B37 6NA,52.484658230000000,-1.757807390000000
Hawk and Goose,B24 0NE,52.522313950000000,-1.810348846000000
Badger and Puffleg,CV7 7NR,52.437753048156700,-1.645517653599430
Thrasher and Fox,CV10 9EW,52.534678346320800,-1.512616053018380
New World blackbird and Old World warbler,CV3 9NB,52.381624000000000,-1.460987000000000
Herring gull and Tahr,CV10 8JZ,52.517228608683700,-1.499634464566620
Grouse and Parrotbill,B94 6BF,52.378244000000000,-1.782488000000000
Stint and Mink,CV22 5JJ,52.363815685556900,-1.243209056086350
Mamo and Old World quail,B33 8DU,52.482065020000000,-1.804219511000000
Gull and Chipmunk,B26 2EQ,52.472576010000000,-1.791012085000000
Marmoset and Hawaiian honeycreeper,CV3 6PG,52.388173336879600,-1.534228412187320
Jerboa and Duck,B76 2QS,52.549582744800000,-1.788184332000000
Polecat and Scimitar babbler,CV3 2FY,52.397278177049800,-1.455799217736040
Elephant and Shearwater,CV2 4FQ,52.410419956437700,-1.489670560515580
Francolin and Meadowlark,CV2 5ED,52.420158741021500,-1.450091796955730
Mockingbird and Ice seal,LE9 7SQ,52.563562157564800,-1.328630494110620
Grouse and Quetzal,CV21 2PD,52.374811204087800,-1.261750175775230
Night heron and Thicketbird,CV5 7GY,52.408793928228200,-1.566602359710410
B and Armadillo,CV6 5RD,52.433865000000000,-1.493298000000000
Marmoset and Mamo,B75 7JW,52.560124712296700,-1.786437267117060
Badger and Perching duck,LE10 1SB,52.555690512927400,-1.361804623766280
Fish eagle and Zebra,B93 0NJ,52.388931740000000,-1.736540144000000
American sparrow and Polecat,CV7 8PN,52.464915817530200,-1.537246297710050
Cloud rat and Hawaiian honeycreeper,CV32 6JN,52.301896861254400,-1.537245454590700
Civet and Prion,CV3 2GT,52.395190730072800,-1.451533642934790
Chickadee and Kestrel,CV5 8JD,52.417783795758800,-1.547326239858600
Vole and Jay,LE10 0EE,52.549370229588800,-1.373532081136390
Polecat and Chickadee,CV6 1NU,52.420781155852300,-1.521033000000000
Wallaby and Capuchin,CV4 9WR,52.411803491686100,-1.600695195007980
Linsang and Magpie,CV6 2FB,52.436298882600300,-1.525513459271700
Ibex and Old World warbler,CV3 6NN,52.381229400103800,-1.519859846679620
Stilt and Asiatic leopard,CV21 4AR,52.368192004023400,-1.231751693586810
Hawaiian honeycreeper and Ground sloth,B91 3SQ,52.414282810000000,-1.780069597000000
Marsh harrier and Night heron,CV3 1DU,52.397976064964200,-1.472927275728010
Buzzard and Capuchin,LE10 1PF,52.557230565456900,-1.372417161067400
Rat and Boto,CV12 9DL,52.479677000000000,-1.464354000000000
Masked owl and Lemming,CV32 7JL,52.314659812034200,-1.498957579813180
Jackal and Chipmunk,CV22 7LN,52.364739988430200,-1.287794824100740
White ibis and Flameback,B35 7FP,52.515138720000000,-1.793448188000000
Philippine hawk-owl and Dorcopsis,B94 6QZ,52.353003120000000,-1.783309896000000
Vulture and Masked owl,CV22 7SS,52.369186939652500,-1.293245834776320
Herring gull and Myna,B93 8RW,52.370216230000000,-1.767495362000000
Siskin and Goose,B37 7AE,52.467886650000000,-1.755249738000000
Egret and Bunting,B36 8LB,52.501271690000000,-1.812324878000000
Treepie and Shearwater,CV8 2PN,52.350923969085400,-1.559255023694420
Wader and Francolin,CV22 6JE,52.353974706119000,-1.278262705149080
Chipmunk and Kangaroo,B93 3HL,52.388935725278200,-1.736540323866940
Rat and Pratincole,CV10 8NT,52.518922885188800,-1.522413746341960
Hawaiian honeycreeper and Hawk,CV11 4YD,52.506388131408000,-1.449326193786040
Hawaiian honeycreeper and Kite,CV7 8QL,52.501277000000000,-1.579769000000000
Ice seal and Macaw,CV10 7SU,52.505693049536600,-1.480524315767580
Chickadee and Piping shrike,CV1 4AB,52.411075479307900,-1.512949823392800
Wader and Hawaiian honeycreeper,B26 3AH,52.460530320000000,-1.781546747000000
Puffleg and Mockingbird,CV3 2FE,52.399567662659400,-1.447393499606480
Shearwater and Jerboa,LE10 0LN,52.536704995643700,-1.384135790747300
Lemming and Fox,CV12 8DW,52.489608618637900,-1.470095246077500
Minke whale and Coati,LE9 8JT,52.578117334663400,-1.357893138896950
Ground sloth and Scimitar babbler,CV8 9ED,52.341801918273000,-1.578794550040550
Warbler and Diving bird,CV2 2PT,52.428694219255100,-1.435631428085880
Coati and Tree warbler,CV6 4FF,52.442573137537200,-1.512043687649070
Rat and Jay,B36 8QL,52.506413800000000,-1.812244077000000
American sparrow and Night heron,CV6 3AS,52.427082897208700,-1.520773897200380
Badger and Grackle,CV10 0XH,52.539611000000000,-1.527084000000000
Old World quail and Rat,CV6 6BE,52.450754231822300,-1.486570835063050
Hawk and Duck,B25 8RN,52.473488060000000,-1.809410206000000
Magpie and Parrotbill,CV10 7DL,52.521367843286000,-1.483773506752720
Asiatic leopard and Mink,CV2 4DU,52.410666342864800,-1.480185475431370
Viscacha and Kākāriki,B95 5HN,52.308149070000000,-1.718392304000000
Dorcopsis and Tattler,CV11 5BY,52.523715039872800,-1.469714601026790
Logrunners and Duck,CV10 8LF,52.518096528249600,-1.509395223163460
Scimitar babbler and Tit-tyrant,LE10 0RL,52.554065158252400,-1.372241069180050
Towhee and B,CV6 9NP,52.433882000000000,-1.493290000000000
Black cockatoo and Nukupuʻu,B93 3JB,52.388948000000000,-1.736532000000000
American sparrow and Zebra,B78 2JZ,52.572606850000000,-1.685259523000000
Pratincole and Condor,B93 0BU,52.351405000000000,-1.694026000000000
Mink and Coati,B26 3QL,52.452525520000000,-1.731643705000000
Vole and Gull,B93 8AW,52.381316400000000,-1.761648762000000
Fulmarine petrel and Myna,CV22 6SA,52.362897956565600,-1.279057230223660
River dolphin and Magpie,CV23 8ES,52.315337978824600,-1.355114686692310
Viscacha and Tree warbler,B37 5QA,52.477554450000000,-1.744168391000000
Logrunners and Solitaire,B36 0TX,52.502068200000000,-1.752143000000000
Viscacha and Old World vulture,CV1 2UF,52.399981153058600,-1.504179884563950
Scimitar babbler and Mouse,B46 3LD,52.496959000000000,-1.706805359000000
Kangaroo and Old World vulture,B24 0LN,52.526893090000000,-1.812083000000000
Night heron and Rat,CV6 4JD,52.445132698026200,-1.502775902631490
Magpie and Cuscus,CV10 0JE,52.530862164509400,-1.490207358576460
Mouse and Partridge,B33 9LT,52.489629250000000,-1.790592637000000
Parakeet and Partridge,LE10 0RA,52.553900920733400,-1.373482332507690
Chicken and Dolphin,CV22 6DH,52.365229887573100,-1.279621418964920
Warbler and Wader,B91 3YN,52.404601540000000,-1.785541620000000
Perching duck and Solitaire,CV4 8LG,52.388620693445000,-1.586886233661330
Egret and Argus,B76 2RZ,52.548879810000000,-1.789485252000000
Booted eagles and Guillemot,B26 3RB,52.455438080000000,-1.774670143000000
Vole and Solitaire,CV2 1QA,52.448650603217400,-1.476325052660780
Bronzewing pigeon and Bunting,B90 3EG,52.405615090000000,-1.816228941000000
Fox and Lemming,LE10 2EE,52.526592086356200,-1.350346000000000
Bronzewing pigeon and Old World vulture,CV3 6RB,52.375377433309100,-1.506908457516730
Logrunners and Duck,CV6 4FN,52.442885382128600,-1.520249455682090
Night heron and Lemming,B26 2JX,52.467587550000000,-1.796747035000000
Myna and Bronzewing pigeon,B90 3LF,52.414733590000000,-1.812133240000000
Kite and Boto,CV11 6US,52.507916033693400,-1.445387969013610
Kestrel and Viscacha,LE9 4LG,52.537445361605100,-1.286965338592750
Meadowlark and Francolin,CV3 6HX,52.395740233333600,-1.513427197381610
Crow and Marmoset,CV8 2SG,52.351964230368400,-1.563399583036310
Chicken and Jerboa,B91 3DX,52.414780970000000,-1.777244261000000
Black jay and Black cockatoo,CV7 7EG,52.392823355515600,-1.646465264134830
Jerboa and Crow,CV10 0DF,52.529787079965300,-1.456669501763820
Tattler and Perching duck,CV23 0RE,52.444602067115700,-1.318610861410410
Badger and Diving bird,CV10 7JX,52.516061314126900,-1.485279825819660
Rabbit and Darwin's finches,B75 7HG,52.567692690000000,-1.792950887000000
Parrotbill and Meadowlark,CV11 4JU,52.522953997535200,-1.462590000000000
Grouse and Chicken,B92 8PF,52.441529640000000,-1.783847317000000
Asiatic leopard and Solitaire,B76 1BP,52.557993450000000,-1.809516736000000
Francolin and Elephant,CV10 9PN,52.522406795139100,-1.560813720147870
Nukupuʻu and Skunk,CV10 0EP,52.537260214474800,-1.467104096981410
Philippine hawk-owl and Solitaire,B90 4EL,52.383472000000000,-1.793166000000000
Badger and Petrel,B26 3HU,52.455562430000000,-1.783499094000000
Bunting and Old World vulture,LE10 3BZ,52.537286000000000,-1.411536000000000
Snipe and Asiatic leopard,CV6 4LJ,52.446743456073400,-1.503140317321830
Wallaby and Asiatic leopard,CV6 2HW,52.442245820276000,-1.524390369978770
Black cockatoo and Masked owl,CV5 6RE,52.398043570715700,-1.520485800617790
Armadillo and Ice seal,CV32 7DL,52.308332506701300,-1.523317884545010
Nukupuʻu and Nukupuʻu,CV22 5QL,52.356178800413100,-1.227290687376320
Tattler and Elephant,CV4 7LB,52.371190550744500,-1.555161126441290
Mink and Nukupuʻu,CV8 2BL,52.345068664107900,-1.570748423238830
Skunk and Grackle,CV4 7BU,52.386106835427600,-1.548458241890540
Argus and Asiatic leopard,B91 1HL,52.419462270000000,-1.812069060000000
Chicken and Grosbeak,CV3 2RZ,52.391416175101100,-1.444115462390710
Stint and Chipmunk,B92 9HH,52.445294030000000,-1.772941625000000
Lemming and Chicken,B78 1DN,52.588239000000000,-1.614445000000000
Scimitar babbler and Hawk,CV22 5PD,52.359636981910200,-1.264866455724080
Triller and Viscacha,CV8 1TF,52.366357871021500,-1.667354991675320
Grackle and Peafowl,CV23 0BU,52.383916119722800,-1.231758026273150
Polecat and Armadillo,CV2 2DG,52.426847476998900,-1.436728581924110
Marmoset and Bunting,LE10 2JT,52.524853269241000,-1.363194789473460
Parrotlet and Myna,B37 6EG,52.492219560000000,-1.753818737000000
Mockingbird and Boto,LE9 8NJ,52.568138453818900,-1.344155624149320
Old World vulture and Meadowlark,B46 1BP,52.499633070000000,-1.712487229000000
Polecat and Chipmunk,B91 1SU,52.426695800000000,-1.799008514000000
Recurvebill and Thicketbird,CV21 3UT,52.369444000000000,-1.244567000000000
Fish eagle and Logrunners,CV6 7JR,52.428876046707800,-1.477162315640820
Old World warbler and Minke whale,CV2 1UD,52.442990222674800,-1.473037821752900
Prion and Francolin,B36 9TA,52.511280960000000,-1.773191472000000
Night heron and Quetzal,CV5 6US,52.402092000000000,-1.546058547223240
Chickadee and Cloud rat,CV12 0GD,52.474222854197700,-1.498105179209600
Hawaiian honeycreeper and Grouse,CV21 2DZ,52.371336255667500,-1.268226857608250
Polecat and Perching duck,B92 0DS,52.441135000000000,-1.723136000000000
Dorcopsis and Quetzal,B93 8QS,52.370922380000000,-1.756534534000000
Pratincole and Myna,CV1 2EB,52.404535088464400,-1.511743000000000
Piping shrike and Lemming,CV6 2FL,52.438074159162900,-1.531084294798120
Minke whale and Gull,CV8 3JN,52.377702875828300,-1.394046962293400
Stilt and Solitaire,B90 4SB,52.400616750000000,-1.805079440000000
Tit-tyrant and Zebra,B92 9AU,52.449908880000000,-1.774492330000000
Nukupuʻu and New World blackbird,B46 3EP,52.487379670000000,-1.705144847000000
Songlark and American sparrow,CV3 5LE,52.390905063837900,-1.498726988759990
Armadillo and Grosbeak,LE9 4ED,52.551385893446300,-1.277566052755920
Towhee and Fulmarine petrel,CV8 1GR,52.333930751983600,-1.583594651770120
B and White ibis,CV3 6RD,52.376015953055500,-1.506960108190150
Night heron and Siskin,B33 8JR,52.480623140000000,-1.791636600000000
Chicken and Asiatic leopard,CV2 1QN,52.448377906838100,-1.477681946368340
Francolin and Petrel,CV6 4BD,52.434542243544400,-1.511382183907460
Coati and Bunting,CV22 6QB,52.342941629180700,-1.289818391617960
Night heron and Zebra,CV2 3EG,52.419695149156700,-1.472668460674110
Pratincole and Meadowlark,CV22 7HJ,52.363913501719100,-1.295400648447650
New World blackbird and Meadowlark,LE10 1NZ,52.545758000000000,-1.371966000000000
Macaw and Bronzewing pigeon,CV11 4DX,52.522628134461800,-1.465910408335360
Capuchin and Peafowl,CV22 6NH,52.337693000000000,-1.291414000000000
Wader and Snipe,B46 3EZ,52.491489270000000,-1.705618139000000
Fulmarine petrel and Grackle,CV21 1UL,52.390084744735700,-1.236118093162370
Hawk and Pitohui,CV12 9BX,52.485394820758700,-1.466655781978040
Piping shrike and Armadillo,LE9 6TH,52.548931000000000,-1.278757000000000
Black cockatoo and Dorcopsis,B36 9JX,52.509117540000000,-1.756656472000000
Parakeet and River dolphin,LE10 9GJ,52.539777000000000,-1.373113000000000
Mink and Treepie,CV6 2PH,52.438019000000000,-1.521608038631310
Gull and Old World warbler,CV5 6LH,52.403992586588200,-1.533356379606070
Mink and Kestrel,CV9 1JD,52.579238378493300,-1.534214202657540
Kangaroo and Maya,CV11 6NA,52.506748086537300,-1.436032337470800
Black cockatoo and Philippine hawk-owl,CV10 9FQ,52.529497000000000,-1.507263000000000
Fish eagle and Maya,CV11 5EJ,52.529407070920700,-1.474053571733900
Lemming and Chipmunk,CV5 8HW,52.418671082658500,-1.548963982111030
Ground sloth and Grosbeak,LE9 4HE,52.553644203275200,-1.280818012447170
Old World warbler and Night heron,B91 3PQ,52.405449000000000,-1.796239475000000
Hawaiian honeycreeper and Parrotbill,CV4 8BZ,52.393425538964000,-1.577862529215680
Songlark and Chipmunk,CV6 1EE,52.418802000000000,-1.531583000000000
Chipmunk and Magpie,CV7 7BX,52.396564162191700,-1.626286643633420
Old World vulture and Treepie,CV10 9EG,52.534445784202600,-1.508549712368150
Flameback and Solitaire,CV4 9AH,52.409612121817700,-1.599803337398210
Rat and Prion,B92 9JU,52.428284890000000,-1.763763591000000
Pratincole and Scimitar babbler,CV21 1LQ,52.388146610556400,-1.242293567136540
Logrunners and Vulture,B90 4QN,52.397791000000000,-1.808133482000000
New World blackbird and Quetzal,B33 8EJ,52.483874680000000,-1.805846009000000
Booted eagles and Cloud rat,B37 6PH,52.488213680000000,-1.742840102000000
New World blackbird and Diving bird,CV21 9PD,52.379813697463100,-1.250428259812030
