name,postcode,lat,lon
Mockingbird and Rabbit,SK9 2NR,53.333091722199700,-2.211794343249320
Armadillo and Magpie,SK10 3AG,53.266673768175800,-2.130728576554560
Marsh harrier and Pitohui,SK10 2HW,53.277481403517700,-2.119169152167130
Old World quail and Buzzard,SK6 2NX,53.418564006933000,-2.113154364142990
Fulmarine petrel and Maya,SK8 5PX,53.384759790112800,-2.183876509732880
Perching duck and Tit-tyrant,M19 1DS,53.427346344279100,-2.201352283829630
Siskin and Triller,SK12 1QZ,53.349433515022700,-2.121533316194740
Shearwater and Scimitar babbler,SK23 7DT,53.320794817169300,-1.995802213716840
Black cockatoo and Crow,SK4 4NA,53.421863027537600,-2.178995868750280
Dolphin and Chickadee,M23 0LG,53.411567829552700,-2.282860575835610
Dorcopsis and Parrotbill,SK10 5QQ,53.296562604861100,-2.091061000000000
Chipmunk and Vulture,SK3 0SL,53.398124299756300,-2.190566445684370
Bronzewing pigeon and Tattler,SK9 4BZ,53.339283219957200,-2.227354095146080
Treepie and Hawaiian honeycreeper,SK4 4QS,53.427156425928400,-2.179559913319440
Rabbit and Black jay,SK6 2QU,53.428621098905200,-2.123294639466540
Piping shrike and Jay,M19 1UD,53.420834000000000,-2.214622412639480
Herring gull and Fish eagle,SK12 1EA,53.352773851294000,-2.140967750897900
Cuscus and Skunk,SK2 7AY,53.387298025433700,-2.141878855471340
Greenbul and New World blackbird,SK8 7JG,53.374984547885600,-2.186855568016820
Parrotlet and Fish eagle,M23 1BZ,53.396921853561400,-2.280447000000000
Snipe and B,SK17 6AZ,53.258590278085100,-1.915730794924300
American sparrow and Cuscus,SK23 0RA,53.325373626800000,-1.906321562800000
Greenbul and Treepie,SK10 5HY,53.292806414335600,-2.110675704438960
American sparrow and Marsh harrier,SK8 6DW,53.376541948939000,-2.201939000007280
Elephant and Night heron,M21 7UF,53.434479773215700,-2.254880697268460
Grosbeak and Tahr,SK10 3AN,53.269091154562600,-2.139177466269820
River dolphin and Piping shrike,M19 1GU,53.430573729078600,-2.195648339923230
Tree warbler and Moluccan boobook,SK8 1HL,53.387925381520200,-2.215149020036900
Diving bird and Snipe,SK14 5LP,53.436139036034000,-2.060427041145530
Grackle and Badger,SK10 4AX,53.292441575037300,-2.168792358091620
Lemming and Condor,SK8 7EQ,53.367753875213800,-2.183532660414090
Hawk and Kite,SK2 6RG,53.397320932196200,-2.155763005947380
Wallaby and Civet,SK23 7HZ,53.327157752452800,-1.983460018785630
Vole and Thicketbird,SK8 4RH,53.381403780281200,-2.227458387504930
Solitaire and Mouse,M22 0HB,53.369546214928100,-2.259076410859300
Night heron and Cuscus,SK23 9TS,53.320246274800000,-1.919077470061960
Eagle and Booted eagles,SK9 2RF,53.330490586095200,-2.213703405357420
Scimitar babbler and Siskin,SK6 3EL,53.408868101811000,-2.110240337975340
Petrel and Stilt,SK8 5LX,53.379079076228500,-2.189564316383910
Partridge and Ground sloth,SK17 6AD,53.262866338250800,-1.912124431318320
Stint and Grouse,SK9 4BN,53.337829953344000,-2.225829549025560
Cuscus and Rat,SK7 4JE,53.380055341261000,-2.114886010464810
Francolin and Rabbit,SK6 5HF,53.409670953346300,-2.053935843254620
Philippine hawk-owl and Vulture,SK3 8RE,53.388602869322000,-2.161865713373410
Tit-tyrant and Ice seal,SK6 5JQ,53.420957470781400,-2.038812764338660
Hawk and Mink,M14 6TH,53.436779211001400,-2.209525420264150
Elephant and Hawaiian honeycreeper,SK10 2JX,53.278563006722000,-2.125051029756580
Philippine hawk-owl and Myna,SK8 5NG,53.383012762796000,-2.191641440820600
Old World warbler and Marmoset,SK9 7PY,53.304221485572200,-2.234985785983200
Tit-tyrant and Nukupuʻu,SK6 5PQ,53.394070421816800,-2.045314479130020
Dorcopsis and Boto,SK23 9UR,53.312970000000000,-1.911737000000000
Chickadee and Kite,SK2 7DQ,53.387716140773900,-2.137925928802370
Tattler and Grackle,SK9 7EU,53.299704165762000,-2.237496727370440
Fish eagle and Stilt,M22 4AL,53.403208288877700,-2.263296988119710
Ibex and Solitaire,M22 4LB,53.402064183771300,-2.251994484804450
Ground sloth and Rat,SK10 3HE,53.266459879571400,-2.158779577100890
Linsang and Minke whale,SK1 4JB,53.403516486759900,-2.139270646334120
Kangaroo and Piping shrike,SK9 7HB,53.298814291078100,-2.237491785298460
Badger and Marmoset,SK14 5LD,53.433932326372100,-2.068762556497290
Armadillo and Jerboa,M22 0LN,53.367140190704900,-2.253531414234600
Old World vulture and Guillemot,M20 6EU,53.419578358939500,-2.217776614830610
Perching duck and Old World vulture,M20 2LA,53.426515393437100,-2.242191721709120
Thicketbird and Fish eagle,SK6 6JD,53.397539962112100,-2.079621887397970
Petrel and Thicketbird,SK8 1HZ,53.382968239041500,-2.207501873983430
Macaw and Magpie,SK5 7QY,53.421075609244400,-2.157339626738970
Tit-tyrant and American sparrow,SK3 9DG,53.401672088629700,-2.161990590789790
Guillemot and Old World vulture,SK3 9EP,53.404628313583300,-2.169191628101940
Francolin and Old World quail,M20 6LB,53.415706588840800,-2.221412824776800
Dolphin and Partridge,SK6 2EX,53.416686067613200,-2.121605021346900
Asiatic leopard and Jerboa,SK5 7BP,53.434421869421400,-2.158623255509250
Kākāriki and Warbler,SK3 9NQ,53.400331640056300,-2.175506350528420
Diving bird and Quetzal,SK8 6SG,53.370037561570200,-2.205229656406170
Civet and Bronzewing pigeon,SK6 5AU,53.396579000000000,-2.046265000000000
Pitohui and Tattler,M21 8ER,53.434690092127900,-2.273561541897340
Pratincole and Perching duck,SK13 6JN,53.435369338529200,-1.972460672466130
Maya and Cloud rat,SK17 6SR,53.262499192280700,-1.927626363957930
American sparrow and Jackal,SK9 7QF,53.306273804340600,-2.238058460308850
Asiatic leopard and Argus,SK2 5RE,53.395315457262100,-2.126235854529420
Mamo and Egret,SK22 4PW,53.359139900157600,-1.988195849518400
Perching duck and Tit-tyrant,SK6 1EZ,53.422917095696700,-2.100164610045660
Goose and Tattler,M21 7GH,53.430246366246800,-2.267121479535210
Jackal and Night heron,SK10 4UP,53.270493000000000,-2.231845000000000
Masked owl and Grouse,SK6 5ER,53.404494218980500,-2.052440171501140
Dorcopsis and Mouse,M22 1GH,53.374124362969200,-2.269911279297570
Tree warbler and Old World quail,M20 2UQ,53.417373809791900,-2.242305227243100
Tahr and Coati,SK6 3BE,53.413480000000000,-2.100804674358210
Black cockatoo and Parakeet,M22 9RT,53.384902982947300,-2.273302130497000
Triller and Armadillo,SK7 3NL,53.374770779081500,-2.173672545772380
Recurvebill and Darwin's finches,SK8 3HA,53.367844202954200,-2.225221975334630
Puffleg and Black jay,M22 9HD,53.389185823053900,-2.271435053024810
Darwin's finches and Francolin,SK10 2NG,53.272164885693200,-2.114251015923310
Eagle and Grackle,SK8 6NU,53.361503362373200,-2.196939201759670
Maya and Moluccan boobook,M19 1HE,53.430145000000000,-2.200086000000000
Prion and Parakeet,SK17 7EE,53.262515463171600,-1.900266888173810
Tattler and Tahr,SK13 6XA,53.437017380722600,-1.953478011766570
Nukupuʻu and Rabbit,SK8 1NW,53.389174912309300,-2.220011945406940
Coati and Greenbul,SK6 7DT,53.387326135151400,-2.052268613050760
Quetzal and Moluccan boobook,SK10 3EG,53.270254237612700,-2.157953982822160
Siskin and Cloud rat,SK3 9QN,53.397629037993500,-2.167193722012420
Bronzewing pigeon and Tree warbler,SK1 3JL,53.399477521714700,-2.149258755046250
Boto and Eagle,M23 0LF,53.410762711220300,-2.281230520641930
Mockingbird and Parrotlet,SK10 9NQ,53.262303000000000,-2.124311000000000
American sparrow and Chicken,SK8 9FW,53.393134000000000,-2.217761000000000
Coati and Meadowlark,SK8 5JA,53.386896633077200,-2.202048200890350
Thicketbird and Snipe,M19 2LX,53.434556106235300,-2.206052517235090
Black cockatoo and Jay,SK8 1LJ,53.385786992066500,-2.219588519009250
Peafowl and Dolphin,SK7 5JJ,53.373327751383000,-2.143545803026880
Buzzard and Bunting,M23 1BU,53.399146000000000,-2.279123000000000
Parrotbill and Jerboa,M21 8EX,53.432972167456900,-2.274047197287910
Mouse and Maya,SK9 3QR,53.353189417274300,-2.212329753108010
New World blackbird and Viscacha,SK10 4BL,53.280789886196300,-2.150373965786380
Pheasant and Moluccan boobook,SK7 2PE,53.362802521566000,-2.164096895005980
Skunk and Solitaire,SK9 7DA,53.298853761298800,-2.235572000000000
Marsh harrier and Perching duck,SK4 4BQ,53.424092159848700,-2.184904168897930
Kestrel and Polecat,SK23 7RY,53.333387713229700,-1.991371243250080
Vole and Kestrel,SK8 5BL,53.379664595458000,-2.188770191958350
Tree warbler and Scimitar babbler,M22 4QN,53.387885305296600,-2.253820170103200
Fish eagle and Peafowl,SK4 1RY,53.415765804099900,-2.162239818330600
Bronzewing pigeon and Vole,SK8 4EN,53.392668589693700,-2.235638597733790
Dolphin and Ground sloth,SK2 5UH,53.394611297391600,-2.101180690880730
Eagle and White ibis,SK8 5EW,53.381127219775300,-2.201299263527500
Guillemot and Mockingbird,SK8 3GL,53.393116044966900,-2.217761652051020
Civet and Wallaby,SK7 3JS,53.379518292705100,-2.166295874138050
Asiatic leopard and Macaw,SK9 3RT,53.355406907311700,-2.213843195213030
Jay and Magpie,SK8 7LG,53.364194154365100,-2.189423016226150
Badger and Hawk,SK5 8LL,53.434997000000000,-2.136512000000000
Greenbul and Gull,SK9 5JG,53.320763503356900,-2.242567693508120
Armadillo and Rat,SK4 5EQ,53.428327593856300,-2.171648677390190
Tahr and Fox,M22 0NT,53.373584475127300,-2.262107037696720
Grackle and Buzzard,SK23 7JG,53.321485958864500,-1.983897528887340
Jerboa and Peafowl,SK17 1SY,53.262281000000000,-1.912304000000000
Solitaire and Rabbit,SK11 0AB,53.264747000000000,-2.086705000000000
Prion and Polecat,SK17 6XB,53.257985340236000,-1.925205593089270
Ground sloth and Cloud rat,SK10 2BY,53.267244818652900,-2.117551353513640
Mink and Asiatic leopard,SK23 7JS,53.319113110337800,-1.985174367957280
Myna and Grosbeak,SK5 7NE,53.428451994947100,-2.159744778984460
Wader and Minke whale,M20 2NW,53.423786985159600,-2.244583908358540
Flameback and Masked owl,SK10 2AW,53.265007163253100,-2.125805990702980
Boto and Chipmunk,SK3 9DJ,53.401152369174000,-2.167327876184380
Fish eagle and Piping shrike,SK8 2PS,53.388613618757600,-2.201951090936560
Badger and Coati,SK3 8UN,53.394849678168800,-2.168536228100220
Hawk and Elephant,SK10 5JR,53.297820000000000,-2.104807000000000
Minke whale and Egret,SK23 0LY,53.316739367843600,-1.917147730899730
Parrotlet and Fox,M19 2NQ,53.435197557350500,-2.198830566575770
Parrotbill and Goose,M20 6HH,53.418988000000000,-2.221656000000000
Shearwater and Gull,SK10 4ES,53.289343000000000,-2.139708000000000
Parrotbill and Tit-tyrant,SK8 5GB,53.383739000000000,-2.198063000000000
Nukupuʻu and Marsh harrier,SK7 2PT,53.370165400100000,-2.163223479025120
Tree warbler and Parrotbill,SK3 8TQ,53.385516372556100,-2.150758405987000
Coati and Rabbit,M21 7AL,53.430502324327500,-2.277071509943900
Gull and Polecat,SK14 5LA,53.435280852639800,-2.068328227553950
Night heron and Peafowl,SK9 7UT,53.301546888249600,-2.241948494434230
Parrotlet and Night heron,M20 6RA,53.417854081123100,-2.231294224121190
Mockingbird and Petrel,SK9 1LD,53.326368767789100,-2.230843647344190
American sparrow and Booted eagles,SK6 3JB,53.406251447923400,-2.101223420976190
Condor and Logrunners,SK23 7RR,53.334619096273100,-1.990515047939090
Fulmarine petrel and Masked owl,M20 3RA,53.426384995515000,-2.230889105939670
Darwin's finches and Mole,SK4 3BQ,53.414850208766700,-2.212892889423150
Rabbit and Eagle,SK10 2RX,53.265629263534000,-2.115073138651280
Warbler and Wader,SK17 1SH,53.262281000000000,-1.912304000000000
Tahr and Tit-tyrant,SK1 4DH,53.408048581404700,-2.145242347287860
Moluccan boobook and Kestrel,SK6 2DH,53.414589028480300,-2.124231885422130
Petrel and Thicketbird,SK10 1GF,53.260474081004100,-2.119751380043050
Booted eagles and Shearwater,SK12 2NG,53.358126802207800,-2.061382929454700
Capuchin and Partridge,SK8 2HX,53.392876459736200,-2.200617940550850
Civet and Polecat,SK9 2RQ,53.331853534073900,-2.220362000000000
Solitaire and Grouse,SK10 4SJ,53.288458814534800,-2.198432774116970
Tit-tyrant and Perching duck,SK23 6EB,53.341123488555900,-1.944600472515080
Magpie and Triller,M19 2NN,53.436883068022100,-2.201412472977720
Old World warbler and New World blackbird,SK23 7NQ,53.334157044496800,-1.968891270252110
Ground sloth and Parakeet,SK22 4NG,53.363699000000000,-1.999089000000000
Towhee and Kangaroo,SK9 3PW,53.350297843883000,-2.210768071812780
Philippine hawk-owl and Mockingbird,M20 6UQ,53.415179876595000,-2.233656830587050
Minke whale and Nukupuʻu,SK10 3LN,53.258605955400100,-2.163742152746930
Stilt and Skunk,SK8 5DS,53.377430825980000,-2.197163089787820
Thicketbird and Jackal,SK5 8NN,53.430492288046400,-2.138245236755080
Marmoset and Ibex,SK7 5QL,53.377360346170700,-2.146250077610510
Grackle and Ice seal,SK9 6BS,53.318366590095800,-2.254037563044490
Macaw and Recurvebill,SK6 3AS,53.412069334754800,-2.098484214295090
Mole and Goose,SK6 8EN,53.365269932029400,-2.066622817029300
Scimitar babbler and Lemming,SK8 7JX,53.364789588402100,-2.188043142460820
Kite and Diving bird,SK3 9QE,53.396949610354300,-2.170920651287700
Diving bird and Booted eagles,SK23 9SU,53.320793868613700,-1.918025604959810
Fish eagle and Logrunners,SK22 3BL,53.366377000000000,-2.003131624507460
Dorcopsis and Herring gull,SK6 1QU,53.428038378108900,-2.102720071425960
Old World warbler and Stilt,SK8 6BY,53.374123000000000,-2.208285000000000
Capuchin and Wader,SK9 1LN,53.322453000000000,-2.230010160579780
Ground sloth and Bronzewing pigeon,SK10 5DW,53.295596510505500,-2.096204979656810
Grosbeak and Warbler,M19 1PB,53.431431821644600,-2.198557103813870
Pheasant and Parakeet,SK10 9QZ,53.260670778400000,-2.125133896400000
White ibis and White ibis,M22 4EP,53.410449398576100,-2.256737658020160
Booted eagles and Bunting,SK2 5TS,53.401985702989700,-2.133805949700030
Treepie and Thrasher,SK9 6DB,53.317163017361400,-2.257798084269970
Snipe and Puffleg,M22 4QX,53.389573587849700,-2.250311771398010
Kangaroo and Stilt,SK10 4AD,53.272755376839300,-2.156238783947490
Zebra and Jerboa,SK2 5UW,53.389069356400300,-2.106881159478880
Kangaroo and Pheasant,M22 4PT,53.389293899724100,-2.255046475307020
White ibis and Wallaby,SK6 4EZ,53.413840973391200,-2.072145154998420
Marsh harrier and Viscacha,SK6 7BJ,53.392086780820800,-2.059296736617170
Philippine hawk-owl and Elephant,SK9 6DN,53.318345793293500,-2.263419000000000
Jay and Songlark,SK1 1NA,53.411249225301000,-2.158777587661430
Gull and Logrunners,SK6 8BY,53.361825906826600,-2.069051686020340
Ground sloth and Ice seal,SK8 5DR,53.376911275529200,-2.196078408811760
Mole and Chipmunk,SK10 4HS,53.290894431454300,-2.149419413167440
Cloud rat and Myna,M20 6HN,53.417371998597700,-2.224866999691970
B and Tattler,SK8 5EL,53.381537540877100,-2.197813482170530
Lemming and Bunting,M22 4WD,53.407359567129800,-2.255967000000000
Chicken and Tree warbler,SK7 3HB,53.381466352431300,-2.161552972658650
Wader and Kākāriki,SK6 3BY,53.415321036467300,-2.111144729049670
New World blackbird and Fish eagle,SK6 7LW,53.387311956756000,-2.062973716248150
Tattler and Macaw,SK8 7DX,53.367804248749200,-2.179971138787800
Booted eagles and Kākāriki,SK11 6LP,53.258733556534900,-2.125277877358680
Partridge and Night heron,M20 5PA,53.407330112828700,-2.220948090723970
River dolphin and Grouse,M21 7QF,53.428347787919400,-2.263979206356790
Stint and Solitaire,SK9 2EW,53.338223824221900,-2.221911922980680
Mink and Night heron,SK8 7HW,53.370939699991600,-2.186837841887350
Fish eagle and Tit-tyrant,M20 1PJ,53.436575428278700,-2.241270553087330
Rabbit and Civet,M22 1WP,53.370620953148700,-2.268957285512450
Tit-tyrant and Linsang,SK7 5FU,53.407561000000000,-2.161562000000000
Fulmarine petrel and Linsang,M20 3DL,53.431245435100000,-2.232104489787850
Perching duck and Masked owl,SK23 7EZ,53.316002157801600,-1.979261404618610
American sparrow and White ibis,SK8 6SR,53.368814394172000,-2.205644576423970
Asiatic leopard and Dorcopsis,SK6 8EU,53.363880159027000,-2.060128962618530
Viscacha and Cloud rat,SK8 7DB,53.373771012053200,-2.181078524713370
Asiatic leopard and Parrotlet,SK23 6DT,53.336444981037200,-1.920758894559350
Piping shrike and Black cockatoo,SK6 7ND,53.392207360000000,-2.076228823600000
Marsh harrier and Parrotbill,SK17 6RN,53.267228872774000,-1.916283603469280
Wallaby and Piping shrike,SK17 6DL,53.259179059231200,-1.909598603661470
Piping shrike and Goose,SK7 2PQ,53.364772607327600,-2.162947369782140
Grouse and Shearwater,M20 4SD,53.431886448988000,-2.221150828959190
White ibis and Fish eagle,SK8 5GA,53.383793462397400,-2.198064000000000
Petrel and Scimitar babbler,SK8 3GX,53.378460704988400,-2.224721859478040
Pitohui and Booted eagles,SK12 1NR,53.347801582777900,-2.117547998143260
Polecat and Boto,SK12 1EY,53.350994586735600,-2.124392042231610
Kestrel and Buzzard,SK3 9BT,53.400537491498200,-2.169912333334990
Rabbit and Zebra,SK4 2RR,53.419630000000000,-2.170019611117650
Cloud rat and Marmoset,SK2 7HN,53.386495000000000,-2.129502000000000
Goose and Black cockatoo,SK2 6HY,53.396380178883600,-2.153413560476760
Ground sloth and Piping shrike,M20 6AB,53.424142865145400,-2.232938562221280
Snipe and Viscacha,SK4 1TF,53.417804012054000,-2.163722000000000
Coati and Crow,SK8 5PR,53.386160200544400,-2.179161595106440
Stint and Tattler,SK10 5US,53.291157000000000,-2.070782000000000
Pitohui and Black jay,M22 9WH,53.387357187294800,-2.265198777993130
Magpie and Philippine hawk-owl,SK9 2EJ,53.328943000000000,-2.204280000000000
Macaw and Nukupuʻu,M19 1EH,53.433601342801800,-2.201953847455130
Chickadee and Greenbul,M19 1HS,53.433521226176200,-2.196098391030330
Kākāriki and Lemming,M20 2FG,53.417664552883500,-2.236273427107200
Ibex and Logrunners,SK10 2US,53.276939829058200,-2.137898309845300
Dolphin and Snipe,SK6 7BE,53.391149675012500,-2.063731235653210
Tahr and Dorcopsis,SK22 3HN,53.362789775153900,-2.003567122180930
American sparrow and Civet,SK9 1BR,53.328595847221600,-2.227267178150590
Pratincole and Jerboa,M21 7DB,53.432133075428600,-2.263475893727660
Kestrel and Warbler,SK9 2TA,53.336896969207400,-2.215297000000000
Linsang and Grosbeak,SK7 5NH,53.369398584257800,-2.128819194992240
Old World warbler and Grosbeak,SK3 9HB,53.402807204168000,-2.166657544615480
Guillemot and New World blackbird,SK7 3DQ,53.376859955507400,-2.164256000000000
Vulture and Tree warbler,SK6 1LA,53.428031636574000,-2.088738930149750
Meadowlark and Kangaroo,M20 1DB,53.435928140073600,-2.241327092744970
Warbler and Tahr,SK11 8SB,53.256873820398000,-2.155207000000000
Old World warbler and Chipmunk,SK8 5PD,53.382756128162700,-2.189114625545450
Logrunners and Fulmarine petrel,SK6 2SR,53.431489017907100,-2.122972000000000
Logrunners and Mink,SK6 4DX,53.411737300588400,-2.086192581064580
Kestrel and Boto,SK2 7AR,53.388764992481500,-2.140335054149370
Siskin and Herring gull,SK4 4RH,53.426326982885300,-2.181211810084790
American sparrow and Darwin's finches,SK7 6AJ,53.371111780076100,-2.105047572848190
Dorcopsis and Fish eagle,SK8 5NU,53.387408282845400,-2.185902673111640
Vulture and Hawk,SK14 5SH,53.436004458221800,-2.075705100132190
White ibis and Dolphin,M23 0FJ,53.414593376325100,-2.280247000000000
Night heron and Mole,SK6 3EN,53.407011178502200,-2.106159081010910
Puffleg and Goose,SK3 8RH,53.387251608167200,-2.164040694507090
Pheasant and Argus,M20 4RQ,53.428596081888200,-2.216558568388980
Solitaire and Meadowlark,SK12 1NZ,53.342313253544300,-2.113702909458670
Fox and Nukupuʻu,SK10 1AT,53.261127170706200,-2.131206331239860
Jackal and Parakeet,SK3 0ST,53.398278428387900,-2.195304473553590
Polecat and Old World vulture,SK22 4LA,53.367921956346900,-1.990252374154050
Grackle and Parrotlet,SK8 7NJ,53.354484399589400,-2.184992970337510
Polecat and Perching duck,SK10 9QF,53.260670778400000,-2.125133896400000
Zebra and Mamo,SK8 3RN,53.374318373370600,-2.233342704093830
Parrotbill and Mockingbird,M22 8BR,53.395208854597400,-2.263112221849660
Crow and Parakeet,M22 1WG,53.372276202014300,-2.260250304709160
Mole and Kākāriki,SK10 9SL,53.260666295326100,-2.125133628583600
Chicken and Ground sloth,SK23 6BJ,53.338650207710300,-1.941480000000000
Prion and Prion,SK12 2BE,53.359153732921300,-2.033241896333550
Booted eagles and Thicketbird,SK9 3JB,53.352973226254000,-2.217571782525100
Hawaiian honeycreeper and Booted eagles,SK4 5EE,53.425894409144500,-2.169757747619550
Viscacha and Nukupuʻu,SK3 0LA,53.404532917839000,-2.179118553485320
Skunk and Myna,SK11 8FF,53.258587113098700,-2.135860467120400
Wallaby and Wallaby,SK9 3LT,53.347380330897200,-2.213682809772890
Pratincole and Meadowlark,SK8 3PW,53.361486000000000,-2.217630000000000
Night heron and Elephant,SK8 6NJ,53.359978050185900,-2.195264309227230
Polecat and New World blackbird,M19 1GT,53.422934811326400,-2.205544817286390
New World blackbird and Fox,SK10 9XL,53.260670778400000,-2.125133896400000
Perching duck and White ibis,SK3 0SD,53.390220587877600,-2.186621650470510
Old World quail and Towhee,SK8 5AP,53.376257985516200,-2.188725044394150
Asiatic leopard and Fulmarine petrel,M22 9GN,53.384613248791500,-2.270278363377440
B and Eagle,SK12 1SQ,53.354262910017200,-2.127736829661920
Argus and Flameback,SK10 3EB,53.272074484796500,-2.154511891470940
Asiatic leopard and Moluccan boobook,SK23 0QF,53.330874000000000,-1.911564000000000
Old World warbler and Tree warbler,SK6 7AW,53.393683186348200,-2.066050815051480
Civet and Grouse,SK4 3BB,53.411170450475700,-2.209760441984620
Rat and Mamo,SK10 2AT,53.265658930900000,-2.125718206900000
Old World warbler and Dolphin,SK10 5DJ,53.297287000000000,-2.107191000000000
Lemming and Gull,M22 0HY,53.368207122362400,-2.258978106778820
Stint and Pratincole,M22 8LH,53.391507656311900,-2.262157092497770
Minke whale and Shearwater,SK10 4DL,53.292074826942100,-2.147113256634920
Egret and Recurvebill,SK22 4NL,53.364785300081300,-1.998307729317430
Kangaroo and Piping shrike,M23 2YX,53.378452396832000,-2.283467659962540
Fox and Jay,SK9 1HT,53.326126540706800,-2.230602117696310
Dolphin and Lemming,M22 1GU,53.375689162717000,-2.277406737304520
Fulmarine petrel and Moluccan boobook,SK10 4ND,53.318781853883700,-2.130332659974470
Parrotlet and Guillemot,SK10 5BE,53.292160647888100,-2.098852567874600
Booted eagles and Meadowlark,SK3 9HG,53.403157693179200,-2.166704039025510
Skunk and Puffleg,SK12 2JN,53.359365588942400,-2.045292000000000
Flameback and Vulture,SK12 1DF,53.349815310826900,-2.107759146197490
Hawk and Shearwater,SK13 5DE,53.429296201655400,-1.997613262241740
Hawk and Night heron,M22 0EF,53.374053654425500,-2.257164835615020
Diving bird and Mouse,SK1 9SL,53.405973330062000,-2.158487156932000
Badger and Darwin's finches,M20 6LS,53.419435932701100,-2.231363004273220
Moluccan boobook and Guillemot,M22 4AB,53.400341998177400,-2.262813038987330
Warbler and Triller,SK23 0JT,53.326497549620600,-1.912204330316370
Moluccan boobook and Pheasant,SK6 7GE,53.378798123931000,-2.047117077071870
Tattler and Ice seal,SK10 5PU,53.298607749653300,-2.096181756497600
Partridge and Thicketbird,SK17 6BE,53.257973000000000,-1.918625000000000
Coati and Parakeet,SK4 3QU,53.426168245281200,-2.196320339725880
Jay and Petrel,M21 7WF,53.425421972625200,-2.266022744777230
Crow and Old World warbler,SK11 6RA,53.257623000000000,-2.130821000000000
Masked owl and Mole,SK8 3SY,53.378192464579100,-2.228703952559120
Tattler and Vole,SK8 2EX,53.396472544887800,-2.189220627362000
Hawaiian honeycreeper and Crow,SK7 2JJ,53.369352104137400,-2.159778730552030
Coati and Asiatic leopard,M20 1AY,53.435069796039900,-2.239064399483320
Minke whale and Grouse,M22 5GW,53.376395088548200,-2.255119642096950
Boto and Cloud rat,SK22 3EB,53.365324551708500,-2.003928010417510
Logrunners and Diving bird,M20 6SP,53.420779361569500,-2.224493772382850
Hawaiian honeycreeper and Dolphin,SK7 2HP,53.361739745799900,-2.159028944430750
Grouse and Perching duck,SK12 2JG,53.360293557877900,-2.038922530947750
Treepie and Warbler,SK8 3NG,53.364965000000000,-2.227475335181020
Goose and Songlark,SK22 4PX,53.359805459957800,-1.993634935523730
Macaw and Asiatic leopard,SK4 4PH,53.426125043935300,-2.183949866782390
Solitaire and Kangaroo,SK6 4BX,53.413965467682600,-2.087551121098920
Scimitar babbler and Vulture,SK6 4EQ,53.416621180350400,-2.081794119349920
Myna and Peafowl,SK9 7UU,53.303663764311500,-2.239709584989240
Nukupuʻu and Tit-tyrant,SK9 5AF,53.325549679300500,-2.236003897938340
Scimitar babbler and Macaw,SK6 4NS,53.417741984872900,-2.072166827436840
Tit-tyrant and Kākāriki,M22 0JX,53.370080182083700,-2.257396377299630
Cloud rat and Stint,SK9 4BP,53.338006898895600,-2.227317263583040
Guillemot and Elephant,SK10 9PJ,53.262303000000000,-2.124311000000000
Badger and Treepie,SK1 4EW,53.405157114090600,-2.142885994372740
Condor and Snipe,SK4 2BN,53.408534824220300,-2.195035612351900
Myna and Night heron,SK8 6BA,53.376939721001800,-2.195176640549220
Mole and Badger,SK10 2EB,53.266424403206300,-2.128598829500840
Booted eagles and Buzzard,M20 4QP,53.431342908381700,-2.223420682023470
White ibis and Dolphin,M34 7NH,53.435840999601900,-2.102031470579360
Duck and Thrasher,SK9 2EH,53.329035682600000,-2.205723000000000
Snipe and Triller,SK6 7FX,53.390203000000000,-2.067713000000000
Parakeet and American sparrow,SK22 1DJ,53.383764291285800,-1.965412636161750
Herring gull and Capuchin,SK5 8AN,53.423050392194300,-2.137724468651450
Zebra and Wader,SK3 8UQ,53.394523655503800,-2.170249251906260
Crow and Mouse,SK11 6JU,53.260901943141000,-2.123275443816230
Marmoset and Warbler,M22 0LQ,53.366412184483100,-2.253497031857250
Snipe and Pheasant,SK6 1ES,53.425101694392100,-2.099703251220090
Argus and Parrotbill,SK3 9NZ,53.403341993235000,-2.182046529953220
Parrotlet and Chicken,SK12 1FG,53.353084111752300,-2.120341862902030
Warbler and Ground sloth,SK6 5LY,53.395280928521500,-2.024939161995750
Mouse and Moluccan boobook,M20 2FF,53.418496709462900,-2.238173880606210
Egret and Jerboa,SK9 3EN,53.347071284366800,-2.215588948526430
Coati and B,SK22 3AH,53.373822322103500,-2.036049085044420
Dolphin and Pheasant,SK2 5NR,53.390151335962300,-2.122100600625550
Mink and Snipe,SK10 9NX,53.262303000000000,-2.124311000000000
Songlark and B,SK7 2DT,53.359606000000000,-2.162507000000000
Crow and Gull,SK7 6DN,53.367654819832300,-2.110930166900020
Viscacha and Logrunners,M22 9XG,53.385191828185900,-2.256570495595270
Condor and Flameback,SK9 1DD,53.324281142580300,-2.222575136150920
Hawaiian honeycreeper and Jay,SK6 3EE,53.409519486372200,-2.105593702954030
Parrotbill and Asiatic leopard,SK5 7WG,53.407560178160100,-2.161561721257650
Marsh harrier and Old World vulture,SK4 4BY,53.418633291727900,-2.192373535784840
Buzzard and Towhee,SK8 5AS,53.376405514730200,-2.186365758060580
Thicketbird and Rabbit,SK6 2TD,53.427773000000000,-2.108905000000000
Rabbit and Jerboa,SK7 3PG,53.378716230053700,-2.147382151297110
New World blackbird and Night heron,SK4 3RG,53.416777216563900,-2.210946584184680
American sparrow and Tattler,SK12 1PJ,53.353245465680300,-2.120777994019410
Francolin and Old World warbler,M23 2QH,53.391523559905800,-2.282742586975660
Cuscus and Mink,M90 4AG,53.367036155365700,-2.279950348736220
Philippine hawk-owl and Siskin,SK7 0DG,53.356378224700000,-2.165514781800000
Linsang and Snipe,SK3 8SY,53.387854683703100,-2.156735769449480
Dorcopsis and Rat,M22 5LF,53.368070000000000,-2.239019000000000
Badger and Old World quail,M22 1WU,53.380370372628300,-2.274325381654690
Capuchin and Mink,SK7 5HA,53.371769000000000,-2.140128425440450
River dolphin and Kestrel,M22 0BZ,53.375744253726200,-2.260962904693420
Vole and Mole,SK8 1AX,53.394785399279700,-2.214191152566960
Viscacha and Rat,SK6 5JD,53.415290000000000,-2.052679000000000
Bronzewing pigeon and Gull,SK9 3DU,53.347208551806200,-2.224016534253850
Polecat and Peafowl,SK10 5DP,53.292488766221700,-2.113900305767730
Badger and Stilt,SK8 7AY,53.375229655247200,-2.185308444470720
Mink and Badger,M22 4PE,53.392582009460500,-2.251622637069780
Zebra and Scimitar babbler,SK8 2JX,53.396957749048900,-2.200336385010460
Jerboa and American sparrow,M23 0DX,53.410725273483900,-2.270203325623940
Argus and River dolphin,SK3 8RW,53.388442126997300,-2.167608738422870
Condor and Crow,SK17 6FA,53.264711516559300,-1.915568876707520
Dorcopsis and Cloud rat,M23 1WJ,53.396169379368400,-2.283284714225710
Black cockatoo and Mole,M22 4TE,53.400751000000000,-2.257175000000000
Masked owl and Marsh harrier,SK6 3AT,53.414773323406900,-2.100356053798430
Argus and Jerboa,SK6 5EH,53.407282163376500,-2.048938756208530
American sparrow and Tattler,SK2 5PB,53.388401416242300,-2.119283911700720
Magpie and Rabbit,SK7 2JL,53.368766837335000,-2.160527975359380
Vulture and Masked owl,SK2 6LW,53.395307000000000,-2.148716000000000
Mouse and Old World warbler,SK6 2RF,53.431506000000000,-2.125034000000000
Stilt and Shearwater,SK8 1NB,53.391902349738700,-2.217890782356050
Jay and Mouse,SK4 3AR,53.412548113814100,-2.208383161540820
Stilt and Buzzard,SK3 9HD,53.402788342475000,-2.167289182439550
Fulmarine petrel and Tahr,SK9 7RX,53.310663000000000,-2.254576407099190
Bunting and Peafowl,SK3 0PW,53.398727114002300,-2.195757710532570
Greenbul and Kestrel,SK8 1DE,53.392711150252600,-2.217985141169960
Guillemot and Kangaroo,SK9 3SL,53.356525430390100,-2.211355000000000
Capuchin and Masked owl,SK23 7EG,53.321486932362200,-1.995426846730610
Eagle and Rabbit,SK3 0AT,53.406306000000000,-2.172146000000000
Viscacha and Night heron,M23 1WF,53.396355381612700,-2.284443916594230
Parakeet and Hawk,SK5 7NX,53.423051262376700,-2.158716291796640
Thicketbird and Zebra,M22 4UQ,53.407873000000000,-2.251397000000000
Zebra and Booted eagles,SK2 6BN,53.392035668008000,-2.141323234050080
Chipmunk and Old World quail,M20 2LH,53.424894133913000,-2.243822792198840
River dolphin and Fish eagle,SK6 8HL,53.362867925628800,-2.070180377805590
Wallaby and Meadowlark,SK8 3EE,53.368531983461500,-2.227509969491110
Wallaby and Recurvebill,M19 1NU,53.424171000000000,-2.208530000000000
Parrotbill and Night heron,SK9 4DU,53.336843782716700,-2.233813675357620
Crow and Petrel,SK9 2BX,53.331502891837600,-2.194713639979250
Perching duck and Jay,SK23 0UF,53.315697000000000,-1.918650000000000
Argus and Mink,SK6 7NR,53.390005632917800,-2.068225353095310
Thicketbird and Bronzewing pigeon,SK22 4BJ,53.369865000000000,-2.001674000000000
Tahr and Grouse,SK3 9RS,53.397044105498700,-2.180004423377760
Grouse and Herring gull,SK2 7PS,53.390865728525400,-2.134793491470340
Gull and Badger,M20 2PN,53.421354896968900,-2.242719115059840
Recurvebill and Peafowl,SK12 1PN,53.346516757579100,-2.116988681795910
Parrotlet and Puffleg,SK9 7BU,53.299578000000000,-2.224367000000000
Kite and Snipe,SK9 4AT,53.340195083600000,-2.245637000000000
Polecat and Greenbul,SK7 3LD,53.381136252617200,-2.166287154597870
New World blackbird and Stilt,SK4 5BH,53.434126669392200,-2.188530115392270
Stilt and Darwin's finches,SK6 5BX,53.402608729070200,-2.047429297317490
Piping shrike and Kestrel,SK10 1GB,53.262722140032800,-2.118888163445450
Jay and Viscacha,SK8 3BU,53.364718211487100,-2.219299719635180
Warbler and Bunting,SK9 4DE,53.338727186562200,-2.226690332849590
Meadowlark and Mink,SK11 6QJ,53.257998739212500,-2.131511526343800
Guillemot and Triller,M23 1FG,53.391246127844500,-2.286003714893670
Kangaroo and Elephant,SK2 6HT,53.397746860785900,-2.153087626639170
Cloud rat and Night heron,SK4 2LJ,53.414786749146200,-2.168223990679840
Bunting and Grackle,M20 6DF,53.421879476819500,-2.232053421960190
Songlark and Puffleg,SK7 4RZ,53.377735712493600,-2.105800476904670
Polecat and Elephant,SK2 7QT,53.392353000000000,-2.132452000000000
Armadillo and Chipmunk,SK13 6PY,53.436335732783700,-1.957467685451780
Eagle and Treepie,SK7 2EB,53.363587610116700,-2.161845874570010
Towhee and Coati,SK9 7GU,53.307862000000000,-2.234899000000000
Prion and Chickadee,SK3 0WT,53.394891109627400,-2.183469000000000
Rat and Tattler,SK3 8LL,53.392397821171700,-2.160556870000760
Rabbit and Siskin,SK8 3TS,53.378026643421600,-2.235392322948940
Coati and Mole,M22 9NR,53.385841101346500,-2.263851249250980
Hawaiian honeycreeper and Goose,SK9 4AH,53.334454894745300,-2.237299492901150
Towhee and Mouse,SK12 1DU,53.349440806529400,-2.146965521021660
Dolphin and Pitohui,SK10 4TY,53.289522068892500,-2.241235000000000
Grackle and Chipmunk,SK4 4QT,53.428161840249300,-2.180421989938930
Guillemot and Chipmunk,M19 1EE,53.434467681765900,-2.199910895401560
Hawaiian honeycreeper and Condor,SK3 9HE,53.402670540220200,-2.167965551684440
Condor and Grosbeak,SK10 1TH,53.260670778400000,-2.125133896400000
Partridge and Warbler,SK9 1QR,53.316104883270500,-2.239344061718380
Black cockatoo and Viscacha,SK4 5DE,53.427692217434300,-2.175890085424430
Kākāriki and Rat,M22 0BY,53.375995141842800,-2.261325192005450
Petrel and New World blackbird,SK7 5JW,53.372427476350900,-2.144715114751590
Elephant and Fox,M22 8LL,53.391276659379400,-2.260922660574020
River dolphin and Perching duck,M20 3FB,53.432694005589000,-2.231374875666370
Mouse and Night heron,SK7 2QF,53.356373690815600,-2.165514503877560
Grosbeak and Minke whale,M20 3JH,53.432351305380000,-2.231960009377570
Diving bird and Civet,SK13 7PN,53.430411322623200,-1.935168742263050
Peafowl and Cuscus,SK23 0LL,53.323171821978100,-1.912316225372250
Dolphin and Fish eagle,M19 1NX,53.424346461444500,-2.210548000000000
Parakeet and Black cockatoo,SK23 6AW,53.348139000000000,-1.919024512964010
Grackle and Maya,SK10 2WT,53.264918949566300,-2.115416000000000
Armadillo and Dorcopsis,SK3 9NN,53.400923082635000,-2.176727035771020
Egret and Treepie,SK4 5DL,53.429567884255700,-2.177869417121070
Fulmarine petrel and Jerboa,SK9 3BB,53.346308003757300,-2.210132513955820
Piping shrike and Tit-tyrant,M22 0NN,53.373609587819100,-2.262948899978160
Mockingbird and Jay,SK9 7DF,53.297499353000000,-2.227372220600000
Marmoset and Herring gull,M20 2WZ,53.423291041757100,-2.240939440832880
Towhee and Ibex,SK8 6EE,53.368737647995700,-2.192388835598270
Pitohui and Recurvebill,M20 1FU,53.433510000000000,-2.237430000000000
Siskin and Jackal,SK6 1EG,53.421070887052100,-2.104313285027150
Triller and Kite,SK10 4HP,53.290599000000000,-2.149298000000000
Chickadee and Zebra,SK4 5LZ,53.431560107313000,-2.173964509808670
Peafowl and Jay,SK2 7JY,53.386164063900000,-2.131320842900000
Nukupuʻu and River dolphin,M22 5QQ,53.378339267643300,-2.253883603855770
Tit-tyrant and Ibex,M23 0EU,53.414153438439600,-2.280365266041150
Duck and Capuchin,SK8 6RQ,53.359300000000000,-2.213788000000000
Bronzewing pigeon and Hawk,SK8 6BS,53.375323754222300,-2.204713980878290
Puffleg and Snipe,SK3 9ET,53.402379364407200,-2.170461144379170
Snipe and Jerboa,SK10 3AP,53.268545018805400,-2.137301490027530
Greenbul and Mole,M23 2YB,53.379997914870400,-2.283688391731800
Puffleg and Chipmunk,SK9 1PB,53.325124222589100,-2.232953818207940
Crow and Egret,SK7 2LN,53.364392388751000,-2.151359925449670
Viscacha and White ibis,SK9 4BA,53.334694985871200,-2.229447037448370
Black cockatoo and Myna,M23 1LX,53.392260722196200,-2.278882948221090
Tree warbler and Recurvebill,SK5 6TJ,53.436384000000000,-2.157291000000000
Maya and Thrasher,SK4 3NT,53.423852362359000,-2.199830934151230
Marmoset and Pratincole,SK9 3JP,53.352755686970400,-2.218562201230990
Warbler and Mamo,SK3 8RU,53.389909409656600,-2.159494956248450
American sparrow and Crow,M22 0LA,53.370224257726800,-2.257277012232830
Boto and Partridge,M23 1AP,53.398701815656000,-2.276624078523610
Siskin and Chipmunk,SK23 9SD,53.322714937374700,-1.928110380793990
Jay and Meadowlark,SK9 3DQ,53.351738000000000,-2.209272000000000
Mockingbird and Moluccan boobook,M20 1AN,53.437242773637800,-2.235674644970480
Ground sloth and Vulture,SK8 6BT,53.375916041479100,-2.205272982535400
Marmoset and Old World vulture,SK11 9BZ,53.273828722979700,-2.285218690430130
Chipmunk and Partridge,SK8 3JE,53.369444607001700,-2.229709074738650
Siskin and New World blackbird,SK10 5QX,53.299014922836300,-2.092806715777910
Kite and Pitohui,SK9 5EP,53.324661819249100,-2.239497088639450
Mamo and Old World quail,M20 6TQ,53.417541625544400,-2.234798239226700
Tree warbler and Piping shrike,SK8 7LP,53.361074883379700,-2.189559424521150
Minke whale and Thicketbird,SK4 4EW,53.415623584832000,-2.185785144598370
Cloud rat and Treepie,SK2 6PZ,53.394351956959300,-2.150909983615690
Grosbeak and Moluccan boobook,SK11 8TS,53.260725593776400,-2.151457752848790
Grackle and Argus,M22 0EL,53.370862377200600,-2.257310920119340
Jay and Linsang,SK10 3NW,53.262445644517500,-2.162662465072680
Philippine hawk-owl and Kestrel,SK6 7EA,53.389183368437100,-2.059503187119100
Chickadee and Ibex,M23 1JH,53.392690704000400,-2.283321743523970
B and Prion,M22 1QZ,53.376621408280900,-2.278510105172460
Logrunners and B,SK9 6EP,53.315999000000000,-2.260328000000000
Chickadee and Prion,SK10 9RN,53.260670778400000,-2.125133896400000
Macaw and Thrasher,SK12 1AY,53.348371871935800,-2.113418634581070
Scimitar babbler and Zebra,SK9 5AA,53.326228291377800,-2.233620000000000
Guillemot and Hawaiian honeycreeper,SK6 1BH,53.423638065303100,-2.097894046077180
Mamo and Kākāriki,SK3 8PU,53.386908528240700,-2.165136939918670
Kangaroo and Nukupuʻu,SK5 8JY,53.433828992542100,-2.136540190828300
Jay and Zebra,SK4 3JS,53.414509055097400,-2.191437160520340
Siskin and Tahr,SK8 2PQ,53.389144000000000,-2.202269000000000
Egret and Pheasant,SK6 5NF,53.403121548603300,-2.003615865935030
Pitohui and Old World quail,SK6 2BG,53.417605301365800,-2.127896866128400
Maya and Tree warbler,SK23 7QR,53.350061333895400,-1.987657503497300
Siskin and River dolphin,M22 8DR,53.393081000000000,-2.258197000000000
River dolphin and Dolphin,SK2 6SL,53.398246061630200,-2.156292760045310
Old World vulture and Argus,M22 4HU,53.403082894384300,-2.254813155034330
Old World vulture and Marsh harrier,SK10 4WD,53.268026000000000,-2.234035000000000
Goose and Hawk,SK7 3BT,53.376187899460400,-2.156422295795700
Herring gull and Stint,SK10 5RP,53.295562900190800,-2.080991813942200
Ibex and Viscacha,M20 4PN,53.433862000000000,-2.227498000000000
Logrunners and Egret,M23 2TS,53.382721157600000,-2.285796473100000
Coati and Guillemot,SK9 1NE,53.321184360968200,-2.234388507680060
Greenbul and Minke whale,SK22 3HS,53.363411000000000,-2.004243374357940
Kākāriki and Old World warbler,SK12 1QA,53.343800856347400,-2.108780000000000
Mole and Mink,SK10 5JX,53.298170317047200,-2.103563000000000
Old World quail and Ground sloth,SK23 7EP,53.320109762176300,-1.977998460017760
Fish eagle and Kite,SK10 2RP,53.267185599144100,-2.113742939290430
Scimitar babbler and Mockingbird,SK3 8LX,53.393837676505400,-2.172231473263840
Mouse and Treepie,M20 6UY,53.421847153426700,-2.234791890089190
Parrotbill and Booted eagles,M22 8DY,53.392878053649600,-2.260270823378260
Pitohui and Logrunners,M21 8EL,53.434085298551500,-2.278554863030450
River dolphin and Polecat,SK8 7RA,53.357102467747500,-2.183456782518530
Treepie and Ibex,M19 1GQ,53.430419914028400,-2.201517000000000
Duck and Old World vulture,SK9 7AN,53.294424225609200,-2.230146100889630
Pratincole and Parrotlet,SK7 6HG,53.372721440413000,-2.123087722753080
Mouse and Viscacha,M22 1NP,53.372178163228500,-2.267990154405440
Jerboa and Mink,SK8 6JS,53.367688792433900,-2.201566453400340
Fulmarine petrel and Goose,M22 0EX,53.370935968994700,-2.256529827130930
Duck and Jerboa,SK4 3NS,53.420964268097300,-2.196085675775060
Grackle and Chickadee,SK3 8EG,53.400395043385600,-2.162482049797360
Mamo and Tree warbler,SK14 5EJ,53.434381340479200,-2.069470722885400
Chickadee and Hawk,SK7 1AG,53.333866000000000,-2.152918000000000
New World blackbird and Partridge,SK9 3RG,53.352914737753800,-2.210089929284360
Minke whale and Skunk,SK8 6EW,53.372914851433700,-2.204687385627010
Scimitar babbler and New World blackbird,SK9 6LW,53.319979862497900,-2.247727250520660
Marmoset and Mole,M20 3EY,53.435692636473700,-2.228546280371220
Thicketbird and Egret,M20 2UF,53.416373863422400,-2.247761078271580
Chicken and Maya,SK7 4JZ,53.382326332478300,-2.118079246084420
Ibex and Badger,SK9 5DB,53.324890978213800,-2.237276395216030
Old World warbler and Solitaire,SK8 4NB,53.390354998264800,-2.237415136649500
Kite and Night heron,SK10 5ER,53.289554607158800,-2.117837732719050
Black cockatoo and Macaw,SK23 7BW,53.326718286359000,-1.994135118205840
Marmoset and Capuchin,SK3 8JD,53.396750867235400,-2.158633297808020
Tahr and Maya,SK1 3UH,53.405415180615500,-2.159131871326430
Booted eagles and Grouse,SK23 9TU,53.319200258879300,-1.927831000000000
Night heron and Pratincole,SK11 6BA,53.260664261973700,-2.126887000000000
Magpie and Zebra,SK2 5AD,53.403674018943200,-2.135164952411900
New World blackbird and Zebra,SK12 1NX,53.347335706470900,-2.115984506912020
Recurvebill and Treepie,SK22 4BR,53.368722318709800,-2.000020873180480
Parakeet and Pitohui,M22 0AG,53.366558000000000,-2.257360000000000
Partridge and Tattler,M22 8EB,53.392903000000000,-2.261534000000000
Grosbeak and Wallaby,M20 2QQ,53.418699593776800,-2.235587037104530
Jay and Chipmunk,SK9 7NZ,53.305716370978100,-2.233583378482930
Parrotbill and Rat,SK4 5LQ,53.436377375722600,-2.168098641275110
Recurvebill and Zebra,SK10 2BD,53.266315750095300,-2.120772254426710
Crow and Black jay,SK8 1PU,53.393744002656500,-2.218441552125590
Skunk and Grosbeak,SK8 3AS,53.373732596815700,-2.209982056065720
Fish eagle and Diving bird,M20 6RH,53.416453831659500,-2.230278563165690
Darwin's finches and Linsang,SK23 7PP,53.346690859365700,-1.990632611181230
Piping shrike and Duck,SK10 4NX,53.335705136179200,-2.115217041587790
Elephant and Treepie,SK9 7PP,53.306879916086000,-2.231533770783210
Recurvebill and Triller,M20 4BX,53.429748329960900,-2.230049486024060
Prion and Night heron,SK10 3QG,53.265927497153900,-2.153485184604390
Linsang and Pheasant,SK3 0TL,53.398769491682000,-2.180282423101950
Civet and River dolphin,SK10 5SG,53.331509765416100,-2.079378351593050
Crow and Logrunners,M20 2WJ,53.424951588401500,-2.242092532804910
Maya and Jay,M20 2EW,53.425272172700000,-2.254419522800000
Mink and Crow,SK6 1DT,53.416083763637000,-2.102570825463270
Philippine hawk-owl and Tit-tyrant,SK9 3SP,53.356720877838600,-2.212933283400670
Darwin's finches and Badger,M20 2GL,53.418364727636300,-2.236743746846800
Old World vulture and Stilt,SK10 5BL,53.293953257643300,-2.094100929740030
Piping shrike and Minke whale,SK4 2PT,53.417780220043800,-2.174284332361040
Vole and Flameback,SK2 6DH,53.398016102700600,-2.138741325258320
Magpie and Tattler,SK4 3BG,53.412357590599200,-2.209390186496560
Philippine hawk-owl and Triller,SK6 1NP,53.428107222649100,-2.095601740463540
Egret and Vulture,SK1 3EW,53.406069691166400,-2.153433000000000
White ibis and Puffleg,SK10 5PD,53.297554738351400,-2.097814792748400
Ground sloth and Badger,M19 1SX,53.418963339529400,-2.214914638843990
Bronzewing pigeon and Condor,SK8 3GY,53.381668000000000,-2.221537000000000
Kangaroo and Goose,SK1 4JW,53.405373123024700,-2.134929681636630
Francolin and Mole,SK9 3SG,53.356076428785400,-2.211532000000000
Cuscus and Philippine hawk-owl,SK3 8NU,53.394975278242400,-2.174942912974800
New World blackbird and Ground sloth,SK9 2WP,53.328228417078900,-2.231364191007050
Solitaire and Skunk,SK7 1EQ,53.354588587228300,-2.181537951895480
Kestrel and New World blackbird,M22 5DQ,53.382603165476700,-2.248045864713570
Vulture and Nukupuʻu,SK10 3QB,53.264566849222300,-2.149042611205700
Marmoset and Guillemot,M20 6JF,53.417480986294200,-2.219435986810520
Thicketbird and Guillemot,SK10 4SH,53.286429615314900,-2.197073372254550
Warbler and Meadowlark,SK8 9GA,53.393134000000000,-2.217761000000000
Marmoset and B,SK9 3RJ,53.351799174237800,-2.210640281302960
Solitaire and Myna,M20 6FD,53.421922392166400,-2.218856980476660
Mole and Hawaiian honeycreeper,SK10 3RU,53.262135700265700,-2.159213274813410
Warbler and Viscacha,SK23 6DG,53.338466732620000,-1.934481701481120
Prion and Snipe,SK7 2PX,53.370153198518000,-2.165552966826540
Pratincole and B,SK12 1TW,53.353455960023000,-2.085278366548800
Chickadee and Songlark,SK13 5DH,53.426482763291700,-2.003031000000000
Petrel and Nukupuʻu,SK9 6LD,53.319267839448900,-2.244300525138970
Diving bird and Boto,SK8 5BJ,53.378191970427100,-2.187816648968000
Dolphin and Triller,SK3 0DJ,53.405816201573400,-2.168203588089010
Parrotlet and Marsh harrier,SK2 5XP,53.394239008918800,-2.105510671259070
Eagle and Boto,SK8 6QS,53.353740000000000,-2.206804000000000
Mamo and Tattler,SK10 3AY,53.271058665927300,-2.140053547554900
Songlark and Chicken,M22 5RG,53.379315000000000,-2.260594000000000
Skunk and Eagle,SK6 1AF,53.417020630657800,-2.100150717690840
Elephant and Pitohui,SK6 2NA,53.416710504318800,-2.105385874691850
Mamo and Magpie,SK8 7HR,53.372394972649500,-2.187400330799270
Tree warbler and Rat,M23 2SW,53.382211257564600,-2.282786070893560
Booted eagles and Zebra,SK11 6HZ,53.256928510833000,-2.123653722989110
Cloud rat and Dorcopsis,SK23 0RL,53.327563350000000,-1.914049000000000
Crow and Moluccan boobook,M23 1BJ,53.398320043433600,-2.282276343726640
Coati and Wallaby,SK10 3RD,53.263866842578600,-2.155201869193850
Towhee and Minke whale,M20 4NH,53.435058801318400,-2.216576409088560
Francolin and Pratincole,SK2 5EH,53.400966284163400,-2.129019992287470
Tit-tyrant and Darwin's finches,SK5 7BB,53.433157000000000,-2.163841000000000
Magpie and B,SK23 0LR,53.320898204427900,-1.913026432633700
Maya and Coati,SK10 3BT,53.264902457593300,-2.139118862946140
Nukupuʻu and Black jay,SK3 9HA,53.402481590631100,-2.168100172195720
Hawaiian honeycreeper and Booted eagles,SK4 2HE,53.408092000000000,-2.179780181900000
Tahr and Armadillo,SK9 3AA,53.346786141329700,-2.214205571853740
Mamo and Pheasant,M22 4AT,53.404320142277000,-2.260446008500220
Grosbeak and Capuchin,SK10 5WG,53.297175000000000,-2.120288000000000
Greenbul and Petrel,M22 4RU,53.397134004670200,-2.249829822081180
Kite and Piping shrike,SK10 5HZ,53.292978323714900,-2.109460976108690
Hawaiian honeycreeper and Tahr,SK10 4BB,53.288698185266000,-2.158682140561460
White ibis and River dolphin,SK17 7AT,53.262431858328400,-1.908107610752430
Eagle and White ibis,SK17 8DF,53.304114421628300,-1.899164838861130
Grosbeak and Puffleg,SK10 9SH,53.260666295326100,-2.125133628583600
Mole and Parrotbill,M19 1EL,53.431875636398300,-2.201900503300000
Polecat and Snipe,M20 3QD,53.424813645271800,-2.230037864098350
New World blackbird and Eagle,SK3 8DZ,53.398652394464000,-2.161648239791900
Jay and Vulture,SK3 8PY,53.392205057565200,-2.156811925306140
Parrotlet and Partridge,SK7 6BF,53.374093214700000,-2.112946261500000
Kite and Polecat,SK12 1EL,53.356698773054700,-2.127624000000000
Goose and Kākāriki,SK6 4ER,53.414812000000000,-2.073456000000000
Flameback and Diving bird,SK8 4JE,53.390453643232800,-2.242001795642510
Parakeet and Nukupuʻu,M20 2GB,53.418415239849900,-2.247291475187270
Black cockatoo and Mink,SK7 5PF,53.374697301847900,-2.124656639495760
Marmoset and Ibex,SK10 9SA,53.260666295326100,-2.125133628583600
Perching duck and Wallaby,SK9 3SJ,53.356443705549400,-2.212105555812310
B and Zebra,SK2 6SJ,53.398910936355500,-2.156505751668850
New World blackbird and Polecat,SK3 8QN,53.391093346723500,-2.154612484950440
Marmoset and White ibis,SK7 3JZ,53.379519608749200,-2.171707598574890
Linsang and Myna,SK2 6QS,53.399635361936000,-2.159260668228690
Egret and Grosbeak,SK12 1EF,53.359700801332800,-2.136062264358080
Wader and Coati,SK4 1LF,53.415655720256600,-2.163864290246190
Warbler and Myna,SK6 2BT,53.416616015330800,-2.128225000000000
Greenbul and Armadillo,SK22 1DA,53.376485264802700,-1.972077428791960
Triller and Mamo,SK23 7AY,53.331014729546200,-1.991086000000000
Petrel and Elephant,SK10 9AR,53.262285133952600,-2.124313836652200
Fulmarine petrel and Mamo,SK8 7NL,53.353908243001200,-2.185561366837940
Myna and Old World quail,SK8 1LG,53.384872427315800,-2.218350982542670
Boto and Gull,SK8 2BR,53.388759212800000,-2.203605986400000
Gull and Asiatic leopard,SK4 2AE,53.412045861225900,-2.185965104190060
Thrasher and Towhee,M21 7HQ,53.428202177245900,-2.268809273552420
Old World quail and Magpie,M22 1AZ,53.378710498671800,-2.269053399658050
Kangaroo and American sparrow,SK7 5JY,53.368622527487400,-2.130846000000000
Capuchin and Jerboa,SK9 7UZ,53.304095580400400,-2.239531933076870
Ground sloth and Dorcopsis,SK5 7AZ,53.434836354717200,-2.164510158975910
Peafowl and Songlark,SK4 4EB,53.417393099846800,-2.192232517876170
River dolphin and Old World quail,SK6 2HD,53.417131054640400,-2.117062460510540
Chicken and Wader,SK2 7DU,53.384090529329100,-2.148092314241080
B and Mink,SK17 6GH,53.261339869869000,-1.914511000000000
Tit-tyrant and Peafowl,SK4 3LZ,53.413702056749400,-2.184482922614500
Cuscus and Songlark,SK7 4LH,53.382707662622900,-2.114171550118990
Grackle and Lemming,SK4 2PP,53.416721331167100,-2.173076342832090
Thrasher and Petrel,SK11 6EG,53.259969151449600,-2.129808654833180
Stint and Jackal,SK8 7QP,53.358486800881900,-2.183402635479550
Meadowlark and Egret,SK5 8BS,53.427658587089600,-2.132366710912960
Partridge and Stilt,SK3 0PL,53.399412000000000,-2.195295000000000
Maya and Prion,SK2 5LE,53.396149365488500,-2.119486083847510
Songlark and Piping shrike,M23 2SG,53.384466000000000,-2.283658814230320
Eagle and Wader,M22 4SY,53.401574948362400,-2.253811473510680
Wallaby and Ibex,SK10 1EQ,53.262095142917400,-2.125482608824140
Siskin and Magpie,SK2 7PY,53.391102244650000,-2.132283123409470
Wallaby and Petrel,SK7 3DL,53.380131315128900,-2.158375997674280
Booted eagles and Kākāriki,SK10 5NS,53.294662308674400,-2.106044667968360
Tit-tyrant and Thicketbird,M20 5NW,53.405024156934800,-2.223568401454880
Mole and Mink,M22 4HA,53.408782123838500,-2.254591518089710
Siskin and Petrel,M20 4XP,53.426660378955800,-2.223155314078520
Francolin and Condor,SK10 4DD,53.280200000000000,-2.148812000000000
Piping shrike and Parrotlet,SK9 3JF,53.346512795578100,-2.216247049683580
Macaw and Siskin,SK6 3JS,53.411785904001300,-2.093263319328530
Pheasant and Chickadee,SK1 1XF,53.411987919163600,-2.157546735454200
Dorcopsis and Kākāriki,M22 4EN,53.410156335582300,-2.259248135696490
Myna and Dolphin,M20 5NP,53.412285346611400,-2.219574697537960
Dorcopsis and Partridge,SK4 3RB,53.410125531192200,-2.211033979877870
Tit-tyrant and Fulmarine petrel,M19 1LL,53.425971248276700,-2.206522614503880
Siskin and Civet,SK1 4JZ,53.404450677089400,-2.139800149544510
Old World warbler and Masked owl,SK4 4RW,53.428088319551700,-2.187299384919280
Peafowl and Ground sloth,SK6 7NX,53.386464778074300,-2.067092046463120
Diving bird and B,M22 4SN,53.397127000000000,-2.257785000000000
Stint and Masked owl,M21 7UE,53.434676875024700,-2.255182918480480
Rabbit and Darwin's finches,SK8 7QS,53.358995987804500,-2.185448270140300
Partridge and B,SK3 9QD,53.397607319819400,-2.169720000000000
Treepie and Thicketbird,SK4 3RS,53.418199388723000,-2.204649272825550
Mouse and Herring gull,SK1 1JT,53.410864614109900,-2.157347010964730
Hawk and Night heron,SK1 4AT,53.410020370705400,-2.142511195533590
Capuchin and Solitaire,SK7 1DB,53.359477694813500,-2.169823842624490
Magpie and Thrasher,M20 2QW,53.418488801116600,-2.237632169133540
Francolin and Gull,SK8 4PQ,53.390720510231500,-2.229778622190840
Recurvebill and Egret,SK22 4BN,53.369836898143600,-1.998367676757620
Scimitar babbler and Songlark,SK23 7LE,53.323948646976700,-1.982395317215660
Masked owl and Cuscus,SK10 4ED,53.293676447047000,-2.130286083190400
Asiatic leopard and Diving bird,SK5 8NA,53.429464926225900,-2.140529521811550
Thicketbird and Night heron,SK17 7LU,53.257961561774300,-1.893786831726600
Lemming and Cloud rat,SK7 3PH,53.377986513409200,-2.148702444230700
Stilt and Mink,SK8 4PJ,53.390208107801300,-2.229805932317710
Jackal and Fulmarine petrel,SK7 3LW,53.379156094621600,-2.174442035698360
Polecat and Mouse,SK9 4AB,53.330875240646200,-2.229216301156130
Black cockatoo and Macaw,SK3 0NB,53.401147799765500,-2.194069294923500
Rabbit and Peafowl,SK7 2BA,53.358094605456100,-2.162546229673430
Cuscus and Buzzard,SK4 3HX,53.417303226301600,-2.197723858680290
Ice seal and Cloud rat,SK8 4LR,53.391908737632900,-2.233514188528810
Kangaroo and Kākāriki,SK2 7QS,53.392496000000000,-2.132633000000000
Greenbul and Tree warbler,SK23 9UB,53.307854895730100,-1.925268848415740
Gull and Grackle,M20 3DB,53.427278274813300,-2.229118120949030
Boto and Prion,SK10 4TS,53.284487666426300,-2.241252051369470
Stint and Perching duck,SK12 2RD,53.358879202538700,-2.011560215378620
Mouse and Darwin's finches,SK6 8BR,53.362110978662900,-2.073334675639420
White ibis and Armadillo,SK9 3UD,53.341290889188400,-2.210948888972350
Tit-tyrant and Ice seal,SK6 2QN,53.430476000000000,-2.121569000000000
Masked owl and Jay,SK6 2BD,53.423723000000000,-2.113227000000000
Booted eagles and Tree warbler,SK2 6SH,53.399800000000000,-2.158163781510680
Pheasant and Recurvebill,SK4 1NY,53.425129547390600,-2.163930873238620
Vulture and Kangaroo,SK4 2AW,53.409975966847200,-2.181774028101000
Vole and Greenbul,M22 9ZF,53.384481411728300,-2.252506952500080
Mockingbird and Perching duck,SK5 7BE,53.434261983724400,-2.163860707253080
Chickadee and Treepie,SK9 2JA,53.330806525535000,-2.227399000000000
Hawaiian honeycreeper and Egret,SK7 1QF,53.346151936541400,-2.160157483688010
Flameback and Vole,SK3 9LP,53.401862352322500,-2.173692766880870
Quetzal and Condor,M22 9WS,53.384863812347000,-2.262732650835050
Goose and Civet,SK6 8AE,53.370018151723600,-2.077751857250310
Wader and Philippine hawk-owl,M20 2NF,53.426339000000000,-2.245261000000000
Mamo and Puffleg,M20 4WJ,53.434469451815900,-2.214420980466160
Prion and Elephant,M20 4RW,53.432328630131500,-2.215283161535040
Prion and Thicketbird,SK11 8DX,53.258947567323700,-2.135067128924850
Petrel and Grackle,SK2 6AY,53.395357371476400,-2.129063146455070
Stint and Dorcopsis,SK23 7EL,53.321331927631700,-1.977112000000000
Skunk and Parrotbill,SK13 6PX,53.436255142002200,-1.958340813344560
Grosbeak and Elephant,SK8 4NQ,53.391794412787900,-2.236791605379850
Eagle and Partridge,M23 0LT,53.412035762665200,-2.282638022478950
Puffleg and Wader,SK1 3FP,53.407560178160100,-2.161561721257650
Tit-tyrant and Marsh harrier,SK7 1ET,53.360941370823900,-2.177012106274280
Stint and Polecat,SK2 5JA,53.393947585119100,-2.109705446305880
Grosbeak and New World blackbird,SK8 3QT,53.371298640949800,-2.228471597392130
Crow and Mink,SK12 1UT,53.356873781058300,-2.082235222355870
Stint and Piping shrike,SK23 9SB,53.322390370223200,-1.926504591758590
Fulmarine petrel and Fox,SK8 2BA,53.395565156455000,-2.210405441449000
Marsh harrier and Greenbul,SK9 3BR,53.343012177913500,-2.213495727580010
Minke whale and Dolphin,M21 7QA,53.421643727266700,-2.259242839985740
Mamo and Towhee,M22 0DZ,53.375474194690000,-2.257008058597720
Tahr and Armadillo,SK17 6RW,53.265428910345300,-1.913183660945330
Tit-tyrant and Bronzewing pigeon,SK9 0BZ,53.328233060900000,-2.231364485800000
Magpie and Wallaby,SK10 5ET,53.289777694589000,-2.119473459606550
Petrel and Marsh harrier,SK3 8LZ,53.393540228287300,-2.172801695418320
Jackal and Moluccan boobook,SK22 3BR,53.367805425426900,-2.003387231107420
Asiatic leopard and Hawaiian honeycreeper,SK22 2EY,53.384229633076300,-1.958857353056860
Mole and Pitohui,M21 7WW,53.421594090698300,-2.261394318205180
Bunting and Wallaby,SK2 6BB,53.393424345205900,-2.129508410177600
Old World vulture and Buzzard,SK7 6PB,53.379876739669800,-2.103821484691660
Fish eagle and Stint,SK10 1TX,53.260670778400000,-2.125133896400000
Hawk and Masked owl,SK10 5TE,53.272404168707000,-2.086316082912330
Boto and Guillemot,M22 8ER,53.391954588222400,-2.267332556273920
River dolphin and Maya,SK4 4NZ,53.423528301757600,-2.183336719040710
Quetzal and Wader,SK10 1BS,53.262016294045100,-2.131898658227950
Mockingbird and Quetzal,SK22 2JL,53.377510000000000,-1.944373525961200
American sparrow and Warbler,SK17 9FH,53.262265000000000,-1.912306000000000
Fish eagle and Tree warbler,SK9 5PY,53.330566071540200,-2.248914791240600
Francolin and Pheasant,SK9 7XD,53.303796748813400,-2.240625694453460
Lemming and Myna,SK23 7DE,53.322951331438300,-1.985638453326720
Dorcopsis and Vole,SK9 4DA,53.337268630707300,-2.227944077254810
Mink and New World blackbird,SK8 2AN,53.393696090102600,-2.204922540949450
Bunting and Fox,M23 2YP,53.388903100718600,-2.277116819235520
Magpie and Boto,SK4 2DL,53.410322721119300,-2.195540234418010
Triller and Grouse,SK9 4JD,53.347307932062600,-2.242147689456520
Badger and White ibis,SK8 4DE,53.395612202576500,-2.233429215219640
Jerboa and Ground sloth,M19 1DN,53.429193720707500,-2.198531610017200
Chipmunk and Condor,M22 1BA,53.378386200480700,-2.269367029482900
Gull and Marsh harrier,M20 5QQ,53.406799283717600,-2.226179000000000
Perching duck and Chipmunk,SK10 1UA,53.260670778400000,-2.125133896400000
Grouse and Triller,SK6 4LX,53.416134031044300,-2.070509096201100
Pheasant and Puffleg,M23 0QG,53.412675507319700,-2.281980319445530
Elephant and Crow,SK3 0DX,53.406242387706100,-2.165542842768050
Chicken and Flameback,SK1 1AL,53.409872193320000,-2.160472000000000
Siskin and Piping shrike,SK7 2LU,53.366179178355600,-2.152884082353280
Mamo and Vulture,M22 1UY,53.378933000000000,-2.274301000000000
Rat and Night heron,SK4 5PE,53.433806872495300,-2.174214525684340
Prion and Cuscus,M22 5EX,53.374905051203900,-2.249894988444930
Black cockatoo and Vole,SK7 2QJ,53.365540768171800,-2.159899696257460
Solitaire and Magpie,SK9 5QN,53.325154062213400,-2.236061766337430
Argus and Old World quail,SK6 1JL,53.425910640012100,-2.088343228775050
Kangaroo and Triller,SK3 8HQ,53.394645257831700,-2.160339773672700
Moluccan boobook and Civet,SK9 2JX,53.335567000000000,-2.225022000000000
Vole and Marmoset,SK6 2NP,53.420551279157800,-2.112301972637280
Marmoset and Siskin,SK12 1AA,53.350357722109600,-2.123113290230720
B and Francolin,SK10 3DS,53.267467333800200,-2.151331684384360
Bronzewing pigeon and Cloud rat,SK8 7EJ,53.366963459699200,-2.183153555162920
Masked owl and Shearwater,SK2 5SS,53.399926516571600,-2.134521384602010
Kite and River dolphin,SK6 2DY,53.421231489916700,-2.124296429020620
Rat and Coati,M22 1XB,53.377421418653400,-2.279042000000000
Grosbeak and Coati,SK9 2QN,53.332156195308000,-2.217180414877720
Mink and Grackle,SK10 4TB,53.272800000000000,-2.251758000000000
Darwin's finches and Wallaby,SK2 5RH,53.397268620648100,-2.123715128176310
Songlark and Marsh harrier,SK10 5AZ,53.285891290473700,-2.093963000000000
New World blackbird and New World blackbird,SK7 5PB,53.375672701243000,-2.120150136574350
Masked owl and Solitaire,SK6 7PQ,53.386987480784700,-2.064627103897800
Maya and Coati,M22 9RR,53.382053255671000,-2.273449233151920
Perching duck and Wallaby,M20 2AU,53.420431000000000,-2.242262000000000
Mink and Skunk,SK3 9AU,53.397563919300000,-2.171930984800000
Siskin and Bronzewing pigeon,M20 3QH,53.427468791498200,-2.228201128256280
Darwin's finches and Jay,SK10 5AQ,53.290697561864300,-2.125027000000000
Songlark and Nukupuʻu,SK5 7ET,53.433824117767300,-2.155219340393210
Kite and Booted eagles,SK6 5DL,53.404354680040300,-2.041640353654610
Treepie and Gull,SK3 0PX,53.399298728832400,-2.197971148323760
Ground sloth and Lemming,M22 4PX,53.390475697658900,-2.257233830119520
Zebra and Armadillo,M20 3FR,53.435452899501900,-2.231675871266330
Meadowlark and Stilt,SK10 3EX,53.268024994761500,-2.157975740285380
Guillemot and Thicketbird,SK8 7DU,53.368524104074300,-2.179463201756740
Eagle and Fulmarine petrel,M20 6GP,53.416762434523700,-2.219297000000000
Diving bird and Pitohui,SK10 5UT,53.293594743334900,-2.065835699445710
Rat and Kite,SK8 1JJ,53.384078000000000,-2.220735107424830
Petrel and Dorcopsis,M21 8FQ,53.434143280411000,-2.280662502221090
Quetzal and Prion,SK6 8ED,53.363777374610900,-2.067416910411940
Skunk and Asiatic leopard,M22 9RX,53.385394794883800,-2.274417847499060
Darwin's finches and Ice seal,SK8 2BT,53.396577262970600,-2.202229000000000
Rat and Jay,SK3 0HW,53.406374378728600,-2.167574028422750
Zebra and Grosbeak,SK10 9WH,53.260670778400000,-2.125133896400000
Boto and Grouse,SK17 6RA,53.262501000000000,-1.915228000000000
Ground sloth and Quetzal,SK5 8HG,53.429390922724400,-2.134554372992610
Kākāriki and Diving bird,SK3 0NS,53.402935664599700,-2.189008687943470
Grosbeak and Wader,SK23 6AH,53.353002557501700,-1.936697961450480
Boto and Grackle,SK4 1BS,53.409516201092700,-2.164111433001450
Parrotlet and Jackal,M22 4AJ,53.402183803727800,-2.263200413762360
New World blackbird and Snipe,SK6 4HZ,53.415890266495300,-2.072299089429310
Rabbit and Philippine hawk-owl,SK3 8HZ,53.396382217467100,-2.158722155622530
Coati and Nukupuʻu,SK9 3HA,53.348854841692900,-2.218437073167020
Wader and Logrunners,SK9 5DX,53.330088807417100,-2.244993044957740
Linsang and Treepie,SK2 7QJ,53.391889928722300,-2.135232803709450
Marmoset and Kangaroo,SK4 4PZ,53.422836443377700,-2.183168212326480
Puffleg and Black jay,SK2 5DU,53.400343556848600,-2.122896872235180
Bronzewing pigeon and Solitaire,SK6 7HZ,53.379383847699400,-2.063307717829380
Mole and Logrunners,SK8 1JY,53.384229000000000,-2.212093000000000
Viscacha and Wallaby,SK8 3ET,53.368818132459600,-2.223694000000000
Mole and Diving bird,SK7 2DZ,53.360334050192100,-2.161608139783530
Stint and Ground sloth,M19 1JS,53.418414446292800,-2.215242886059040
Jackal and Herring gull,SK9 5DH,53.328771952638400,-2.238348982717500
Bunting and Coati,SK9 5EJ,53.324294642517400,-2.238819438379670
Nukupuʻu and Myna,SK23 9RW,53.325344349687300,-1.921319879716170
Asiatic leopard and Solitaire,M22 5LD,53.376329795924500,-2.252007740542980
Grackle and Rat,M20 3LN,53.426407688781200,-2.233086398550810
Snipe and Jay,SK2 6DZ,53.397640728960000,-2.144500013462230
Fulmarine petrel and Kākāriki,SK8 4NA,53.389389981875700,-2.234689000000000
Fish eagle and Petrel,SK10 2TT,53.273631029707700,-2.130764838635660
Thicketbird and Meadowlark,SK2 6AF,53.398353319243800,-2.134696883782640
Ground sloth and Francolin,SK11 6LH,53.259157127982700,-2.124410000000000
Stilt and Magpie,M20 4RA,53.426372560154700,-2.218398292443910
Scimitar babbler and Chickadee,SK1 1EH,53.410609291400000,-2.156714498800000
Stilt and Booted eagles,SK6 1DB,53.422715968594000,-2.104001000000000
Petrel and Parrotbill,SK6 4QR,53.414997376615800,-2.089930364209130
Lemming and Nukupuʻu,M20 1FF,53.433424883653900,-2.239070210121560
Jerboa and Coati,M20 1DT,53.437187218897900,-2.240988016744550
Stilt and Mink,SK4 3DR,53.413753227703200,-2.202792456664210
Marsh harrier and Zebra,SK22 4NR,53.366870608782100,-1.996038419174100
Bunting and Quetzal,SK6 7NL,53.392658179978300,-2.066605597045850
Meadowlark and Boto,SK3 8UP,53.388779949181600,-2.157160176504450
Puffleg and Gull,SK10 2QZ,53.264011824713900,-2.114514082492030
Jackal and Moluccan boobook,SK10 2AX,53.264321000000000,-2.120767000000000
American sparrow and Myna,SK6 8AG,53.373507168178900,-2.075518699625100
Linsang and Condor,SK3 8AB,53.404264000000000,-2.160571000000000
Grouse and Wallaby,SK7 1HX,53.353249801593700,-2.168957744131640
Pheasant and Viscacha,SK10 4EP,53.288516093743400,-2.131035382503890
Black cockatoo and Tahr,SK17 7WX,53.262265000000000,-1.912306000000000
Chicken and Hawk,SK7 4QJ,53.379959201725400,-2.112014505781490
Chickadee and Tree warbler,SK6 7NG,53.394518524769100,-2.067119798865380
Warbler and Grosbeak,SK3 0AZ,53.395923000000000,-2.177968000000000
Asiatic leopard and Thrasher,SK22 2JD,53.379217974321300,-1.946174781859390
Eagle and Vulture,M20 4PW,53.433917857146000,-2.225947845531120
Grouse and Diving bird,SK4 9AN,53.407564698200000,-2.161561998200000
Fulmarine petrel and Magpie,SK12 1SP,53.344382256386700,-2.090907792389450
Capuchin and American sparrow,SK12 1RU,53.345701966746100,-2.103873423022440
Fish eagle and Hawaiian honeycreeper,SK17 6SZ,53.262199565640900,-1.922829630553620
Herring gull and Meadowlark,SK11 8QG,53.258737095227400,-2.145844393544500
Triller and Parrotlet,SK1 4HZ,53.404198149447800,-2.140521299951950
Chickadee and Mink,M22 8ES,53.391644000000000,-2.270067000000000
Mole and Fish eagle,SK8 6AU,53.376429373432900,-2.199398147833790
Tattler and Myna,SK8 3NU,53.361520000000000,-2.223640222581590
Treepie and Tit-tyrant,SK6 2PA,53.418003102809600,-2.116899353547260
Rat and Chipmunk,SK4 5DA,53.426415720887600,-2.175975103101230
Solitaire and Skunk,SK10 1FW,53.259042000000000,-2.114303000000000
Greenbul and Badger,M23 1PE,53.397165138293100,-2.276463715992310
Francolin and Booted eagles,SK14 5EL,53.435163401309700,-2.069366637935300
Polecat and Moluccan boobook,SK12 1LG,53.343569000000000,-2.126247443306980
Chipmunk and Parakeet,SK8 7QT,53.358070188112800,-2.185429220400610
Duck and Cuscus,M22 4LL,53.403431509867600,-2.251491178147930
Cloud rat and Jerboa,SK11 6JL,53.257965000000000,-2.122323000000000
Fulmarine petrel and Kākāriki,SK6 8DB,53.360774690621600,-2.068268631276800
Meadowlark and Zebra,SK10 3SL,53.261735885115000,-2.148642979790410
Nukupuʻu and Chicken,SK12 1NE,53.339122874078400,-2.122179762974550
Coati and Fox,M22 5LE,53.368370627800000,-2.238856007000000
Towhee and Petrel,SK22 2HE,53.383022064516300,-1.950635037689870
Puffleg and Peafowl,SK7 2BN,53.362767492637500,-2.169851969660340
Snipe and American sparrow,M22 8BH,53.394206204794000,-2.265331619772890
Siskin and Petrel,SK6 3EF,53.409086613003600,-2.107187182490520
Mockingbird and Fox,SK9 7LB,53.305572765572800,-2.228840512830710
Coati and Asiatic leopard,SK8 5AZ,53.374099351164000,-2.189587266591670
Capuchin and Cloud rat,M21 7HH,53.433323228021600,-2.270316000000000
Flameback and Badger,SK17 7EJ,53.263591934466700,-1.897806000000000
Tit-tyrant and Booted eagles,M22 9YN,53.383940157031900,-2.253420828997090
Badger and Kākāriki,SK8 2JS,53.390109792780600,-2.188485665003210
Thicketbird and Fish eagle,SK10 2TN,53.271220527046700,-2.132136965218090
Asiatic leopard and Mamo,SK9 6DY,53.315657882058200,-2.259650262170440
Nukupuʻu and Rat,SK17 1ZZ,53.262265000000000,-1.912306000000000
Mink and Diving bird,SK11 9SJ,53.275304866727900,-2.284388749289300
Eagle and Chickadee,SK10 3RH,53.266462436155800,-2.149873821958580
Eagle and Black cockatoo,SK5 8DT,53.426554250357600,-2.131234588625640
Tattler and Buzzard,SK2 7BD,53.386691185220400,-2.145695743111140
Elephant and Solitaire,SK9 2TD,53.329124000000000,-2.209432000000000
Scimitar babbler and Chicken,SK3 8PT,53.386743610165400,-2.167376530265070
Zebra and Boto,SK8 3JQ,53.368758836102000,-2.231073000618750
Bronzewing pigeon and Cuscus,SK7 1HA,53.355946228781100,-2.181303340996430
Coati and Boto,SK5 8JX,53.432787530570500,-2.135483252966210
Grosbeak and Crow,SK12 1TG,53.342930568455000,-2.084851769494310
Mink and Pheasant,SK3 8UF,53.385160048539400,-2.155252471597850
Kangaroo and Tattler,SK8 3QD,53.370360738432600,-2.234688722237490
American sparrow and Minke whale,M21 8FH,53.436793333272200,-2.281327249372120
Kangaroo and Hawk,M20 1EF,53.431875636372300,-2.240671968188920
Condor and Parrotbill,SK9 1NY,53.324689382883500,-2.234828000000000
Mockingbird and Eagle,SK7 4BU,53.383410792959900,-2.121224341246550
Ice seal and Hawaiian honeycreeper,SK10 5PF,53.296081254734900,-2.097001243009180
Warbler and Moluccan boobook,SK10 9RE,53.260670778400000,-2.125133896400000
Wader and Herring gull,SK6 6GD,53.401005302611400,-2.072183523168510
Pitohui and Cuscus,SK9 2PS,53.337532434588900,-2.211621138455500
Tattler and Cuscus,SK6 2GA,53.422873882580100,-2.108455862469210
Hawaiian honeycreeper and Mink,SK9 7DU,53.300501079505700,-2.234515196374930
River dolphin and Peafowl,SK23 7GA,53.334367074472300,-1.986851038464300
Argus and Jackal,SK10 3JY,53.263641881720300,-2.162127303779530
Zebra and Bunting,SK10 9RP,53.260670778400000,-2.125133896400000
Piping shrike and Greenbul,M23 2SN,53.382607996729300,-2.282262523355600
Egret and Chipmunk,M20 2WE,53.411016000000000,-2.224772000000000
American sparrow and Duck,SK8 9DU,53.393120657300000,-2.217761943300000
Badger and Black jay,SK23 7PR,53.346933431228800,-1.989160494626800
Gull and Stint,SK17 1SL,53.262281000000000,-1.912304000000000
Darwin's finches and Vole,SK22 2AT,53.387362836345300,-1.948931054354990
Nukupuʻu and Mockingbird,SK10 4LJ,53.326632497118800,-2.182425028196520
Parakeet and Rabbit,SK10 1QQ,53.258437768406800,-2.105909858028960
Chicken and Grouse,SK3 0NW,53.402294750892100,-2.190720470355660
Elephant and Kestrel,SK4 2RN,53.422131000000000,-2.174797497912650
Grouse and Guillemot,SK8 7NE,53.357966315917000,-2.188614063015000
Piping shrike and Pratincole,SK7 1NB,53.353470725987100,-2.158637552942660
Fox and Treepie,SK23 0NW,53.320921778083800,-1.908477767081400
Old World warbler and Bunting,SK7 4PW,53.379440314873500,-2.118762740451440
Polecat and Darwin's finches,SK1 4DU,53.407255620042200,-2.146849170256380
White ibis and Ground sloth,SK13 8GQ,53.435695000000000,-1.952137000000000
Fish eagle and Capuchin,SK10 5SS,53.298897387594500,-2.093676704813720
Bunting and River dolphin,M22 1UP,53.379377815456800,-2.272064116567730
Mamo and Flameback,SK8 2DD,53.394598162891500,-2.197693662037390
American sparrow and Dolphin,M22 1AF,53.377082910624700,-2.265330295686690
Jerboa and Ibex,SK6 6BX,53.393158000000000,-2.058471000000000
Fulmarine petrel and Asiatic leopard,M23 0DP,53.410691598055300,-2.269195192746710
Partridge and Partridge,SK7 1BJ,53.356145280034400,-2.174408019642790
Bronzewing pigeon and Chickadee,SK10 2SJ,53.273469851209300,-2.121707174763940
Kestrel and Pheasant,M22 8EA,53.393145000000000,-2.262122000000000
Chicken and Mockingbird,SK9 2NN,53.332758182212700,-2.212333269380440
Thrasher and Songlark,SK8 3AB,53.367218001633500,-2.213827266119550
Magpie and Kite,SK3 0AL,53.408690542345100,-2.169283000000000
Greenbul and Vole,SK7 1LQ,53.356166381382500,-2.159338698319550
Elephant and Minke whale,SK9 3UG,53.341522058654800,-2.212376855030780
Hawaiian honeycreeper and Meadowlark,SK7 6LB,53.373076822964600,-2.118324152025270
Flameback and Perching duck,SK17 6BQ,53.259290131398000,-1.913945571923830
Elephant and Fox,SK8 4LL,53.383314090986600,-2.238834213820970
Prion and Booted eagles,M20 3HL,53.434304712113100,-2.230465468180010
Francolin and Ibex,SK22 1ED,53.401438499545100,-1.976664000000000
Moluccan boobook and Chipmunk,SK1 1NX,53.409639961724000,-2.159012275787470
Fulmarine petrel and Piping shrike,SK6 7DA,53.399817813794300,-2.057532847895680
Cuscus and Civet,SK8 6QN,53.359192207233300,-2.197589650118730
Prion and Pheasant,SK9 2ES,53.340304415099800,-2.219639883214400
Kangaroo and Hawaiian honeycreeper,SK6 6QD,53.403571827473600,-2.063810037865790
Kangaroo and Jay,SK4 2LS,53.416060833580100,-2.169838888092500
Black jay and Asiatic leopard,SK10 3JZ,53.263185043280100,-2.160956218633760
Fulmarine petrel and Chipmunk,M23 0BT,53.409699158036100,-2.278636064493400
Old World quail and Cloud rat,SK2 5US,53.388404162534700,-2.106924596256640
Badger and Vulture,M90 4AB,53.371568805200000,-2.273201936700000
Treepie and Siskin,SK13 5RU,53.425636334234100,-2.019042933187530
Vole and Fish eagle,M23 1HF,53.397002227359000,-2.284583582468020
Linsang and Marmoset,M90 4AF,53.367036155365700,-2.279064000000000
Gull and Pratincole,SK17 6JG,53.257108000000000,-1.915283801323150
Kangaroo and Recurvebill,SK6 7QT,53.387603958494000,-2.071168434045890
Dorcopsis and Dolphin,SK10 4LX,53.262285133952600,-2.124313836652200
Vole and Black jay,SK8 6PR,53.358701046434900,-2.201043179035730
Chicken and Thicketbird,M22 5BB,53.382039820576000,-2.246629441820870
Condor and Bunting,M19 1EX,53.434059095187800,-2.196973874602540
Fulmarine petrel and Pheasant,SK2 7AS,53.389132350251700,-2.141328636231670
Songlark and Treepie,SK10 4HG,53.288305895016900,-2.134139843944670
Warbler and Grosbeak,M20 2GE,53.419873202397100,-2.237549615224880
Flameback and Vulture,SK6 3HH,53.409128084465300,-2.100869236083940
Jerboa and Vulture,SK8 6AR,53.375523000000000,-2.198958000000000
Chicken and Vulture,SK8 2AP,53.394659664792700,-2.203874522542280
Coati and Maya,M20 6JR,53.417904825607800,-2.218685866328500
Kangaroo and Prion,M23 1LG,53.393986633026200,-2.286428120855510
Pratincole and Minke whale,SK2 6QQ,53.394665064925300,-2.152084048231830
Black cockatoo and New World blackbird,SK7 6NT,53.378636263959800,-2.103397000000000
Magpie and Francolin,SK8 3HP,53.365851801964000,-2.223588457933190
Grackle and Parakeet,SK6 5AP,53.396947574052300,-2.043136944966910
Grouse and Old World warbler,M23 1LE,53.393535261830000,-2.283477732542090
Tree warbler and Greenbul,SK6 4DT,53.413740820861100,-2.087460390746200
Boto and Greenbul,SK10 2UG,53.278697183762000,-2.133914735707900
Dolphin and Fulmarine petrel,SK6 3BN,53.415880294289700,-2.098703676975240
B and Francolin,SK3 8RB,53.389245756438300,-2.164995639613020
Marsh harrier and Kākāriki,SK4 5NX,53.436866269826900,-2.171939033664180
Triller and Greenbul,SK2 7AN,53.389278011124600,-2.139765377088940
Linsang and Guillemot,SK10 9XQ,53.260670778400000,-2.125133896400000
Ice seal and Kangaroo,SK11 8QH,53.258536696971600,-2.147987294442790
Coati and Grackle,SK8 3TX,53.376706722874300,-2.239203058359420
Darwin's finches and Dolphin,M23 1DG,53.399747795983400,-2.286647318833950
Tree warbler and Grouse,SK9 0GF,53.328246000000000,-2.231363000000000
Maya and Siskin,SK12 1TQ,53.342545000000000,-2.085647000000000
Scimitar babbler and Piping shrike,M20 1FE,53.432534365278900,-2.239396335344910
Mockingbird and Old World vulture,SK9 7DT,53.301890993570200,-2.231626797426580
Condor and Marsh harrier,SK2 6NZ,53.394679220693300,-2.147978754590530
Parrotlet and Recurvebill,SK5 7QP,53.421752075807900,-2.155566529972280
River dolphin and Tree warbler,SK3 0TP,53.397946048323300,-2.183873270674460
Mockingbird and Old World warbler,M19 1JD,53.427950035009400,-2.195064390197600
Jay and New World blackbird,SK23 0EN,53.323659626321600,-1.915543000000000
Dorcopsis and Black cockatoo,SK23 7GE,53.322295177568800,-1.985803806175820
Peafowl and Grouse,SK4 1QX,53.417639787457800,-2.165602218769290
Black cockatoo and Black jay,M22 0DB,53.375664540021900,-2.260421292934840
Argus and Armadillo,SK7 5NF,53.370206545305000,-2.129753451991040
Egret and Macaw,SK8 3AH,53.371686571564300,-2.213143270368970
Meadowlark and Crow,SK12 2JU,53.362276844201400,-2.047684780576680
Solitaire and Viscacha,SK12 1DY,53.352473343598000,-2.144211732311620
Philippine hawk-owl and Linsang,SK12 1ST,53.343958186283000,-2.103854154314590
Stilt and Thicketbird,M22 8NN,53.395667465992800,-2.267070118417720
Vole and Fish eagle,SK8 2LJ,53.390072480662000,-2.194921026341520
Mole and Polecat,SK22 4AU,53.368499000000000,-2.001509000000000
Nukupuʻu and Tit-tyrant,M34 7ED,53.436017581234300,-2.105689645441230
Ice seal and Songlark,SK9 3HZ,53.351075018032500,-2.218448436310520
Kangaroo and Condor,SK11 6HX,53.257630410161000,-2.122217000000000
Hawk and Petrel,SK2 5TW,53.400361489278500,-2.131364382030240
Crow and B,M19 2WG,53.435383037551700,-2.200788228254100
Badger and Lemming,SK9 2JZ,53.333283007307000,-2.225129771268790
Black cockatoo and Condor,SK8 3BG,53.370519727042000,-2.217195375693980
Buzzard and Cloud rat,SK9 4BY,53.339300250800700,-2.227849793749320
Fox and Tit-tyrant,SK11 9BA,53.271526174314300,-2.282039474219390
Tattler and Flameback,M21 9ES,53.437102940973400,-2.283436702382600
Coati and Mamo,SK7 2AJ,53.367626804552200,-2.178422467854900
Marmoset and Rabbit,SK12 2ET,53.360331174066400,-2.033483232389880
Partridge and Maya,SK6 3JF,53.410043112417500,-2.102977468535290
Jerboa and Egret,SK6 4AZ,53.418022607501300,-2.094962167931990
Duck and Hawaiian honeycreeper,M20 4BW,53.433436000000000,-2.228473000000000
Shearwater and Stilt,M22 5LB,53.368998650000000,-2.239445649700000
Vulture and Wader,SK22 2JH,53.377735581366700,-1.947815119872260
Quetzal and Lemming,SK10 1LL,53.263686000000000,-2.117946000000000
New World blackbird and Crow,M20 3NA,53.437040165928800,-2.224203242003810
Logrunners and Armadillo,SK1 4QA,53.401693945569800,-2.137429759645970
Parrotlet and Skunk,SK7 2DY,53.360008660787500,-2.162929167005000
Fish eagle and Hawaiian honeycreeper,SK1 1DU,53.408570000000000,-2.160061000000000
Old World vulture and Jackal,M22 9NB,53.388342123528300,-2.262859337856480
Elephant and Buzzard,SK10 4AW,53.287748222998300,-2.156533569207440
Crow and Boto,M20 4WB,53.432847625960600,-2.221471903319600
Fulmarine petrel and Logrunners,M23 0HA,53.415311027709600,-2.284976719342550
Civet and Crow,M20 4QJ,53.428003292057300,-2.226157000000000
Dorcopsis and Partridge,SK10 9WL,53.260670778400000,-2.125133896400000
Shearwater and Polecat,M19 1PA,53.431116799546000,-2.198811496652870
Fulmarine petrel and Flameback,SK11 9BB,53.271866033669800,-2.286525157435400
Dolphin and Wallaby,SK10 5DX,53.289236662936900,-2.111986530480790
Mink and Night heron,SK5 8DF,53.425142774742100,-2.131486059918730
Ice seal and Mole,M20 4BA,53.430982984369300,-2.228370479389470
Mockingbird and Marsh harrier,SK10 4DE,53.282349258170600,-2.146914812284870
Macaw and River dolphin,SK17 6DE,53.258857307955000,-1.911953000000000
Old World warbler and Kangaroo,SK9 7AJ,53.295611172426400,-2.234533391706130
Philippine hawk-owl and Skunk,SK10 2JL,53.274531654395900,-2.129163053929260
River dolphin and Scimitar babbler,SK11 6UR,53.257438289573700,-2.126113508515520
White ibis and Philippine hawk-owl,M21 8FN,53.432282853522500,-2.272823612121810
Grackle and Stint,SK8 2AR,53.393563785674400,-2.203448228634410
Pratincole and Guillemot,SK10 9ZZ,53.260670778400000,-2.125133896400000
Ibex and Partridge,M20 1DQ,53.436288528618200,-2.240907663907890
Maya and Mole,SK2 5YN,53.396779883372800,-2.118164454728240
Minke whale and Macaw,SK4 4JW,53.420610882277800,-2.180811294846200
Black jay and Jerboa,M21 7HR,53.430188244649200,-2.272945640568800
Grackle and Jerboa,SK2 7QQ,53.390971588209100,-2.136553106565730
Myna and Armadillo,SK17 6TN,53.259295943851800,-1.922445090049150
Mamo and Minke whale,M20 2SB,53.406884670463200,-2.228376633291330
Fish eagle and Duck,SK8 9DE,53.393120657300000,-2.217761943300000
Grackle and Parrotbill,SK23 9UQ,53.316368381247800,-1.927205375422320
Towhee and Peafowl,M22 5LU,53.367915194947100,-2.239529467964780
Duck and Tree warbler,M90 3WT,53.397231876796700,-2.258733376454710
Mink and Viscacha,SK8 7BB,53.378159944609000,-2.185306150684610
Fulmarine petrel and Tit-tyrant,SK6 4AS,53.417056930862300,-2.088354915593080
Parakeet and Partridge,SK8 6EP,53.371905056093400,-2.201210636012630
Fox and Fulmarine petrel,SK4 1JS,53.416107484222000,-2.168635438004300
Piping shrike and Marsh harrier,SK6 5BS,53.401387068158100,-2.045427579041650
Zebra and Siskin,M23 2ZE,53.380241818285300,-2.283178897635680
Viscacha and Mamo,M22 9JN,53.388409377458500,-2.268979287746790
Mamo and Prion,SK6 5ES,53.409240388086300,-2.051949618289250
Badger and Armadillo,SK1 1RW,53.411065512679300,-2.161710418376710
Moluccan boobook and Magpie,SK6 7LJ,53.385092798275600,-2.061015942907950
River dolphin and Grackle,SK9 7RE,53.305434493448600,-2.244161448762420
Guillemot and Cuscus,SK22 2HL,53.380232347473400,-1.943272180965470
Duck and Dorcopsis,M90 2BA,53.361616777278000,-2.273258000000000
Moluccan boobook and Quetzal,SK4 3HB,53.413676879530900,-2.200099109065260
Pheasant and Mole,SK5 7NG,53.426513306472500,-2.157615572613280
Towhee and Gull,SK2 9BN,53.407578000000000,-2.161560000000000
Crow and Flameback,M22 1SU,53.372046804282300,-2.266441244190300
White ibis and Magpie,SK7 4PZ,53.379294611397800,-2.111411459140650
Masked owl and Booted eagles,M20 1LW,53.429139256698700,-2.246962475863370
Ibex and Logrunners,SK7 5LQ,53.370947451080200,-2.126178680461250
Wallaby and Condor,SK22 1AU,53.387057656910000,-1.981527711413660
Badger and Kite,SK4 4PE,53.425492000000000,-2.181193000000000
Maya and Rabbit,SK6 2LR,53.416376656294500,-2.106814373250640
Piping shrike and New World blackbird,M22 8UG,53.388650841062500,-2.256877000000000
Skunk and Parakeet,SK8 7AT,53.376481784128100,-2.183555203305150
Old World warbler and Booted eagles,M23 0EF,53.412745348949100,-2.275165714410840
Kākāriki and Scimitar babbler,SK1 2NE,53.410883613379100,-2.149569536802540
Petrel and Capuchin,SK9 7PN,53.307223084745100,-2.230710235353550
Greenbul and Jerboa,SK10 2UE,53.277051876658000,-2.134239507692910
Flameback and Goose,M22 1GW,53.374960131673900,-2.273929839463550
Capuchin and Prion,SK7 4AJ,53.384364959314700,-2.128488600928000
White ibis and Night heron,SK23 6ES,53.340165214856700,-1.933923000000000
Macaw and Dorcopsis,M21 7WE,53.426298927108400,-2.263740764894690
Logrunners and Greenbul,SK9 4ER,53.340813620841800,-2.226130690108790
Old World vulture and Magpie,SK10 9RX,53.260670778400000,-2.125133896400000
Cloud rat and Rabbit,SK4 1TX,53.419037943716600,-2.162011549261200
Francolin and Solitaire,SK1 9DA,53.407564698200000,-2.161561998200000
Quetzal and Black jay,M21 7WP,53.420922162558400,-2.260382032116280
Maya and Argus,SK22 4BA,53.370394196196900,-1.998863626511730
Guillemot and Lemming,M19 1BS,53.427524000000000,-2.208201212032930
Kite and Mamo,SK10 4QA,53.284788234045300,-2.183596446413340
Flameback and Kite,SK4 9DF,53.407564698200000,-2.161561998200000
Tit-tyrant and Meadowlark,SK12 1SF,53.353597688769000,-2.127794930460430
Booted eagles and Towhee,SK8 3QW,53.372879090715200,-2.233905977970320
Argus and Herring gull,SK8 4BN,53.396926571437000,-2.236955472490230
Scimitar babbler and Herring gull,SK8 7PQ,53.357897731271600,-2.180665562497660
Kākāriki and Goose,SK17 7AZ,53.262314309927800,-1.907208377468470
Wallaby and Jay,SK10 4JJ,53.292841902730000,-2.151856561329990
Snipe and Condor,SK8 4DB,53.396772511605500,-2.233029528041670
Goose and Puffleg,SK23 7DZ,53.316902743883200,-1.996673182078170
Jackal and Petrel,M20 4UA,53.426492263913300,-2.221724764983360
Fulmarine petrel and Siskin,SK8 7BH,53.373189744648600,-2.184983941174330
Old World vulture and Logrunners,SK5 8EN,53.425940526393600,-2.133490032335770
Bronzewing pigeon and Cuscus,SK4 4JL,53.419294144343300,-2.177766291803780
Badger and Old World quail,SK9 6HB,53.313025454654600,-2.246351124420740
Stilt and Argus,SK7 5LU,53.373016736587800,-2.124366147573490
Solitaire and Pheasant,SK12 2GE,53.361194000000000,-2.029952000000000
Rat and Meadowlark,SK22 2JQ,53.377700000000000,-1.947093865779970
Magpie and Egret,SK8 5NZ,53.380550686392200,-2.185451840606020
Ice seal and Asiatic leopard,M22 9QT,53.382452484260400,-2.267844254614830
Eagle and Chipmunk,SK4 4BJ,53.423389188636700,-2.191778063398860
Perching duck and Buzzard,M20 6HU,53.415523989470100,-2.222931446583710
Tattler and Asiatic leopard,SK7 2NX,53.370918240218700,-2.158191471142620
Francolin and Mink,SK23 6AP,53.341415000000000,-1.917761000000000
Minke whale and Hawk,SK3 0UJ,53.401724259429800,-2.187709839091460
Kākāriki and Magpie,SK3 8GD,53.388968958230000,-2.170076695727870
Mockingbird and Piping shrike,M19 1HQ,53.435245023635000,-2.197310514359500
Mole and Meadowlark,M23 2XG,53.381417491151000,-2.280149987284190
Boto and Fox,SK7 4HH,53.381027051763600,-2.122946360088420
Condor and Songlark,M20 3EH,53.434243779186200,-2.234062536142260
Meadowlark and Crow,SK3 0RP,53.399205862861600,-2.188721426408800
Myna and Parakeet,SK7 3PQ,53.378803532182600,-2.149456910262350
Chickadee and Dolphin,SK8 6HD,53.369339827752200,-2.203257502508560
Capuchin and Mole,SK10 5QS,53.297452394803200,-2.090852836804140
Chickadee and Solitaire,M22 2BQ,53.397236554300000,-2.258733678500000
Armadillo and White ibis,SK4 3JU,53.414936907640600,-2.193665751214080
Viscacha and Kestrel,SK10 5RZ,53.318496864820900,-2.075226075452880
Cloud rat and Chickadee,SK9 2QD,53.333463787282300,-2.214844511139840
Gull and Bronzewing pigeon,SK5 8LY,53.429664173878500,-2.139250910345110
Scimitar babbler and Tit-tyrant,SK5 8BL,53.431284000000000,-2.129471000000000
Parrotbill and Egret,SK22 4EP,53.375787224722500,-1.994083588096690
Tahr and Boto,SK10 1SZ,53.260670778400000,-2.125133896400000
Diving bird and Rat,SK8 4RU,53.380943642205300,-2.228357916825170
Asiatic leopard and Kite,SK4 1UD,53.417090000000000,-2.160844550305620
Thicketbird and Grosbeak,SK6 2PD,53.419611868937300,-2.117084335842060
Wader and Cuscus,SK6 4HB,53.413067987141000,-2.072098709060950
Grosbeak and Zebra,SK12 2EW,53.359729779394000,-2.030357438678620
Marsh harrier and Parrotbill,SK3 8HT,53.396590688427900,-2.157414577305370
Mamo and Goose,SK1 2PE,53.413076176910900,-2.142762138948220
Buzzard and Triller,SK7 4AT,53.383577154781900,-2.125494463393910
Thrasher and Parakeet,SK17 6QS,53.258297465921400,-1.908686066822890
Cuscus and Mouse,SK7 4RU,53.376587025622100,-2.103693211670550
Civet and Diving bird,SK4 5EB,53.424725091447700,-2.170324925197350
Egret and Parrotbill,SK10 9RU,53.260670778400000,-2.125133896400000
Kangaroo and White ibis,M20 2TE,53.413944551510800,-2.235635953660480
Pheasant and Towhee,SK5 7RZ,53.417424566129100,-2.158620076143960
Eagle and Herring gull,SK23 7LG,53.326285668484900,-1.982169162374640
Mole and New World blackbird,SK9 2AN,53.323170164659700,-2.210694259395860
Grackle and American sparrow,SK6 6DE,53.394832473948100,-2.068263177642750
Tit-tyrant and Guillemot,SK9 3RN,53.352317000000000,-2.208059000000000
Bunting and Buzzard,SK10 2TJ,53.273760440577300,-2.135608754723730
Maya and Stilt,SK11 9SP,53.274113117076200,-2.278997418323620
Civet and Peafowl,SK9 4JN,53.355296674598800,-2.238767531984270
Marmoset and New World blackbird,SK4 1HX,53.414233000000000,-2.166777000000000
Ground sloth and Shearwater,SK4 3PX,53.417539389077300,-2.206872903253140
Snipe and Myna,SK8 4AG,53.395330128499000,-2.230570423256920
American sparrow and Darwin's finches,SK9 2NL,53.333615110003900,-2.210640674670140
Macaw and Tahr,SK4 3HA,53.413742238184800,-2.198640087552580
Stint and Crow,SK23 0XT,53.315138229197400,-1.915499731474350
Fox and Gull,SK5 8ED,53.428615647811400,-2.128456725930740
New World blackbird and Chicken,SK12 1NF,53.348776793066800,-2.122072226645500
Elephant and Hawk,SK1 3DX,53.407341000000000,-2.151452000000000
Badger and Perching duck,SK3 0ET,53.407791934474200,-2.162991639915030
Recurvebill and Kite,SK8 5LT,53.378664285942100,-2.190269000000000
Thicketbird and Quetzal,SK12 2NB,53.362377206524900,-2.063688118838850
Guillemot and Linsang,SK22 3DG,53.369189159903100,-2.011367694154000
Stilt and Crow,M20 6QD,53.416206029307500,-2.228261125513440
Tattler and Grosbeak,SK10 2UX,53.276150067750300,-2.136816032788030
Goose and Chickadee,M21 7SA,53.432723890985300,-2.268597009799360
Treepie and Badger,SK4 5BB,53.435451683985900,-2.186172778404750
Jay and Mamo,SK5 7PN,53.434430979157800,-2.165155823688880
Peafowl and Guillemot,M20 1FY,53.434927891936600,-2.242570745930400
Warbler and Stilt,SK9 1PZ,53.319121000000000,-2.237499000000000
Tit-tyrant and Coati,WA16 7DG,53.312849952557300,-2.277148883672960
Petrel and Wallaby,SK4 3NL,53.420916543435400,-2.197770737531900
Tattler and Philippine hawk-owl,SK7 3GR,53.372575812586500,-2.162045000000000
Hawaiian honeycreeper and Maya,SK11 6JE,53.257630410161000,-2.122906262767490
Ground sloth and Fulmarine petrel,SK6 6HU,53.395276519459200,-2.077076211626090
Maya and Tattler,SK8 3FE,53.378271703655500,-2.220030839427530
Hawk and Stilt,SK6 6JN,53.399191888896300,-2.082512559584000
Puffleg and Lemming,M19 1EP,53.432969673113600,-2.198067584069220
Moluccan boobook and Treepie,SK11 6QS,53.257512665936100,-2.132124611627280
White ibis and Chickadee,SK6 5JE,53.414930599959400,-2.050873345794720
Siskin and Jerboa,SK10 4DJ,53.291601531796300,-2.144576345852110
Tree warbler and Petrel,SK4 4AG,53.423201436408800,-2.185457073352380
Kākāriki and Dorcopsis,SK6 1HE,53.424408489283200,-2.100995785037240
B and Vole,SK9 7JD,53.308484211671900,-2.214838996589150
Black cockatoo and Jerboa,SK10 3DH,53.267475483125800,-2.144779674809950
Argus and Crow,SK9 5HD,53.325941543864400,-2.242296817239390
Dolphin and Buzzard,M20 5WN,53.406202605391500,-2.223063159862060
American sparrow and Wallaby,SK5 7JR,53.424471314598000,-2.151919711305580
Bunting and Duck,M22 5QG,53.377324366177900,-2.253501766525540
Mamo and Herring gull,SK10 2PW,53.267317254975200,-2.107491141246210
Linsang and Capuchin,M22 9ZA,53.385692983654000,-2.249131309702150
Parrotlet and Grackle,M23 2DA,53.387362577712200,-2.282429319159060
Mink and Herring gull,M22 9ZB,53.385558752573400,-2.248844865913320
Towhee and Minke whale,SK9 1DF,53.321624060285600,-2.220654742924440
Chickadee and Zebra,M22 1AB,53.378806322411800,-2.266408313997710
Shearwater and Polecat,SK5 7LP,53.426005245101100,-2.161135143460790
Francolin and Duck,M22 4PU,53.390674901533200,-2.256558389423190
Old World vulture and Grackle,M22 4HE,53.408965429192300,-2.257134873459370
Tattler and Mockingbird,SK6 2QE,53.425873283722200,-2.120683213748420
Mockingbird and Nukupuʻu,M21 8EA,53.433735488276500,-2.277785000000000
Dolphin and Perching duck,SK8 9AN,53.393117000000000,-2.217762000000000
Francolin and Capuchin,M19 1AF,53.431754170856900,-2.204609104481490
Kestrel and Mamo,SK10 1AQ,53.261778015485300,-2.127850292384170
Recurvebill and Ice seal,M21 7GQ,53.423132560898200,-2.260741653637320
Siskin and Jackal,M90 3FL,53.366150780650700,-2.274143778051700
Meadowlark and Kite,SK6 3LE,53.403586464220800,-2.095636859710640
Bronzewing pigeon and Shearwater,M23 2TF,53.381718353783000,-2.285939808266430
Mink and Fulmarine petrel,SK22 4AL,53.367814461682700,-2.001132969778680
Parrotlet and Warbler,M22 4WA,53.405482715768300,-2.250630867118080
Jay and Dorcopsis,SK23 7HY,53.327355738951200,-1.985291674997790
Stilt and Parrotlet,M22 4FL,53.409274485924400,-2.259694060535010
Goose and Black cockatoo,SK14 5EZ,53.435641144052200,-2.081424340040140
Parakeet and Chicken,SK12 1RQ,53.347493280316200,-2.110982850826670
Mole and Old World warbler,SK6 2AP,53.421487941497700,-2.119632502127660
Triller and Piping shrike,SK8 5JU,53.383732210635500,-2.196936659063560
Petrel and Gull,M23 1BF,53.399968868094500,-2.280617848503610
Dorcopsis and Old World quail,SK4 3LQ,53.416377984176200,-2.186194667041100
Minke whale and Thicketbird,M22 4SG,53.401721129515000,-2.261046777921870
Petrel and Tahr,SK9 3TD,53.355822874519900,-2.217436069875480
Wallaby and Dolphin,SK7 2HE,53.362073296394600,-2.151381745770200
Tahr and Parrotlet,SK6 3DP,53.411743860703000,-2.100740045567540
Hawk and Asiatic leopard,SK11 8UB,53.257784107350100,-2.159976560111750
New World blackbird and Shearwater,M20 6DA,53.421687000000000,-2.238809000000000
Herring gull and Solitaire,SK9 2NY,53.338930908819000,-2.208654449069750
Badger and Thrasher,M22 8FQ,53.392825019089500,-2.267984618248340
Ibex and Prion,SK22 4PA,53.361666153514700,-1.994701533514750
Buzzard and Recurvebill,SK8 7HS,53.371424303502600,-2.187335945737050
Zebra and Lemming,SK11 6HN,53.257055253752200,-2.122784693960870
Dolphin and Eagle,SK10 5WF,53.296394000000000,-2.119265000000000
Gull and Wader,SK22 3EG,53.362726908492000,-2.001102750229310
Logrunners and Tit-tyrant,SK4 1AS,53.409536401457200,-2.168955399902530
Condor and Capuchin,SK4 4BU,53.420168373830900,-2.193584225106020
Chickadee and Booted eagles,SK8 1LD,53.388176215880800,-2.220773000000000
Tattler and Parrotbill,SK23 0HW,53.324068734416100,-1.909687109470740
Old World warbler and Rabbit,SK23 0NT,53.324713824583300,-1.906953335991790
Quetzal and Marmoset,M22 5RX,53.379925000000000,-2.265017000000000
Minke whale and Greenbul,SK1 1RX,53.411668027951400,-2.161502092960260
Rabbit and Quetzal,SK9 7SH,53.308244832997800,-2.262546715309830
Jackal and Marmoset,SK7 3HE,53.379279263518200,-2.163649227070470
American sparrow and Grackle,M22 9WB,53.388439935553400,-2.263341084117100
Black cockatoo and Mink,SK8 4RT,53.381994635762900,-2.228709315501850
B and Snipe,SK23 7PW,53.346441000000000,-1.995635000000000
Pitohui and Guillemot,SK23 7ET,53.329381000000000,-1.908009000000000
Tree warbler and Old World vulture,SK2 5AA,53.404175246730800,-2.137031657391830
Buzzard and Peafowl,SK8 2JN,53.390042756846300,-2.191071606158650
Rat and Old World vulture,SK8 6SA,53.371598997630400,-2.206725118705990
Tree warbler and Booted eagles,SK4 3HP,53.417803524079200,-2.199561801615100
Kangaroo and Flameback,SK10 4NE,53.318806384117200,-2.132539381800890
Piping shrike and Moluccan boobook,SK10 1LR,53.262578858146900,-2.118348071013330
Skunk and Myna,M20 5PL,53.404274140364400,-2.220872073769590
B and Mink,SK8 1QB,53.393372099828300,-2.220274214196840
Prion and Thicketbird,SK10 1LY,53.259893466849900,-2.116062075474910
Meadowlark and Pheasant,SK8 3UB,53.371459053082200,-2.238362020832060
Armadillo and Tahr,M90 3NU,53.361932000000000,-2.271878000000000
Recurvebill and Stint,M21 7RW,53.434019935249200,-2.259709572093220
Rabbit and Polecat,SK5 7DS,53.429754500450800,-2.153533909341240
Warbler and Wader,SK6 7LX,53.388177000000000,-2.061456570948550
Tattler and Macaw,SK8 4HG,53.388704816213300,-2.244472775135750
Mole and Prion,SK1 1NT,53.410403000000000,-2.160774626078090
Mink and Vole,M20 2PT,53.422382990973900,-2.249782342915800
Duck and Crow,M20 3LW,53.426057021874300,-2.233144674213180
Rat and River dolphin,SK8 1HW,53.386092245915600,-2.209802384494670
Greenbul and Kākāriki,SK10 3DP,53.266901004938400,-2.144118037846280
Logrunners and Mink,SK6 8HS,53.362824980585400,-2.066709148176880
Triller and Old World warbler,SK8 3EF,53.368531265986500,-2.227885683175320
Snipe and Rat,M22 9GL,53.384180574086600,-2.270816852684500
Songlark and Peafowl,SK7 5BL,53.374451784342100,-2.135478069381630
Chicken and Tit-tyrant,SK6 5PX,53.393934168074300,-2.016201512937400
Parakeet and Duck,SK10 5PY,53.297837636878200,-2.092504079609550
Marmoset and Polecat,SK22 2NL,53.390671415474900,-1.950806672984390
Fish eagle and Stilt,SK6 2HG,53.417918045128000,-2.121066884594570
Dolphin and Perching duck,SK5 8JE,53.432680300313800,-2.134926013257100
Ice seal and Guillemot,SK11 6QL,53.256932579815300,-2.128300489689810
Black cockatoo and Jay,SK8 2DT,53.396463618890100,-2.205477239412730
Duck and Jerboa,SK12 1RG,53.347866720560000,-2.115279945239810
Capuchin and Snipe,SK8 2NP,53.396324480278000,-2.213055964729310
Tattler and Gull,SK9 5HJ,53.322849549711900,-2.237775488299000
Fish eagle and River dolphin,M22 5FD,53.381122943421400,-2.255193028614120
Scimitar babbler and Piping shrike,M90 5UZ,53.358085072139300,-2.283076939922550
Parrotbill and Vole,SK4 3PP,53.421943234072600,-2.201943671286110
Kangaroo and Boto,SK9 1AR,53.327862760856900,-2.229875784377510
Marsh harrier and White ibis,SK8 3DD,53.369012627468000,-2.225273231702110
Linsang and Vole,SK17 6TH,53.261334813762100,-1.920042843810140
Old World vulture and River dolphin,SK4 1AA,53.408818243113600,-2.161807181835300
Asiatic leopard and Stint,SK23 7NW,53.338379280585200,-1.960598251919890
Vulture and Solitaire,M21 7SE,53.433055749858100,-2.264896443496880
Quetzal and Nukupuʻu,SK23 0PG,53.326005000000000,-1.901320000000000
Grackle and Mouse,SK23 6WN,53.339916572209100,-1.939751000000000
Siskin and Ibex,SK6 7LQ,53.386854388544800,-2.061349245135240
Siskin and Kite,M20 3EJ,53.434926722694200,-2.234156605508860
Shearwater and Darwin's finches,SK5 8NG,53.431182434893900,-2.139933166626620
River dolphin and Francolin,SK4 5HT,53.432559704090900,-2.166352658731670
Tree warbler and Old World quail,SK6 7GF,53.374332734449800,-2.041941557242770
Diving bird and Marsh harrier,SK7 1LB,53.354742802889100,-2.161842360359790
Siskin and Jerboa,SK9 3HF,53.349720323710000,-2.221911603490850
Masked owl and River dolphin,SK6 1HW,53.425666000000000,-2.092391689003530
Hawk and B,SK10 9DB,53.262285133952600,-2.124313836652200
Magpie and Eagle,SK10 2TF,53.273422181408900,-2.132668603198310
Grackle and Civet,SK10 4TD,53.267412202881500,-2.235158532834510
Moluccan boobook and Recurvebill,SK17 6NS,53.261508112908000,-1.923895240889280
Mockingbird and Parakeet,SK6 1QS,53.427574010320400,-2.099137170694780
Chipmunk and Kite,SK7 2QH,53.365333182442300,-2.160530075194110
Minke whale and Hawaiian honeycreeper,M23 1HJ,53.396741598139700,-2.284566803488640
Ground sloth and Scimitar babbler,M22 0WQ,53.371656355669100,-2.260081194875130
Maya and Peafowl,SK7 2PS,53.368898053252500,-2.163188569279530
Songlark and Meadowlark,M21 7DG,53.432804975692800,-2.264021000000000
Chipmunk and Greenbul,SK3 8UZ,53.386309829822100,-2.162563643995740
Mamo and Vulture,SK6 1JJ,53.425242652037600,-2.092088957302030
Hawk and Kite,SK7 2AW,53.365385579656800,-2.174415754360620
Mamo and Recurvebill,SK10 3PL,53.264068424943800,-2.145038002881000
Old World quail and Tattler,SK8 3JW,53.368218987581000,-2.226666698945970
Hawaiian honeycreeper and Bunting,M19 1HD,53.429662120944900,-2.197931785602910
Meadowlark and Cuscus,SK6 8DU,53.365653469737400,-2.071732820993600
Solitaire and Lemming,M22 4JN,53.405796674103400,-2.259341939067270
Marmoset and Eagle,SK8 3WT,53.393116044966900,-2.217761652051020
Chipmunk and Black jay,SK10 3GB,53.262823582062600,-2.155632842000840
Old World warbler and American sparrow,M19 1BT,53.427299921230200,-2.207462126003510
Goose and Civet,M22 9PG,53.381878507293800,-2.263225391627900
Minke whale and Marsh harrier,SK3 9JG,53.403946258882400,-2.174678942494800
Warbler and Jay,SK4 5AP,53.432298712207800,-2.178994621813670
Buzzard and Goose,SK10 9PP,53.262303000000000,-2.124311000000000
New World blackbird and Wallaby,SK12 2EU,53.360429916247500,-2.033949110712340
Grouse and Chicken,M22 5FQ,53.376011990484800,-2.249255127139460
Dolphin and Songlark,SK7 1BD,53.356783548577900,-2.168100317190060
Darwin's finches and Polecat,M20 3FN,53.434590000000000,-2.237078286574010
Buzzard and Thicketbird,SK9 2AS,53.325696534000000,-2.217748000000000
Francolin and Hawaiian honeycreeper,SK10 5JD,53.295729000000000,-2.110053000000000
Pitohui and B,SK6 8HT,53.364747732876400,-2.068139760337670
Pitohui and Recurvebill,SK4 4RJ,53.427628981964200,-2.182090227530700
Grouse and Capuchin,SK10 5JQ,53.295989731713700,-2.109258648440770
Parakeet and Myna,SK13 6UX,53.436520191299100,-1.973920041944680
White ibis and Hawaiian honeycreeper,SK4 2AH,53.410700179314400,-2.184289392616720
Parrotlet and Grouse,SK23 6AR,53.340171000000000,-1.942048000000000
Perching duck and Marsh harrier,M20 4PZ,53.435421171729800,-2.224766697771570
Thicketbird and Siskin,SK12 1JN,53.347982013452600,-2.125705142064400
Maya and Grosbeak,SK10 1JG,53.258550000000000,-2.120885000000000
Hawaiian honeycreeper and Lemming,SK3 8AS,53.402019000000000,-2.158518000000000
Guillemot and White ibis,SK5 8AL,53.423975928900500,-2.137968237027040
Stilt and Marsh harrier,SK10 4DT,53.306550344011600,-2.151350024315620
Black jay and Towhee,SK7 1SG,53.341464000000000,-2.157196000000000
Hawaiian honeycreeper and Polecat,M22 9NL,53.388280197329200,-2.262407886017100
Kestrel and Buzzard,SK7 2HD,53.362086520261600,-2.155078290577600
Francolin and Old World vulture,M21 8DJ,53.431830543296300,-2.277968167269110
Jerboa and Pheasant,SK9 4HR,53.341131848388900,-2.238117590799770
Jerboa and Goose,M20 2XF,53.422926062111200,-2.252268429870910
Partridge and Dorcopsis,SK4 1PZ,53.421399098206400,-2.164082021893340
Rabbit and Mamo,SK4 5DU,53.427535087299000,-2.172698944208810
Coati and Capuchin,SK9 7BL,53.297939219383700,-2.229939958691430
Armadillo and Gull,SK8 6DQ,53.376420639501500,-2.204553901337650
Treepie and Elephant,SK9 6AG,53.321446872058200,-2.246835025741840
Grosbeak and Prion,SK6 5WA,53.393109406924400,-2.063313129998130
Mamo and Jay,SK8 6GS,53.364262000000000,-2.203278000000000
Perching duck and Dolphin,M20 1FJ,53.434807172113700,-2.244466619481210
Dorcopsis and Elephant,M20 5GD,53.402142178524100,-2.231238992942050
Gull and Diving bird,M23 2GB,53.391198476800500,-2.283371972221310
Thicketbird and Darwin's finches,SK6 6NE,53.399036305349800,-2.072902000000000
Armadillo and Booted eagles,SK7 1DG,53.357975786900100,-2.170388811625090
Prion and Mole,M22 9QW,53.384330161264300,-2.272231024939060
Goose and Fox,SK8 6LU,53.366474176608900,-2.191356722895470
Parrotbill and Prion,M20 1JZ,53.432084022825800,-2.248635186655560
Triller and Parrotlet,SK12 1DE,53.354335764622400,-2.108671995816570
Hawk and Boto,M22 1NH,53.372438025651200,-2.264324445579470
Vulture and Philippine hawk-owl,SK7 1DJ,53.356322910066600,-2.175986000000000
Ibex and Thrasher,SK8 2GG,53.396852000000000,-2.199599000000000
Shearwater and Kestrel,M21 7JQ,53.426862263318000,-2.265068591501490
Crow and Francolin,M22 4EY,53.408600006298500,-2.255688556036810
Fox and Black jay,SK9 0GS,53.328246000000000,-2.231363000000000
Armadillo and Chicken,SK6 1NJ,53.426319051905700,-2.094920510568810
Goose and Grosbeak,SK5 8HW,53.432568313348900,-2.138522908802310
Mamo and Puffleg,SK8 6AL,53.372954045330000,-2.208009259262290
Civet and Cloud rat,SK10 3NX,53.264202324854800,-2.159805654431890
Snipe and Tree warbler,SK6 8EJ,53.365325105410200,-2.064368772308590
Bunting and New World blackbird,SK5 7LJ,53.425340000000000,-2.155413124198050
Polecat and Mink,SK1 4JH,53.404145824074100,-2.139152375589360
Stilt and Scimitar babbler,M22 5FY,53.377280343135800,-2.248796555244310
Old World warbler and Vole,SK7 1PR,53.339596628803700,-2.168543247889040
Argus and Night heron,SK11 9AY,53.272400927908300,-2.284624374079860
Jackal and Jerboa,SK10 4LD,53.321952426005700,-2.105572035537120
Siskin and Triller,SK10 9YU,53.260670778400000,-2.125133896400000
