name,postcode,lat,lon
The Royal Oak,IP13 8DH,52.301776842951200,1.365957000000000
The Rumburgh Buck,IP19 0NT,52.380563000000000,1.444524000000000
Huntingfield Arms,IP19 0PU,52.313074976163200,1.434111697716060
PuraVida,IP20 0EN,52.418425955797300,1.349492725247670
The Black Swan,IP20 0ET,52.420204363639300,1.358762926763860
Sir Alfred Munnings Hotel,IP20 0NH,52.397565916791100,1.336251913575130
Onward Enterprises at The Parlour,IP20 9AB,52.401388946175900,1.299412428651250
JD Young Hotel,IP20 9AD,52.401760700757200,1.298766000000000
The Swan Hotel (Harleston) Ltd,IP20 9AS,52.402960741088600,1.300132690416470
Momiji Japanese Restaurant,IP20 9BZ,52.398787375850400,1.295630588665750
mrs clarkes general store,IP20 9EN,52.403834882194500,1.301036164482010
The Broken Egg (Norfolk) Limited,IP20 9QN,52.410050720598700,1.314486987773450
Crossways Inn,IP21 4DP,52.365155000000000,1.154229000000000
Scole Inn T A  Diss By Verve,IP21 4DR,52.365847793197100,1.155188897954340
The Pennoyer Centre,IP21 4QT,52.420038245162800,1.246318914694230
The Falcon Inn,IP21 4SU,52.429543602151200,1.230936253244040
Watering Can,IP21 4XP,52.441909613376900,1.214460443447840
Goodies Food Hall,IP21 4XU,52.459423581658700,1.232801209891150
Swan Inn,IP21 5AS,52.350454919420000,1.199811607843830
Fox and Goose Fressingfield,IP21 5PB,52.348369000000000,1.318483304878240
Wortham Stores and Teashop,IP22 1PP,52.353980136328200,1.060372000000000
Bressingham Garden Centre,IP22 2AB,52.384626208025900,1.057053598664670
strenneth,IP22 2FF,52.417122236862700,1.048212009163940
Aimes Ltd t/a Costa Coffee Diss,IP22 4AD,52.375035819472900,1.109203096897260
Katie's Kitchen,IP22 4AF,52.376519901427700,1.108363000000000
TimeOut Coffee and Food,IP22 4EX,52.373717952444200,1.109727627269880
Weavers Wine Bar and Eating House,IP22 4JZ,52.377111892243900,1.107920000000000
Amandines cafe restaurant,IP22 4LB,52.377470384729400,1.107596078526570
The Corn Hall Cafe,IP22 4LB,52.377470384729400,1.107596078526570
The Park Hotel,IP22 4LE,52.375871882726000,1.105455874297790
The Angel Cafe,IP22 4NQ,52.373552953973500,1.101296272965330
Saracens Head,IP22 4QQ,52.379226000000000,1.110659000000000
The White Hart,IP22 5RU,52.381256692844100,1.080129482983000
The Oaksmere ,IP23 8AJ,52.344549539272100,1.138031971895160
BROME GRANGE HOTEL,IP23 8AP,52.345035745770600,1.131575749329330
The Cherry Tree,IP23 8BH,52.326700834680600,1.113173000000000
The Bull Auberge LTD,IP23 8BZ,52.314073000000000,1.104746151753440
The Forge Cafe ,IP23 8HH,52.301989602806500,1.075252552755320
The Old Ram Coaching Inn,NR15 2DE,52.425451698729800,1.203184475134860
The Three Horse Shoes PH,NR15 2NS,52.487750997741200,1.311520221551490
Cafe Savannah,NR15 2XJ,52.487587814087300,1.234587795759950
The jolly farmers,NR16 1LG,52.501478291906100,1.150161923559750
Earsham Street Cafe,NR35 1AE,52.456405026983900,1.436341299287570
Buttercross Garden cafe,NR35 1AU,52.455855490350500,1.437608808434390
FARMHOUSE BAKERY,NR35 1AW,52.455886257826400,1.436860340658980
The Fleece Inn,NR35 1AX,52.454795298961900,1.437570327859080
Bungay Golf Club ,NR35 1DS,52.458164901120000,1.429013582899890
BUGS PLAY CAFE,NR35 1PD,52.443351324575000,1.430570274686170
Smokey Joe's,NR35 2JL,52.467160725867500,1.440095643611720
Old Hall Farm,NR35 2LP,52.504547527990000,1.378725001260030
The kings Head,NR35 2LR,52.495812000000000,1.380751000000000
