name,postcode,lat,lon
The Royal Oak,IP13 8DH,52.3018,1.3660
The Rumburgh Buck,IP19 0NT,52.3806,1.4445
Huntingfield Arms,IP19 0PU,52.3131,1.4341
PuraVida,IP20 0EN,52.4184,1.3495
The Black Swan,IP20 0ET,52.4202,1.3588
Sir Alfred Munnings Hotel,IP20 0NH,52.3976,1.3363
Onward Enterprises at The Parlour,IP20 9AB,52.4014,1.2994
JD Young Hotel,IP20 9AD,52.4018,1.2988
The Swan Hotel (Harleston) Ltd,IP20 9AS,52.4030,1.3001
MARK'S CAFE,IP20 9BB,52.4019,1.2999
Momiji Japanese Restaurant,IP20 9BZ,52.3988,1.2956
mrs clarkes general store,IP20 9EN,52.4038,1.3010
The Broken Egg (Norfolk) Limited,IP20 9QN,52.4101,1.3145
Crossways Inn,IP21 4DP,52.3652,1.1542
Scole Inn T A  Diss By Verve,IP21 4DR,52.3658,1.1552
The Pennoyer Centre,IP21 4QT,52.4200,1.2463
The Falcon Inn,IP21 4SU,52.4295,1.2309
Watering Can,IP21 4XP,52.4419,1.2145
Goodies Food Hall,IP21 4XU,52.4594,1.2328
Swan Inn,IP21 5AS,52.3505,1.1998
The White Hart,IP21 5HT,52.3179,1.2735
Fox and Goose Fressingfield,IP21 5PB,52.3484,1.3185
Wortham Stores and Teashop,IP22 1PP,52.3540,1.0604
Bressingham Garden Centre,IP22 2AB,52.3846,1.0571
strenneth,IP22 2FF,52.4171,1.0482
Aimes Ltd t/a Costa Coffee Diss,IP22 4AD,52.3750,1.1092
Katie's Kitchen,IP22 4AF,52.3765,1.1084
TimeOut Coffee and Food,IP22 4EX,52.3737,1.1097
Spice Cottage,IP22 4JT,52.3770,1.1089
Weavers Wine Bar and Eating House,IP22 4JZ,52.3771,1.1079
Amandines cafe restaurant,IP22 4LB,52.3775,1.1076
Number 11 Diss Limited,IP22 4LB,52.3775,1.1076
The Corn Hall Cafe,IP22 4LB,52.3775,1.1076
The Park Hotel,IP22 4LE,52.3759,1.1055
The Angel Cafe,IP22 4NQ,52.3736,1.1013
Saracens Head,IP22 4QQ,52.3792,1.1107
The White Hart,IP22 5RU,52.3813,1.0801
The Oaksmere ,IP23 8AJ,52.3445,1.1380
BROME GRANGE HOTEL,IP23 8AP,52.3450,1.1316
The Cherry Tree,IP23 8BH,52.3267,1.1132
The Bull Auberge LTD,IP23 8BZ,52.3141,1.1047
The Forge Cafe ,IP23 8HH,52.3020,1.0753
The Old Ram Coaching Inn,NR15 2DE,52.4255,1.2032
The Three Horse Shoes PH,NR15 2NS,52.4878,1.3115
Cafe Savannah,NR15 2XJ,52.4876,1.2346
The jolly farmers,NR16 1LG,52.5015,1.1502
Earsham Street Cafe,NR35 1AE,52.4564,1.4363
Buttercross Garden cafe,NR35 1AU,52.4559,1.4376
FARMHOUSE BAKERY,NR35 1AW,52.4559,1.4369
The Fleece Inn,NR35 1AX,52.4548,1.4376
BUNGAY GOLF CLUB,NR35 1DS,52.4582,1.4290
Bungay Golf Club ,NR35 1DS,52.4582,1.4290
BUGS PLAY CAFE,NR35 1PD,52.4434,1.4306
Smokey Joe's,NR35 2JL,52.4672,1.4401
Old Hall Farm,NR35 2LP,52.5045,1.3787
The Kings Head,NR35 2LR,52.4958,1.3808
The kings Head,NR35 2LR,52.4958,1.3808
