name,postcode,lat,lon
Thicketbird and Booted eagles,IP13 8EE,52.301251278172700,1.361204182266350
Dorcopsis and crocodile,IP13 8EL,52.310883244963600,1.334919167629270
garter snake and horned toad,IP19 0BD,52.362298185978600,1.436667413710720
snake and turtle,IP19 0DT,52.346688000000000,1.388356000000000
Moluccan boobook and goanna,IP19 0HX,52.380186942780100,1.398785801087820
blind snake and Goose,IP19 0NU,52.384029118684600,1.445588268226370
Hawk and Condor,IP20 0AN,52.445478000000000,1.353092000000000
alligator and New World blackbird,IP20 0ET,52.420204363639300,1.358762926763860
boa and Diving bird,IP20 0HH,52.413333843128200,1.342561341091430
Tahr and Ground sloth,IP20 0JQ,52.372393097108600,1.325683093535220
Thicketbird and Puffleg,IP20 0LH,52.372626609362100,1.367580670798790
blue tongue and gecko,IP20 0PB,52.390967274005400,1.369095425358580
thorny devil and Condor,IP20 9AB,52.401388946175900,1.299412428651250
horned toad and Kestrel,IP20 9AJ,52.402251097410300,1.298491609980500
Chickadee and tortoise,IP20 9BE,52.401625037626300,1.300297606673760
krait and Grouse,IP20 9DN,52.399167000000000,1.302378000000000
habu and Francolin,IP20 9DU,52.400550143363700,1.302393497868950
tuatara and Tahr,IP20 9DX,52.401420156980800,1.300870470459030
chuckwalla and Mockingbird,IP20 9ER,52.404037521287000,1.301677000000000
Schneider python and king snake,IP20 9FD,52.398185065125500,1.303025426376030
Capuchin and Capuchin,IP20 9HA,52.401443781431400,1.298093149016880
Moluccan boobook and Greenbul,IP20 9LX,52.401627132484700,1.299619000000000
Black cockatoo and thorn lizard,IP20 9NF,52.401777269011700,1.270900539361710
bushmaster and Perching duck,IP20 9PH,52.437531824243500,1.283395098234640
Skunk and Snipe,IP20 9PR,52.421680555478200,1.297750940951950
green turtle and Cloud rat,IP20 9QG,52.405714607334300,1.299426647079440
dukite and Crow,IP20 9QN,52.410050720598700,1.314486987773450
milk snake and diamond snake,IP21 4AQ,52.357173499021100,1.179159802383600
Vulture and Boto,IP21 4BU,52.344749046210600,1.099632000000000
tiger snake and deaf adder,IP21 4DF,52.367355587019400,1.160350565838070
fer-de-lance and Hawaiian honeycreeper,IP21 4DJ,52.367350240255200,1.145393453484290
Grouse and snake,IP21 4DT,52.365919547614500,1.158896350375020
Rabbit and Magpie,IP21 4EH,52.364470275313400,1.153224878619060
mud turtle and wall lizard,IP21 4EL,52.382844820688700,1.174685156831510
box turtle and rock snake,IP21 4FF,52.397452000000000,1.219970000000000
massasauga and Buzzard,IP21 4HL,52.363163989592200,1.181470601862720
asp and copperhead,IP21 4HY,52.381839423415800,1.222761189534040
garter snake and Fox,IP21 4JR,52.375676171370900,1.237977309703350
gavial and Scimitar babbler,IP21 4JU,52.378190589447000,1.257736767432030
loggerhead and death adder,IP21 4LP,52.359698000000000,1.242478000000000
Thicketbird and Guillemot,IP21 4LU,52.352750000000000,1.253117000000000
saltwater crocodile and Thrasher,IP21 4QT,52.420038245162800,1.246318914694230
indigo snake and Partridge,IP21 4RB,52.422772753080600,1.248594219463610
Zebra and Francolin,IP21 4SX,52.429777164759100,1.228643352393970
cycling lizard and cayman,IP21 4TF,52.424799935111400,1.224327000000000
agama and flying lizard,IP21 4UE,52.402867622474700,1.161831053946390
Stint and Armadillo,IP21 4UH,52.402813725339400,1.167870589567690
Mamo and coral snake,IP21 4UJ,52.402540891620000,1.169659627318030
Duck and moloch,IP21 4XG,52.433401000000000,1.229102492331560
dukite and Wader,IP21 4XT,52.450848060274400,1.238222762175630
green turtle and Boto,IP21 4YD,52.437118405103300,1.243660772889480
Wader and tree snake,IP21 5AF,52.339100911828900,1.208902320503780
puff adder and rat snake,IP21 5AY,52.354210035463300,1.213214204717650
Peafowl and diamond snake,IP21 5BL,52.347693481352400,1.311006159337750
sidewinder and rattlesnake,IP21 5BN,52.323411169936700,1.269663127352920
leguaan and lizard,IP21 5BT,52.339080000000000,1.243949000000000
mud turtle and moloch,IP21 5HB,52.323825348356500,1.269679042303530
Mouse and boomslang,IP21 5HE,52.324339795372600,1.269614253734780
cycling lizard and harlequin snake,IP21 5NA,52.328677987727200,1.274367716191980
Treepie and Partridge,IP21 5PQ,52.346146636114500,1.317763476073190
tortoise and green turtle,IP21 5RQ,52.347099483990400,1.314852000000000
Kite and Songlark,IP21 5TL,52.370096614993000,1.302720390881790
Grouse and bandy-bandy,IP21 5UX,52.364495139348200,1.279750298420390
puff adder and Mink,IP22 1PY,52.351054048383100,1.059478748917900
Warbler and Marmoset,IP22 1RG,52.365882800184200,1.040729243714060
Cloud rat and Mamo,IP22 1SU,52.373831530073400,1.074822170924790
Herring gull and agamid,IP22 2AW,52.396422049654900,1.047093079807030
glass snake and Marmoset,IP22 2BD,52.400242779382600,1.070072443734490
Asiatic leopard and Buzzard,IP22 2DF,52.409387060532600,1.098737501684980
Pitohui and Diving bird,IP22 2DH,52.410181086839500,1.100352066721510
flying dragon and Goose,IP22 2DP,52.413990971435500,1.095677709755340
Viscacha and hognose snake,IP22 2EE,52.433419971447600,1.089712487278540
Puffleg and snake,IP22 2EF,52.432485694069600,1.081407407438740
black snake and frill-necked lizard,IP22 2EJ,52.432492749484900,1.097990289401380
Kestrel and deaf adder,IP22 2EW,52.431241901831100,1.096789000000000
leguaan and amethystine python,IP22 2HG,52.406578000000000,1.065469000000000
soft-shelled turtle and caiman,IP22 4DF,52.379879877855100,1.112747418020980
frill-necked lizard and carpet snake,IP22 4DZ,52.382758988556100,1.105527964660040
Grosbeak and cobra de capello,IP22 4HN,52.373557456818800,1.123646450631210
death adder and alligator,IP22 4NP,52.378584772826400,1.119225326159860
Jay and Magpie,IP22 4PE,52.379852324329200,1.122988801699280
dugite and American sparrow,IP22 4PR,52.375004637745900,1.115504918721010
milk snake and Macaw,IP22 4QZ,52.381801719879200,1.104652412614330
frilled lizard and Greenbul,IP22 4SY,52.385372371904000,1.112502029519500
giant tortoise and Solitaire,IP22 4UB,52.378431411702800,1.125680651806000
Macaw and Thicketbird,IP22 4WY,52.371579064585200,1.121258644923840
whip snake and Meadowlark,IP22 5BJ,52.374567496289000,1.094505081032440
anaconda and Armadillo,IP22 5QX,52.380664342668600,1.090067123077310
Eagle and Snipe,IP22 5SX,52.390055271115800,1.120784237285460
Fulmarine petrel and Old World warbler,IP22 5UW,52.426937897874300,1.149578048727780
American sparrow and diamond snake,IP22 5XJ,52.379099092035100,1.095233615605950
dukite and moloch,IP23 7AB,52.320806455342800,1.145802473003330
slowworm and Francolin,IP23 7DG,52.329105652512600,1.144835615826260
Triller and Chicken,IP23 7DN,52.314728000000000,1.124797000000000
moloch and Quetzal,IP23 7HB,52.305459736386900,1.108944234252390
Argus and Masked owl,IP23 7NH,52.318039086253300,1.156818447047610
Grosbeak and Elephant,IP23 8BU,52.322078512629200,1.111724357295150
Parrotlet and amethystine python,IP23 8EY,52.309239508296000,1.089327616194070
taipan and Bunting,IP23 8HH,52.301989602806500,1.075252552755320
cobra de capello and hognose snake,IP23 8HW,52.305594607968500,1.043273000000000
agamid and Wader,IP23 8JA,52.302677000000000,1.044272000000000
dugite and skink,IP23 8JX,52.305375000000000,1.041751241214520
snapping turtle and cobra de capello,NR15 1AR,52.520789220375800,1.235686411692160
Lemming and viper,NR15 1NJ,52.514419183980800,1.250534683400720
Capuchin and Lemming,NR15 1TH,52.520625000000000,1.309910000000000
bicycle lizard and Kangaroo,NR15 2HB,52.466004552446000,1.190859933265310
dugite and gopher snake,NR15 2LN,52.501574980196400,1.280535077265040
Francolin and blindworm,NR15 2ND,52.504690278199000,1.295609022446200
rattlesnake and Darwin's finches,NR15 2NX,52.482797106738700,1.295046481838660
whip snake and Chickadee,NR15 2PD,52.485395731293200,1.220667219764840
king cobra and whip snake,NR15 2PJ,52.490792787693300,1.234469542561370
Logrunners and agamid,NR15 2QL,52.485473785335100,1.265355136724330
American sparrow and blue tongue,NR15 2RL,52.483693602803600,1.234257690077880
frill-necked lizard and moloch,NR15 2RY,52.480857736486200,1.231073978552600
Old World warbler and hognose snake,NR15 2RZ,52.480197000000000,1.262033000000000
bearded lizard and Boto,NR15 2SW,52.464270933980500,1.273974226815850
smooth snake and Linsang,NR15 2TL,52.481216000000000,1.230511000000000
Tit-tyrant and White ibis,NR15 2TY,52.485922222978000,1.224447661013610
Boto and Solitaire,NR15 2UP,52.470005000000000,1.214182000000000
soft-shelled turtle and Ice seal,NR15 2WH,52.490998389888100,1.240098236425350
Snipe and swift,NR15 2WZ,52.486926623400000,1.221884042900000
Jackal and chuckwalla,NR15 2XP,52.492419304194600,1.230242369949220
Old World vulture and Stint,NR15 2XS,52.487372704028300,1.229297725588330
carpet snake and deaf adder,NR15 2XW,52.485710599027000,1.233183005755910
Chickadee and death adder,NR16 1AB,52.501582423436500,1.117733215201480
Nukupuʻu and Stint,NR16 1DN,52.512519749524000,1.149932000000000
smooth snake and Meadowlark,NR16 1DQ,52.502031398612700,1.152692086246180
hognose snake and water snake,NR16 1HX,52.491226419221500,1.184376934798450
caiman and flying lizard,NR16 1HZ,52.495251377287000,1.193199572351580
blue racer and iguana,NR16 1JU,52.502136488397200,1.179329935618270
cerastes and Mouse,NR16 1JW,52.513087151893800,1.205107063745130
Francolin and box turtle,NR16 1PW,52.456586631566900,1.114050938003220
garter snake and Mole,NR16 1QG,52.467727000000000,1.122701000000000
Civet and frill-necked lizard,NR16 1SJ,52.493802753320800,1.130001394541940
Kākāriki and Buzzard,NR16 2AX,52.472908942627200,1.071110536328440
saltwater crocodile and thorny devil,NR16 2AZ,52.471851000000000,1.071761739009010
Greenbul and diamond python,NR17 1RG,52.483987043923200,1.039857789047860
boa constrictor and Peafowl,NR35 1AA,52.456616521060500,1.434325992650760
Wallaby and Jay,NR35 1BX,52.453435961100800,1.439466565270490
box turtle and saltwater crocodile,NR35 1DJ,52.451225000000000,1.441620000000000
tiger snake and goanna,NR35 1DL,52.450644595253600,1.442355033070930
Tahr and Badger,NR35 1DZ,52.457330916841100,1.431716711241910
snapping turtle and Polecat,NR35 1PN,52.445143000000000,1.439512000000000
Solitaire and Bunting,NR35 2AL,52.454754647740000,1.399494988208580
monitor and Mamo,NR35 2AP,52.458621059146200,1.380092905759430
thorn lizard and grass snake,NR35 2DD,52.482921923054000,1.376034969361360
Puffleg and Kite,NR35 2DN,52.474002532355400,1.417882000000000
cycling lizard and moloch,NR35 2LA,52.482570415736600,1.403968632938020
Tree warbler and alligator,NR35 2NA,52.505732808114400,1.372492813046940
loggerhead and rock python,NR35 2NG,52.495920836656200,1.350020451949050
