name,postcode,lat,lon
The Royal Oak,IP13 8DH,52.30178900000000,1.36673200000000
The Rumburgh Buck,IP19 0NT,52.38057300000000,1.44451000000000
Huntingfield Arms,IP19 0PU,52.31308700000000,1.43409800000000
PuraVida,IP20 0EN,52.41831970214840,1.34937798976898
The Black Swan,IP20 0ET,52.4202,1.3588
Sir Alfred Munnings Hotel,IP20 0NH,52.39757800000000,1.33623800000000
Onward Enterprises at The Parlour,IP20 9AB,52.40140100000000,1.29939900000000
JD Young Hotel,IP20 9AD,52.40177300000000,1.29864700000000
The Swan Hotel (Harleston) Ltd,IP20 9AS,52.40297300000000,1.30011900000000
MARK'S CAFE,IP20 9BB,52.40186500000000,1.29986000000000
Momiji Japanese Restaurant,IP20 9BZ,52.39879900000000,1.29561700000000
mrs clarkes general store,IP20 9EN,52.40380180000000,1.30079550000000
Waterfall Elior @ Harleston Primary,IP20 9HG,52.40444400000000,1.30636100000000
The Broken Egg (Norfolk) Limited,IP20 9QN,52.41006088256840,1.31447398662567
Crossways Inn,IP21 4DP,52.36532700000000,1.15459400000000
Scole Inn T A  Diss By Verve,IP21 4DR,52.3658,1.1552
The Pennoyer Centre,IP21 4QT,52.42005157470700,1.24630498886108
The Falcon Inn,IP21 4SU,52.42955398559570,1.23092305660248
Watering Can,IP21 4XP,52.44192200000000,1.21444700000000
Goodies Food Hall,IP21 4XU,52.45943500000000,1.23278800000000
Swan Inn,IP21 5AS,52.35046768188480,1.19979798793793
The White Hart,IP21 5HT,52.31793100000000,1.27345700000000
Fox and Goose Fressingfield,IP21 5PB,52.34851300000000,1.31847000000000
Wortham Stores and Teashop,IP22 1PP,52.35392400000000,1.06023600000000
Bressingham Garden Centre,IP22 2AB,52.38463973999020,1.05703997612000
strenneth,IP22 2FF,52.41713430000000,1.04791510000000
Aimes Ltd t/a Costa Coffee Diss,IP22 4AD,52.3750,1.1092
Costa Coffee,IP22 4AD,52.37510200000000,1.10916400000000
Katie's Kitchen,IP22 4AF,52.37653100000000,1.10850000000000
TimeOut Coffee and Food,IP22 4EX,52.37373000000000,1.10971400000000
Spice Cottage,IP22 4JT,52.37704400000000,1.10887400000000
Weavers Wine Bar and Eating House,IP22 4JZ,52.37712400000000,1.10821900000000
Amandines cafe restaurant,IP22 4LB,52.37748200000000,1.10758300000000
Number 11 Diss Limited,IP22 4LB,52.3775,1.1076
The Corn Hall Cafe,IP22 4LB,52.3775,1.1076
The Park Hotel,IP22 4LE,52.37592700000000,1.10549000000000
The Angel Cafe,IP22 4NQ,52.3736,1.1013
Saracens Head,IP22 4QQ,52.37890300000000,1.11032800000000
The White Hart,IP22 5RU,52.38126900000000,1.08011600000000
The Oaksmere ,IP23 8AJ,52.34456100000000,1.13801900000000
BROME GRANGE HOTEL,IP23 8AP,52.34504800000000,1.13156200000000
The Cherry Tree,IP23 8BH,52.32671300000000,1.11343000000000
The Bull Auberge LTD,IP23 8BZ,52.31487200000000,1.10473300000000
The Forge Cafe ,IP23 8HH,52.30200100000000,1.07523900000000
The Old Ram Coaching Inn,NR15 2DE,52.42546400000000,1.20317100000000
The Three Horse Shoes PH,NR15 2NS,52.48776300000000,1.31150700000000
Cafe Savannah,NR15 2XJ,52.48760000000000,1.23457400000000
The jolly farmers,NR16 1LG,52.50149000000000,1.15014800000000
Earsham Street Cafe,NR35 1AE,52.45641700000000,1.43632800000000
Buttercross Garden cafe,NR35 1AU,52.45586800000000,1.43759500000000
FARMHOUSE BAKERY,NR35 1AW,52.45589800000000,1.43684700000000
The Fleece Inn,NR35 1AX,52.45480700000000,1.43755700000000
BUNGAY GOLF CLUB,NR35 1DS,52.45817700000000,1.42900000000000
Bungay Golf Club ,NR35 1DS,52.45817700000000,1.42900000000000
Waterfall Elior At Bungay Cp Primary School,NR35 1HA,52.45343000000000,1.44194000000000
BUGS PLAY CAFE,NR35 1PD,52.44336300000000,1.43055600000000
Smokey Joe's,NR35 2JL,52.46717300000000,1.44008200000000
Old Hall Farm,NR35 2LP,52.50455856323240,1.37871098518372
The kings Head,NR35 2LR,52.49530400000000,1.37841400000000
