name,postcode,lat,lon
Dolphin and Parrotbill,IP13 8DG,52.300531756207000,1.358993030503020
Maya and indigo snake,IP13 8DT,52.300410168062600,1.367360864698000
Night heron and mamba,IP19 0EY,52.302142140061900,1.393240812954860
boomslang and crocodile,IP19 0HX,52.380186942780100,1.398785801087820
Coati and mountain devil,IP19 0LP,52.325111093468400,1.447316463555410
Thicketbird and goanna,IP19 0PW,52.310992000000000,1.420699000000000
New World blackbird and anole,IP20 0AA,52.432702401543600,1.360155416891270
Marmoset and Kākāriki,IP20 0BW,52.432716503936800,1.340629968532040
White ibis and Fish eagle,IP20 0BY,52.435175221092300,1.346231416787080
Jackal and Diving bird,IP20 0LE,52.370521608116100,1.369800862147490
tree snake and B,IP20 0LS,52.367884965625400,1.373666000000000
rock python and Bronzewing pigeon,IP20 0NR,52.398298000000000,1.350143000000000
diamondback terrapin and Parrotbill,IP20 0PH,52.405772000000000,1.379504000000000
python and bearded dragon,IP20 0PS,52.394825333863200,1.412026209908290
Boto and Hawk,IP20 9AD,52.401760700757200,1.298766000000000
monitor and Flameback,IP20 9BW,52.400745432658600,1.297335237412150
Treepie and Mole,IP20 9DD,52.400168423055300,1.294807252344460
Tattler and horned viper,IP20 9DT,52.400022695826600,1.304530227641310
turtle and Recurvebill,IP20 9EG,52.402193021529300,1.299604809589330
bushmaster and lizard,IP20 9EJ,52.399698985665100,1.297448299789380
Schneider python and Fulmarine petrel,IP20 9EU,52.403230000000000,1.300212000000000
horned toad and mamba,IP20 9HA,52.401443781431400,1.298093149016880
Recurvebill and Chickadee,IP20 9NR,52.411823875518300,1.274777148659210
Masked owl and Bunting,IP20 9PH,52.437531824243500,1.283395098234640
sand viper and Grouse,IP20 9QD,52.404272040237000,1.296010272139780
Gila monster and Shearwater,IP21 4BZ,52.347736083162000,1.098768145778160
Boto and swift,IP21 4EZ,52.380019000000000,1.135490333135930
Linsang and smooth snake,IP21 4HZ,52.385241789599500,1.227271736982860
cobra and boa constrictor,IP21 4JS,52.377063592698000,1.248042656557200
Solitaire and cerastes,IP21 4NG,52.386275000000000,1.177268000000000
Flameback and brown snake,IP21 4PJ,52.390187442781600,1.187898490619130
asp and Mink,IP21 4PQ,52.404441476648300,1.199573044970010
carpet snake and Fulmarine petrel,IP21 4QF,52.401858000000000,1.230411000000000
indigo snake and gopher snake,IP21 4QU,52.421664140467800,1.246717951120500
mamba and king cobra,IP21 4RL,52.406727082336700,1.259722949010730
Peafowl and carpet snake,IP21 4TN,52.433188106111700,1.226582678586890
fer-de-lance and gopher snake,IP21 4UD,52.395916551334300,1.229933000476430
Snipe and Buzzard,IP21 4UU,52.404146000000000,1.174907000000000
Grosbeak and Mink,IP21 4XD,52.432995105352700,1.227392577034700
American sparrow and Gila monster,IP21 5AZ,52.350781000000000,1.209029000000000
chuckwalla and tortoise,IP21 5BG,52.337898000000000,1.211840000000000
hoop snake and Dorcopsis,IP21 5BY,52.338983126861400,1.245777772243740
copperhead and black snake,IP21 5EA,52.315075201455900,1.245861267869400
Dorcopsis and leathery turtle,IP21 5HD,52.317170854146800,1.272563609012290
worm lizard and sand viper,IP21 5LN,52.314507647052500,1.270004286495770
Diving bird and terrapin,IP21 5ND,52.334580954253300,1.259637759001430
box turtle and Marmoset,IP21 5PA,52.347938180378500,1.318661427880720
Civet and caiman,IP21 5PX,52.347053000000000,1.320108000000000
dukite and slowworm,IP21 5QA,52.348034893632000,1.320019832294870
Flameback and Dolphin,IP21 5QQ,52.347440512468300,1.321326396321430
Solitaire and rat snake,IP21 5QT,52.342465658547400,1.286341742251870
Mamo and Parrotlet,IP21 5RD,52.346773000000000,1.267632492380950
Pratincole and giant tortoise,IP21 5SH,52.341878000000000,1.360646953385710
Jackal and Egret,IP21 5TF,52.370773264373600,1.301037023423260
bushmaster and monitor,IP21 5TT,52.375718000000000,1.293750000000000
Kestrel and B,IP22 1PY,52.351054048383100,1.059478748917900
Asiatic leopard and Condor,IP22 1QG,52.332910419217500,1.044188000000000
cobra and Grouse,IP22 1QN,52.347430523207200,1.052150064261160
Black jay and Night heron,IP22 1RD,52.354021996829700,1.041721071918890
Masked owl and diamondback turtle,IP22 1SW,52.366106000000000,1.076596828366140
copperhead and Quetzal,IP22 1SX,52.370032609412000,1.089780004681120
Chicken and turtle,IP22 2BY,52.415759000000000,1.054498000000000
soft-shelled turtle and flying lizard,IP22 2DG,52.411035763645800,1.096911871788000
swift and Triller,IP22 2DR,52.416418212938700,1.086434457765660
kabaragoya and iguana,IP22 2EB,52.433204000000000,1.096231874864280
bearded lizard and iguana,IP22 2EE,52.433419971447600,1.089712487278540
tokay and Jackal,IP22 2EN,52.436494629770000,1.098683199384600
snake and Maya,IP22 2FD,52.416633049489400,1.091288550267690
Badger and Eagle,IP22 4AW,52.374393811860200,1.110700890106810
Bunting and Gull,IP22 4BQ,52.373550181310300,1.099003792249200
boa and Partridge,IP22 4DN,52.382703133246700,1.107993173796360
slowworm and bearded lizard,IP22 4DP,52.381804670651300,1.109326238271100
python and Marmoset,IP22 4EF,52.381196580606900,1.104066153019860
bull snake and Jackal,IP22 4EX,52.373717952444200,1.109727627269880
hawksbill and tortoise,IP22 4GG,52.370073000000000,1.128025355316260
Black cockatoo and Treepie,IP22 4HG,52.372575000000000,1.120726000000000
Black cockatoo and Mink,IP22 4HN,52.373557456818800,1.123646450631210
python and Dolphin,IP22 4JF,52.368333000000000,1.124350000000000
Ice seal and boa,IP22 4JH,52.371833178628600,1.114017918193850
worm lizard and Fish eagle,IP22 4LT,52.379750178904400,1.099555774126700
Mamo and blue racer,IP22 4LW,52.378391194402000,1.099407000000000
puff adder and Old World quail,IP22 4PJ,52.369686346256400,1.127531239399720
swift and bearded lizard,IP22 4PS,52.375546328854600,1.117130116675490
Minke whale and thorn lizard,IP22 4QW,52.378376438623500,1.105631721576210
blindworm and massasauga,IP22 4WP,52.376389978027800,1.108666392406360
Fish eagle and agama,IP22 4WY,52.371579064585200,1.121258644923840
Viscacha and Ground sloth,IP22 4XQ,52.376646603836000,1.097530783791290
horned toad and tokay,IP22 4XW,52.377616611990000,1.122169640498250
Scimitar babbler and Black jay,IP22 4XZ,52.372899060322600,1.126435905766990
coral snake and Parakeet,IP22 4YL,52.377411143860700,1.100611581664620
Tattler and Herring gull,IP22 5PF,52.402687175695000,1.131807258907740
puff adder and dukite,IP22 5RN,52.383278773228000,1.081563683897550
Wallaby and Tattler,IP22 5RZ,52.387733889913800,1.076259234557810
whip snake and Rat,IP22 5SH,52.380922112385300,1.085367540327750
Argus and Tahr,IP22 5TF,52.416527000000000,1.134274000000000
Hawaiian honeycreeper and viper,IP22 5TH,52.414660000000000,1.142260000000000
Linsang and Pitohui,IP22 5UP,52.429642000000000,1.148039212370360
bicycle lizard and Black cockatoo,IP22 5XA,52.421823000000000,1.166027000000000
king snake and Eagle,IP22 5XP,52.394682134954200,1.078815607216580
Moluccan boobook and amphisbaena,IP23 7AB,52.320806455342800,1.145802473003330
coral snake and diamondback,IP23 8BE,52.321414507799800,1.109960544360320
Puffleg and Kangaroo,IP23 8DT,52.330478000000000,1.084040441185030
hognose snake and chuckwalla,IP23 8EB,52.330130207375600,1.078012702140670
copperhead and tortoise,IP23 8HL,52.305448000000000,1.045959000000000
Warbler and king cobra,IP23 8JB,52.302763130004500,1.045422357960500
Meadowlark and horned viper,IP23 8JD,52.301182436868500,1.041851723207250
Grouse and River dolphin,IP23 8JN,52.311199538977200,1.054101423227000
dukite and Herring gull,IP23 9AQ,52.376684000000000,1.109243000000000
Piping shrike and Logrunners,NR15 1EG,52.520548394786600,1.391896634939780
cobra de capello and racer,NR15 1EP,52.524591231859800,1.382948078153190
flying lizard and Dolphin,NR15 1NB,52.516578626970600,1.239357250764880
whip snake and New World blackbird,NR15 1NE,52.514618566169400,1.246878700260070
Diving bird and anaconda,NR15 1NS,52.517516560099600,1.254655582755360
puff adder and taipan,NR15 1TH,52.520625000000000,1.309910000000000
anole and adder,NR15 2BF,52.464268708300000,1.188834785500000
Duck and Grosbeak,NR15 2DT,52.458565411546300,1.175554672562480
harlequin snake and Partridge,NR15 2DY,52.454758000000000,1.176723000000000
Kangaroo and Minke whale,NR15 2EQ,52.487630311600000,1.235491000000000
Quetzal and diamondback terrapin,NR15 2ES,52.469078026306300,1.173911529779800
death adder and Cuscus,NR15 2GP,52.484987000000000,1.220072000000000
Warbler and jew lizard,NR15 2JT,52.474752251925800,1.171256679965100
Mink and cerastes,NR15 2JW,52.474011083666600,1.172436000000000
cayman and Diving bird,NR15 2LA,52.471272612209400,1.185939534654170
ringhals and Mink,NR15 2LS,52.503093765794400,1.296861000000000
Nukupuʻu and water snake,NR15 2QB,52.496617096450300,1.244446076077210
Marsh harrier and Old World quail,NR15 2QE,52.490208906653700,1.249528606584740
cayman and Fish eagle,NR15 2RL,52.483693602803600,1.234257690077880
indigo snake and Marmoset,NR15 2RT,52.481862339388400,1.248235372090340
Thrasher and Booted eagles,NR15 2RW,52.482899323051800,1.234361425576440
milk snake and garter snake,NR15 2SX,52.485155525678200,1.224200031521620
Fox and Triller,NR15 2SY,52.486229454629300,1.225383544990580
smooth snake and Magpie,NR15 2TF,52.481296597672800,1.232785446610600
wall lizard and Kangaroo,NR15 2UR,52.473895000000000,1.219959000000000
Piping shrike and Linsang,NR15 2UX,52.462211000000000,1.228574000000000
glass snake and boa constrictor,NR15 2WQ,52.488807326014700,1.239318275558000
blue racer and Elephant,NR15 2XE,52.491807220983000,1.230919449855110
bearded dragon and horned toad,NR15 2YB,52.494380662708400,1.219335028498150
bicycle lizard and Mole,NR15 2YU,52.496904071391900,1.217161780326820
Stint and racer,NR15 2ZT,52.484946000000000,1.220045000000000
pit viper and frill-necked lizard,NR16 1AP,52.463405386844700,1.144555156194760
Shearwater and blind snake,NR16 1DD,52.504829509609200,1.153997817124830
thorn lizard and jew lizard,NR16 1DF,52.503515973833600,1.152754000000000
puff adder and Dolphin,NR16 1DW,52.516375056040600,1.142589336153580
indigo snake and cobra de capello,NR16 1HP,52.500930971896300,1.156857513368900
flying lizard and Stint,NR16 1JF,52.496734638179500,1.186558222436920
coral snake and blue racer,NR16 1JT,52.501894000000000,1.183041000000000
indigo snake and gaboon viper,NR16 1NA,52.503137254457800,1.111285141371560
amphisbaena and Scimitar babbler,NR16 1PE,52.448617917757700,1.114754278574470
brown snake and American sparrow,NR16 1QB,52.465450570050100,1.141711857729540
Chipmunk and Booted eagles,NR16 1QD,52.465095000000000,1.139905000000000
Darwin's finches and tokay,NR16 1QT,52.500274000000000,1.121000000000000
New World blackbird and Argus,NR16 1RN,52.491302000000000,1.114073000000000
Mockingbird and Badger,NR16 1SE,52.480413331500000,1.118680385400000
hoop snake and Fish eagle,NR16 1TA,52.480568378348100,1.169009095201020
kabaragoya and worm lizard,NR16 1TG,52.482358000000000,1.143801000000000
mud turtle and Argus,NR16 2BB,52.472086111704500,1.071627558632760
Siskin and Prion,NR16 2DL,52.430083681375800,1.056638000000000
Bunting and krait,NR17 1RJ,52.484288090627700,1.041330000000000
horned toad and Parrotlet,NR17 1SA,52.478114643704500,1.041249640404300
hoop snake and cayman,NR17 1SF,52.478764524634400,1.039677000000000
copperhead and leguaan,NR35 1AP,52.455770000000000,1.437570336400970
constrictor and alligator,NR35 1BS,52.452483864057800,1.440349223090260
Black cockatoo and mountain devil,NR35 1DP,52.450606000000000,1.441881000000000
constrictor and Piping shrike,NR35 1DW,52.448875129447300,1.439493631036700
Shearwater and habu,NR35 1EL,52.454007284094300,1.439923348628040
jew lizard and frill-necked lizard,NR35 1HZ,52.453211225223900,1.447178087138490
Minke whale and Goose,NR35 1PE,52.444794189074800,1.436629016511470
kabaragoya and Songlark,NR35 1PW,52.446333828416300,1.439663463840530
Peafowl and Kite,NR35 2BE,52.472532132741500,1.318300237911440
Skunk and Cloud rat,NR35 2DA,52.490538110584300,1.363475847590660
Wader and Magpie,NR35 2JJ,52.464748015116300,1.441409389188170
Myna and Jay,NR35 2LA,52.482570415736600,1.403968632938020
Quetzal and Grosbeak,NR35 2LN,52.499989032855400,1.379303617554560
Jay and Triller,NR35 2RB,52.467484000000000,1.446399806632810
deaf adder and Fish eagle,NR35 2TF,52.450214000000000,1.421223383726980
Maya and frilled lizard,NR35 2TR,52.450350000000000,1.414436000000000
horned viper and flying dragon,NR35 2TT,52.450801033862300,1.414647346534040
