name,id,postcode,lat,lon
Perching duck and copperhead,1014703,IP23 7NP,52.322337000000000,1.176952760231490
Songlark and flying dragon,1016116,IP21 4QJ,52.405313886152800,1.239975000000000
Chicken and Stint,1014429,IP23 8FE,52.305747643883300,1.041636672430690
terrapin and elapid,1016264,IP20 9JW,52.401081415468600,1.298830712285320
Shearwater and Gila monster,1015531,IP21 5PN,52.346277887954400,1.307453000000000
dukite and death adder,1015620,IP22 2DX,52.419377158454000,1.100512186709870
Philippine hawk-owl and diamond python,1014864,IP22 5RG,52.382634245005900,1.079034962865110
diamond snake and mud turtle,1015944,IP21 4DF,52.367355587019400,1.160350565838070
pit viper and Quetzal,1016312,IP20 9PT,52.417944512015000,1.283674308347210
swift and chameleon,1015842,IP21 5AS,52.350454919420000,1.199811607843830
moloch and tuatara,1015939,IP21 4BX,52.345352990665500,1.103212401066090
Macaw and mountain devil,647948,NR35 1DP,52.450606000000000,1.441881000000000
moloch and Black jay,647904,NR35 2QU,52.469112728485100,1.440395272946150
Black jay and Snipe,1014865,IP22 5RH,52.382486874768800,1.081581988384380
racer and diamondback turtle,660927,NR16 2BB,52.472086111704500,1.071627558632760
Greenbul and Grosbeak,647825,NR35 1AW,52.455886257826400,1.436860340658980
wall lizard and indigo snake,1015552,IP21 5QS,52.351076674217800,1.288787510409330
cayman and Schneider python,1016441,IP20 0BP,52.424303613092600,1.335344383012230
monitor and mamba,1015220,IP22 4WJ,52.377220575847800,1.107519745937890
Crow and Tahr,1016613,IP20 0PX,52.400168000000000,1.394363435209490
Thrasher and chameleon,647835,NR35 2LD,52.485640976974500,1.401657155668970
mountain devil and Recurvebill,660829,NR16 1QG,52.467727000000000,1.122701000000000
indigo snake and smooth snake,1783373,IP22 4NY,52.376750625034800,1.096626935061490
Jackal and Treepie,1017556,IP19 0LL,52.333830187570100,1.426808652385280
Diving bird and elapid,1016611,IP20 0PR,52.400679365639000,1.408640421952270
thorn lizard and gopher snake,1016519,IP20 0NU,52.409719088152200,1.375423001713410
sand lizard and Chipmunk,1017557,IP19 0LN,52.328937786571700,1.437616764570270
viper and tree snake,1016096,IP21 4PG,52.391986127365300,1.197216084533090
blind snake and Scimitar babbler,1798776,NR35 9AR,52.456615343600000,1.434325868100000
puff adder and skink,1014798,IP23 8DE,52.325955972084500,1.095600913090910
Macaw and Lemming,647870,NR35 2NY,52.493253090937600,1.371094960895150
Solitaire and Snipe,648059,NR35 1NU,52.430856000000000,1.398036000000000
Fish eagle and Parrotbill,648315,NR35 1AB,52.455089298334800,1.437048510267830
python and deaf adder,647734,NR35 2AQ,52.444053476121900,1.391742000000000
deaf adder and giant tortoise,1016185,IP20 9ES,52.405211263104500,1.301668397224200
Kangaroo and Francolin,1015849,IP21 5BA,52.343671831019300,1.191905743969650
water snake and flying lizard,1017609,IP19 0QF,52.322496675787400,1.374396579640870
Tahr and Night heron,1015871,IP21 5DR,52.310902000000000,1.218644000000000
Logrunners and giant tortoise,1015522,IP22 1WH,52.365131205328600,1.111357246269600
horned viper and loggerhead,660394,NR17 2LP,52.518873918406300,1.087674175634000
Stint and bearded dragon,1016261,IP20 9JR,52.394238961137400,1.295541358481270
terrapin and copperhead,1016279,IP20 9LS,52.399846420801200,1.304722896608780
massasauga and python,1015877,IP21 5EB,52.317561481501300,1.243753873170490
krait and cycling lizard,1014829,IP22 4YD,52.373053771241800,1.118203473862900
Herring gull and kabaragoya,660390,NR17 2LH,52.520503988502500,1.046670014608010
Philippine hawk-owl and monitor,1016171,IP20 9DZ,52.397962714854700,1.297142309496550
New World blackbird and moloch,1015850,IP21 5BB,52.340449000000000,1.200366000000000
iguana and Philippine hawk-owl,1016294,IP20 9NT,52.412660120462500,1.292900375880560
Goose and Kestrel,1014830,IP22 4YE,52.372943473588400,1.121016949312340
Darwin's finches and Maya,661779,NR15 1NU,52.516293108393900,1.247798341704920
anole and leathery turtle,1783372,IP22 4LA,52.367802565342500,1.124944432975930
leathery turtle and water snake,1014800,IP23 8DG,52.326928568945100,1.095551427801220
Kangaroo and Mockingbird,647975,NR35 1FD,52.457074209497100,1.435598394225440
caiman and lizard,1014812,IP23 8DY,52.326160554913700,1.078837841154760
caiman and coral snake,2653618,IP21 5DD,52.317882000000000,1.277532000000000
Hawaiian honeycreeper and Gull,647766,NR35 2DS,52.494781249530800,1.371123532782360
moloch and Linsang,1014924,IP22 5UH,52.422716120669300,1.154440374056150
Chipmunk and Dolphin,661638,NR15 1AD,52.522620656692200,1.207747785374520
Linsang and Old World vulture,1015659,IP21 5TR,52.372950000000000,1.291736000000000
Mole and White ibis,1014819,IP23 8EJ,52.321253980758200,1.109567683270140
Quetzal and diamondback turtle,661208,NR16 1NP,52.495442609956600,1.105672747212040
Fish eagle and Prion,1014453,IP23 8JD,52.301182436868500,1.041851723207250
cerastes and frill-necked lizard,1016140,IP20 9BH,52.400136348980000,1.297245676922550
tiger snake and Ground sloth,1015748,IP21 4XB,52.418131674646100,1.213420788807660
Kangaroo and Jerboa,1015137,IP22 2ET,52.446995966774600,1.100509866306190
Kākāriki and Mouse,1016240,IP20 9HJ,52.404068409414700,1.309082572652220
Grackle and king snake,1015198,IP22 4PT,52.375964147677300,1.116292555194240
Greenbul and puff adder,1014775,IP23 8AR,52.349137000000000,1.136345000000000
bandy-bandy and gecko,1014452,IP23 8JB,52.302763130004500,1.045422357960500
Eagle and puff adder,1017564,IP19 0LW,52.325567936333400,1.446456561636930
Hawk and bull snake,1016059,IP21 4LB,52.370250276772400,1.243971852015760
perentie and gavial,1015839,IP21 5AP,52.347925000000000,1.196956000000000
skink and Siskin,661177,NR16 1JU,52.502136488397200,1.179329935618270
River dolphin and mamba,1016013,IP21 5NG,52.329574555566500,1.288380162758970
Bunting and Polecat,661241,NR15 2LU,52.505936301444200,1.294788484157220
perentie and saltwater crocodile,647820,NR35 2JT,52.486681411783200,1.422319613109350
massasauga and Ice seal,1015055,IP22 4EN,52.378520866209500,1.106979182250790
White ibis and leathery turtle,1016281,IP20 9LW,52.394000536217900,1.275170000000000
rattlesnake and Crow,1015067,IP22 4FL,52.381766617894300,1.101196180052020
Kite and Rabbit,1014837,IP22 4YP,52.376243370731500,1.100559113717370
diamondback turtle and loggerhead,647996,NR35 1JD,52.452825962618000,1.444659974260070
coral snake and Songlark,661343,NR15 2SN,52.463683814682900,1.273091311342030
turtle and krait,661034,NR15 2YJ,52.516104622410100,1.227749692610630
cycling lizard and Old World quail,1016256,IP20 9JH,52.397035950396300,1.295867546985240
New World blackbird and Fish eagle,1015898,IP21 5HG,52.319016000000000,1.271922000000000
Chipmunk and Elephant,647928,NR35 1BJ,52.451150648975500,1.437639552810170
New World blackbird and Magpie,1015742,IP21 4UU,52.404146000000000,1.174907000000000
racer and Pitohui,1015740,IP21 4UJ,52.402540891620000,1.169659627318030
flying dragon and Tit-tyrant,1016122,IP21 4QS,52.415218484714800,1.242684635871470
Stilt and Zebra,647896,NR35 2QJ,52.471277677333300,1.445733820686490
soft-shelled turtle and Pratincole,661501,NR15 1XR,52.521585733934600,1.347610072069190
Grouse and jew lizard,1783377,IP22 4QU,52.380907034540900,1.103766564171680
Puffleg and Ground sloth,661199,NR16 1NB,52.509215046279600,1.104507090176130
kabaragoya and Chicken,1015596,IP22 2BH,52.400309885858300,1.044853000000000
pit viper and Minke whale,1020746,IP13 8HQ,52.300878048292100,1.359782150735110
Viscacha and Flameback,1015867,IP21 5DL,52.319039000000000,1.226646000000000
Old World vulture and thorn lizard,1014954,IP22 5UU,52.435672875000700,1.164975247960400
Jackal and Marsh harrier,1015072,IP22 4GE,52.376389978027800,1.108666392406360
harlequin snake and milk snake,661308,NR15 2RF,52.511160809176300,1.274424559886640
mud turtle and Kestrel,1015200,IP22 4PW,52.374799175493100,1.114770411872830
grass snake and ringhals,1015002,IP23 7BE,52.321672000000000,1.149122000000000
Tahr and blue racer,647773,NR35 2EB,52.493674000000000,1.438314904024340
Parakeet and puff adder,1016064,IP21 4LP,52.359698000000000,1.242478000000000
Songlark and swift,1015606,IP22 2DD,52.407392152637900,1.097303514306810
diamondback and anole,1783382,IP22 4RJ,52.369179062167500,1.124586178182820
massasauga and Grackle,661312,NR15 2RL,52.483693602803600,1.234257690077880
swift and snapping turtle,661209,NR16 1NQ,52.496602881699300,1.093318044689320
hawksbill and Bunting,661313,NR15 2RN,52.483022510620300,1.238730896014140
Lemming and mountain devil,1015698,IP22 1BE,52.361786801662500,1.102425486018920
Skunk and taipan,1016014,IP21 5NH,52.332218212956900,1.303521000000000
lizard and rattlesnake,648317,NR35 1AF,52.456210997582800,1.434662482701310
Mole and water snake,1014884,IP22 5SG,52.374415295092500,1.091731885600740
galliwasp and Marmoset,1016623,IP20 9AJ,52.402251097410300,1.298491609980500
snake and king snake,1016512,IP20 0NJ,52.397920000000000,1.337455000000000
pit viper and agamid,1015927,IP21 4BE,52.435091555198400,1.225382756878590
box turtle and kabaragoya,1015056,IP22 4EP,52.377915840210700,1.106730943059360
Tattler and anole,1015595,IP22 2BG,52.406873239660900,1.069636109168510
Prion and carpet snake,1015905,IP21 5HR,52.324574967958200,1.270864599945190
elapid and Snipe,1015630,IP21 5RU,52.346413179946300,1.315639306219610
gavial and Parakeet,1015527,IP21 5PG,52.347455000000000,1.314454000000000
diamond snake and bicycle lizard,647569,NR35 9AJ,52.456617700000000,1.434326000000056
iguana and Dorcopsis,1017585,IP19 0NY,52.389782684186800,1.444757784603940
thorn lizard and asp,1016020,IP21 5NR,52.330588000000000,1.263587000000000
Eagle and Fox,660826,NR16 1QD,52.465095000000000,1.139905000000000
diamond snake and Peafowl,647968,NR35 1ES,52.458127136697800,1.435577371355990
Tahr and mountain devil,660931,NR16 2BG,52.475168213483100,1.076252000000000
Warbler and Minke whale,1015206,IP22 4QE,52.377657262046600,1.108696678080940
flying lizard and habu,647847,NR35 2LT,52.497776642145200,1.376466480175490
Fish eagle and Linsang,1016396,IP20 9QP,52.413594051039400,1.325695856393430
king snake and Asiatic leopard,2285127,NR15 2ZT,52.484946000000000,1.220045000000000
gopher snake and Old World warbler,1016310,IP20 9PR,52.421680555478200,1.297750940951950
chuckwalla and Rat,1016477,IP20 0HQ,52.415105116807700,1.339400612101440
chameleon and Elephant,1021212,IP13 8DW,52.302439285083400,1.367485607175210
Eagle and indigo snake,1015862,IP21 5DE,52.326552000000000,1.216962000000000
Mouse and mud turtle,648053,NR35 1NN,52.432503795675500,1.388834174416330
green turtle and Chicken,661326,NR15 2RR,52.474210940157200,1.249679000000000
gopher snake and Darwin's finches,2626929,IP21 4FE,52.398095000000000,1.184657000000000
B and Vulture,1015177,IP22 4NP,52.378584772826400,1.119225326159860
skink and flying dragon,1016278,IP20 9LR,52.395707388560500,1.293842478131550
hoop snake and frill-necked lizard,660941,NR16 2BZ,52.461726168539800,1.047642905232520
Marsh harrier and Warbler,1016316,IP20 9PY,52.404865631355700,1.296010438961790
agamid and blindworm,1004478,IP98 1HH,52.376663336816600,1.109214631728600
chameleon and cobra,1015480,IP22 1RD,52.354021996829700,1.041721071918890
grass snake and garter snake,1015551,IP21 5QR,52.348348375306700,1.301787976379410
Booted eagles and Goose,1015765,IP21 4XY,52.448696367394800,1.273554160229960
gopher snake and tortoise,1016412,IP21 4AJ,52.362205000000000,1.146144000000000
Kestrel and Black cockatoo,2122783,IP21 4NU,52.394336000000000,1.192296000000000
Fish eagle and Vole,661226,NR15 2JX,52.482291845758300,1.179179384111260
diamond python and boa,1015646,IP21 5SZ,52.325138063128800,1.326979128090350
bearded lizard and iguana,1015624,IP22 2EB,52.433204000000000,1.096231874864280
pit viper and Prion,1015104,IP22 4JB,52.367557465721300,1.125735226808830
anole and Mamo,661049,NR15 2ZD,52.490111814193200,1.223840870350560
agamid and Fulmarine petrel,1016481,IP20 0JD,52.380194324992000,1.334808847593970
Songlark and death adder,660845,NR16 1RL,52.490346000000000,1.112384859540250
flying dragon and Hawaiian honeycreeper,1014808,IP23 8DT,52.330478000000000,1.084040441185030
sidewinder and Puffleg,1015025,IP22 4BY,52.375893919738300,1.100167245835590
frill-necked lizard and green turtle,647551,NR35 2TQ,52.447131881518700,1.424164000000000
Triller and horned viper,1016259,IP20 9JN,52.395426899178600,1.296159214053530
Kākāriki and flying lizard,1016174,IP20 9ED,52.400168872601100,1.301232815726580
bearded dragon and Asiatic leopard,1016456,IP20 0DP,52.441770036363400,1.327362989827090
Peafowl and Ice seal,1016608,IP20 0PL,52.412849000000000,1.403064000000000
hoop snake and whip snake,1016314,IP20 9PW,52.432275071150800,1.287433069668430
carpet snake and Viscacha,1017890,IP19 0DD,52.306906910030900,1.389098000000000
green turtle and Wader,1015474,IP22 1QQ,52.333511000000000,1.046537000000000
Tattler and Solitaire,647952,NR35 1DU,52.453274451323800,1.436980672540660
Kite and carpet snake,1014889,IP22 5SP,52.380858624264300,1.088140754801490
mud turtle and diamondback turtle,1015078,IP22 4GP,52.371542702726100,1.125693534138200
Asiatic leopard and Eagle,660892,NR16 2AN,52.471963000000000,1.073637000000000
frilled lizard and goanna,661763,NR15 1LZ,52.514606219304800,1.236175259659610
Black jay and king snake,1014834,IP22 4YJ,52.378139468899900,1.098561157805840
galliwasp and Wader,1798772,NR35 2SB,52.469938801700000,1.441328651800000
Kākāriki and Grouse,1017889,IP19 0DB,52.314854141785600,1.399379793153290
Marmoset and horned viper,1014848,IP22 4ZD,52.377679283716000,1.123540754993860
