name,postcode,lat,lon
The Georgian Tearooms,DN1 1BB,53.5234,-1.1349
Subway,DN1 1DE,53.5228,-1.1335
Mercure Doncaster Danum Hotel,DN1 1DN,53.5226,-1.1331
KFC,DN1 1DW,53.5231,-1.1329
The grind,DN1 1DW,53.5231,-1.1330
ZEST BAR AND GRILL,DN1 1DW,53.5231,-1.1330
Bowers Coffee Shop,DN1 1HF,53.5236,-1.1323
CHINESE CATERING LIMITED,DN1 1HT,53.5241,-1.1311
JAVED RESTAURANTS DONCASTER LIMITED,DN1 1HZ,53.5242,-1.1306
RED CURRY LIMITED,DN1 1HZ,53.5242,-1.1306
lalezar,DN1 1JD,53.5236,-1.1297
Legends desserts & burger,DN1 1JE,53.5232,-1.1292
The Georgian Patisserie,DN1 1LA,53.5241,-1.1386
Burger King - Doncaster ,DN1 1LB,53.5241,-1.1386
Subway,DN1 1LB,53.5241,-1.1386
Costa Coffee,DN1 1LD,53.5242,-1.1347
Debenhams Restaurant Doncaster,DN1 1LH,53.5241,-1.1386
Costa Coffee,DN1 1LJ,53.5242,-1.1379
C & P ROTHWELL LTD,DN1 1LQ,53.5250,-1.1333
D & L Rothwell Ltd,DN1 1LQ,53.5250,-1.1333
Olde Castle Hotel,DN1 1LQ,53.5250,-1.1333
MARKETPLACE ALEHOUSE & DELI,DN1 1ND,53.5249,-1.1317
MASONS ARMS,DN1 1ND,53.5249,-1.1317
magdalen sports cafe bar,DN1 1ND,53.5249,-1.1317
LYNNIES LUNCH STOP,DN1 1NE,53.5240,-1.1319
Hungry dragon,DN1 1NG,53.5254,-1.1315
Indian food hawker,DN1 1NG,53.5254,-1.1315
LollieJade’s Cupcake Emporium,DN1 1NG,53.5254,-1.1315
MARKET CAFE,DN1 1NG,53.5252,-1.1317
Movida Go Limited,DN1 1NG,53.5254,-1.1315
Scrapes,DN1 1NG,53.5254,-1.1315
Taste Peru,DN1 1NG,53.5254,-1.1315
The Rustic Pizza co ,DN1 1NG,53.5254,-1.1315
Zaytuna ,DN1 1NG,53.5254,-1.1315
The Red Lion Doncaster (Wetherspoon),DN1 1NH,53.5238,-1.1323
Starbucks Doncaster Frenchgate,DN1 1QB,53.5240,-1.1367
Table Table Barley Twist,DN1 1QZ,53.5255,-1.1337
McDonald's Restaurant,DN1 1RX,53.5217,-1.1366
McDonald's,DN1 1RX,53.5219,-1.1366
Patisserie Valerie ,DN1 1SR,53.5236,-1.1371
KFC,DN1 1ST,53.5232,-1.1375
KFC,DN1 1ST,53.5237,-1.1367
Dunkin Donuts Frenchgate,DN1 1SW,53.5229,-1.1366
Flip Out Doncaster,DN1 1SW,53.5229,-1.1366
Taco Bell,DN1 1SW,53.5229,-1.1366
Sue's diner ,DN1 1SZ,53.5234,-1.1365
Doncaster Jazz Cafe Limited,DN1 1TJ,53.5224,-1.1356
The Glass Strawberry Coffee House,DN1 1TR,53.5219,-1.1346
Dreambakes Ltd,DN1 1TS,53.5226,-1.1344
Movida Bar & Restaurant ,DN1 1TS,53.5226,-1.1344
The Gate House Doncaster (Wetherspoon),DN1 1TS,53.5226,-1.1339
Fish Bits,DN1 2BY,53.5160,-1.1283
Salutation Doncaster Ltd ,DN1 2DR,53.5214,-1.1269
The Regent Hotel LTD,DN1 2DS,53.5222,-1.1259
Costa Coffee,DN1 2PE,53.5221,-1.1397
Doncaster Tandoori ,DN1 2PE,53.5260,-1.1303
El Boca Doncaster Ltd,DN1 2PH,53.5249,-1.1309
La Rustica Doncaster Ltd,DN1 2PH,53.5251,-1.1304
zammuto steak and grill house,DN1 2PH,53.5251,-1.1304
EL TORERO DONCASTER LIMITED,DN1 2PW,53.5250,-1.1298
KOZ TURKISH BARBECUE AND MEZZE BAR,DN1 2PW,53.5250,-1.1298
Sarahs desserts snack bar ,DN1 2QP,53.5268,-1.1283
SPICE AND ICE,DN1 2SD,53.5303,-1.1270
The Leopard,DN1 3AA,53.5208,-1.1378
All Things Nice Cafe,DN1 3EG,53.5217,-1.1349
La Familia,DN1 3EL,53.5217,-1.1332
La Familia ( Rbcgroup uk LTD),DN1 3EN,53.5376,-1.1020
Opera Restaurant,DN1 3EY,53.5198,-1.1332
THE HAREWOOD,DN1 3EY,53.5198,-1.1332
Cupcakes 2 Love ltd,DN1 3JH,53.5201,-1.1337
Java Cafe,DN1 3JU,53.5208,-1.1322
NYC ,DN1 3LH,53.5219,-1.1313
Bake battle and roll ,DN1 3LW,53.5220,-1.1326
Cactus Jacks,DN1 3NA,53.5225,-1.1303
Tortilla Hut,DN1 3NA,53.5225,-1.1303
Poppadoms and Cream,DN1 3NL,53.5223,-1.1286
poppadomsandcream,DN1 3NL,53.5223,-1.1286
BLUE BELL INN,DN10 4RF,53.4081,-0.8926
So Good It Yurts,DN10 5BP,53.4118,-0.9632
Blacksmiths arm everton,DN10 5BQ,53.4139,-0.9627
Blacksmiths arms,DN10 5BQ,53.4139,-0.9627
Sun Inn - Everton,DN10 5BW,53.4103,-0.9575
The Pilgrim Fathers,DN10 6AT,53.4076,-1.0213
King William Inn,DN10 6BL,53.4182,-1.0006
The Classic & Contemporary Cake Co Coffee Shop ,DN10 6DG,53.4538,-1.0262
The Ship Inn (Newington) Ltd,DN10 6DJ,53.4393,-0.9962
The White Horse ,DN10 6ED,53.4459,-0.9629
The Ship,DN10 6HT,53.4277,-1.0188
BAWTRY'S BAR AND BRASSERIE,DN10 6JA,53.4308,-1.0200
The Chase Tea Rooms ,DN10 6JA,53.4304,-1.0199
LANCERS BAWTRY LTD,DN10 6JE,53.4295,-1.0208
El Toro Bawtry,DN10 6JG,53.4291,-1.0204
Magenta Tearoom,DN10 6JG,53.4291,-1.0204
31 Bawtry,DN10 6JL,53.4300,-1.0213
Dower House,DN10 6JL,53.4300,-1.0213
The Little Deli Bawtry,DN10 6JL,53.4300,-1.0213
WINDCOURT RESTAURANTS LTD T/A ZINIZ,DN10 6JL,53.4300,-1.0213
Emilios,DN10 6LS,53.4291,-1.0218
Mrs S White T/A The Little Deli,DN10 6LS,53.4291,-1.0220
Bawtry Golf Club,DN10 6RF,53.4478,-1.0050
Waterfall Elior @,DN11 0EZ,53.4801,-1.0584
Rossington Hall Limited,DN11 0HR,53.4623,-1.0400
Mount Pleasant Hotel,DN11 0HW,53.4713,-1.0365
Nelson Coffee Shop Limited,DN11 0PE,53.4786,-1.0799
Addu's Indian restaurant,DN11 0PG,53.4789,-1.0807
Adus ,DN11 0PG,53.4789,-1.0807
Blacksmiths Arms,DN11 8LB,53.4172,-1.0764
Styrrup Hall Golf & Country Club ,DN11 8NB,53.4078,-1.0898
Wadworth Primary School,DN11 9AP,53.4658,-1.1406
Wadworth Supermarket,DN11 9AW,53.4681,-1.1429
Wadworth Village Hall,DN11 9BW,53.4671,-1.1433
Wellingtons Cafe,DN11 9EX,53.4322,-1.0922
TAJ COTTAGE ,DN11 9HZ,53.4355,-1.1103
Jamps Restaurant,DN11 9LX,53.4327,-1.1098
WINDCOURT RESTAURANTS LTD T/A ROCCOS,DN11 9LX,53.4327,-1.1096
Zara’s ,DN11 9PT,53.4325,-1.1070
Daisy's Coffee Shop & Bistro,DN11 9QU,53.4313,-1.1095
Robbo's Diner,DN12 1NP,53.4767,-1.1884
The Topiary Coffee Shop,DN12 2AE,53.4811,-1.2150
The Indus Restaurant & Bar ,DN12 2BT,53.4787,-1.2295
Seafish Restaurant,DN12 3AG,53.4821,-1.2243
English Heritage Trust,DN12 3BX,53.4840,-1.2274
Balti palace Conisbrough limited ,DN12 4DG,53.4910,-1.2418
Urban Fresh Burgers & Fries,DN2 4BG,53.5415,-1.1067
Astrabound,DN2 4PA,53.5437,-1.0974
Costa Coffee,DN2 4PE,53.5434,-1.0997
JJ's Cafe and Sandwich Bar,DN2 4PW,53.5433,-1.0954
GO BOUNCE TRAMPOLINE PARK,DN2 4SQ,53.5433,-1.0795
The Wheatley,DN2 5DR,53.5418,-1.0959
KFC,DN2 5DX,53.5439,-1.0857
KFC,DN2 5DX,53.5447,-1.0829
McDonald's Restaurant,DN2 5DX,53.5447,-1.0829
McDonald's,DN2 5DX,53.5457,-1.0814
The Landing Pad Cafe,DN2 5DX,53.5447,-1.0829
Sandall Park Cafe,DN2 5DZ,53.5439,-1.0878
Vivo’s ,DN2 6AA,53.5202,-1.1212
Earl Of Doncaster Hotel,DN2 6AD,53.5192,-1.1179
Crab & Moo T/As The Indus,DN2 6AX,53.5187,-1.1102
Grand St Leger Hotel & Bar,DN2 6AX,53.5187,-1.1102
Hilton Garden Inn Doncaster Racecourse,DN2 6BB,53.5203,-1.1079
Whitbys,DN2 6DR,53.5241,-1.1060
The Blue Bell ,DN22 8NJ,53.3845,-1.0147
Torworth Grange Farmshop & Lakes Ltd,DN22 8NY,53.3693,-1.0128
The Gate Inn,DN22 8PT,53.3552,-0.9803
Seven Hill Spice Ltd,DN22 8QQ,53.3627,-1.0105
Coaching Inns North Limited,DN22 8QS,53.3526,-1.0047
Spa at Ye Olde Bell Ltd,DN22 8QS,53.3529,-1.0052
White Horse Inn,DN22 8QS,53.3523,-1.0040
Brewers Arms,DN22 9AD,53.3853,-0.9056
The Olive,DN3 1HA,53.5724,-1.0669
BRIX COFFEE CO,DN3 1HE,53.5632,-1.0730
The Glasshouse,DN3 1HP,53.5609,-1.0724
The Cabin,DN3 1JR,53.5623,-1.0686
Black coriander ,DN3 2BT,53.5381,-1.0708
La Fiesta,DN3 2BU,53.5380,-1.0685
GLN traders ltd,DN3 2JE,53.5529,-1.0682
The Beverley Inn,DN3 2JE,53.5531,-1.0677
Waterfall Elior @,DN3 2PP,53.5564,-1.0715
Shimla Restaurant,DN3 3AE,53.5354,-1.0538
Village cafe,DN3 3AG,53.5355,-1.0570
Croziers Kitchen,DN3 3DL,53.5361,-1.0502
Elachi Indian restaurant limited ,DN3 3DL,53.5361,-1.0502
Joannes tearooms,DN3 3DL,53.5359,-1.0503
PACKERS REST RESTAURANT,DN3 3FF,53.5380,-1.0335
The Local,DN3 3FP,53.5073,-1.0429
horse and groom,DN3 3JU,53.5292,-1.0468
Yorkshire Wildlife Park Limited,DN3 3NH,53.5073,-1.0373
Canters Bistro ,DN3 3QL,53.5139,-1.0535
The Dell Cafe,DN4 0JD,53.5137,-1.1579
Suburb - Buns & Slice,DN4 0RG,53.5091,-1.1462
Daisy’s deli,DN4 0RS,53.5034,-1.1618
Gurkha Lounge ,DN4 5DP,53.5174,-1.1172
Colosseo restaurant ,DN4 5DS,53.5164,-1.1144
Innovation Cafe ,DN4 5HX,53.5128,-1.1306
Costa Coffee,DN4 5JH,53.5084,-1.1151
Thorntons Ltd,DN4 5JH,53.5081,-1.1200
KFC,DN4 5PH,53.5075,-1.1141
McDonald's Restaurant,DN4 5PH,53.5074,-1.1141
McDonald's,DN4 5PH,53.5060,-1.1124
Beefeater The Lakeside,DN4 5PJ,53.5066,-1.1121
KFC,DN4 5PJ,53.5063,-1.1141
El Futuro Wine & Tapas,DN4 5PL,53.5089,-1.1010
One Call Canteen,DN4 5RA,53.5035,-1.1106
Subway,DN4 6NN,53.5081,-1.0746
Clam & Cork,DN4 6ST,53.4946,-1.0582
Costa Coffee,DN4 7FW,53.5146,-1.1029
Dunkin Donuts Herten,DN4 7FW,53.5144,-1.1026
Estabulo Bar & Grill,DN4 7FW,53.5139,-1.1022
Urban Fresh Burgers & Fries,DN4 7FW,53.5139,-1.1022
The Counting House,DN4 7JA,53.5002,-1.0880
The Flying Childers,DN4 7JA,53.5002,-1.0880
Brewers Fayre The Cheswold,DN4 7NW,53.5123,-1.1047
Nando's,DN4 7NW,53.5131,-1.1053
Taco Bell,DN4 7NW,53.5129,-1.1054
Campanile Doncaster,DN4 7PD,53.4939,-1.0629
Doncaster Golf Club,DN4 7PD,53.5141,-1.0968
McDonald's Restaurant,DN4 7PD,53.4939,-1.0629
McDonald's,DN4 7PD,53.5150,-1.1022
The Dome,DN4 7PD,53.5141,-1.0968
McDonald's Restaurant,DN4 8DD,53.5066,-1.1473
McDonald's,DN4 8DD,53.5073,-1.1481
Pizza Hut,DN4 8RT,53.4905,-1.1397
SUBWAY,DN4 8SN,53.4913,-1.1380
Lotus Indian restaurant ,DN4 9LU,53.4988,-1.1822
Cafè L.A.,DN5 0AT,53.5461,-1.1468
Moona Coffee,DN5 0AT,53.5461,-1.1468
The Tea Garden,DN5 0EU,53.5551,-1.1488
The Plough Inn,DN5 0SF,53.5558,-1.1284
Marr Lodge,DN5 7AX,53.5411,-1.2281
The bulrush bistro,DN5 7EE,53.5179,-1.2583
The Crown Inn,DN5 7JQ,53.5195,-1.2630
Mehfil Indian Brasserie,DN5 7RF,53.5125,-1.1887
OTTO COFFEE AND WINE BAR LTD,DN5 7RF,53.5126,-1.1885
THE CADEBY PUB AND RESTAURANT,DN5 7SW,53.4982,-1.2245
BUTLERS TEA ROOM,DN5 7TU,53.5290,-1.1771
The Old Brewhouse,DN5 7TU,53.5290,-1.1771
KFC,DN5 8AD,53.5296,-1.1482
KFC,DN5 8BN,53.5290,-1.1499
Newton arms,DN5 8BP,53.5247,-1.1577
Trattoria Toscana,DN5 8HX,53.5346,-1.1607
The Sun Inn,DN5 8QE,53.5368,-1.1678
NAAZ INDIAN RESTAURANT & TAKE-AWAY,DN5 9BG,53.5341,-1.1545
McDonald's Restaurant,DN5 9TP,53.5316,-1.1462
McDonald's,DN5 9TP,53.5309,-1.1469
McDonald's Restaurant,DN6 7FB,53.5729,-1.2146
Indian Flavour,DN6 7HN,53.5641,-1.1952
5 Flavours Cafe ,DN6 7HP,53.5631,-1.1946
Adwick Leisure center,DN6 7QF,53.5628,-1.1852
Aagrah Doncaster,DN6 7RA,53.5591,-1.1911
Sarah-janes tearooms and coffee lounge,DN7 4BY,53.5627,-1.0269
Boston Park Farm,DN7 6DS,53.5357,-0.9835
Punchbowl Inn,DN8 4BE,53.5376,-1.1020
McDonald's,DN8 5UG,53.5457,-1.0814
The station restaurant and bar ,DN9 3AA,53.4894,-0.9909
the station restaurant and bar,DN9 3AA,53.4894,-0.9909
Walkers Nurseries Ltd,DN9 3BA,53.4957,-0.9923
THE HARVEY ARMS,DN9 3BY,53.4834,-0.9922
Waterfall Elior @ St Oswalds,DN9 3EQ,53.4861,-0.9829
Eagle & Child,DN9 3HS,53.5037,-1.0234
Eagle and Child,DN9 3HS,53.5037,-1.0234
Costa Coffee,DN9 3RH,53.4830,-1.0104
The Running Horse After Security (Wetherspoon),DN9 3RH,53.4804,-1.0108
Bengal tandoori,S25 2PN,53.3692,-1.2101
the royal elephant ,S25 2PQ,53.3667,-1.2120
Paulos Restaurant ,S25 2PS,53.3692,-1.2106
Whiter's CafeBistro ,S25 2PS,53.3692,-1.2106
aroma coffee shop,S25 2PS,53.3692,-1.2106
Dolcetti Coffee House and Bistro ,S25 3SA,53.3783,-1.2312
Tropical Butterfly House Ltd,S25 4EQ,53.3559,-1.2135
Greenbean Coffee Shop & Bistro,S26 1DJ,53.3613,-1.2666
Ricardo's Cafe and Bistro,S26 2EB,53.3631,-1.2981
ASTON  HALL HOTEL LIMITED,S26 2EE,53.3627,-1.2986
KNEAD BAKERY,S64 0AJ,53.4977,-1.2834
Pekish Cafe & Desserts ,S64 0DB,53.4951,-1.2814
Pastures Lodge,S64 0JJ,53.4968,-1.2583
REEDS RESTAURANT,S64 0JJ,53.4968,-1.2583
The Manvers Arms,S64 0NL,53.5105,-1.2941
The Little Town of Play,S64 8AA,53.4905,-1.2977
Tea or coffee,S64 9AB,53.4936,-1.2914
Rosie's Tea Shoppe,S64 9AU,53.4938,-1.2913
30 Mexborough tearooms,S64 9AW,53.4934,-1.2880
W S Pettit & Co,S64 9AW,53.4934,-1.2880
The Corner Cafe,S64 9DG,53.4930,-1.2902
Empire Bingo Mexborough,S64 9JB,53.4933,-1.2941
GOA SPICE,S64 9JB,53.4935,-1.2926
South yorkshire,S64 9JB,53.4933,-1.2941
The Old College Coffee Shop and dining room,S64 9JP,53.4955,-1.2847
Casper’s Coffee House ,S64 9LL,53.4929,-1.2852
The Old Market Hall Mexborough (Wetherspoon),S64 9QA,53.4928,-1.2874
earl of strafford,S65 4PF,53.4675,-1.2732
Seven Seas Limited,S66 1AG,53.4199,-1.2875
McDonald's Bramley - Bawtry Rd,S66 1YY,53.4220,-1.2542
McDonald's,S66 1YY,53.4230,-1.2549
Chaudrys Restaurant Ltd,S66 2BW,53.4218,-1.2844
Gas Lamp Wickersley Limited,S66 2BW,53.4218,-1.2844
The Courtyard ,S66 2BW,53.4218,-1.2844
The Olive Lounge Wickersley Limited,S66 2BW,53.4218,-1.2844
The Queens Hotel Rotherham (Wetherspoon),S66 7NQ,53.4233,-1.1966
The Three Tuns,S66 7QT,53.4361,-1.1701
Grazing Harts ,S66 7RR,53.4468,-1.2269
The Haynook,S66 8HZ,53.4293,-1.2135
The Cove Coffee House,S66 8LF,53.4233,-1.2036
Roche Abbey English Heritage,S66 8NW,53.4044,-1.1850
Treasure island ,S66 8QL,53.4238,-1.2471
Hellaby Hall Hotel ,S66 8SN,53.4252,-1.2401
The Croft Steakhouse ltd,S66 9AN,53.3981,-1.2627
The Greasy Spoon,S66 9DD,53.3942,-1.2572
The White Swan Inn,S81 8EQ,53.3761,-1.0611
AASHA ,S81 8HB,53.3773,-1.0612
Costa Coffee,S81 8HG,53.3876,-1.0611
The Angel inn blyth ltd,S81 8HG,53.3821,-1.0624
The Red Hart Hotel,S81 8HG,53.3821,-1.0624
Brewers Fayre King William IV,S81 8HU,53.3920,-1.1176
The Black Lion,S81 8JY,53.3892,-1.1573
Blue Bell Inn,S81 9DT,53.3552,-1.1119
The Grey Horses Inn,S81 9EW,53.3542,-1.1106
