name,postcode,lat,lon
adder and deaf adder,DN1 1DW,53.523086337162900,-1.133023419161800
Black jay and Moluccan boobook,DN1 1HL,53.523459988507700,-1.131250969430420
blind snake and Chicken,DN1 1JS,53.524011175135100,-1.130410066501640
wall lizard and cerastes,DN1 1JX,53.524353373269700,-1.135456289446650
Lemming and horned viper,DN1 1QB,53.523869000000000,-1.136700325057120
cayman and sand viper,DN1 1RU,53.521173000000000,-1.136769842413570
chameleon and Kākāriki,DN1 2AW,53.517840232769500,-1.124835414230870
Ground sloth and bicycle lizard,DN1 2BU,53.520041364933300,-1.127987741659730
diamond python and viper,DN1 2JF,53.524034640473500,-1.123772555139900
Hawaiian honeycreeper and slowworm,DN1 2JR,53.526337768286700,-1.121598051561360
amethystine python and goanna,DN1 2LT,53.526162000000000,-1.125690000000000
Egret and tiger snake,DN1 2LZ,53.527809656737100,-1.126198855141670
Shearwater and smooth snake,DN1 2NB,53.527619212711300,-1.124739486589250
Triller and rat snake,DN1 2QW,53.526458552119000,-1.128278219240880
leguaan and flying dragon,DN1 2RA,53.527434981671000,-1.127820699428100
Parrotlet and massasauga,DN1 3HU,53.519461717960400,-1.130246802298680
lizard and Triller,DN1 9PR,53.512923750490100,-1.125720996155070
Recurvebill and Guillemot,DN1 9SH,53.520010916083200,-1.132844868539990
Logrunners and taipan,DN1 9TD,53.520010916083200,-1.132844868539990
box turtle and bearded lizard,DN1 9TJ,53.520013768867100,-1.132844947328360
giant tortoise and box turtle,DN1 9TW,53.512914000000000,-1.125573000000000
dugite and Puffleg,DN10 4SF,53.411232682699600,-0.890000724927510
Booted eagles and thorny devil,DN10 5AA,53.407037211824800,-0.923655865553155
king cobra and green turtle,DN10 5AW,53.414771226273600,-0.959420000000000
rock python and wall lizard,DN10 5DZ,53.394401000000000,-0.967616000000000
terrapin and diamondback turtle,DN10 5EB,53.390090000000000,-0.976367000000000
Scimitar babbler and Buzzard,DN10 5ET,53.401328428434600,-0.977796916566329
constrictor and Songlark,DN10 6BT,53.417285000000000,-1.028392000000000
dukite and bearded lizard,DN10 6HD,53.459040453775700,-1.005871452046760
Mockingbird and Myna,DN10 6JZ,53.430906990606700,-1.022422088683280
blindworm and Stilt,DN10 6NB,53.431166000000000,-1.022899000000000
bicycle lizard and racer,DN10 6NN,53.436502541433400,-1.025363000000000
python and death adder,DN10 6NR,53.437348831290800,-1.024231242256770
Mamo and alligator,DN10 6PB,53.436618623814300,-1.019581439715690
Hawaiian honeycreeper and Pratincole,DN10 6PF,53.435469096435900,-1.018614400187640
Dorcopsis and bushmaster,DN10 6PP,53.435319913571700,-1.025647518690950
pit viper and ringhals,DN10 6QE,53.435587570049900,-1.016624681417950
horned toad and Songlark,DN10 6RA,53.447767057230200,-1.004628908857030
Chickadee and cayman,DN10 6RJ,53.432320055078500,-1.020447988957620
Herring gull and Ground sloth,DN10 6XJ,53.438929565114700,-1.019678796998340
American sparrow and habu,DN10 6XQ,53.437792448738000,-1.018033999383210
Mamo and Kangaroo,DN10 6XT,53.438218219177100,-1.019529573510880
galliwasp and coral snake,DN11 0AA,53.475931519186500,-1.065037455505560
slowworm and bushmaster,DN11 0BL,53.471889689324400,-1.068892704069480
perentie and Parakeet,DN11 0DU,53.478483000000000,-1.071641000000000
Ground sloth and Pratincole,DN11 0FB,53.474370347418300,-1.058532849993610
Francolin and Mamo,DN11 0FJ,53.473978942094700,-1.059053771518990
Snipe and Macaw,DN11 0HL,53.477732120654400,-1.039322311286710
sidewinder and cerastes,DN11 0JX,53.470609278484900,-1.073998000000000
perentie and Shearwater,DN11 0NE,53.478508718578300,-1.068160178031690
galliwasp and water snake,DN11 0NG,53.475683956384500,-1.066715341975960
thorn lizard and boa constrictor,DN11 0NQ,53.473953472666000,-1.068425679145520
kabaragoya and Herring gull,DN11 0PL,53.477507203186800,-1.082782731135110
smooth snake and monitor,DN11 0RG,53.470111688992100,-1.076072466029840
Cuscus and diamond python,DN11 0SY,53.475890961066000,-1.081838212813990
rat snake and Cuscus,DN11 0TZ,53.482730000000000,-1.093279000000000
Buzzard and saltwater crocodile,DN11 0UN,53.478236113931200,-1.052917342191260
rock python and Asiatic leopard,DN11 0XA,53.469860629354200,-1.068048266804970
Grosbeak and Jackal,DN11 0YL,53.469098482370000,-1.074075789906720
blue racer and Egret,DN11 8DU,53.418479804703100,-1.051973263298630
Mamo and indigo snake,DN11 8EE,53.419860232145300,-1.052619696327290
Diving bird and Capuchin,DN11 8EG,53.420443125935300,-1.051312652401060
rattlesnake and Hawk,DN11 8EJ,53.420065092933700,-1.048988713785520
Peafowl and monitor,DN11 8EU,53.418618855228000,-1.061615239770570
leguaan and Chicken,DN11 8EW,53.425794184605400,-1.049387616114700
Stint and Treepie,DN11 8HQ,53.420418616956900,-1.071070616326940
Capuchin and hawksbill,DN11 8HR,53.420758821108900,-1.069739010081530
diamondback turtle and Skunk,DN11 8HX,53.423933540059100,-1.068796896340840
amethystine python and diamond snake,DN11 8JH,53.419933367566300,-1.061887252428230
Macaw and Capuchin,DN11 8NZ,53.423984048541200,-1.061467030673560
fer-de-lance and bandy-bandy,DN11 8PS,53.424311899471600,-1.074687799473420
sand viper and Coati,DN11 8PT,53.423439427375500,-1.074616447592630
bull snake and anaconda,DN11 8PZ,53.419082605190900,-1.069188751276090
goanna and Moluccan boobook,DN11 8QT,53.423678000000000,-1.060134000000000
smooth snake and dukite,DN11 8SE,53.419393122803400,-1.082604036997090
Thicketbird and Nukupuʻu,DN11 9AB,53.465297086828700,-1.153121000000000
turtle and gaboon viper,DN11 9AT,53.466363460525700,-1.136182805462980
Piping shrike and rattlesnake,DN11 9AW,53.468065941126600,-1.142927181666950
Quetzal and fer-de-lance,DN11 9AY,53.467159000000000,-1.142870000000000
Wallaby and Logrunners,DN11 9DZ,53.468962244017400,-1.145078433690980
Eagle and Recurvebill,DN11 9EB,53.469724000000000,-1.145867723937870
anole and Grackle,DN11 9EF,53.466016601694700,-1.147969553540470
Buzzard and Kangaroo,DN11 9JA,53.437440973672900,-1.109703165878690
Mink and Lemming,DN11 9JF,53.438651045529000,-1.112869309341400
gopher snake and Lemming,DN11 9NN,53.429455497428700,-1.120028000000000
horned toad and Eagle,DN11 9NS,53.430700388835600,-1.115894539309380
soft-shelled turtle and cycling lizard,DN11 9PP,53.432691733627600,-1.116545607011650
Greenbul and Marmoset,DN11 9PW,53.432406377204700,-1.118071745380420
Marsh harrier and blindworm,DN11 9UB,53.436765378073900,-1.103500287508380
Egret and Asiatic leopard,DN11 9UF,53.437403102422900,-1.105835212194330
whip snake and Wallaby,DN12 1BE,53.486522755326400,-1.188430798314180
Piping shrike and Pheasant,DN12 1EA,53.483311318574700,-1.186743995770730
Moluccan boobook and Kākāriki,DN12 1EF,53.483220629414900,-1.183987990793410
grass snake and crocodile,DN12 1ES,53.485349000000000,-1.179667000000000
agamid and adder,DN12 1JF,53.476715664812200,-1.185724963024930
sidewinder and alligator,DN12 1LL,53.480827831195700,-1.189006583816430
Armadillo and tokay,DN12 1NG,53.478086019221600,-1.188968444965790
Minke whale and Pitohui,DN12 1NN,53.477727945633300,-1.190512172506650
anole and Pheasant,DN12 1SD,53.487473630273700,-1.181888000000000
bull snake and kabaragoya,DN12 1SY,53.484916450610900,-1.184859668403210
Kangaroo and cobra,DN12 2AR,53.475245907940300,-1.241033019701780
boomslang and smooth snake,DN12 2BZ,53.479935018658800,-1.226726000000000
Perching duck and swift,DN12 2DE,53.481607582553500,-1.222490144953290
Stilt and bicycle lizard,DN12 2DG,53.480719050186700,-1.221315958785670
tiger snake and garter snake,DN12 2EH,53.479563037006900,-1.232984892345110
asp and flying dragon,DN12 2HA,53.478387361000700,-1.236079929459300
agama and Jay,DN12 2LG,53.475705203693100,-1.244008070800760
deaf adder and Triller,DN12 2LJ,53.476522985470600,-1.243978472960950
Recurvebill and sea snake,DN12 2NG,53.481101820196100,-1.236061321904160
Duck and mamba,DN12 2NZ,53.471374000000000,-1.220327000000000
thorny devil and Tahr,DN12 3DE,53.488346838016900,-1.234680260735430
Buzzard and Fox,DN12 3ET,53.477661000000000,-1.245783000000000
garter snake and habu,DN12 3EU,53.487734000000000,-1.230140000000000
sidewinder and American sparrow,DN12 3GE,53.488276174024700,-1.230943000000000
Old World warbler and Moluccan boobook,DN12 3GZ,53.483130932245600,-1.231021943399320
Old World warbler and tuatara,DN12 3HQ,53.482293521527800,-1.231262973567360
saltwater crocodile and Stilt,DN12 3NH,53.481042079527300,-1.242210458212680
Viscacha and death adder,DN12 3NS,53.481550800286600,-1.250187942636390
galliwasp and flying lizard,DN12 3PG,53.482524461309200,-1.246358247305730
elapid and boa,DN12 4AP,53.487820866759600,-1.250981673491730
Eagle and cobra de capello,DN12 4AY,53.489713581375000,-1.248928710166170
bicycle lizard and kabaragoya,DN12 4LA,53.487211000000000,-1.272845000000000
Wader and Parrotbill,DN12 4NG,53.483681427917300,-1.254550738800900
skink and Parrotlet,DN12 4TG,53.491851016410700,-1.251861000000000
Tahr and Quetzal,DN12 4TQ,53.491912622686600,-1.249854517738730
Rabbit and Dorcopsis,DN2 4AJ,53.531847000000000,-1.120111000000000
Marmoset and B,DN2 4BD,53.535955000000000,-1.112844000000000
rattlesnake and Maya,DN2 4BY,53.531532049275400,-1.116557197692920
Black cockatoo and coral snake,DN2 4DA,53.532781888444400,-1.119050766745010
White ibis and Triller,DN2 4DE,53.533470586621300,-1.119805939968330
diamond python and Egret,DN2 4DG,53.533155962370500,-1.116146221269330
adder and king snake,DN2 4JF,53.535753358876200,-1.107627582425530
Kangaroo and Meadowlark,DN2 4RR,53.550095677024700,-1.085093000000000
flying lizard and agamid,DN2 5BY,53.527757455540700,-1.115428888421350
green turtle and Tahr,DN2 5DD,53.526493033740800,-1.113403659950380
Scimitar babbler and leguaan,DN2 5DL,53.527894312005600,-1.116919506551000
Parakeet and Viscacha,DN2 5DR,53.541759360144400,-1.095866537405820
cycling lizard and python,DN2 5ED,53.527286190524700,-1.112481980159230
Fish eagle and worm lizard,DN2 5EU,53.526620718389300,-1.107608315873850
Chipmunk and Philippine hawk-owl,DN2 5HD,53.529178729040400,-1.108308857095900
Duck and Ibex,DN2 5NQ,53.535222649710800,-1.101573296208420
Triller and chuckwalla,DN2 5PE,53.537166221700700,-1.098257878493000
horned toad and Booted eagles,DN2 5SS,53.539892981502600,-1.096298630184960
Masked owl and thorn lizard,DN2 6AF,53.532411000000000,-1.090668000000000
Pitohui and Parrotbill,DN2 6AN,53.520212814721900,-1.113791160491070
amphisbaena and Old World vulture,DN2 6DR,53.524064478499700,-1.105942431443090
tiger snake and bushmaster,DN2 6DU,53.524181727592200,-1.102395166589130
water snake and Black cockatoo,DN2 6ET,53.525256304050200,-1.103051262342560
Piping shrike and pit viper,DN2 6EU,53.524536813071000,-1.104197785777760
Hawk and diamondback turtle,DN2 6JG,53.530914226963400,-1.088131744770940
python and cycling lizard,DN2 6JJ,53.528098757721700,-1.090228769488710
Booted eagles and deaf adder,DN2 6LD,53.528810118022600,-1.099898673720500
boa and Duck,DN2 6NR,53.526611581038300,-1.093247484523130
Chipmunk and kabaragoya,DN2 6NT,53.527639000000000,-1.094689000000000
tiger snake and monitor,DN22 8LJ,53.383972711611800,-1.008958694339090
Puffleg and green turtle,DN22 8ND,53.383729460202900,-1.013234185672470
Elephant and cerastes,DN22 8NQ,53.388540000000000,-1.011048000000000
River dolphin and blue tongue,DN22 8PH,53.387351979972300,-1.012143028173830
tiger snake and Egret,DN22 8PL,53.357251396823900,-0.977334161632469
Shearwater and Ground sloth,DN22 8PT,53.355191424947400,-0.980313272002082
Darwin's finches and Moluccan boobook,DN22 8QB,53.353704264270500,-0.976697894446732
swift and brown snake,DN22 8QD,53.353481674018400,-0.979046977605379
amethystine python and sand lizard,DN22 8QW,53.362300563951900,-1.010077643879560
bull snake and blindworm,DN22 8RJ,53.368281698492900,-0.961800320244876
Recurvebill and Philippine hawk-owl,DN22 8SD,53.352177393040700,-0.967449867820581
Prion and caiman,DN22 8SG,53.352049000000000,-0.968039000000000
Thrasher and thorn lizard,DN3 1BU,53.570882175631800,-1.063896279998080
rock snake and monitor,DN3 1HN,53.570572227694500,-1.062543921482190
diamondback turtle and Tree warbler,DN3 1JX,53.561477425490500,-1.067364820330680
bushmaster and Wallaby,DN3 1LX,53.571886709037600,-1.062816880197710
glass snake and box turtle,DN3 1PT,53.565275986789500,-1.062298638020910
Old World quail and Fox,DN3 1QH,53.561538982056700,-1.060297799637660
Tattler and Minke whale,DN3 1SA,53.564714547065500,-1.075796000000000
Wader and Thrasher,DN3 2AD,53.539256930589200,-1.068456722368930
Macaw and Puffleg,DN3 2AS,53.539056000000000,-1.073758000000000
moloch and anole,DN3 2DH,53.542748199073600,-1.059733010980600
monitor and Jay,DN3 2HZ,53.551567547941300,-1.064607000000000
Ice seal and galliwasp,DN3 2LY,53.554897955342400,-1.070860614611260
Mink and gavial,DN3 2NF,53.556846000000000,-1.068055000000000
Darwin's finches and Solitaire,DN3 2PG,53.553181485082300,-1.069751019098870
gopher snake and fer-de-lance,DN3 2RE,53.556232669315200,-1.065653559665560
bearded dragon and Old World vulture,DN3 2TP,53.557481495500100,-1.058984000000000
Linsang and Tree warbler,DN3 3EJ,53.540222903046500,-1.010761450056030
Towhee and Chipmunk,DN3 3ES,53.531135884009300,-1.061016097497550
water snake and leathery turtle,DN3 3EU,53.538799299992600,-1.050268838307700
python and Moluccan boobook,DN3 3FP,53.507335000000000,-1.042860000000000
worm lizard and dukite,DN3 3HF,53.539696434053500,-1.047789122708090
Rat and cayman,DN3 3JJ,53.532835117926200,-1.045166941971110
loggerhead and skink,DN3 3JZ,53.529929603818900,-1.048279726896070
lizard and Parakeet,DN3 3QT,53.501075163523800,-1.042578894669150
Goose and rock python,DN3 3TF,53.536002569916000,-1.043345429052960
cobra and agama,DN4 0AS,53.518688092512400,-1.143866832134970
asp and Ground sloth,DN4 0BS,53.518659484512300,-1.147411732785370
skink and Hawaiian honeycreeper,DN4 0BU,53.517802525473500,-1.149162000000000
krait and Fulmarine petrel,DN4 0DP,53.515562787733900,-1.155632768276340
American sparrow and Rabbit,DN4 0EW,53.515286497488600,-1.150887737110300
sand lizard and Scimitar babbler,DN4 0HQ,53.514601000000000,-1.154249000000000
cobra de capello and Goose,DN4 0LB,53.514137564377300,-1.143551355820360
coral snake and Macaw,DN4 0NN,53.504440000000000,-1.154904000000000
sea snake and blind snake,DN4 0NS,53.505369995441200,-1.155684513042280
blindworm and horned toad,DN4 0SE,53.503769818091900,-1.163330149891500
black snake and Darwin's finches,DN4 0SQ,53.504233481289100,-1.161511771723680
Parrotbill and Jackal,DN4 0SR,53.505369385716300,-1.161986918678590
ringhals and Parrotlet,DN4 0SS,53.505737447985600,-1.161919350646050
Lemming and elapid,DN4 0TB,53.504810397619900,-1.165601413538240
Fulmarine petrel and agama,DN4 0UN,53.501871622209700,-1.170845332198250
Condor and Recurvebill,DN4 0UU,53.503603796532800,-1.171761382857730
Flameback and Mockingbird,DN4 0UX,53.503410247391900,-1.172368225919170
lizard and flying dragon,DN4 5AS,53.515018284904500,-1.122450431115670
glass snake and thorn lizard,DN4 5BG,53.514691143324900,-1.115866856360700
boomslang and agama,DN4 5DH,53.515428994783700,-1.115972149673210
swift and slowworm,DN4 5JD,53.513010000000000,-1.129233000000000
Prion and Jerboa,DN4 5LJ,53.513662701434700,-1.094941440087960
flying lizard and lizard,DN4 5LP,53.512613150112100,-1.096411491353130
Moluccan boobook and Hawaiian honeycreeper,DN4 5PR,53.507127123453800,-1.100795273252870
tree snake and smooth snake,DN4 6AD,53.507749000000000,-1.083065000000000
moloch and Chipmunk,DN4 6DH,53.503771061304500,-1.075612284576140
Mouse and Prion,DN4 6ET,53.493217019918000,-1.057829306013970
saltwater crocodile and Zebra,DN4 6JD,53.499567000000000,-1.066523000000000
harlequin snake and Fulmarine petrel,DN4 6JL,53.514281210357200,-1.068959210788260
adder and wall lizard,DN4 6NJ,53.508307846581100,-1.076598000000000
leguaan and Black cockatoo,DN4 6QG,53.504363000000000,-1.070621199211030
Stilt and leguaan,DN4 6QU,53.507196936400100,-1.066505892572750
alligator and Condor,DN4 6TJ,53.501740235342000,-1.064138148534070
Fulmarine petrel and death adder,DN4 7AF,53.510172237463200,-1.082771410723660
Jackal and Maya,DN4 7DP,53.507860115638000,-1.091928710656760
moloch and blindworm,DN4 7DS,53.507071738131900,-1.089910002899660
loggerhead and crocodile,DN4 7EP,53.504404620961200,-1.089062483417910
anole and boa,DN4 7EQ,53.505254544479400,-1.093265975544370
thorn lizard and caiman,DN4 7EU,53.501211646246600,-1.086447368318260
Mole and goanna,DN4 7FR,53.491042000000000,-1.073901000000000
harlequin snake and Kestrel,DN4 7HP,53.498550338605700,-1.082841298365360
diamondback and flying lizard,DN4 7JP,53.496445582974800,-1.069862401805200
grass snake and diamond snake,DN4 7JY,53.496229147265100,-1.074404518456340
Grackle and amethystine python,DN4 7NY,53.492917384050100,-1.058936159608930
copperhead and horned toad,DN4 7RH,53.502213029859000,-1.095200342371830
blue racer and Chickadee,DN4 7RQ,53.502493593719300,-1.097832765771840
Rabbit and Pheasant,DN4 8AW,53.509342860337900,-1.143029759862320
python and dukite,DN4 8BA,53.507670170034600,-1.145430789417600
Francolin and Lemming,DN4 8BP,53.508518043706400,-1.144584414074180
Wader and Viscacha,DN4 8DR,53.506425875843600,-1.146149393316270
tree snake and bushmaster,DN4 8EJ,53.503616340032300,-1.153020588576060
Booted eagles and Gila monster,DN4 8EL,53.503501745486800,-1.153339485827360
flying dragon and thorn lizard,DN4 8HF,53.501483440170200,-1.150123245360150
box turtle and diamond snake,DN4 8JB,53.503526538515500,-1.147971632730410
Thicketbird and Elephant,DN4 8PR,53.504158758202600,-1.154728565452490
monitor and indigo snake,DN4 8QT,53.490217807402200,-1.145947356122700
Coati and cayman,DN4 8RZ,53.491736242963500,-1.140837365470630
Tahr and snake,DN4 8TQ,53.495015000000000,-1.139113000000000
Moluccan boobook and gopher snake,DN4 9AY,53.493510734245000,-1.156507887976580
cobra de capello and diamondback turtle,DN4 9BH,53.493367234186900,-1.154008576534810
cycling lizard and sidewinder,DN4 9BS,53.494336181523800,-1.162686753894760
snake and puff adder,DN4 9BY,53.495430414776300,-1.163629937588740
Parakeet and wall lizard,DN4 9DF,53.495526233700400,-1.160628326535280
skink and Jay,DN4 9JU,53.499892402799400,-1.175798563501880
tree snake and agama,DN4 9NF,53.498720679037300,-1.171434421109310
anaconda and black snake,DN4 9NL,53.501661446478500,-1.172945019148480
White ibis and Ibex,DN4 9PU,53.499972751044500,-1.182264420443570
Piping shrike and Buzzard,DN4 9RD,53.497935752692600,-1.183931000000000
Warbler and Stilt,DN5 0AX,53.544463643861600,-1.148357283870660
Vulture and loggerhead,DN5 0AY,53.544927869755500,-1.147910312468810
rock python and Marsh harrier,DN5 0DJ,53.546037406550200,-1.145941170962740
Jackal and habu,DN5 0DP,53.545310118977000,-1.144673000000000
king snake and Kite,DN5 0GL,53.557476798108000,-1.123142275905800
Vole and saltwater crocodile,DN5 0HL,53.557531936203500,-1.146932535763940
Dorcopsis and Mockingbird,DN5 0JB,53.551497722043500,-1.147793467797600
Stilt and flying dragon,DN5 0NQ,53.550597601127500,-1.138830862403040
Kite and Hawaiian honeycreeper,DN5 0PD,53.552748095568100,-1.146666464339550
boomslang and Vulture,DN5 0RX,53.548628759787800,-1.141118000000000
Siskin and amethystine python,DN5 0UE,53.555912393059900,-1.151765464752850
leathery turtle and Capuchin,DN5 7AL,53.541499766333800,-1.226795783056000
racer and Viscacha,DN5 7BJ,53.542527768278600,-1.276032000000000
Eagle and White ibis,DN5 7DN,53.561185316711900,-1.250909615223920
Mouse and soft-shelled turtle,DN5 7EA,53.526766721574500,-1.195613000000000
bicycle lizard and Minke whale,DN5 7EB,53.522743923578700,-1.212159241714770
jew lizard and Maya,DN5 7HR,53.525360696967600,-1.286824224552600
flying lizard and turtle,DN5 7HT,53.517451819300200,-1.278013573892160
massasauga and mountain devil,DN5 7JY,53.514145000000000,-1.176406307194560
king snake and mud turtle,DN5 7LL,53.512420000000000,-1.181725220780430
Guillemot and king snake,DN5 7LN,53.512767296480800,-1.182802363579540
bearded lizard and blind snake,DN5 7NF,53.515045059993900,-1.175474472873080
Coati and anaconda,DN5 7NP,53.518786210200500,-1.170545376072580
Booted eagles and deaf adder,DN5 7NS,53.514820251093700,-1.183320866709020
boomslang and harlequin snake,DN5 7PP,53.515923495210300,-1.193569963330220
Vole and Warbler,DN5 7RH,53.511535507892300,-1.190682553867000
Thrasher and king snake,DN5 7RT,53.523686963524500,-1.169529545861900
Mink and black snake,DN5 7SG,53.505922100779800,-1.204751357067520
Mamo and indigo snake,DN5 7UN,53.547764964390900,-1.176966887752500
tuatara and alligator,DN5 7XD,53.560786037268500,-1.218004955928410
king snake and Goose,DN5 7XZ,53.549126140016500,-1.158149655371260
adder and Guillemot,DN5 7YA,53.512064282884200,-1.177281579790920
cobra de capello and cerastes,DN5 8AD,53.530156308329100,-1.148719705357520
Old World warbler and thorn lizard,DN5 8AU,53.529519943608500,-1.150059000000000
black snake and rat snake,DN5 8BP,53.524727382695700,-1.157637805735260
boomslang and Logrunners,DN5 8HD,53.526901094894300,-1.158695904031780
B and cobra de capello,DN5 8NN,53.534183189067400,-1.167875821123540
water snake and Schneider python,DN5 8NP,53.534581703792200,-1.169603114254900
dukite and puff adder,DN5 8PF,53.534177576782600,-1.173548912413560
Civet and hawksbill,DN5 8QN,53.536141081260500,-1.179349901718640
Capuchin and Prion,DN5 8QS,53.536833672811100,-1.176801619306550
Duck and Prion,DN5 8RT,53.540226122075600,-1.170835690892740
adder and garter snake,DN5 8WB,53.542020000000000,-1.177775000000000
horned toad and goanna,DN5 9AD,53.527113501335900,-1.141888000000000
soft-shelled turtle and Kestrel,DN5 9AN,53.527800327278800,-1.142295265938500
Hawaiian honeycreeper and wall lizard,DN5 9AP,53.536227000000000,-1.147828000000000
boa constrictor and B,DN5 9BL,53.535483972558400,-1.159793232090900
diamond snake and Polecat,DN5 9HJ,53.545512242368900,-1.168483000000000
Shearwater and fer-de-lance,DN5 9JG,53.544078874339100,-1.160045637298250
asp and rock snake,DN5 9JY,53.544653969540600,-1.162584710429450
cayman and brown snake,DN5 9PN,53.540127399300200,-1.161828986856880
Pitohui and Duck,DN5 9SR,53.533410814838800,-1.142513849796950
gecko and alligator,DN5 9TJ,53.539356895632000,-1.148188135679690
constrictor and Scimitar babbler,DN55 1AP,53.512923750490100,-1.125720996155070
massasauga and Hawaiian honeycreeper,DN55 1DR,53.512923750490100,-1.125720996155070
diamondback turtle and Myna,DN55 1FP,53.512923750490100,-1.125720996155070
dugite and sidewinder,DN55 1NP,53.512923750490100,-1.125720996155070
Grosbeak and Mamo,DN55 1PT,53.512923750490100,-1.125720996155070
elapid and Skunk,DN55 1TE,53.512923750490100,-1.125720996155070
diamond python and mountain devil,DN55 1WW,53.512920908235600,-1.125720918306950
flying lizard and cycling lizard,DN6 7AH,53.571064683456600,-1.183717759323480
Rabbit and Grouse,DN6 7AN,53.569415327970900,-1.184383722548440
Old World warbler and terrapin,DN6 7FE,53.574642000000000,-1.207646000000000
Lemming and Philippine hawk-owl,DN6 7FF,53.566066000000000,-1.208670000000000
Mink and Booted eagles,DN6 7FY,53.563267000000000,-1.197248000000000
indigo snake and Jay,DN6 7JL,53.554333496528400,-1.185851102834080
Scimitar babbler and hognose snake,DN6 7NL,53.565390225848600,-1.197944368514540
ringhals and Myna,DN6 7PR,53.560021500998900,-1.185590958752560
Moluccan boobook and crocodile,DN6 7QB,53.561314025674700,-1.188087000000000
Asiatic leopard and soft-shelled turtle,DN6 7RJ,53.559371514037900,-1.193136671748180
Asiatic leopard and coral snake,DN6 7RP,53.562628468033400,-1.200171000000000
Dorcopsis and tortoise,DN6 7SF,53.566481000000000,-1.191612000000000
brown snake and krait,DN6 7SL,53.566475050833500,-1.188199975244180
bushmaster and Macaw,DN6 7TF,53.570754069140500,-1.202977143657050
ringhals and chuckwalla,DN6 7TJ,53.572238255521500,-1.204489567690550
loggerhead and Black jay,DN6 7TT,53.572074014152500,-1.202771116212680
Wader and amethystine python,DN7 4DL,53.564972083879200,-1.028075000000000
Puffleg and Fulmarine petrel,DN7 4DN,53.565103243507400,-1.027152281497750
deaf adder and bearded lizard,DN7 4DQ,53.563333415589300,-1.027268374610170
Meadowlark and Kākāriki,DN7 4JG,53.574993011764900,-1.021911315180910
smooth snake and rock python,DN7 4JN,53.562943655490300,-1.032410676714350
moloch and chameleon,DN7 4NS,53.571312393577100,-1.018100145275880
Black jay and massasauga,DN7 4QJ,53.565111989809300,-1.021610783578200
krait and Dorcopsis,DN7 6DD,53.543525653582400,-0.973876876186286
Warbler and Snipe,DN7 6DW,53.540891326866300,-0.974046000000000
swift and Magpie,DN9 2BJ,53.509922652021300,-0.917477401723066
sea snake and Cloud rat,DN9 2BP,53.519379910064200,-0.919574207772706
Ice seal and loggerhead,DN9 2DA,53.523594524225500,-0.933465183024312
horned toad and Snipe,DN9 2EJ,53.484540000000000,-0.903761000000000
Chicken and Meadowlark,DN9 3AY,53.513731007552200,-0.980778000000000
glass snake and Towhee,DN9 3DP,53.486324279253800,-0.983742589762094
tuatara and Cuscus,DN9 3ER,53.492242520718000,-1.018600717716820
Pheasant and Francolin,DN9 3EW,53.491895511231700,-1.016845199492090
leathery turtle and horned toad,DN9 3FX,53.486416227907400,-1.023573077632590
Coati and jew lizard,DN9 3FY,53.486368000000000,-1.024490789600000
Mouse and bandy-bandy,DN9 3GY,53.490561000000000,-1.019484000000000
tuatara and Hawk,DN9 3LA,53.504534878449300,-1.023563799948880
Polecat and whip snake,DN9 3LT,53.488117069678300,-1.018650716551990
box turtle and Tree warbler,DN9 3NH,53.487513654906300,-1.025100099330260
swift and Ice seal,DN9 3PA,53.505798553997700,-1.019810544158530
Old World vulture and Civet,DN9 3PF,53.491093733916600,-1.007925680452190
brown snake and sidewinder,DN9 3RB,53.488198592475700,-0.983230575581705
Fox and Chickadee,S25 1YT,53.387339988744900,-1.215216942044810
Minke whale and Skunk,S25 1YY,53.385367782344100,-1.222906012673600
mud turtle and sea snake,S25 1ZE,53.386121387895400,-1.213074267295050
Shearwater and Nukupuʻu,S25 1ZX,53.373406000000000,-1.244182000000000
turtle and Booted eagles,S25 2ND,53.368578102493000,-1.213517736784270
chameleon and Skunk,S25 2PN,53.369148479110400,-1.210050497453380
water snake and blind snake,S25 2QF,53.370132809255900,-1.199932371051690
turtle and cayman,S25 2RF,53.375452105639900,-1.209062067210750
skink and Cloud rat,S25 2RR,53.362487000000000,-1.195026000000000
loggerhead and Siskin,S25 2RS,53.368442881018100,-1.201271552697250
anole and amphisbaena,S25 2RU,53.371485194229400,-1.209992248667920
dugite and bushmaster,S25 2TJ,53.369685286382700,-1.208312178919020
Solitaire and tiger snake,S25 2TT,53.362571291628600,-1.207737742474600
elapid and diamondback,S25 2XY,53.368663041860700,-1.216867665935780
Bronzewing pigeon and Perching duck,S25 3AE,53.378169772300000,-1.228298521400000
Cuscus and Cloud rat,S25 3QQ,53.376728800537200,-1.228339447897780
terrapin and alligator,S25 3QZ,53.375496936011900,-1.226183000000000
iguana and boomslang,S25 3RP,53.377229462455900,-1.230705475119890
Fish eagle and Towhee,S25 4AP,53.363965707904400,-1.216082182759400
thorn lizard and giant tortoise,S25 4AU,53.355644484702200,-1.220576924420920
giant tortoise and Kangaroo,S25 4DR,53.355153000000000,-1.210941000000000
dukite and harlequin snake,S25 4FB,53.358405917829700,-1.225004154509520
Fish eagle and Shearwater,S25 4FF,53.363938922997600,-1.217480227358230
Songlark and Jackal,S25 4JP,53.358822538741800,-1.210391664761400
Towhee and Mink,S26 1HN,53.352080128107600,-1.255030168502290
leguaan and green turtle,S26 1JA,53.353325749402800,-1.261648922355130
Kangaroo and goanna,S26 1JB,53.352017115191600,-1.260800182495280
puff adder and whip snake,S26 2BE,53.366347228889400,-1.278751449451300
carpet snake and coral snake,S26 2EG,53.363709267931900,-1.299173003880980
Night heron and Francolin,S60 4NJ,53.407656000000000,-1.291486000000000
rock python and monitor,S63 9GY,53.532740787600000,-1.295481107400000
Mockingbird and chameleon,S63 9JW,53.535615258030300,-1.298752637175190
Buzzard and Gila monster,S64 0AN,53.497903158331800,-1.281255015871080
New World blackbird and leathery turtle,S64 0HX,53.498335129829500,-1.269474232866100
flying lizard and snapping turtle,S64 0LH,53.496570345501400,-1.274886065426970
Old World quail and tree snake,S64 9BU,53.497976880486300,-1.284555138480600
Argus and Partridge,S64 9JY,53.501777441788100,-1.291833228877060
boomslang and whip snake,S64 9LU,53.494071598552300,-1.294584000000000
water snake and Shearwater,S64 9NH,53.496072004904100,-1.296797181769570
Komodo dragon and Mockingbird,S64 9SA,53.500828021728400,-1.296688000000000
rat snake and snapping turtle,S65 4ED,53.449177083434200,-1.289003997141580
Peafowl and monitor,S65 4JA,53.447923917596100,-1.299022767631440
cobra de capello and Badger,S65 4JN,53.448660485093700,-1.295878734670290
Kākāriki and Vulture,S65 4NH,53.456361776979200,-1.274501730509050
Cloud rat and agama,S65 4PT,53.438539247879700,-1.270409561140960
Hawk and Parakeet,S66 1AL,53.418668487777600,-1.291875159954600
Perching duck and Guillemot,S66 1AT,53.419261920003600,-1.296469648526580
whip snake and diamondback,S66 1BJ,53.417748229880000,-1.280771190425530
Partridge and Black jay,S66 1BT,53.411893000000000,-1.273784000000000
alligator and Snipe,S66 1DL,53.417051618507400,-1.286018985526570
Boto and Siskin,S66 1TG,53.419819443820100,-1.263687893556840
Mink and Mink,S66 1UQ,53.422545856315300,-1.261233114304610
python and Linsang,S66 1WL,53.418871988892200,-1.258738821181850
frilled lizard and Parakeet,S66 2DD,53.424745798913800,-1.289005228930640
mountain devil and Herring gull,S66 2HE,53.424202479298400,-1.280827835929930
blind snake and gaboon viper,S66 2HX,53.425973021835300,-1.285282643291840
worm lizard and Maya,S66 2JL,53.422542540145500,-1.276853057098480
worm lizard and Thicketbird,S66 2LS,53.424438290548000,-1.275225733874990
Kākāriki and garter snake,S66 2NP,53.423553424056000,-1.276053392081910
king cobra and Perching duck,S66 2PF,53.425781349665000,-1.278814705141940
rattlesnake and perentie,S66 2QD,53.425502476768600,-1.271370119446100
Darwin's finches and Fox,S66 2SZ,53.426857524705400,-1.263671668391680
agamid and rock snake,S66 2TA,53.428180395928600,-1.259555199661040
diamond python and tiger snake,S66 2XA,53.429166621848300,-1.262051484222600
racer and hoop snake,S66 2XJ,53.426470395706500,-1.281286204108610
rattlesnake and Wallaby,S66 3QW,53.427702000000000,-1.272296000000000
Black cockatoo and worm lizard,S66 3RG,53.432580564216300,-1.280927284565930
wall lizard and Bunting,S66 3RX,53.434269583109100,-1.285278970736780
White ibis and Marsh harrier,S66 3YE,53.428631879210900,-1.271587526852720
Tit-tyrant and Parrotbill,S66 3YT,53.430845676425100,-1.274966264795770
Grackle and Grosbeak,S66 3ZT,53.435291000000000,-1.277058000000000
smooth snake and Pratincole,S66 7ED,53.431128343416700,-1.196876220041380
Grackle and tiger snake,S66 7EH,53.424286410916100,-1.200677026823030
Parrotbill and copperhead,S66 7EQ,53.423588795937100,-1.201201756803260
blindworm and cycling lizard,S66 7HH,53.429499132969100,-1.192542250099730
Rabbit and Maya,S66 7HJ,53.429250362009500,-1.191643932888450
loggerhead and rat snake,S66 7HZ,53.419583000000000,-1.194807000000000
Old World warbler and milk snake,S66 7JS,53.417833346753700,-1.190130060097410
Thrasher and saltwater crocodile,S66 7LF,53.420587222378800,-1.201303139698550
green turtle and krait,S66 7LJ,53.420500922765100,-1.197813757664110
blue tongue and loggerhead,S66 7NA,53.422420000000000,-1.197010000000000
Quetzal and horned viper,S66 7QF,53.421622025469400,-1.186807759264560
thorn lizard and hoop snake,S66 7RB,53.436832129789600,-1.168679447570220
milk snake and bull snake,S66 7RJ,53.446096770456700,-1.196308000000000
Fox and Night heron,S66 7RY,53.461424791263000,-1.219123000000000
alligator and Songlark,S66 7SE,53.446270167515900,-1.224821678811980
Pitohui and pit viper,S66 8AJ,53.429346000000000,-1.208469000000000
puff adder and rock snake,S66 8AZ,53.427261618000600,-1.223843047255060
Black cockatoo and Hawk,S66 8BA,53.426905303826400,-1.221577039021440
Fish eagle and sand viper,S66 8BT,53.422529091165300,-1.219023532143250
alligator and bearded dragon,S66 8EG,53.427898392053900,-1.212634250317180
Skunk and smooth snake,S66 8EH,53.433532218319500,-1.215043840670290
Logrunners and Old World quail,S66 8EZ,53.422232083605000,-1.245543524430630
Dorcopsis and Recurvebill,S66 8JX,53.421423211319300,-1.206704660292370
diamondback terrapin and copperhead,S66 8LP,53.421788814080600,-1.219909868396100
Vulture and Chickadee,S66 8ND,53.421913099858600,-1.209930000000000
Triller and blue racer,S66 8PH,53.418237558159000,-1.214317325718630
Jerboa and Rabbit,S66 8RD,53.422632747217800,-1.222512801476560
Tattler and bushmaster,S66 8RN,53.428321925634300,-1.221024411337060
Partridge and Fulmarine petrel,S66 9AS,53.395850254406900,-1.265770829685990
Tahr and Songlark,S66 9DA,53.395793599712900,-1.258056988435970
Perching duck and Parakeet,S66 9NR,53.394443255786900,-1.263539314957590
gopher snake and alligator,S66 9PB,53.394441720243300,-1.260381329723280
blue racer and rattlesnake,S66 9QQ,53.389883089158300,-1.263076684844870
Tahr and Snipe,S81 8DU,53.370320180894800,-1.058032563357360
thorny devil and sidewinder,S81 8FS,53.372247000000000,-1.058096000000000
mamba and Mamo,S81 8HG,53.381986655468400,-1.062268000000000
Duck and Mockingbird,S81 8HL,53.379245000000000,-1.063488000000000
Grouse and anole,S81 8HQ,53.394315000000000,-1.065289466805900
gecko and gecko,S81 8HU,53.391593981488000,-1.115231243923600
soft-shelled turtle and Vulture,S81 8LH,53.390562256504300,-1.152694561517810
Jay and galliwasp,S81 8QR,53.352062444163700,-1.167970564052680
Piping shrike and gavial,S81 9BD,53.358167729948800,-1.119349368952530
Quetzal and brown snake,S81 9BE,53.358398303645900,-1.117706825128850
sidewinder and Coati,S81 9BP,53.355975413115100,-1.115833682539370
jew lizard and Stint,S81 9DP,53.355415008422100,-1.125175528887570
caiman and glass snake,S81 9EL,53.352810774192500,-1.112128219791720
boa constrictor and viper,S81 9JD,53.361872777326600,-1.124457254016010
Goose and Armadillo,S81 9JY,53.362069610435600,-1.121883620775470
Bunting and Chicken,S81 9LH,53.360254123163200,-1.121920934286410
elapid and moloch,S81 9LJ,53.359684369940400,-1.121451809619200
