name,id,postcode,lat,lon
White ibis and tree snake,1292982,DN11 9EU,53.434309842647200,-1.102091870521650
Perching duck and grass snake,1292610,DN12 2HE,53.478046610860600,-1.240440619744530
grass snake and Gila monster,1273237,DN9 3BT,53.485295393328000,-0.989614565543461
puff adder and Petrel,1275507,DN6 7TW,53.572256392151200,-1.207222550184760
massasauga and bull snake,1278247,DN4 5EF,53.516136000000000,-1.108100000000000
galliwasp and alligator,1278557,DN4 0SJ,53.504292586639400,-1.160967829650760
goanna and Marmoset,1292877,DN12 1ND,53.478624645221300,-1.191519732729530
Meadowlark and Crow,1287111,DN2 6PT,53.532324797171300,-1.095147148103540
Linsang and Mamo,1293335,DN11 0PJ,53.478534958872500,-1.082007167979570
sidewinder and kabaragoya,421847,S81 9PW,53.377778210697700,-1.123785393173490
grass snake and Polecat,1278200,DN4 6QW,53.505456873830400,-1.070449222263890
bearded dragon and cerastes,1293464,DN11 0XG,53.476416840270800,-1.053605739652490
Gull and Ice seal,431295,S66 3QE,53.430204178095000,-1.269995375602920
fer-de-lance and Marsh harrier,1283553,DN3 2AT,53.540281042669500,-1.074168447036350
goanna and Fox,421816,S81 9NU,53.377084457124700,-1.124791753548020
Vulture and frill-necked lizard,432738,S64 0PN,53.501052000000000,-1.265342000000000
Jay and Boto,1283863,DN22 8NP,53.376159907232800,-1.014220856548180
Macaw and wall lizard,432725,S64 0NE,53.508655808387800,-1.292186050603740
Kākāriki and agama,430936,S66 3ZN,53.435825121867500,-1.273436477849120
Macaw and cobra,1276429,DN5 0EQ,53.549565073042400,-1.146519175020510
swift and horned toad,1287198,DN2 5ET,53.526343463132600,-1.107795162251420
White ibis and frilled lizard,1293131,DN11 8DQ,53.419359986871200,-1.056422700769450
Diving bird and Towhee,1276123,DN5 9HL,53.544373113932200,-1.167419483808120
Darwin's finches and slowworm,1293215,DN11 8LY,53.418303306767500,-1.081152904781000
caiman and water snake,1293678,DN11 0HH,53.478898806528600,-1.051260000000000
boomslang and Black cockatoo,447407,S25 1YY,53.385367782344100,-1.222906012673600
taipan and death adder,1283463,DN3 1QX,53.558134427959700,-1.062864128980120
Mamo and iguana,1287265,DN2 5ND,53.534202473010900,-1.103375246771220
Grouse and smooth snake,1276358,DN5 7DS,53.524797047755700,-1.267918013139690
saltwater crocodile and milk snake,430762,S66 9DJ,53.392450591680100,-1.250987352096580
leguaan and American sparrow,2587752,DN11 0TY,53.483277000000000,-1.094038000000000
galliwasp and gavial,1283925,DN22 8QG,53.356172755032100,-1.007154522128240
Rat and Eagle,421764,S81 9JD,53.361872777326600,-1.124457254016010
jew lizard and rock python,1278500,DN4 0QD,53.508502293895700,-1.151204245681400
loggerhead and Triller,431397,S66 3XE,53.435010819765100,-1.279983128235290
Duck and mud turtle,1283606,DN3 2FE,53.536313571720700,-1.071403236209350
Flameback and Parakeet,1292667,DN12 2LR,53.479139010461400,-1.217487438858650
Badger and Treepie,1278427,DN4 0HA,53.514954588846500,-1.153518448536850
Eagle and Marmoset,1278067,DN4 6HX,53.516992910174600,-1.086062775451580
Ice seal and Bunting,1294122,DN10 5EP,53.402097738035800,-0.978410210994969
Komodo dragon and frill-necked lizard,1292771,DN12 1AS,53.484119699318500,-1.191957803647920
Lemming and rat snake,1292838,DN12 1HN,53.476150828350000,-1.191235265930740
Wader and thorn lizard,433023,S64 0DP,53.498403213669200,-1.273271939379220
dugite and Marmoset,1768909,DN4 8DP,53.506818000000000,-1.140532000000000
Rabbit and blindworm,421786,S81 9LF,53.361741930999500,-1.122551534281430
iguana and dugite,1768290,DN1 2RE,53.527515577352600,-1.131092711711780
American sparrow and horned viper,431333,S66 1DP,53.416895000000000,-1.283751630207900
Quetzal and blind snake,1275973,DN5 8RB,53.539231306802800,-1.179078905763580
bearded lizard and Fox,1287150,DN2 5AS,53.534068253522900,-1.108266513303080
Old World quail and milk snake,1286938,DN2 5SG,53.537931718602900,-1.099644906211310
Black jay and flying dragon,1283378,DN3 3AW,53.536835849535100,-1.060120000000000
constrictor and Herring gull,1277926,DN4 7BH,53.506511363010500,-1.085971571663580
Marmoset and tree snake,1275926,DN5 8NN,53.534183189067400,-1.167875821123540
leathery turtle and green turtle,1276365,DN5 7EF,53.521181000000000,-1.265778000000000
viper and turtle,1278485,DN4 0PB,53.509830031631400,-1.154645914102180
Viscacha and brown snake,431541,S65 4DU,53.449233317579200,-1.292421104333790
mountain devil and wall lizard,1275839,DN5 9SA,53.531662000000000,-1.145461000000000
Myna and Petrel,1277774,DN4 8JH,53.504999236790800,-1.151560678940880
Cloud rat and python,1277427,DN4 8TF,53.493302641921900,-1.142418549791200
Argus and whip snake,1276673,DN5 0SR,53.554931000000000,-1.126410000000000
Stint and Recurvebill,1292134,DN12 4JZ,53.486447000000000,-1.272813000000000
Cloud rat and Tree warbler,430694,S66 9AG,53.397642354760000,-1.259032474870210
copperhead and diamondback turtle,1292585,DN12 2DR,53.478395281629200,-1.221976274524820
Mink and Thicketbird,431318,S66 3RH,53.432415497873500,-1.281878316431280
Solitaire and gavial,422102,S81 9BX,53.355193846911800,-1.117111910421230
Snipe and blind snake,1276099,DN5 9ED,53.548581228806700,-1.160017000000000
snake and hoop snake,430697,S66 9AL,53.397001012198800,-1.259976033027670
Fish eagle and Herring gull,1293581,DN11 0BU,53.471041775971800,-1.063909533701540
Jerboa and Greenbul,1287066,DN2 6LD,53.528810118022600,-1.099898673720500
Fox and bicycle lizard,1807040,S25 2AN,53.372718045900000,-1.208391380400000
loggerhead and snapping turtle,1283227,DN3 2LL,53.552301895763000,-1.064155231362780
Fulmarine petrel and galliwasp,1287062,DN2 6JQ,53.528928716148400,-1.089274000000000
Dolphin and Cloud rat,1283031,DN3 3JN,53.531817929452400,-1.046110127201270
leathery turtle and gecko,1278492,DN4 0PT,53.508912000000000,-1.153096000000000
chameleon and Komodo dragon,1278329,DN4 5JY,53.515154149175500,-1.090113893433430
Kangaroo and Prion,1278915,DN4 0ES,53.514641010630800,-1.151126849868230
dugite and Tattler,447218,S25 3QX,53.375380052375800,-1.217225497580420
Darwin's finches and soft-shelled turtle,1274573,DN7 6PD,53.570663643564800,-0.976089318592830
Black jay and Songlark,1768979,DN55 1FE,53.512923750490100,-1.125720996155070
Parrotbill and diamond python,1283376,DN3 3AT,53.534816646068400,-1.058143391410640
Old World warbler and Grackle,431410,S66 3YB,53.433676007519400,-1.268882263291160
horned viper and Quetzal,1276915,DN5 0DT,53.546777000000000,-1.147375000000000
hoop snake and black snake,1276540,DN5 0HG,53.557541614194300,-1.148290986047990
sand viper and snake,1293721,DN11 0LR,53.476231000000000,-1.073303000000000
Shearwater and Prion,1287474,DN2 4NA,53.538987988473300,-1.114712001385410
Myna and Chipmunk,1278229,DN4 5DB,53.515059835913300,-1.124440261857980
Ice seal and loggerhead,1277655,DN4 8AY,53.510816143198100,-1.142909569854870
whip snake and Solitaire,1294500,DN1 3SN,53.517630234155200,-1.136754427136770
Shearwater and diamondback turtle,1292461,DN12 3PP,53.484712833457500,-1.244164451998010
gecko and terrapin,2657850,S81 9FG,53.362349000000000,-1.117957000000000
Kākāriki and Zebra,1283937,DN22 8QX,53.352374000000000,-1.002060000000000
Grackle and Solitaire,1293490,DN11 0YX,53.479440037589800,-1.066557593718090
Egret and Mamo,1294379,DN1 3JH,53.519997532172100,-1.133478616003600
flying lizard and skink,1275440,DN6 7PZ,53.560593574132100,-1.181171620820840
Piping shrike and sea snake,2580313,DN11 0BF,53.480949000000000,-1.101454000000000
Viscacha and flying lizard,447116,S25 2SN,53.366799734289200,-1.206937954200790
bearded lizard and loggerhead,1293519,DN11 8BL,53.421303483603300,-1.041978874175690
turtle and asp,1292972,DN11 9EG,53.432676511769200,-1.098860043026380
horned viper and tortoise,1292541,DN12 2AE,53.481100279923700,-1.215115000000000
Meadowlark and Herring gull,1287157,DN2 5BE,53.527729145056500,-1.120121063982480
king cobra and bicycle lizard,1294093,DN10 5BY,53.426756196767900,-0.959294000000000
Macaw and water snake,430957,S66 7AD,53.437880576508600,-1.197260000000000
moloch and loggerhead,430797,S66 9HE,53.395469076324400,-1.259355943186240
diamondback turtle and anaconda,1807538,S63 9GU,53.533259425400000,-1.290825000000000
Komodo dragon and king cobra,1283841,DN22 8LH,53.385018477422300,-1.008242798454150
Schneider python and Crow,1292846,DN12 1JD,53.481255016154200,-1.192613000000000
worm lizard and Tattler,431691,S65 4PE,53.466803167742800,-1.276899658452880
Old World quail and chameleon,1287374,DN2 4BP,53.532628387108900,-1.116519297791330
Francolin and Vole,2625187,DN9 3QU,53.482980000000000,-0.990697000000000
alligator and hoop snake,446972,S25 4JY,53.360243102463100,-1.210440543535560
Linsang and thorny devil,1276073,DN5 9BN,53.536346549599500,-1.159745982978250
Fulmarine petrel and Capuchin,431810,S66 1AB,53.420413111927400,-1.282968283323690
Siskin and ringhals,1278126,DN4 6LA,53.515215166488900,-1.072316908090020
Schneider python and king snake,1277740,DN4 8ER,53.502288245149600,-1.152067086877710
terrapin and Francolin,1283467,DN3 1RP,53.574158515892700,-1.056801333748360
Elephant and Jay,1273360,DN9 3LZ,53.489347684456500,-1.018546955783380
Old World warbler and blind snake,1277622,DN4 9LG,53.499305264756700,-1.168890371045210
River dolphin and Viscacha,1283610,DN3 2FJ,53.534223937507100,-1.069851000000000
Prion and leathery turtle,447073,S25 2QF,53.370132809255900,-1.199932371051690
elapid and tuatara,1807824,S81 9RF,53.378529000000000,-1.117005000000000
Night heron and Scimitar babbler,1275444,DN6 7QE,53.561258000000000,-1.184888000000000
bicycle lizard and Eagle,1276920,DN5 0ED,53.550020883648700,-1.144895014770630
agama and Black cockatoo,1283885,DN22 8PR,53.355116819156200,-0.977896086842973
Polecat and Hawaiian honeycreeper,1292506,DN12 4DG,53.491025533104200,-1.241746188523020
Solitaire and diamondback turtle,1293247,DN11 8NW,53.421753302629300,-1.061275377242040
River dolphin and Mamo,1294158,DN1 9SD,53.520010916083200,-1.132844868539990
cobra and Parakeet,1276922,DN5 0EF,53.548909105292500,-1.146547462315890
Lemming and bull snake,2608320,DN4 5FP,53.516999000000000,-1.104284000000000
horned toad and taipan,1274332,DN7 6AT,53.567445499575000,-1.015698238868960
Black jay and Skunk,1278824,DN4 0ER,53.515346000000000,-1.152802000000000
dugite and leguaan,1283715,DN3 2JW,53.549554288208600,-1.065679886858480
fer-de-lance and Pitohui,1276395,DN5 7HS,53.522844224528200,-1.285373203882270
Tahr and massasauga,1275692,DN6 7AU,53.573977000000000,-1.178409202204640
Crow and bicycle lizard,1293079,DN11 9PP,53.432691733627600,-1.116545607011650
Asiatic leopard and diamond snake,1275327,DN6 7FB,53.574382000000000,-1.210415000000000
constrictor and boa,1283850,DN22 8LX,53.384334823410100,-1.008183508289050
kabaragoya and American sparrow,433313,S63 9HZ,53.534636219909900,-1.298874421617210
swift and Scimitar babbler,1273342,DN9 3JX,53.501175690184700,-1.018394463365560
diamondback terrapin and Fish eagle,1292994,DN11 9HF,53.435382220387900,-1.101256421583610
elapid and giant tortoise,422116,S81 9DQ,53.354997349690800,-1.127062129775420
crocodile and diamondback,1273255,DN9 3DS,53.489233130903900,-0.980161295311895
Mockingbird and Rabbit,1278523,DN4 6ED,53.505930803732100,-1.074766183858650
whip snake and glass snake,1294818,DN1 1HF,53.523504000000000,-1.132318282564390
Solitaire and crocodile,1277226,DN4 9QN,53.496727209466500,-1.183487577504510
Wallaby and bearded lizard,1277557,DN4 9DW,53.490795749107300,-1.159003461559200
monitor and hognose snake,431710,S65 4QE,53.435600772177400,-1.269075028938610
Buzzard and Macaw,1807592,S66 9FE,53.391079954400000,-1.249808596800000
gavial and Meadowlark,1275473,DN6 7RY,53.565089267469100,-1.191955880832860
Viscacha and rock snake,1277859,DN4 7AF,53.510172237463200,-1.082771410723660
Chickadee and Grackle,1292162,DN12 4TD,53.492400171437900,-1.253071495345450
Booted eagles and Darwin's finches,1293894,DN10 6PE,53.435981027543400,-1.019656324424490
Asiatic leopard and king cobra,1769179,DN9 3GR,53.484794000000000,-1.019948000000000
frill-necked lizard and Darwin's finches,1276619,DN5 0QL,53.563047689362400,-1.152800404222630
iguana and taipan,1287223,DN2 6QU,53.530873017325500,-1.090984004091010
tuatara and Partridge,446921,S25 4GE,53.359962596381100,-1.215614690784710
taipan and swift,432983,S64 0AD,53.495935575913500,-1.281408869779520
crocodile and thorn lizard,1273438,DN9 2BD,53.500831305573600,-0.899361224468316
habu and hognose snake,1768885,DN4 0NJ,53.510590281213400,-1.144859502231120
Old World vulture and Armadillo,1293087,DN11 9PY,53.431416855506900,-1.103477350253720
moloch and tiger snake,1275489,DN6 7SY,53.567893551451300,-1.202533000000000
thorny devil and horned viper,1287286,DN2 5PG,53.536363051091600,-1.096645373319340
Crow and whip snake,433087,S64 0JA,53.495197461719000,-1.267900176150970
Mole and tiger snake,1278398,DN4 6AL,53.508651386867300,-1.081371757794460
Thicketbird and rattlesnake,1292815,DN12 1EN,53.482924505258900,-1.181431855122030
Schneider python and Chickadee,1292595,DN12 2EJ,53.479899927390600,-1.233656895542310
Polecat and death adder,1292931,DN11 9AZ,53.467856529199800,-1.142554793618390
diamondback terrapin and Macaw,1278374,DN4 5QA,53.513468000000000,-1.131624684697330
tuatara and harlequin snake,1278581,DN4 0TW,53.499868854894600,-1.168502463674580
copperhead and Capuchin,1276028,DN5 8TH,53.512920908235600,-1.125720918306950
death adder and black snake,1277656,DN4 8BA,53.507670170034600,-1.145430789417600
Black jay and rat snake,1276484,DN5 7PX,53.519090825913900,-1.169106604231210
Night heron and New World blackbird,1276386,DN5 7HE,53.521677353977200,-1.276674769016550
blue racer and cobra de capello,1293589,DN11 0DE,53.471851595777400,-1.061722253264810
Shearwater and Grackle,432411,S64 9PA,53.495332263275800,-1.291774768511620
kabaragoya and rock snake,1283273,DN3 2PU,53.556925840236000,-1.076205440317710
Peafowl and bandy-bandy,431103,S66 7HR,53.417755548948200,-1.198587639817300
Polecat and tokay,1277725,DN4 8DF,53.509305000000000,-1.140135000000000
Wallaby and blue tongue,1276153,DN5 7UB,53.540263000000000,-1.187886000000000
Scimitar babbler and viper,1283265,DN3 2PJ,53.554756093260700,-1.074592224547920
mountain devil and sea snake,433075,S64 0HL,53.494202821553400,-1.269876846264780
thorn lizard and Magpie,1292562,DN12 2BH,53.479467000000000,-1.217994000000000
deaf adder and galliwasp,1293586,DN11 0DA,53.470556013620100,-1.061570038136070
Grackle and mountain devil,1276411,DN5 7JN,53.522735518520700,-1.268754000000000
Wallaby and Rabbit,1277915,DN4 8SF,53.490413357725800,-1.141873932473340
massasauga and Gull,421806,S81 9NF,53.357856481377600,-1.116155369175450
rat snake and swift,2587719,DN10 5AN,53.414801000000000,-0.959421000000000
Pitohui and Badger,1293279,DN11 8QL,53.423288577156000,-1.066779432833640
Old World vulture and death adder,432995,S64 0AW,53.498433704533400,-1.281291271102620
tokay and crocodile,1292677,DN12 2NL,53.479016778411400,-1.238931560071160
tokay and mamba,1283348,DN3 2RG,53.555608447684400,-1.057123272663840
Schneider python and Skunk,1276127,DN5 7SL,53.499766307036300,-1.221495000000000
Thrasher and Partridge,430533,S66 8NN,53.414785376233800,-1.199350595785680
blindworm and rattlesnake,446734,S25 3RT,53.377948197116500,-1.233443449863500
Cuscus and chameleon,1293416,DN11 0UF,53.477543382464100,-1.052842357954360
Petrel and Chipmunk,447400,S25 1YQ,53.396704000000000,-1.214759000000000
saltwater crocodile and swift,1294358,DN1 3DZ,53.521664888176000,-1.134093182560130
king cobra and thorn lizard,431513,S66 2DF,53.422067450790000,-1.287545109610090
cayman and gopher snake,1286937,DN2 5SF,53.538213274882200,-1.100031254181860
sand viper and Pheasant,2608279,DN4 8FH,53.491670000000000,-1.147534000000000
black snake and Snipe,446651,S26 1HF,53.352516854281400,-1.263120164955720
blindworm and B,1293239,DN11 0NQ,53.473953472666000,-1.068425679145520
Parrotlet and Parakeet,1276586,DN5 0NH,53.546343406930300,-1.146133000000000
hognose snake and Rabbit,1278809,DN4 0DJ,53.515628979812000,-1.152283438670250
American sparrow and bandy-bandy,1278575,DN4 0TN,53.501706080106800,-1.163853210669780
Thicketbird and garter snake,431449,S66 1TS,53.422748626451400,-1.263501869331810
Mole and Wader,1277580,DN4 9EZ,53.495871981979900,-1.166364740695070
Kestrel and constrictor,1293108,DN11 9RB,53.427179982569300,-1.116328763550710
hoop snake and swift,431242,S66 2SY,53.426872258305800,-1.264604488637990
mud turtle and Chickadee,431026,S66 7AP,53.445360622351300,-1.202705649930030
leathery turtle and Mockingbird,1293076,DN11 9PJ,53.416322000000000,-1.145699000000000
Stint and diamond snake,447118,S25 2SQ,53.367374804856600,-1.196151715527940
Bronzewing pigeon and leathery turtle,1293375,DN11 0RU,53.468972674845500,-1.078733516539800
whip snake and kabaragoya,1278507,DN4 6DH,53.503771061304500,-1.075612284576140
Diving bird and carpet snake,1277782,DN4 8LA,53.501285000000000,-1.147315950477030
Masked owl and puff adder,1273352,DN9 3LQ,53.489655511792200,-1.013641000000000
Darwin's finches and Gull,433059,S64 0ER,53.492541137282000,-1.279402000000000
Parrotbill and elapid,431281,S66 3LE,53.430015876601400,-1.274498758864610
boomslang and Shearwater,1274517,DN7 6NB,53.572290683156000,-0.984537074487806
massasauga and Stint,1807046,S25 2SE,53.363449018700000,-1.199620000000000
Siskin and Siskin,1276372,DN5 7EQ,53.524263000000000,-1.268651000000000
cayman and mountain devil,1277623,DN4 9LH,53.496398106243300,-1.178745497221000
Masked owl and alligator,1294437,DN1 1QG,53.523630000000000,-1.136014000000000
Thrasher and White ibis,1292139,DN12 4LF,53.483767585033000,-1.278856689606040
Crow and Nukupuʻu,433069,S64 0HD,53.493006921107700,-1.274238402337720
Grosbeak and tortoise,1294446,DN1 1RE,53.525470075177900,-1.138239303037080
Vulture and asp,1293640,DN10 5HS,53.401607432611400,-0.978888224352719
hawksbill and Masked owl,1277776,DN4 8JS,53.500030034702400,-1.149142000000000
Asiatic leopard and rock snake,1294332,DN1 3AY,53.517801795288700,-1.138108314947150
Herring gull and Fulmarine petrel,1293797,DN10 6HE,53.447656177152400,-0.960980484357194
Chipmunk and Kite,430652,S66 8QY,53.431797970843000,-1.243281000000000
tiger snake and Vulture,1292652,DN12 2JX,53.475391960682300,-1.247072191679700
loggerhead and Shearwater,1293636,DN10 5HJ,53.378831000000000,-0.942858000000000
horned toad and Perching duck,447111,S25 2SF,53.370503029722300,-1.202871272770810
glass snake and Diving bird,1273304,DN9 3HR,53.503606941207100,-1.020011861596150
terrapin and slowworm,1278415,DN4 6BH,53.506890469294100,-1.079148104567910
Treepie and Rat,1278205,DN4 6RB,53.503507544897800,-1.069451548415720
copperhead and Wallaby,447210,S25 3QN,53.374937674425900,-1.230761791793570
Tahr and snapping turtle,1273370,DN9 3NN,53.488622895181600,-1.024441656416630
terrapin and constrictor,1292874,DN12 1LZ,53.479300358892000,-1.189095976356360
Greenbul and sand lizard,1293401,DN11 0TG,53.480344183320200,-1.077658471207920
sand viper and Grouse,1292367,DN12 3HD,53.481498113254300,-1.229182763271250
elapid and White ibis,1292654,DN12 2JZ,53.475807924477700,-1.246040280193300
milk snake and rock python,1294801,DN1 1DD,53.522130000000000,-1.136090000000000
Francolin and iguana,2651785,DN22 8WQ,53.368041000000000,-0.960545000000000
death adder and Thrasher,1293369,DN11 0RN,53.470726766348300,-1.080066483216850
Snipe and Rabbit,433000,S64 0BB,53.500547184171300,-1.284481730085180
Marmoset and alligator,1292432,DN12 3LU,53.480132225477100,-1.241895159567600
Stint and thorn lizard,432024,S65 4BY,53.445979738202500,-1.293995840475190
rat snake and frill-necked lizard,1292612,DN12 4HG,53.484202336937700,-1.254481330088720
flying dragon and Philippine hawk-owl,1294117,DN10 5EG,53.401290095327600,-0.975421373290149
saltwater crocodile and Nukupuʻu,1276613,DN5 0PU,53.557728791892800,-1.140527819502300
thorn lizard and wall lizard,1294414,DN1 3QT,53.515783578995400,-1.136203783605470
Maya and gopher snake,1768282,DN1 1AF,53.525920955871900,-1.136119000000000
leguaan and snapping turtle,1293405,DN11 0TN,53.479128834194900,-1.079749178079630
anaconda and leathery turtle,1287037,DN2 6HH,53.528706704130400,-1.088616642095980
boa and Jackal,430998,S66 8JR,53.428655258476400,-1.204764022571070
Scimitar babbler and Fulmarine petrel,1277614,DN4 9JX,53.498083000000000,-1.180435671393260
Coati and Kākāriki,1294722,DN1 2QZ,53.527151895202900,-1.128445009633760
constrictor and Mink,1277977,DN4 7HB,53.502478115283900,-1.082801773212470
perentie and viper,446937,S25 2LH,53.366735982787400,-1.209524030490850
bandy-bandy and blindworm,1292801,DN12 1DN,53.481962608507200,-1.194650952442980
thorn lizard and puff adder,1292687,DN12 2NY,53.478232000000000,-1.220171000000000
Macaw and bandy-bandy,1273306,DN9 3HT,53.504097956467600,-1.023121000000000
gopher snake and Guillemot,431365,S66 1FD,53.414527844660500,-1.281863625703130
krait and leathery turtle,1278486,DN4 0PG,53.507176000000000,-1.155498000000000
puff adder and Philippine hawk-owl,421753,S81 9HQ,53.358843813984500,-1.126953495706520
Black cockatoo and Partridge,432748,S64 0QA,53.501133178441100,-1.272848372556990
Minke whale and flying dragon,1278230,DN4 5DD,53.514972611556300,-1.124804002158890
Old World quail and Buzzard,430638,S66 8QF,53.428081257146700,-1.224099022512680
harlequin snake and glass snake,433085,S64 0HY,53.498541154482600,-1.267887822052700
Old World vulture and Linsang,1293608,DN11 0EE,53.479587559096700,-1.064731072414570
Piping shrike and milk snake,1276609,DN5 0PQ,53.555540139180200,-1.146187632121650
carpet snake and mountain devil,1273297,DN9 3HG,53.491744000000000,-1.023513596670620
boa and tortoise,1294422,DN1 3RH,53.516685000000000,-1.136457000000000
diamondback and Perching duck,1276102,DN5 9EN,53.541040213505400,-1.166398370978330
Stint and bearded lizard,446913,S25 4FS,53.353823893573400,-1.225357676323340
Parrotlet and Stilt,432333,S64 9DE,53.495553990272300,-1.288243787812470
amphisbaena and loggerhead,1275988,DN5 8RY,53.539970165312100,-1.168924289215730
Mamo and Rat,1276071,DN5 9BJ,53.533960572506900,-1.156624798587220
Snipe and amethystine python,1294228,DN1 2RT,53.527506479818300,-1.131469895760670
blue racer and gopher snake,1283179,DN3 3RP,53.528362378647700,-1.050140235631870
Shearwater and moloch,1292944,DN11 9BW,53.467115862870500,-1.143307849786290
brown snake and lizard,1293994,DN10 4SB,53.408852941972100,-0.898020776075400
monitor and Night heron,1283576,DN3 2DG,53.542226373948800,-1.060816012485430
Mink and Rat,1275850,DN5 9SR,53.533410814838800,-1.142513849796950
bushmaster and Recurvebill,1278317,DN4 6TF,53.505227140707700,-1.059462707628240
glass snake and Schneider python,1277236,DN4 9RF,53.497295994455800,-1.183853518449640
diamondback and tortoise,1277579,DN4 9EY,53.499027000277900,-1.166363171730590
copperhead and Wader,431588,S66 2HJ,53.424474558375200,-1.281229561526970
rat snake and New World blackbird,1273372,DN9 3NQ,53.488172309407500,-1.024301277980880
anaconda and Zebra,1277562,DN4 9EB,53.501564634605500,-1.161624724093560
mountain devil and constrictor,1278449,DN4 0JH,53.514457565811100,-1.159379000000000
Siskin and Logrunners,1273333,DN9 3JL,53.502508943779200,-1.015468953199370
blind snake and king snake,433083,S64 0HW,53.494992541202000,-1.269667327347440
Buzzard and Jay,1283449,DN3 1QA,53.560161008104600,-1.064540418857090
python and blue racer,1287176,DN2 5DG,53.525227905474000,-1.111288058524560
snake and Darwin's finches,1293488,DN11 0YT,53.468862824107000,-1.072664839898140
Civet and B,1292573,DN12 2DA,53.479540161193100,-1.225255286882630
Grouse and puff adder,1275818,DN6 7EQ,53.568463289395600,-1.196451752492660
mamba and bearded dragon,1287263,DN2 5LZ,53.532969088131000,-1.106720514756140
tokay and Ibex,1277758,DN4 8HJ,53.501973718795700,-1.147022800234960
worm lizard and Dolphin,1283560,DN3 2BB,53.540881619655400,-1.061268296505040
king snake and Meadowlark,1278086,DN4 6JY,53.512601058812300,-1.072524788985710
terrapin and constrictor,1294240,DN1 2SU,53.532755654943200,-1.126672000000000
Darwin's finches and Towhee,1293495,DN11 8AE,53.416269435296200,-1.050954139930730
mountain devil and Hawk,421900,S81 9SW,53.379298625254500,-1.121334000000000
gecko and Bronzewing pigeon,433086,S64 0HZ,53.495398788214000,-1.268816000000000
blind snake and Cloud rat,1293082,DN11 9PS,53.431622476404300,-1.118885000000000
Fish eagle and giant tortoise,430918,S66 8EL,53.424549414269900,-1.228376977448700
adder and Ground sloth,447211,S25 3QP,53.375923641067100,-1.227542287783030
habu and taipan,1294259,DN1 2UD,53.530963486528400,-1.124806328364360
grass snake and turtle,1274344,DN7 6BP,53.564046876735900,-1.018872327467230
python and habu,1293700,DN11 0JL,53.474466918366700,-1.073190562780300
Mink and Vulture,1275999,DN5 8SN,53.540070192429400,-1.172981489951750
Wader and Partridge,2580314,DN11 0TZ,53.482730000000000,-1.093279000000000
Elephant and Logrunners,1294343,DN1 3BQ,53.519477600903100,-1.136158830828200
Fish eagle and box turtle,430865,S66 8AT,53.425789678738400,-1.217293325644950
Viscacha and Stilt,1768898,DN4 5PY,53.512704000000000,-1.099923000000000
python and Maya,446859,S25 4BH,53.355274013261200,-1.217533727602490
sea snake and Kākāriki,447419,S25 1ZY,53.388395000000000,-1.211423000000000
Stint and cayman,1807534,S63 9GJ,53.531733545700000,-1.295392212300000
anole and puff adder,1294394,DN1 3NE,53.522418333593300,-1.131392944574300
sand lizard and Egret,1275782,DN5 9PP,53.537726386383900,-1.160397674990620
water snake and sand lizard,1283352,DN3 2RN,53.554707611364800,-1.063739876451130
Jay and leathery turtle,1293906,DN10 6PU,53.433428716258500,-1.017532481526770
Vulture and Greenbul,1768359,DN11 9AU,53.436042396390300,-1.100219025065680
galliwasp and monitor,1287080,DN2 6LW,53.527828236788700,-1.099617775994570
water snake and agama,1294248,DN1 2TP,53.532280646155800,-1.124236041821840
cobra and Guillemot,430793,S66 9EZ,53.398931641523000,-1.253881534350910
blindworm and saltwater crocodile,1278044,DN4 6FG,53.515099516021900,-1.074792726021600
hawksbill and Jackal,1293813,DN10 6JH,53.427806646116200,-1.021424642739010
Kite and krait,430473,S66 9QN,53.391815228366500,-1.260096027772710
hoop snake and Parrotlet,1283207,DN3 3SZ,53.534616805092600,-1.044281939138440
horned toad and dugite,430987,S66 8JB,53.421785000000000,-1.206894000000000
Meadowlark and mud turtle,1292563,DN12 2BJ,53.479721233533600,-1.215804143806180
diamond snake and agama,447027,S25 2LW,53.377057494859400,-1.209874127794260
Grouse and adder,1283879,DN22 8PH,53.387351979972300,-1.012143028173830
Darwin's finches and king cobra,1283552,DN3 2AS,53.539056000000000,-1.073758000000000
Skunk and diamond snake,430932,S66 3ZG,53.433384286564600,-1.274110272806460
Snipe and mountain devil,1768910,DN4 8DS,53.506992212222200,-1.146847000000000
amethystine python and cobra,431134,S66 2NH,53.431622484271700,-1.284540699480360
Grackle and Kestrel,431005,S66 8LA,53.423322786779700,-1.201597000000000
Pitohui and Thrasher,1276083,DN5 9DH,53.548562659719200,-1.170129456790930
Logrunners and Chipmunk,421800,S81 9LY,53.359647116874800,-1.116403822955210
Treepie and pit viper,1276534,DN5 0GL,53.557476798108000,-1.123142275905800
Logrunners and thorny devil,1273229,DN9 3BF,53.500145883243800,-0.984422233793253
amphisbaena and Egret,421743,S81 9HB,53.362095685444500,-1.127893846536340
Vole and Puffleg,431585,S66 2HF,53.422372948103600,-1.281520810532110
Petrel and Solitaire,1277447,DN4 9AE,53.501304329849700,-1.156564304229320
milk snake and Parrotbill,446649,S26 1HD,53.363534928777400,-1.252636463401280
water snake and Kestrel,1278469,DN4 0LX,53.511742419187800,-1.148002928672210
Perching duck and hoop snake,421773,S81 9JQ,53.360430184479200,-1.125087869383440
lizard and Kākāriki,1276587,DN5 0NL,53.548912239279000,-1.141959131225070
Tit-tyrant and Badger,430681,S66 8SL,53.431587628185500,-1.224215800236100
galliwasp and box turtle,1283706,DN3 2JJ,53.549810807994200,-1.063998870358820
Ibex and tokay,1273401,DN9 3QG,53.503116640622900,-1.023807459978980
boa constrictor and Thrasher,1273349,DN9 3LL,53.488624980620000,-1.013740682450620
sidewinder and Dolphin,1283963,DN22 8SG,53.352049000000000,-0.968039000000000
Minke whale and carpet snake,1294416,DN1 3QW,53.515721000000000,-1.133611000000000
diamond snake and diamondback terrapin,431035,S66 7AZ,53.447088642957200,-1.198999442726420
cayman and rat snake,1293632,DN10 5HE,53.394174678418900,-0.965441319756024
diamond snake and Jerboa,1287405,DN2 4EL,53.534333634701600,-1.113737825173160
diamond python and worm lizard,447155,S25 2TE,53.365276704962400,-1.207702597435900
Masked owl and soft-shelled turtle,1294457,DN1 1SL,53.512920908235600,-1.125720918306950
king snake and box turtle,1807552,S64 0NG,53.497094851000000,-1.258550000000000
python and copperhead,446864,S25 4BQ,53.359426087899500,-1.220162350561790
Kangaroo and Goose,430459,S66 9PU,53.391196872383900,-1.261851040577170
Thrasher and Bunting,1292456,DN12 3PG,53.482524461309200,-1.246358247305730
loggerhead and Ground sloth,1292533,DN12 1SS,53.486037782356600,-1.185847907981430
B and Flameback,1275366,DN6 7LJ,53.565786510266300,-1.183441888746960
leathery turtle and Chipmunk,1276691,DN5 0TQ,53.554348154755200,-1.125516471240970
gecko and Tattler,1276198,DN5 8AD,53.530156308329100,-1.148719705357520
python and ringhals,1284213,DN22 8GB,53.383263006998300,-1.015530211250350
Kākāriki and grass snake,1287443,DN2 4HX,53.534251892966400,-1.112411804402650
agamid and Moluccan boobook,1294103,DN10 5DQ,53.412699975635600,-0.961185532821556
Perching duck and pit viper,432383,S64 9JX,53.501734827134400,-1.289195626555810
hawksbill and sea snake,1283163,DN3 3QP,53.507254055769300,-1.046405280146430
monitor and Stint,1292803,DN12 1DR,53.483501762628300,-1.193627210169340
Partridge and Buzzard,1276043,DN5 8UP,53.532406421086300,-1.165723015845660
worm lizard and Minke whale,1277867,DN4 7AR,53.507560209680800,-1.084561000000000
Kangaroo and water snake,446995,S25 5DU,53.350050670250400,-1.225681443614560
sand lizard and tokay,1293716,DN11 0LH,53.474948714482700,-1.083214559246200
White ibis and bushmaster,1274523,DN7 6NJ,53.574398522080000,-0.970335748305801
Condor and tiger snake,1768991,DN55 1NP,53.512923750490100,-1.125720996155070
crocodile and Siskin,446625,S25 9AG,53.365449513124200,-1.235591322300540
bull snake and tortoise,1276406,DN5 7JF,53.516924594026400,-1.271115216983420
hoop snake and Marmoset,1278554,DN4 0SF,53.503605617660500,-1.162986614290620
Linsang and Armadillo,422105,S81 9DA,53.355555239984900,-1.118576855680300
bicycle lizard and Grackle,1278558,DN4 0SL,53.504556071434200,-1.160088150152900
Boto and Ground sloth,433041,S64 0DR,53.498133252399300,-1.276185991905460
Perching duck and Triller,1287158,DN2 5BF,53.528658566225200,-1.116722000000000
Jackal and Prion,1283341,DN3 2QU,53.547805867686900,-1.075498444291550
Hawk and Stint,431693,S65 4PG,53.467519334132300,-1.270500372787960
Old World warbler and Moluccan boobook,1274483,DN7 6JH,53.574793000000000,-1.008445000000000
habu and Wader,1273363,DN9 3ND,53.489740626364600,-1.023722695327460
green turtle and Flameback,1278116,DN4 7RP,53.504385897998000,-1.094882693866940
Goose and Asiatic leopard,1278511,DN4 6DP,53.502043298362800,-1.075363409708320
Snipe and rock snake,1276675,DN5 0SU,53.553165794738700,-1.129782403102520
Marsh harrier and Moluccan boobook,1273617,DN9 3AQ,53.491767452689600,-0.989626571368639
sand lizard and gaboon viper,1292925,DN11 9AR,53.466758556721400,-1.139865425343940
goanna and Lemming,1278198,DN4 6QT,53.507933123758000,-1.064092235928280
leathery turtle and New World blackbird,431477,S66 1WR,53.418021166544900,-1.256346176854150
Tattler and Hawaiian honeycreeper,1287452,DN2 4JP,53.535817628773700,-1.109014361581620
Mamo and blindworm,1292184,DN12 4UF,53.482966827723200,-1.255271526136720
habu and Hawk,1273484,DN9 2ER,53.474258000000000,-0.898030000000000
Puffleg and Triller,1287057,DN2 6JH,53.529579355412500,-1.089895322633630
bearded lizard and saltwater crocodile,432749,S64 0QB,53.501046875078900,-1.273437806697070
Parrotbill and Guillemot,431176,S66 7JZ,53.416359372124200,-1.187509967790900
Jerboa and cobra de capello,1276222,DN5 9HW,53.545125000000000,-1.169382000000000
harlequin snake and Hawk,1275524,DN6 7UY,53.573430169761900,-1.187900681857490
Booted eagles and thorn lizard,431172,S66 7JU,53.419181895622700,-1.194152073713350
Bunting and Maya,1278309,DN4 6SW,53.498799567386800,-1.057102434063710
harlequin snake and caiman,431309,S66 3QX,53.431724557278500,-1.279090418871490
monitor and Bunting,446730,S25 3RP,53.377229462455900,-1.230705475119890
habu and Ground sloth,1283476,DN3 1SE,53.564479948505600,-1.074349841416740
Tahr and tiger snake,1287317,DN2 5RB,53.540034934920000,-1.090123842990020
Mockingbird and copperhead,446927,S25 2HA,53.367778718569700,-1.210887384793610
perentie and gopher snake,1293760,DN10 6DF,53.452684978176200,-1.026575382848570
dugite and black snake,1294166,DN1 9SP,53.520010916083200,-1.132844868539990
Duck and chuckwalla,1276558,DN5 0JP,53.555372609213400,-1.150432778106180
Vole and black snake,1278574,DN4 0TH,53.506997222740800,-1.151912820524800
hawksbill and swift,1292166,DN12 4TH,53.492370242362100,-1.254036679259220
glass snake and Mouse,1283780,DN3 1FE,53.564975800000800,-1.079200827059360
Hawk and Myna,1294174,DN1 9SY,53.520010916083200,-1.132844868539990
Kākāriki and chameleon,1276315,DN5 8LU,53.531513000000000,-1.157322000000000
Maya and Coati,1293206,DN11 8LN,53.417527219904800,-1.079589748802970
Vulture and Francolin,1274849,DN7 4HE,53.569914578616200,-1.017543594657290
Pratincole and Cloud rat,1278552,DN4 0SD,53.504086034769600,-1.164846705577010
thorn lizard and Grosbeak,1293706,DN11 0JT,53.471869469115800,-1.075552195338010
hognose snake and cerastes,1277847,DN4 6UY,53.496072759585300,-1.054419388056180
Cloud rat and Linsang,447195,S25 3AL,53.376697000000000,-1.231647000000000
diamondback turtle and asp,1283498,DN3 3FD,53.541936000000000,-1.035515000000000
Black cockatoo and turtle,447190,S25 2XW,53.366344000800200,-1.216880124104080
New World blackbird and Recurvebill,1287433,DN2 4HJ,53.538301872977800,-1.113096672291390
king snake and king cobra,1294099,DN10 5DG,53.406823571380300,-0.960426098712702
Fox and slowworm,432761,S64 0QS,53.501111686910600,-1.275230726814000
Parrotlet and Wader,1275929,DN5 8NR,53.535300382326800,-1.169543792503850
flying dragon and wall lizard,2651733,DN10 5DN,53.411976000000000,-0.962243000000000
cayman and smooth snake,1278140,DN4 6LU,53.494850023555100,-1.061229832111060
Lemming and python,1294467,DN1 1TF,53.523222166636800,-1.135645238791720
Kite and gecko,1278458,DN4 0LE,53.513882000000000,-1.141581000000000
deaf adder and elapid,1273252,DN9 3DP,53.486324279253800,-0.983742589762094
Quetzal and Hawk,1276529,DN5 0EX,53.555664000000000,-1.148122266583670
racer and Minke whale,421839,S81 9PL,53.376634128797500,-1.125898321452520
Old World quail and Pratincole,1277240,DN4 9RQ,53.499295883234800,-1.183181959892260
soft-shelled turtle and Argus,1769012,DN6 7FG,53.571837086176700,-1.177949507110380
agamid and chuckwalla,1277665,DN4 8BQ,53.507836295924700,-1.145124000000000
Vulture and loggerhead,1287522,DN2 4RY,53.548046226744400,-1.083371626211530
blue racer and American sparrow,1292341,DN12 3DY,53.486061352100500,-1.225935243734470
death adder and wall lizard,1273443,DN9 2BN,53.517955899026400,-0.922144251744734
Jackal and Viscacha,1292997,DN11 9HJ,53.456657689979700,-1.060219782391280
Myna and king cobra,1293103,DN11 9QW,53.432753256220300,-1.109093673924520
cayman and Chickadee,1293172,DN11 8HT,53.421889264822800,-1.070617223613610
Grackle and deaf adder,1294404,DN1 3PE,53.522189376994900,-1.130809370395230
diamondback and Buzzard,430626,S66 8PP,53.408367614037400,-1.233649015102950
boa constrictor and frill-necked lizard,433066,S64 0EZ,53.492774000000000,-1.275599000000000
Warbler and massasauga,1278620,DN4 5AR,53.515585261112700,-1.122544287599180
hawksbill and Snipe,431201,S66 7NG,53.422515598407600,-1.193983719786120
Grackle and Chicken,1274514,DN7 6LY,53.573001031412500,-0.984565363685639
thorny devil and caiman,430541,S66 8NX,53.399892000000000,-1.153641788194820
soft-shelled turtle and anaconda,432372,S64 9HZ,53.493591410361000,-1.292271032527740
Tattler and Quetzal,1292534,DN12 1ST,53.486256455721900,-1.183643401432960
soft-shelled turtle and diamond snake,431083,S66 7ES,53.430392567101100,-1.199749757450340
swift and king snake,1278291,DN4 5JQ,53.499614000000000,-1.117688000000000
chameleon and jew lizard,1278615,DN4 5AE,53.514115719660100,-1.126857540473200
hawksbill and sea snake,1292863,DN12 1LL,53.480827831195700,-1.189006583816430
pit viper and Scimitar babbler,1294504,DN1 3SS,53.517537510690500,-1.133875679266810
perentie and Booted eagles,1293307,DN11 8SG,53.409520113635800,-1.070948000000000
saltwater crocodile and chameleon,1293996,DN10 4SE,53.419005006896100,-0.901324558115948
tokay and bull snake,1286991,DN2 6DR,53.524064478499700,-1.105942431443090
Hawk and boa constrictor,1278454,DN4 0JZ,53.514822000000000,-1.142316000000000
Ground sloth and box turtle,432431,S64 9PN,53.498661317049900,-1.287634000000000
Warbler and Chicken,1292825,DN11 9AQ,53.449692396290800,-1.136611346192920
River dolphin and diamondback,433103,S64 0JX,53.493045613377500,-1.277659313337900
tiger snake and Booted eagles,1277764,DN4 8HU,53.503106941157700,-1.145854228420560
whip snake and viper,1278321,DN4 6TN,53.503509593024100,-1.066255191340510
bushmaster and fer-de-lance,446933,S25 2LD,53.369309875846500,-1.215443048217480
Booted eagles and loggerhead,1277909,DN4 8RT,53.490469878438300,-1.139732535000040
Kākāriki and Fish eagle,430448,S66 9PF,53.393600615351300,-1.262456092983700
sand lizard and Kākāriki,431621,S66 2LS,53.424438290548000,-1.275225733874990
galliwasp and perentie,430731,S66 7PX,53.420275902113300,-1.185810216415100
Prion and B,447418,S25 1ZX,53.373406000000000,-1.244182000000000
Gull and caiman,1283394,DN3 3BT,53.533948412743700,-1.050769000000000
Old World warbler and Dolphin,1277554,DN4 9DS,53.492242853877300,-1.161552295223160
king snake and blindworm,1293251,DN11 8PA,53.418471754309500,-1.071549395087800
elapid and blindworm,430819,S66 9JL,53.399834000000000,-1.282186000000000
boomslang and frilled lizard,1293347,DN11 0QD,53.478890013084400,-1.084937803933300
anaconda and Skunk,1276294,DN5 8JT,53.531116645007100,-1.170259261034140
cayman and bull snake,1293986,DN10 4RS,53.407939256789200,-0.896419703492833
Mamo and Songlark,1293611,DN11 0EH,53.480031749462000,-1.062913071161270
Treepie and skink,431254,S66 2TW,53.424298315029200,-1.262632369208480
bushmaster and viper,1293507,DN11 8AU,53.418810564698200,-1.046097583482470
mamba and amethystine python,1287247,DN2 5JZ,53.532095102407500,-1.104038320940470
Wader and Marmoset,1277737,DN4 8EN,53.503296849077400,-1.153599872422410
frilled lizard and boa,1276591,DN5 0NR,53.549881999940400,-1.140566026903230
Vulture and Argus,1276325,DN5 7AX,53.541218208135200,-1.227736501869020
Jerboa and Mouse,1276143,DN5 7TG,53.511402000000000,-1.255768000000000
cayman and gaboon viper,1287270,DN2 5NL,53.535589810817800,-1.099000514743110
pit viper and loggerhead,1292819,DN12 3BW,53.484524650976100,-1.217704830901070
Ice seal and indigo snake,1293028,DN11 8BY,53.418982533562600,-1.042586000000000
gaboon viper and Asiatic leopard,422086,S81 9AY,53.358578087685800,-1.122586456179190
Ibex and Coati,1277966,DN4 7EQ,53.505254544479400,-1.093265975544370
deaf adder and Marmoset,422265,S81 8ES,53.376102150601700,-1.058295844306370
diamond snake and Piping shrike,1293330,DN11 0PD,53.477828284490100,-1.078948581688150
Lemming and Stint,447093,S25 2RF,53.375452105639900,-1.209062067210750
Parrotbill and New World blackbird,1283401,DN3 3DB,53.532512824938200,-1.053245879825890
Pratincole and thorny devil,1283331,DN3 2QF,53.556057000000000,-1.077598000000000
flying lizard and diamond snake,1277845,DN4 6UW,53.498534244122700,-1.055374672079800
