name,postcode,lat,lon
garter snake and slowworm,DN1 1AN,53.522057484634200,-1.137026588630290
Francolin and swift,DN1 1BL,53.522586072781200,-1.134692831181370
carpet snake and Gila monster,DN1 1QH,53.525453000000000,-1.133307000000000
Grouse and adder,DN1 1QY,53.522942000000000,-1.144053000000000
Herring gull and Grouse,DN1 1TQ,53.522705017594000,-1.133740135999950
Grackle and Diving bird,DN1 2AY,53.518161266095000,-1.128177020965270
iguana and diamondback,DN1 2HD,53.523878275980000,-1.126973611999610
iguana and rock snake,DN1 2LL,53.527763661810600,-1.127285956634710
Parakeet and pit viper,DN1 2QS,53.526773348638500,-1.129538908334450
bearded lizard and Peafowl,DN1 2QU,53.527399057693900,-1.129058436383250
agama and horned viper,DN1 2SR,53.531295710069900,-1.128450471919630
loggerhead and skink,DN1 2SW,53.530588321091500,-1.127589975789200
Wader and indigo snake,DN1 2TF,53.534556000000000,-1.125596635108920
king snake and asp,DN1 3BB,53.518268118917200,-1.136711300151690
Francolin and Viscacha,DN1 3BF,53.519698772541500,-1.128944000000000
mamba and Piping shrike,DN1 3DF,53.520820092583800,-1.136599101367570
snake and hognose snake,DN1 3NX,53.522168113341700,-1.130357300729280
gopher snake and flying dragon,DN1 3RH,53.516685000000000,-1.136457000000000
Grosbeak and constrictor,DN1 3TR,53.513173519248700,-1.138232367226300
American sparrow and Thicketbird,DN1 9FT,53.512920908235600,-1.125720918306950
Greenbul and Asiatic leopard,DN1 9PH,53.512923750490100,-1.125720996155070
Chicken and River dolphin,DN1 9RN,53.512950000000000,-1.125633000000000
flying dragon and Francolin,DN1 9SG,53.520010916083200,-1.132844868539990
Hawk and terrapin,DN10 4QR,53.401543000000000,-0.902617000000000
Grackle and cycling lizard,DN10 4RG,53.408199000000000,-0.888455000000000
cycling lizard and Flameback,DN10 5AF,53.398181484670200,-0.928481505510391
Piping shrike and Kangaroo,DN10 5BF,53.378852000000000,-0.942859000000000
leguaan and sand lizard,DN10 5DT,53.396213831975500,-0.964399000000000
Perching duck and Chipmunk,DN10 5EP,53.402097738035800,-0.978410210994969
Hawk and Kestrel,DN10 5EZ,53.402138495826300,-0.975822149123346
bicycle lizard and Treepie,DN10 6DD,53.442862399031500,-1.032385470638640
Crow and gaboon viper,DN10 6EN,53.448279879613600,-0.963449756747632
skink and mud turtle,DN10 6EQ,53.446849917314300,-0.960262361770287
cayman and sea snake,DN10 6JD,53.429865167729400,-1.019240140900390
puff adder and racer,DN10 6JL,53.430018000000000,-1.021344000000000
worm lizard and cobra,DN10 6NU,53.436642400496500,-1.020288398737460
Linsang and thorny devil,DN10 6PE,53.435981027543400,-1.019656324424490
Vulture and Thicketbird,DN10 6WF,53.431498945435600,-1.018645758502080
agama and Masked owl,DN10 6XF,53.426614773903800,-1.028480253254680
cerastes and B,DN10 6XJ,53.438929565114700,-1.019678796998340
Treepie and krait,DN11 0BD,53.471787659977800,-1.080902422877980
Lemming and Armadillo,DN11 0BE,53.476326415879200,-1.079659257126020
gopher snake and flying lizard,DN11 0BH,53.476592684501300,-1.058800085833740
agamid and racer,DN11 0BL,53.471889689324400,-1.068892704069480
flying lizard and Mole,DN11 0DE,53.471851595777400,-1.061722253264810
Black jay and Partridge,DN11 0DL,53.471622586066800,-1.065764895866220
Grosbeak and blind snake,DN11 0EP,53.476932814848500,-1.062047147195710
chuckwalla and Old World quail,DN11 0FN,53.474924871327200,-1.060464198835120
Parrotlet and hognose snake,DN11 0FR,53.472920226915100,-1.059303176669180
Fish eagle and galliwasp,DN11 0FX,53.472278263077500,-1.056921000000000
Kestrel and swift,DN11 0JG,53.473411201957000,-1.072671173858360
diamond snake and Petrel,DN11 0LA,53.472426000000000,-1.084610000000000
cycling lizard and Ice seal,DN11 0LX,53.475436244425700,-1.072010000000000
adder and cobra,DN11 0LZ,53.477522668764300,-1.070818629320620
iguana and Booted eagles,DN11 0QE,53.478614289566800,-1.085320437329900
hognose snake and Kite,DN11 0RS,53.469439317352400,-1.078633024940480
Herring gull and Schneider python,DN11 0RT,53.469337824316700,-1.077128740671240
Cuscus and gaboon viper,DN11 0XN,53.475585996193400,-1.058807289879450
cayman and chameleon,DN11 8AE,53.416269435296200,-1.050954139930730
racer and hognose snake,DN11 8AH,53.418583387606800,-1.049172235758300
diamondback terrapin and glass snake,DN11 8AX,53.418971586280600,-1.044875169728830
Cloud rat and perentie,DN11 8AZ,53.420076837029000,-1.048205985231650
wall lizard and lizard,DN11 8FD,53.425833000000000,-1.060705000000000
flying dragon and wall lizard,DN11 8HQ,53.420418616956900,-1.071070616326940
Polecat and thorny devil,DN11 8JL,53.424595083448400,-1.068330973461080
whip snake and tiger snake,DN11 8JW,53.417128185481300,-1.065244132656130
boomslang and bandy-bandy,DN11 8LA,53.410251000000000,-1.070735000000000
hoop snake and python,DN11 8NB,53.407696000000000,-1.090317000000000
flying dragon and River dolphin,DN11 8PP,53.424058506779800,-1.072150051486010
taipan and Buzzard,DN11 8PQ,53.422485726097000,-1.073343001700140
Capuchin and Masked owl,DN11 8SR,53.411726395281100,-1.067258278196340
tree snake and agamid,DN11 9DH,53.486150820688500,-1.142864183169500
Solitaire and mountain devil,DN11 9DU,53.473808000000000,-1.151268959158210
Hawaiian honeycreeper and wall lizard,DN11 9EE,53.466681566601400,-1.148438000000000
snake and thorn lizard,DN11 9HP,53.436817100954700,-1.102008924280620
Chicken and Grosbeak,DN11 9NE,53.429928881840000,-1.112463903870240
blind snake and constrictor,DN11 9PY,53.431416855506900,-1.103477350253720
bicycle lizard and puff adder,DN11 9QY,53.427832385639400,-1.110972453419310
Darwin's finches and rattlesnake,DN12 1BA,53.486174392489400,-1.190080147157340
boomslang and Lemming,DN12 1BN,53.487272388129100,-1.191611554314870
hoop snake and gopher snake,DN12 1DN,53.481962608507200,-1.194650952442980
galliwasp and garter snake,DN12 1DU,53.480619298463000,-1.185665453072020
saltwater crocodile and gaboon viper,DN12 1EA,53.483311318574700,-1.186743995770730
kabaragoya and alligator,DN12 1EH,53.482205955272600,-1.186780198626750
Kangaroo and tortoise,DN12 1EL,53.482316860750800,-1.181955904738810
Dolphin and Mamo,DN12 1HF,53.474922813482800,-1.189089008673640
Mouse and grass snake,DN12 1HH,53.473541114700200,-1.185860000000000
goanna and wall lizard,DN12 1HR,53.475122577613600,-1.190712409012910
frilled lizard and Asiatic leopard,DN12 1JH,53.482694000000000,-1.180381000000000
crocodile and massasauga,DN12 1NE,53.478626903874300,-1.190646000000000
Thicketbird and flying lizard,DN12 1PD,53.478483276258500,-1.199765000000000
Quetzal and diamondback terrapin,DN12 1SY,53.484916450610900,-1.184859668403210
galliwasp and bushmaster,DN12 2AP,53.464312108693400,-1.228771148587090
loggerhead and Diving bird,DN12 2BY,53.478977000000000,-1.228318934633220
Mamo and Mink,DN12 2EL,53.479433000000000,-1.232113000000000
Chicken and Songlark,DN12 3DQ,53.489323980001900,-1.234270811145490
Ice seal and Parrotlet,DN12 3DU,53.485667165494400,-1.226138333434690
kabaragoya and Lemming,DN12 3DZ,53.485629068837000,-1.225807477304630
viper and diamondback turtle,DN12 3EL,53.484261688333600,-1.220105788609200
Duck and Piping shrike,DN12 3ER,53.484587572958300,-1.223219315128880
water snake and Treepie,DN12 3HR,53.482164787409200,-1.230813224366220
Myna and hognose snake,DN12 3HX,53.484026215134200,-1.233733253374710
Skunk and mud turtle,DN12 3JS,53.484482000000000,-1.235925000000000
worm lizard and asp,DN12 3NW,53.482548478918300,-1.245890673179210
Francolin and bushmaster,DN12 3NY,53.480839727662400,-1.244565000000000
Capuchin and Bunting,DN12 3PW,53.484467272099200,-1.245133295069860
swift and carpet snake,DN12 4AZ,53.489401663523700,-1.249356227600020
thorn lizard and Darwin's finches,DN12 4EP,53.489096920335100,-1.240951635908200
Moluccan boobook and coral snake,DN12 4ER,53.489909215447000,-1.244313247912260
diamondback and monitor,DN12 4TW,53.486803065837000,-1.252084696726890
Dorcopsis and tuatara,DN12 4UN,53.490718388706300,-1.244344085166950
Tit-tyrant and massasauga,DN2 4AD,53.530275295138200,-1.122889456479820
Solitaire and Moluccan boobook,DN2 4AR,53.530756502388600,-1.117433268443810
cerastes and fer-de-lance,DN2 4AU,53.531621194099900,-1.118893807416480
python and Elephant,DN2 4BT,53.531983771323900,-1.114435618422610
mountain devil and diamond python,DN2 4BW,53.532315664089600,-1.120433367836730
tokay and moloch,DN2 4BY,53.531532049275400,-1.116557197692920
Dorcopsis and sidewinder,DN2 4DF,53.533729651018600,-1.118367245374530
worm lizard and mud turtle,DN2 4HU,53.532788562218500,-1.111446635967540
amphisbaena and Argus,DN2 4HW,53.538801000000000,-1.111185000000000
puff adder and chuckwalla,DN2 4HX,53.534251892966400,-1.112411804402650
tiger snake and boa,DN2 4PE,53.543138000000000,-1.099806000000000
Logrunners and Perching duck,DN2 4PP,53.545061373170000,-1.093909728504030
Ice seal and galliwasp,DN2 4QH,53.541760059420700,-1.097149214931480
amphisbaena and Grouse,DN2 5AD,53.533000680335400,-1.108545421915270
terrapin and Rabbit,DN2 5DY,53.545211725822900,-1.085212000000000
saltwater crocodile and cerastes,DN2 5EQ,53.525603029839100,-1.108549870600820
leathery turtle and jew lizard,DN2 5JS,53.531914208554300,-1.101492436904190
amphisbaena and sidewinder,DN2 5JT,53.531629901791700,-1.101935973367650
B and giant tortoise,DN2 5JU,53.532243703662000,-1.103476962087230
skink and diamond snake,DN2 5NR,53.534195750501500,-1.100086247742870
Parakeet and Elephant,DN2 5NY,53.537031736470200,-1.095921968745330
sidewinder and Chipmunk,DN2 5PF,53.537046422619000,-1.096676097109120
Stilt and dugite,DN2 5QT,53.539303555269100,-1.092055904435370
Dolphin and Duck,DN2 5RD,53.540399700484000,-1.090810164493310
goanna and Guillemot,DN2 6BB,53.520794000000000,-1.105936000000000
Scimitar babbler and Tree warbler,DN2 6EG,53.525957752163100,-1.099506586105410
puff adder and Booted eagles,DN2 6EX,53.525063043389200,-1.104850406064210
adder and Kite,DN2 6HF,53.525558472850400,-1.093058784207450
Gull and Hawk,DN2 6HN,53.531611779213000,-1.087664156304460
Meadowlark and Grosbeak,DN2 6JE,53.530349042362700,-1.089456404106530
soft-shelled turtle and Philippine hawk-owl,DN2 6JG,53.530914226963400,-1.088131744770940
Diving bird and Greenbul,DN2 6JP,53.523529593739800,-1.095771982807700
tortoise and Dolphin,DN2 6JW,53.529930795061700,-1.092377029184760
Pitohui and milk snake,DN2 6LL,53.528998257844300,-1.101011046346750
hoop snake and bushmaster,DN2 6NA,53.526632678494800,-1.094846057156590
Scimitar babbler and Old World vulture,DN2 6NQ,53.525602080370900,-1.094068531702680
Macaw and giant tortoise,DN2 6PJ,53.531463078323900,-1.097685014911360
Quetzal and Mamo,DN2 6PX,53.532318632090000,-1.094332573724630
blue tongue and Songlark,DN2 6PZ,53.532552258046700,-1.093135699025100
Chipmunk and leguaan,DN2 6QQ,53.532504862538800,-1.091627990094560
Towhee and habu,DN22 8LT,53.378328982659200,-1.037697012800140
saltwater crocodile and Solitaire,DN22 8PF,53.375511631059600,-1.013003218553470
Piping shrike and hoop snake,DN22 8PN,53.357687000000000,-0.973522000000000
smooth snake and tuatara,DN22 8QB,53.353704264270500,-0.976697894446732
Thrasher and anole,DN22 8QX,53.352374000000000,-1.002060000000000
bushmaster and goanna,DN22 8RU,53.365289688002300,-0.952690790630672
Mink and Rabbit,DN22 8RY,53.364541091418300,-0.961831000000000
Old World warbler and water snake,DN3 1FB,53.564396280862700,-1.079817353730050
Eagle and snapping turtle,DN3 1JE,53.559077125540400,-1.071946609188380
amphisbaena and krait,DN3 1JW,53.571403161616300,-1.060758719420470
New World blackbird and Chipmunk,DN3 1JY,53.562001384393000,-1.067700545952850
blindworm and Crow,DN3 1LN,53.572279174686700,-1.061282961955600
Thicketbird and dukite,DN3 1NT,53.566947553250600,-1.065704359634710
copperhead and swift,DN3 1NU,53.566403845817300,-1.065461000000000
carpet snake and anole,DN3 1SD,53.565656436829900,-1.076543717358360
Kestrel and Linsang,DN3 1SF,53.564735070949700,-1.077122433744210
Solitaire and Dolphin,DN3 1SG,53.565606605920300,-1.075910644031150
garter snake and anaconda,DN3 2AG,53.539754395988100,-1.068853229467730
rattlesnake and Puffleg,DN3 2DB,53.539708447269800,-1.061822386989130
Polecat and puff adder,DN3 2DG,53.542226373948800,-1.060816012485430
rock snake and constrictor,DN3 2DQ,53.542483683119900,-1.060387775883840
king cobra and tiger snake,DN3 2FH,53.533752497045600,-1.069181015672170
rat snake and indigo snake,DN3 2FL,53.534249002504900,-1.072927006364680
elapid and Gila monster,DN3 2HF,53.538351947801300,-1.052798768113730
Pheasant and Kite,DN3 2JY,53.550630048210600,-1.073399259114660
Egret and Masked owl,DN3 2LQ,53.548245844858400,-1.068485781748810
B and water snake,DN3 2LT,53.552971560819500,-1.063581961395260
sand lizard and milk snake,DN3 2PW,53.554761307560200,-1.071784412127300
krait and Egret,DN3 2TN,53.556870965990200,-1.058785952549390
puff adder and boomslang,DN3 3BD,53.532494940456100,-1.060095891931970
Minke whale and king snake,DN3 3EA,53.543972000000000,-1.033794000000000
Quetzal and dukite,DN3 3JU,53.529153566616000,-1.046773427461400
Booted eagles and iguana,DN3 3LD,53.531987173752600,-1.051567848853170
monitor and worm lizard,DN3 3PJ,53.517868907422300,-1.028430474085980
Warbler and rock snake,DN3 3RS,53.527906181029800,-1.048159137074490
Solitaire and snake,DN3 3RW,53.529154910854400,-1.048070800029060
caiman and tokay,DN3 3RZ,53.528832823173700,-1.050521946689230
leguaan and Fox,DN3 3SD,53.529870652402800,-1.051041846672110
deaf adder and Dorcopsis,DN3 3SP,53.533451177062700,-1.045771678058190
sand viper and Linsang,DN3 3TW,53.528381364580200,-1.041254271354070
tokay and Goose,DN3 3UB,53.506763457921800,-1.045752851648110
Chickadee and dugite,DN3 3WR,53.512920908235600,-1.125720918306950
Siskin and River dolphin,DN4 0BX,53.517831428785100,-1.151048015833870
harlequin snake and boa,DN4 0ED,53.517299000000000,-1.146821000000000
indigo snake and River dolphin,DN4 0EP,53.515317847634200,-1.151505433043360
sand viper and diamondback turtle,DN4 0EY,53.514621108349700,-1.152122579601240
black snake and saltwater crocodile,DN4 0JF,53.515427641991100,-1.142952267591600
jew lizard and Flameback,DN4 0LE,53.513882000000000,-1.141581000000000
Viscacha and worm lizard,DN4 0NA,53.509925890971500,-1.147888560231590
asp and mamba,DN4 0NL,53.509363333527300,-1.157294009033940
slowworm and Stint,DN4 0NS,53.505369995441200,-1.155684513042280
Buzzard and Pitohui,DN4 0QG,53.507726367204300,-1.149530969411270
Fox and Coati,DN4 0RR,53.504548442612100,-1.159002742203910
Macaw and bicycle lizard,DN4 0SF,53.503605617660500,-1.162986614290620
Goose and Egret,DN4 0SG,53.504663503877800,-1.161307283804840
deaf adder and deaf adder,DN4 0UQ,53.504330735543700,-1.170299813966570
sand viper and taipan,DN4 0UR,53.501596354747900,-1.171333138396130
Magpie and asp,DN4 0UY,53.501554654941500,-1.171801311329910
American sparrow and Diving bird,DN4 5EE,53.517026236399500,-1.108337739904640
Komodo dragon and terrapin,DN4 5FH,53.514909000000000,-1.127139982934110
Hawk and Fish eagle,DN4 5FL,53.505881887734300,-1.100158200447200
Flameback and Rat,DN4 5HB,53.517998177031500,-1.116974425752130
Eagle and flying lizard,DN4 5JQ,53.499614000000000,-1.117688000000000
smooth snake and Kākāriki,DN4 5JW,53.509770725622900,-1.112953417062190
Thrasher and B,DN4 5LL,53.512849966709900,-1.094446025452820
cobra de capello and bearded lizard,DN4 5NQ,53.511476000000000,-1.104974000000000
saltwater crocodile and New World blackbird,DN4 5PH,53.507441846879600,-1.114057510440540
Booted eagles and jew lizard,DN4 5PU,53.508157372918800,-1.100336194569690
loggerhead and frill-necked lizard,DN4 5PW,53.509367000000000,-1.100929000000000
Chickadee and Jackal,DN4 6AY,53.507412139469300,-1.080358143658380
Fox and ringhals,DN4 6BL,53.506407008621000,-1.081736911355420
Gull and Crow,DN4 6DE,53.502028243204700,-1.068790420918170
Diving bird and Fulmarine petrel,DN4 6HA,53.510676872339900,-1.073607275433220
turtle and Jackal,DN4 6JF,53.513160000000000,-1.073661674231430
Partridge and box turtle,DN4 6JR,53.514980000000000,-1.069752573815800
Ice seal and amphisbaena,DN4 6JU,53.514890196468500,-1.070981797112720
Old World quail and Kangaroo,DN4 6JY,53.512601058812300,-1.072524788985710
Maya and Linsang,DN4 6LH,53.512485053792600,-1.079614977907420
Cloud rat and bull snake,DN4 6LQ,53.512548939839700,-1.078573064345750
brown snake and giant tortoise,DN4 6NQ,53.511452090527600,-1.082050113674110
Puffleg and Grouse,DN4 6PT,53.499161755721300,-1.062008984358050
Schneider python and mamba,DN4 6QQ,53.504077085276900,-1.072183118063060
bull snake and glass snake,DN4 6QX,53.506760488250500,-1.065867121670410
Meadowlark and Puffleg,DN4 6RX,53.504675755829200,-1.062505461109080
Thrasher and Tree warbler,DN4 6SE,53.499373725239500,-1.071893820498290
Cuscus and mud turtle,DN4 6SS,53.494069493321100,-1.057991168103530
frill-necked lizard and Viscacha,DN4 6TP,53.501327075365600,-1.063031608622530
tree snake and Kākāriki,DN4 6TW,53.503040727770500,-1.066069494080660
Cloud rat and tortoise,DN4 6TX,53.504526466288500,-1.058377570105530
goanna and gaboon viper,DN4 6UA,53.503306345395000,-1.058675986498370
Duck and Capuchin,DN4 6UF,53.506393480749300,-1.060326494674660
ringhals and cobra de capello,DN4 6UQ,53.505248713564200,-1.066805005618320
diamondback turtle and perentie,DN4 7AD,53.509362000000000,-1.087192000000000
constrictor and dukite,DN4 7AG,53.505085000000000,-1.082670000000000
Grackle and whip snake,DN4 7AU,53.512344873728600,-1.091847942163980
Argus and terrapin,DN4 7BH,53.506511363010500,-1.085971571663580
loggerhead and Old World vulture,DN4 7DX,53.506371704234500,-1.087693460281340
Crow and puff adder,DN4 7EA,53.503607000000000,-1.086818000000000
soft-shelled turtle and Thrasher,DN4 7EN,53.503526531137200,-1.083200000000000
Black cockatoo and Partridge,DN4 7ER,53.503571013808400,-1.088190810967140
box turtle and bearded dragon,DN4 7EZ,53.500793274609500,-1.086984018770990
Schneider python and asp,DN4 7FH,53.494389000000000,-1.070813000000000
Songlark and Pheasant,DN4 7HJ,53.499301366401500,-1.083488413015600
Guillemot and rat snake,DN4 7PT,53.497767490325600,-1.079225139856560
tiger snake and smooth snake,DN4 7PZ,53.497150675785100,-1.080836415327350
bicycle lizard and fer-de-lance,DN4 8AP,53.509039125659700,-1.143292225173510
Buzzard and Jay,DN4 8AT,53.510277656507200,-1.143025986359440
Coati and krait,DN4 8DT,53.491624120609100,-1.132488000000000
Parrotbill and Komodo dragon,DN4 8DU,53.504222243321000,-1.149736783810290
Parrotlet and puff adder,DN4 8DZ,53.491654000000000,-1.131841000000000
smooth snake and Maya,DN4 8EX,53.501137962383200,-1.152105109400620
death adder and hoop snake,DN4 8GA,53.494166000000000,-1.138588000000000
bicycle lizard and Zebra,DN4 8HQ,53.502030580130100,-1.148695131123460
Stilt and Ibex,DN4 8HZ,53.503966384334100,-1.147887430151330
Herring gull and Triller,DN4 8JF,53.503040496204000,-1.149142280563260
Darwin's finches and tree snake,DN4 8LA,53.501285000000000,-1.147315950477030
caiman and Grosbeak,DN4 8QE,53.501672000000000,-1.153783000000000
Grouse and dukite,DN4 8QN,53.494811239656400,-1.145975676951630
terrapin and flying lizard,DN4 8RG,53.503864623213300,-1.157629192520340
snapping turtle and saltwater crocodile,DN4 8SA,53.490815372690700,-1.144036238149450
wall lizard and thorn lizard,DN4 8SD,53.491484698305400,-1.142108545692950
Bronzewing pigeon and Coati,DN4 8SE,53.491042784502300,-1.143157459333820
Mole and snake,DN4 9AS,53.492015407670000,-1.150975701325610
Perching duck and mountain devil,DN4 9AX,53.496596760711600,-1.158195289256920
deaf adder and Dorcopsis,DN4 9BD,53.492993646137300,-1.150760217322140
Flameback and B,DN4 9BF,53.500239000000000,-1.160583000000000
cerastes and Parrotbill,DN4 9BU,53.495393589850900,-1.164791356243550
bearded lizard and crocodile,DN4 9DL,53.494827000000000,-1.155653000000000
flying dragon and Myna,DN4 9EA,53.502079983003700,-1.162051772757880
ringhals and Fox,DN4 9EW,53.499962374872400,-1.165153858070480
anole and Tahr,DN4 9GD,53.501586418023900,-1.172494194849870
chameleon and gopher snake,DN4 9JH,53.500103392679400,-1.166040550123240
Vole and black snake,DN4 9JU,53.499892402799400,-1.175798563501880
Marsh harrier and rock snake,DN4 9LA,53.494669211343600,-1.179607945104500
king snake and swift,DN4 9LT,53.491808369521900,-1.183190144719230
snapping turtle and Asiatic leopard,DN4 9PU,53.499972751044500,-1.182264420443570
Treepie and Kangaroo,DN4 9RD,53.497935752692600,-1.183931000000000
Goose and Grouse,DN5 0DD,53.547241334898400,-1.147124331380330
moloch and elapid,DN5 0DF,53.545633366260800,-1.143714000000000
rat snake and puff adder,DN5 0DR,53.546340126175200,-1.146795326420600
milk snake and bandy-bandy,DN5 0EP,53.553430213518800,-1.147784838614030
massasauga and Rat,DN5 0NY,53.552012757018900,-1.141881333531510
Marmoset and Tattler,DN5 0QQ,53.562893394763900,-1.153860343224800
Linsang and horned toad,DN5 0RN,53.562589639999200,-1.154123066837400
ringhals and cobra de capello,DN5 0RS,53.548032202287000,-1.144587959374760
kabaragoya and Dolphin,DN5 0SH,53.557943228041300,-1.126695342677360
rattlesnake and king cobra,DN5 0TL,53.557747000000000,-1.121869000000000
rock snake and Puffleg,DN5 7AG,53.518272340906200,-1.169032121206910
Pitohui and Gull,DN5 7EU,53.522793081406100,-1.272417288370390
lizard and massasauga,DN5 7HB,53.521321663465100,-1.274342954909190
Treepie and green turtle,DN5 7JT,53.511506996365300,-1.187802885399080
Myna and flying lizard,DN5 7JW,53.517596843011100,-1.272280057421950
Perching duck and Peafowl,DN5 7NY,53.514508212527300,-1.191636335472590
Coati and sand viper,DN5 7QW,53.524000457891900,-1.194336738584450
Schneider python and Skunk,DN5 7RN,53.510442785726800,-1.192588273695750
Old World quail and Minke whale,DN5 7RY,53.522495351363300,-1.167501480215150
viper and habu,DN5 7TX,53.530310483485900,-1.173262109809060
Tattler and Partridge,DN5 8EF,53.526647998556100,-1.162336415477230
bull snake and blue racer,DN5 8ES,53.527359062841100,-1.161190991628860
flying dragon and cobra,DN5 8EX,53.528075182807700,-1.159487263479190
diamondback terrapin and king cobra,DN5 8HF,53.524692547728100,-1.160353681139340
Schneider python and Tahr,DN5 8HQ,53.532546145693800,-1.163849464600250
Kite and Marsh harrier,DN5 8LN,53.534941316980700,-1.170908735249050
Black jay and amphisbaena,DN5 8LU,53.531513000000000,-1.157322000000000
boomslang and Tahr,DN5 8LW,53.535467185898000,-1.171562344982530
Komodo dragon and bicycle lizard,DN5 8NG,53.536322554239900,-1.170474370829680
Minke whale and tortoise,DN5 8NJ,53.536020186951100,-1.168352818582280
skink and Nukupuʻu,DN5 8PW,53.535553485588000,-1.173642832968020
Guillemot and massasauga,DN5 8QG,53.537560596935700,-1.174026251539670
tortoise and Old World warbler,DN5 8RB,53.539231306802800,-1.179078905763580
coral snake and Fox,DN5 8SN,53.540070192429400,-1.172981489951750
anole and bandy-bandy,DN5 8ST,53.539426051224400,-1.175876000000000
Mockingbird and Moluccan boobook,DN5 8SX,53.538727397917500,-1.173988000000000
Mole and bearded dragon,DN5 8UW,53.532372125982000,-1.160820387853670
moloch and Jerboa,DN5 9AG,53.529147954249900,-1.144711970647520
Pheasant and chameleon,DN5 9BE,53.533083000000000,-1.154439000000000
Parakeet and chuckwalla,DN5 9EZ,53.543307348833600,-1.166685843115290
Chipmunk and Lemming,DN5 9JF,53.544290137883200,-1.160690382932960
tokay and viper,DN5 9JH,53.545509750887000,-1.159006168668750
skink and Nukupuʻu,DN5 9JW,53.548325679453300,-1.160640749023530
Mamo and bicycle lizard,DN5 9NQ,53.544638998949300,-1.155341109917340
River dolphin and viper,DN5 9QE,53.535997369922200,-1.153566658898190
Egret and Grosbeak,DN5 9QJ,53.538028275941800,-1.154763469560380
Pitohui and Vulture,DN5 9QY,53.542573024064700,-1.150462651297640
racer and Polecat,DN5 9SF,53.530768730731700,-1.143849563649010
Buzzard and Prion,DN5 9TB,53.534836000000000,-1.145460328578950
diamond snake and Thrasher,DN55 1LB,53.512923750490100,-1.125720996155070
Zebra and green turtle,DN55 1NF,53.512923750490100,-1.125720996155070
Chipmunk and massasauga,DN55 1SH,53.512923750490100,-1.125720996155070
box turtle and asp,DN6 7AE,53.572169680026400,-1.187592599675700
green turtle and Cuscus,DN6 7DH,53.568674560422800,-1.197127247188300
Komodo dragon and Black cockatoo,DN6 7DL,53.569658442138400,-1.197742830364790
Dorcopsis and Tit-tyrant,DN6 7DW,53.571836465385700,-1.191479967143460
hognose snake and Bunting,DN6 7DY,53.573151379875800,-1.191862632829610
soft-shelled turtle and Black cockatoo,DN6 7JB,53.555708718484300,-1.184526509405520
swift and gaboon viper,DN6 7JX,53.563417000000000,-1.193045000000000
bull snake and anole,DN6 7LS,53.564790165928400,-1.186452000000000
terrapin and Flameback,DN6 7NS,53.566757124460100,-1.204773586698020
Thrasher and Maya,DN6 7PU,53.559827058893200,-1.182122421834910
Rabbit and smooth snake,DN6 7TA,53.569124487239500,-1.203928882333810
Goose and soft-shelled turtle,DN6 7TG,53.570231950042100,-1.204210099812480
Komodo dragon and cycling lizard,DN7 4DH,53.563520322432200,-1.025935434017810
indigo snake and king snake,DN7 4EU,53.564174459271500,-1.031220004068650
Meadowlark and taipan,DN7 4HU,53.568814476989700,-1.020407929585550
Bunting and mamba,DN7 4JE,53.574877882793700,-1.021022930911650
Eagle and Petrel,DN7 6DA,53.543828365040800,-0.975635249482499
Viscacha and mountain devil,DN7 6DN,53.541489176731000,-0.973292311899592
king snake and snapping turtle,DN7 6NT,53.570098336693800,-0.972010669184140
cobra de capello and Rat,DN7 6PD,53.570663643564800,-0.976089318592830
Stint and coral snake,DN9 2BY,53.522795673024000,-0.926681000000000
Ice seal and cobra,DN9 2EN,53.480117000000000,-0.907643000000000
Chipmunk and grass snake,DN9 3BG,53.497837249523100,-0.984597991772977
diamondback terrapin and Peafowl,DN9 3BH,53.498416538660400,-0.984011294458549
agama and Stint,DN9 3BX,53.482474000000000,-0.990676000000000
monitor and iguana,DN9 3BZ,53.478327000000000,-0.994587000000000
Scimitar babbler and frilled lizard,DN9 3DJ,53.487584867260400,-0.985053818759294
brown snake and horned toad,DN9 3FY,53.486368000000000,-1.024490789600000
indigo snake and American sparrow,DN9 3GF,53.485644807762800,-1.012061598744990
tortoise and Treepie,DN9 3HE,53.491592000000000,-1.020213000000000
Pitohui and Kangaroo,DN9 3HZ,53.503600514076700,-1.019228003794130
Badger and Tree warbler,DN9 3LT,53.488117069678300,-1.018650716551990
mamba and Parakeet,DN9 3LX,53.489013346502400,-1.019428840787670
Shearwater and Triller,S25 1YD,53.385922395627800,-1.215618883832410
Towhee and coral snake,S25 1YJ,53.385396954800800,-1.216365254133160
Fish eagle and Asiatic leopard,S25 1YX,53.386161997530700,-1.216516597847310
Buzzard and Grackle,S25 1ZH,53.387863000000000,-1.220725000000000
king cobra and leathery turtle,S25 2AG,53.369542521000000,-1.210734708600000
diamondback turtle and Mink,S25 2AJ,53.372688298200000,-1.206618327600000
Wader and Goose,S25 2NN,53.371894302690100,-1.199989000000000
Minke whale and kabaragoya,S25 2NW,53.368781532598300,-1.206224846401050
Puffleg and monitor,S25 2PE,53.372478855325100,-1.209372649598460
Shearwater and perentie,S25 2PL,53.366588000000000,-1.211510000000000
carpet snake and Snipe,S25 2PN,53.369148479110400,-1.210050497453380
king snake and sand viper,S25 2PQ,53.366725010983200,-1.211943812290640
cerastes and racer,S25 2ST,53.366950615759200,-1.201254370220010
Civet and Quetzal,S25 2TB,53.363404260669000,-1.207286504644520
Ibex and leathery turtle,S25 2TJ,53.369685286382700,-1.208312178919020
Mockingbird and Towhee,S25 2TQ,53.377300906667200,-1.205916164110870
Marsh harrier and coral snake,S25 3AF,53.378196000000000,-1.228283000000000
puff adder and Philippine hawk-owl,S25 3AL,53.376697000000000,-1.231647000000000
Quetzal and dukite,S25 3AN,53.376229000000000,-1.231535000000000
death adder and sand viper,S25 3QQ,53.376728800537200,-1.228339447897780
alligator and blind snake,S25 3RR,53.376292128195000,-1.233396000000000
White ibis and Old World warbler,S25 4AG,53.356343000000000,-1.225298000000000
Booted eagles and anole,S25 4DH,53.354869577767400,-1.213439508623570
Puffleg and frilled lizard,S25 4FD,53.351960893987300,-1.209917506641140
Skunk and krait,S25 4HD,53.362186252380400,-1.221629681066210
mamba and python,S26 1DP,53.365810802268100,-1.245758872630500
Flameback and thorny devil,S26 2EE,53.362663402576200,-1.298634162989440
Bunting and thorny devil,S63 9JL,53.536005671853300,-1.297886159286680
tree snake and dukite,S64 0FD,53.493759835500000,-1.263101634100000
asp and Lemming,S64 0HB,53.491515603704500,-1.275319000000000
Francolin and Dolphin,S64 0JU,53.494201474403900,-1.277051814498210
sea snake and loggerhead,S64 0LJ,53.495032170294500,-1.274701265767010
cobra de capello and gecko,S64 0LQ,53.496279181596100,-1.277272746615030
king snake and Booted eagles,S64 0NL,53.509973000000000,-1.295949000000000
frilled lizard and Tree warbler,S64 0PJ,53.500193000000000,-1.265915000000000
sea snake and Shearwater,S64 0PQ,53.502184708956200,-1.269875440169700
Mink and sidewinder,S64 9BT,53.497767663771400,-1.285644035289600
Darwin's finches and mud turtle,S64 9BY,53.497974388649500,-1.287148035755400
Rat and Moluccan boobook,S64 9JB,53.493126000000000,-1.293982000000000
Partridge and indigo snake,S64 9JX,53.501734827134400,-1.289195626555810
Bronzewing pigeon and Recurvebill,S64 9NG,53.494418527280700,-1.296869747720290
Rat and pit viper,S64 9NR,53.495131172600200,-1.294250208919490
Herring gull and Zebra,S64 9NX,53.494562000000000,-1.293627000000000
Mink and diamondback,S64 9PD,53.495606009764900,-1.293986071106250
Ibex and Eagle,S64 9QA,53.492798361609700,-1.287385538981200
Recurvebill and lizard,S64 9SE,53.500182542550100,-1.294211578153760
Dolphin and Ground sloth,S65 4DS,53.448578750964200,-1.289661446717390
Moluccan boobook and dukite,S65 4DU,53.449233317579200,-1.292421104333790
carpet snake and Rabbit,S65 4DY,53.450345664463700,-1.292041235041240
Bunting and milk snake,S65 4ER,53.450667671735400,-1.299399231418550
Ibex and indigo snake,S65 4JA,53.447923917596100,-1.299022767631440
Kestrel and anaconda,S65 4JB,53.447252215074900,-1.299440354621550
agamid and sand lizard,S65 4LJ,53.438144610473000,-1.260315370108800
flying dragon and Perching duck,S65 4NS,53.454520000000000,-1.297047000000000
Wallaby and bushmaster,S65 4NU,53.458117620621300,-1.294532557450320
mud turtle and gavial,S65 4PX,53.436896944242300,-1.269368910124830
sand viper and cycling lizard,S65 4QG,53.437235487558400,-1.267406182414860
Tit-tyrant and skink,S66 1AH,53.419221808575900,-1.291203908336700
Shearwater and Logrunners,S66 1AY,53.418917322900000,-1.272927299800000
harlequin snake and Rat,S66 1ES,53.419422228404700,-1.281119126141950
Snipe and goanna,S66 1FA,53.420325021996900,-1.278786625212100
Towhee and Songlark,S66 1JJ,53.421633517352100,-1.278147533123300
Mole and sea snake,S66 1JR,53.419707630096800,-1.273319942056730
worm lizard and wall lizard,S66 1JZ,53.413539581047300,-1.278961562909860
rock snake and asp,S66 1NY,53.412494087011600,-1.278932000000000
slowworm and sea snake,S66 1TR,53.418936953236200,-1.261972752551830
krait and frilled lizard,S66 1WR,53.418021166544900,-1.256346176854150
Cuscus and Kangaroo,S66 1XB,53.420896746000000,-1.258613482700000
Fulmarine petrel and Linsang,S66 2BX,53.422833897392400,-1.289458463268670
Piping shrike and ringhals,S66 2DD,53.424745798913800,-1.289005228930640
Coati and whip snake,S66 2HP,53.426031326817400,-1.289028934889590
Jerboa and giant tortoise,S66 2JL,53.422542540145500,-1.276853057098480
agama and gaboon viper,S66 2LB,53.428420750601700,-1.284248291535670
Linsang and skink,S66 2LD,53.430872191283900,-1.285335946220480
Francolin and Eagle,S66 2LJ,53.422591433293600,-1.273060113941510
Grackle and Warbler,S66 2LT,53.425385111988100,-1.275721303506590
whip snake and Marmoset,S66 2PD,53.425273216207500,-1.278025704144990
Thrasher and Marsh harrier,S66 2PE,53.424656147798800,-1.278547814190620
copperhead and Hawk,S66 2SS,53.427445215796800,-1.261313747710890
Macaw and boomslang,S66 2SZ,53.426857524705400,-1.263671668391680
worm lizard and mountain devil,S66 2XS,53.425825880910200,-1.259641247412320
wall lizard and sidewinder,S66 2YG,53.425714223978100,-1.264310000000000
Jerboa and horned toad,S66 3RH,53.432415497873500,-1.281878316431280
python and cerastes,S66 3YB,53.433676007519400,-1.268882263291160
gaboon viper and mountain devil,S66 3YH,53.429329162225100,-1.263628968481950
blue tongue and Jerboa,S66 3YL,53.428119327549600,-1.265681624779800
viper and Solitaire,S66 3ZS,53.434914818595500,-1.275995858765990
lizard and Polecat,S66 3ZU,53.436710222336200,-1.277094331733100
Bronzewing pigeon and diamondback,S66 7DB,53.424637000000000,-1.197801725772030
Wallaby and Scimitar babbler,S66 7ED,53.431128343416700,-1.196876220041380
boa constrictor and Kestrel,S66 7EE,53.430354101759500,-1.198034678337050
Piping shrike and jew lizard,S66 7HL,53.420189379293500,-1.196931828892700
Diving bird and Puffleg,S66 7JE,53.417300309867100,-1.197723512159010
frill-necked lizard and Ground sloth,S66 7JQ,53.416909747150700,-1.194450801436010
amphisbaena and Warbler,S66 7NR,53.424625603002200,-1.194967145793570
water snake and grass snake,S66 7PF,53.422092768986900,-1.189943807993780
Scimitar babbler and gopher snake,S66 7RJ,53.446096770456700,-1.196308000000000
taipan and Viscacha,S66 7RX,53.462505000000000,-1.219344285737830
tree snake and Philippine hawk-owl,S66 8DP,53.424433712114700,-1.223006660891520
taipan and harlequin snake,S66 8DS,53.424462416555600,-1.221892527692380
Perching duck and Pratincole,S66 8DW,53.424958324324400,-1.223508762920570
king snake and Darwin's finches,S66 8JS,53.428494851111400,-1.203623198279940
Logrunners and sea snake,S66 8LF,53.423175064583700,-1.204083000000000
crocodile and Mink,S66 8NH,53.421189555829500,-1.213510541714710
B and Goose,S66 8RE,53.433385448833900,-1.214594985921580
snake and Moluccan boobook,S66 8RS,53.430218216827800,-1.218220400662230
mud turtle and Ibex,S66 8SG,53.431528422986700,-1.223404108974220
slowworm and American sparrow,S66 9AB,53.396822000000000,-1.256956000000000
Chickadee and Myna,S66 9BD,53.389753332489800,-1.271228704597520
Bronzewing pigeon and habu,S66 9BE,53.387952000000000,-1.271966000000000
Pratincole and brown snake,S66 9BZ,53.392732068407300,-1.250004970676320
Kākāriki and caiman,S66 9DL,53.392958273759000,-1.250241597665090
iguana and Boto,S66 9DR,53.392231483503800,-1.246164196860150
tree snake and tiger snake,S66 9DS,53.391746712082500,-1.246262982658510
American sparrow and turtle,S66 9DT,53.391682000000000,-1.247242000000000
Duck and Goose,S66 9FJ,53.390375000000000,-1.255129000000000
Vole and Black cockatoo,S66 9FP,53.389987610900000,-1.249060930000000
sand lizard and Fish eagle,S66 9HD,53.396042524431700,-1.259060254585420
diamondback terrapin and copperhead,S66 9JH,53.398218750240700,-1.285777687592110
giant tortoise and Chickadee,S66 9JZ,53.393891471711500,-1.245698773450930
Cuscus and Pheasant,S66 9LD,53.395615914308400,-1.256947223643920
Masked owl and Black cockatoo,S66 9LJ,53.394864580099500,-1.254659445181380
Marsh harrier and dugite,S66 9PQ,53.392638000000000,-1.263540000000000
Asiatic leopard and Mouse,S66 9PR,53.392345919803200,-1.261605606119400
boa constrictor and Snipe,S66 9QH,53.389676814629300,-1.261591000000000
Triller and Mamo,S81 8DT,53.369203156171800,-1.058868791740440
turtle and Wallaby,S81 8FB,53.377008472586500,-1.061522817380790
American sparrow and Parrotbill,S81 8HB,53.376614075612000,-1.058239457637790
Jackal and loggerhead,S81 8HG,53.381986655468400,-1.062268000000000
Eagle and turtle,S81 8HX,53.391795404405000,-1.116461000000000
Black cockatoo and bearded dragon,S81 8JF,53.389909531132500,-1.114754916294390
turtle and swift,S81 8JG,53.389611224219300,-1.113317589487720
whip snake and Macaw,S81 8LB,53.387912222235800,-1.164415071770450
Ibex and whip snake,S81 9AX,53.358030950099700,-1.122298000000000
cobra and Magpie,S81 9AZ,53.358490932585600,-1.120365000000000
Vole and Marsh harrier,S81 9BW,53.356211843689400,-1.114987399169590
racer and iguana,S81 9BX,53.355193846911800,-1.117111910421230
Stint and whip snake,S81 9DL,53.354256564682900,-1.115568762383650
Chicken and Pheasant,S81 9EJ,53.353197462255400,-1.112150233667640
jew lizard and Zebra,S81 9EQ,53.354007761555600,-1.110016000000000
harlequin snake and Tree warbler,S81 9FA,53.362127000000000,-1.117090000000000
rattlesnake and Kākāriki,S81 9HH,53.359590596143500,-1.124594177048400
Moluccan boobook and mud turtle,S81 9HL,53.358308960492000,-1.128797543488880
Chickadee and Hawk,S81 9HX,53.360930908666700,-1.127181324547420
rock snake and constrictor,S81 9JB,53.362130045903700,-1.125218354354970
sidewinder and cycling lizard,S81 9JT,53.363372143304200,-1.121766683314870
kabaragoya and Maya,S81 9LG,53.361384124409200,-1.121567123506500
Fox and Fulmarine petrel,S81 9LW,53.359146512206600,-1.122875300805370
boomslang and saltwater crocodile,S81 9PJ,53.376792305771600,-1.126631655150420
Gila monster and bearded lizard,S81 9PN,53.377586698665500,-1.125863788581850
saltwater crocodile and Gila monster,S81 9PQ,53.375844723146900,-1.122442147823080
sidewinder and Wader,S81 9PY,53.379581648991600,-1.128243266993180
Viscacha and Old World vulture,S81 9QP,53.368203908743000,-1.121186408950060
asp and Zebra,S81 9TJ,53.360008116918100,-1.114172482446270
