name,postcode,lat,lon
mountain devil and anaconda,DN1 1BH,53.523461881429900,-1.135233093628950
skink and Komodo dragon,DN1 1JS,53.524011175135100,-1.130410066501640
Pitohui and blindworm,DN1 1PZ,53.524194000000000,-1.136908000000000
anaconda and thorny devil,DN1 1UR,53.523268892858800,-1.134648751787880
Armadillo and Jay,DN1 2AZ,53.517369576570300,-1.126850989268650
coral snake and Nukupuʻu,DN1 2BY,53.515986549728900,-1.128130000000000
mud turtle and mamba,DN1 2EG,53.520704358078600,-1.123432000000000
snapping turtle and slowworm,DN1 2ES,53.526159000000000,-1.122854000000000
cobra and Masked owl,DN1 2LA,53.526878000000000,-1.126429000000000
whip snake and chuckwalla,DN1 2LP,53.527980000000000,-1.127201062917060
cobra de capello and viper,DN1 2NJ,53.528568618001500,-1.125504377524310
bearded dragon and green turtle,DN1 2PE,53.525978523667400,-1.130249103235920
garter snake and asp,DN1 2QN,53.526175353295400,-1.128887429323790
goanna and green turtle,DN1 2UB,53.531846008685600,-1.125029527862450
Jerboa and bearded dragon,DN1 3AR,53.519061944833500,-1.137102391494980
White ibis and blind snake,DN1 3ER,53.521676323915400,-1.129477454182010
Darwin's finches and boa constrictor,DN1 3NJ,53.522515862037800,-1.128736233240420
Snipe and Jackal,DN1 3QW,53.515721000000000,-1.133611000000000
swift and glass snake,DN1 3RE,53.512795000000000,-1.136687000000000
Towhee and bearded dragon,DN1 3SH,53.517360722219300,-1.136774985656100
Polecat and diamondback,DN1 9DP,53.512914000000000,-1.125573000000000
blue tongue and Bronzewing pigeon,DN1 9FS,53.512920908235600,-1.125720918306950
jew lizard and sand lizard,DN1 9SN,53.520010916083200,-1.132844868539990
green turtle and Fish eagle,DN1 9TQ,53.512914000000000,-1.125573000000000
swift and American sparrow,DN10 4RF,53.408047409990100,-0.892565795051008
cerastes and Piping shrike,DN10 5BL,53.413007438630800,-0.964502998467475
diamond python and White ibis,DN10 6AN,53.409439925750800,-1.018447000000000
Tattler and python,DN10 6AW,53.409563180988000,-1.019722144942160
rattlesnake and diamondback terrapin,DN10 6BJ,53.425204000000000,-1.004418000000000
Pratincole and brown snake,DN10 6ET,53.474865265038400,-0.941482404488065
Towhee and frill-necked lizard,DN10 6FA,53.439575000000000,-0.996332000000000
Komodo dragon and Kākāriki,DN10 6JY,53.430768734177600,-1.022003825559720
constrictor and Darwin's finches,DN10 6LE,53.432492055098200,-1.023890909323870
blind snake and White ibis,DN10 6PT,53.431496264839800,-1.018645694071760
Schneider python and Nukupuʻu,DN10 6PZ,53.432189300418600,-1.016567643023110
Snipe and amethystine python,DN10 6QT,53.443729000000000,-1.008532000000000
Kite and Tattler,DN11 0AZ,53.472829585433200,-1.066084913594890
king snake and Diving bird,DN11 0BZ,53.467574081361100,-1.065311462599600
Bunting and diamondback turtle,DN11 0DB,53.468589000000000,-1.060425928279310
garter snake and turtle,DN11 0EB,53.478984000000000,-1.062122000000000
cobra and Black jay,DN11 0EQ,53.479552827335000,-1.062592115579810
ringhals and monitor,DN11 0EZ,53.480041168881200,-1.058392274396580
Skunk and Marsh harrier,DN11 0FQ,53.474124606713100,-1.058146557802050
Parrotbill and Parrotbill,DN11 0HB,53.480219000000000,-1.055691000000000
Buzzard and bushmaster,DN11 0JS,53.471728933860000,-1.075977087286020
Petrel and milk snake,DN11 0LF,53.468579000000000,-1.061638413383580
sand lizard and harlequin snake,DN11 0LU,53.475445479250200,-1.073033642601680
Guillemot and Jackal,DN11 0QG,53.476324481822700,-1.084450564445070
Moluccan boobook and water snake,DN11 0QH,53.480218000000000,-1.082091000000000
Francolin and slowworm,DN11 0QY,53.473298000000000,-1.082271000000000
asp and diamondback,DN11 0QZ,53.472698737112100,-1.081681109041820
Philippine hawk-owl and water snake,DN11 0RZ,53.469880000000000,-1.080853000000000
Duck and death adder,DN11 0SB,53.471350527311200,-1.081695140267090
coral snake and krait,DN11 0TH,53.480559139246000,-1.081059357034410
copperhead and New World blackbird,DN11 0XJ,53.476957634166800,-1.056064786522610
hawksbill and Condor,DN11 0YR,53.469847577191700,-1.073306240118760
chameleon and cayman,DN11 8BN,53.422157692206400,-1.043133434069550
massasauga and blind snake,DN11 8DF,53.417535443997600,-1.056448035194090
horned viper and Songlark,DN11 8DH,53.419417508789300,-1.058016429786170
Fish eagle and frill-necked lizard,DN11 8DQ,53.419359986871200,-1.056422700769450
diamond python and Dolphin,DN11 8EU,53.418618855228000,-1.061615239770570
amphisbaena and bearded dragon,DN11 8FF,53.424991000000000,-1.059971000000000
Vulture and sand lizard,DN11 8HD,53.420023000000000,-1.064956000000000
frill-necked lizard and Komodo dragon,DN11 8JD,53.421853359931600,-1.068315657028590
Gila monster and thorn lizard,DN11 8JU,53.415923000000000,-1.068520000000000
Zebra and chuckwalla,DN11 8LB,53.417216000000000,-1.076377000000000
frilled lizard and water snake,DN11 8LN,53.417527219904800,-1.079589748802970
bearded lizard and flying lizard,DN11 8NQ,53.408374777463800,-1.088738018389330
chameleon and chameleon,DN11 8NS,53.422309074594100,-1.063369886888960
Jerboa and water snake,DN11 8RJ,53.423274155607800,-1.059210330433170
Mink and Chickadee,DN11 9AL,53.468833999558200,-1.142233807942480
Diving bird and boomslang,DN11 9AP,53.465819966908100,-1.140592378274050
Myna and Siskin,DN11 9AU,53.436042396390300,-1.100219025065680
grass snake and boomslang,DN11 9DJ,53.488653000000000,-1.145662000000000
Grackle and galliwasp,DN11 9DP,53.485694274152600,-1.160627000000000
hognose snake and mud turtle,DN11 9DX,53.474083239298200,-1.128538067535200
Treepie and bull snake,DN11 9EE,53.466681566601400,-1.148438000000000
death adder and White ibis,DN11 9EQ,53.431809066552500,-1.098261274847420
Marsh harrier and Minke whale,DN11 9HN,53.436540000000000,-1.102120000000000
fer-de-lance and Zebra,DN11 9HQ,53.447010784603100,-1.069165689909790
terrapin and blind snake,DN11 9JB,53.438368000000000,-1.110873000000000
bandy-bandy and Black cockatoo,DN11 9LN,53.457848525127500,-1.083929248058800
Wallaby and hoop snake,DN11 9PG,53.428185581727000,-1.129642397494390
harlequin snake and Lemming,DN11 9PP,53.432691733627600,-1.116545607011650
Tit-tyrant and constrictor,DN11 9QH,53.432089661629200,-1.100783000000000
python and puff adder,DN11 9RQ,53.412579153227200,-1.119580117558420
Dorcopsis and coral snake,DN11 9UW,53.438261860081100,-1.106479555167410
horned viper and Solitaire,DN11 9XD,53.465579656169300,-1.143429151912250
Duck and ringhals,DN12 1AJ,53.485261000000000,-1.189180317618830
Recurvebill and Chickadee,DN12 1AT,53.484134210659400,-1.191445150393720
rat snake and deaf adder,DN12 1AW,53.484944427722800,-1.190180000000000
Bunting and Egret,DN12 1AZ,53.486063166196000,-1.190911149017230
terrapin and Perching duck,DN12 1BD,53.486374261878100,-1.189066602389880
Ibex and Perching duck,DN12 1BJ,53.487110727915800,-1.188977204732590
Hawaiian honeycreeper and Kākāriki,DN12 1BS,53.484842701607600,-1.188221000000000
Guillemot and Old World warbler,DN12 1DJ,53.481694612669400,-1.190903829702440
bull snake and Old World warbler,DN12 1EZ,53.486108000000000,-1.187778000000000
Gull and loggerhead,DN12 1LE,53.481060180020200,-1.190237000000000
diamond snake and diamond snake,DN12 1LX,53.476897397290700,-1.187333693358070
Stint and deaf adder,DN12 1ND,53.478624645221300,-1.191519732729530
sand viper and blindworm,DN12 1NG,53.478086019221600,-1.188968444965790
Jackal and Ice seal,DN12 1NW,53.477066232844600,-1.191021987861070
Marmoset and Kākāriki,DN12 1PT,53.470995217352500,-1.197148449038770
Black jay and Kangaroo,DN12 1PX,53.469170143346300,-1.198433243503060
American sparrow and saltwater crocodile,DN12 1SH,53.488236000000000,-1.181119000000000
copperhead and New World blackbird,DN12 1SY,53.484916450610900,-1.184859668403210
alligator and Maya,DN12 2AP,53.464312108693400,-1.228771148587090
bearded lizard and Herring gull,DN12 2BT,53.478659481222600,-1.229776000000000
Myna and Kestrel,DN12 2ES,53.477768686574900,-1.234915763362590
Cuscus and blind snake,DN12 2ET,53.476883825019500,-1.235700108483960
amphisbaena and Boto,DN12 2HN,53.477744626476600,-1.238185868972670
Cloud rat and cobra de capello,DN12 2HT,53.480737680160200,-1.213178521014790
crocodile and Gila monster,DN12 2NX,53.478051646308000,-1.238406387230160
Mink and Warbler,DN12 3AH,53.483129788522600,-1.221588287652530
Crow and terrapin,DN12 3DD,53.488101184132500,-1.232815841359270
Elephant and Thicketbird,DN12 3DU,53.485667165494400,-1.226138333434690
Linsang and chameleon,DN12 3EF,53.486277144250200,-1.222978000000000
gaboon viper and Gull,DN12 3FA,53.484953000000000,-1.218181000000000
Armadillo and Guillemot,DN12 3HF,53.481908672689300,-1.230124676969320
Ground sloth and agama,DN12 3HX,53.484026215134200,-1.233733253374710
Scimitar babbler and water snake,DN12 3HY,53.484963978190100,-1.229994024496790
blue tongue and elapid,DN12 3JL,53.482076575558400,-1.232472426750590
massasauga and Solitaire,DN12 3LR,53.476727000000000,-1.249143000000000
Viscacha and cayman,DN12 3LY,53.480650035013900,-1.238510555757190
carpet snake and cerastes,DN12 3NX,53.480152000000000,-1.246310000000000
New World blackbird and frilled lizard,DN12 4AP,53.487820866759600,-1.250981673491730
Crow and Asiatic leopard,DN12 4BD,53.489777792102500,-1.252002237212280
Jay and Gila monster,DN12 4EW,53.489443709541800,-1.241774392888930
racer and bearded lizard,DN12 4HG,53.484202336937700,-1.254481330088720
Goose and Jerboa,DN12 4NG,53.483681427917300,-1.254550738800900
Scimitar babbler and dukite,DN12 4TJ,53.491845000000000,-1.254739000000000
Parrotbill and amethystine python,DN12 4UH,53.490191530049700,-1.250608334585000
Mockingbird and Petrel,DN2 4DQ,53.532988280713900,-1.115350082194010
thorny devil and pit viper,DN2 4DU,53.534429297813200,-1.116949544312270
crocodile and agama,DN2 4EW,53.535591739415100,-1.116125685365670
Perching duck and Cuscus,DN2 4HF,53.538390417369800,-1.115343124849600
Solitaire and Schneider python,DN2 4JF,53.535753358876200,-1.107627582425530
Parrotbill and Dolphin,DN2 4LG,53.537535824326400,-1.105583276182330
blue racer and alligator,DN2 4LT,53.538597000000000,-1.120062000000000
skink and Hawaiian honeycreeper,DN2 4QG,53.550570000000000,-1.095950000000000
Quetzal and Jay,DN2 4RJ,53.547839676731400,-1.085745638390870
horned toad and perentie,DN2 4RR,53.550095677024700,-1.085093000000000
flying lizard and lizard,DN2 4RX,53.547297000000000,-1.084037000000000
Jay and indigo snake,DN2 4RZ,53.548826492625900,-1.083143467774610
rock snake and carpet snake,DN2 4SE,53.543195000000000,-1.078934000000000
blindworm and king cobra,DN2 4SW,53.541067825748500,-1.103109498178770
Diving bird and Condor,DN2 5AT,53.532976974559800,-1.110190441945450
Crow and gecko,DN2 5DQ,53.526107440144800,-1.109896924805150
Badger and mamba,DN2 5ED,53.527286190524700,-1.112481980159230
Mockingbird and Songlark,DN2 5EY,53.527527319035400,-1.108645243355660
Maya and green turtle,DN2 5GA,53.532051622092000,-1.110255096509400
Boto and boomslang,DN2 5JX,53.532584029270400,-1.104510794315540
king cobra and frilled lizard,DN2 5PE,53.537166221700700,-1.098257878493000
Armadillo and Mockingbird,DN2 5PF,53.537046422619000,-1.096676097109120
Tattler and Dolphin,DN2 5QB,53.532740553827000,-1.079900000000000
bushmaster and Jackal,DN2 5QP,53.538313114148500,-1.094204678232820
Thrasher and Zebra,DN2 5QQ,53.537019131255800,-1.090701506562810
Philippine hawk-owl and Prion,DN2 5QW,53.538135610278100,-1.090949195635400
python and thorny devil,DN2 5RX,53.536771498830100,-1.093603847251220
Parrotbill and perentie,DN2 5SA,53.534011353197200,-1.105599000000000
glass snake and blue tongue,DN2 6DG,53.522911447428600,-1.108018098798520
Buzzard and box turtle,DN2 6EE,53.525466987422600,-1.098792926770310
snake and New World blackbird,DN2 6HR,53.534002361298000,-1.088789627678440
Perching duck and Grouse,DN2 6JG,53.530914226963400,-1.088131744770940
diamond snake and perentie,DN2 6JH,53.529579355412500,-1.089895322633630
Grosbeak and diamond python,DN2 6ND,53.525767000000000,-1.093175000000000
milk snake and Meadowlark,DN2 6NH,53.526144077990800,-1.092050670728890
cobra and Tree warbler,DN2 6QW,53.530825380327200,-1.094183386508940
Grouse and diamond python,DN22 8LH,53.385018477422300,-1.008242798454150
cobra de capello and diamondback terrapin,DN22 8NJ,53.384523390954800,-1.014674221087850
hawksbill and cobra de capello,DN22 8NQ,53.388540000000000,-1.011048000000000
cerastes and habu,DN22 8RH,53.368844256213100,-0.962402853942562
Solitaire and taipan,DN22 8RX,53.364957342894600,-0.960949378948739
Egret and Vole,DN22 8RZ,53.363585000000000,-0.960163411012946
Masked owl and Warbler,DN22 8SA,53.363920195012200,-0.961590745080419
python and thorny devil,DN22 8SD,53.352177393040700,-0.967449867820581
Pitohui and flying dragon,DN3 1BZ,53.563955000000000,-1.080405000000000
sidewinder and tortoise,DN3 1HS,53.566003814479400,-1.068820613237630
boomslang and gecko,DN3 1JU,53.560700368336500,-1.068000896220240
anole and diamondback,DN3 1NW,53.563553048323300,-1.068421348452230
taipan and White ibis,DN3 1QA,53.560161008104600,-1.064540418857090
Marmoset and Hawk,DN3 1QR,53.557299849701600,-1.081811000000000
Mamo and jew lizard,DN3 1RN,53.564235726016300,-1.063756002185260
Cuscus and Night heron,DN3 1SR,53.566928481109600,-1.071336890698830
Chickadee and frilled lizard,DN3 2AA,53.540073284302600,-1.067095801216630
galliwasp and Solitaire,DN3 2AG,53.539754395988100,-1.068853229467730
Hawaiian honeycreeper and kabaragoya,DN3 2BP,53.537403617876600,-1.072873199439670
ringhals and Dolphin,DN3 2BZ,53.539702291454800,-1.061037852900270
crocodile and Mouse,DN3 2DU,53.550753000000000,-1.070292000000000
Herring gull and Fish eagle,DN3 2EN,53.539223121631400,-1.051572154897030
Stilt and bull snake,DN3 2FB,53.536034049620200,-1.066671562821540
Darwin's finches and rock python,DN3 2FH,53.533752497045600,-1.069181015672170
asp and cayman,DN3 2HJ,53.544163000000000,-1.057770000000000
flying lizard and horned toad,DN3 2HN,53.536515319864300,-1.053564007849160
Solitaire and Solitaire,DN3 2LJ,53.550959276643200,-1.062584902728850
mountain devil and Tattler,DN3 2LN,53.552297526380200,-1.063596839058860
boa constrictor and Viscacha,DN3 2NF,53.556846000000000,-1.068055000000000
rock python and Old World quail,DN3 2PQ,53.552804537105400,-1.070981935957410
krait and mountain devil,DN3 2QH,53.554248251092500,-1.076339224241090
chuckwalla and Vole,DN3 2QU,53.547805867686900,-1.075498444291550
Guillemot and Snipe,DN3 3AX,53.535069863526300,-1.059480620192750
frill-necked lizard and rock python,DN3 3AY,53.533860393944200,-1.059990222781850
Old World vulture and Quetzal,DN3 3BB,53.533563000000000,-1.060887000000000
Macaw and Chipmunk,DN3 3BZ,53.532443464531300,-1.052432715575800
Pheasant and diamondback turtle,DN3 3DT,53.536917000000000,-1.048638516686110
tiger snake and Eagle,DN3 3DW,53.536512732990700,-1.048705507513230
constrictor and tortoise,DN3 3EE,53.535396000000000,-1.045936817450520
Tit-tyrant and Solitaire,DN3 3EQ,53.535715702656300,-1.024521535454730
soft-shelled turtle and dugite,DN3 3LA,53.531127000000000,-1.047317000000000
Guillemot and Pitohui,DN3 3LP,53.531524882090900,-1.051080307688810
carpet snake and Boto,DN3 3NW,53.507652383191700,-1.033323324909870
moloch and Black jay,DN3 3PD,53.511333765343200,-1.031716512178180
dukite and Mouse,DN3 3PF,53.512043449491200,-1.030387000000000
racer and Cuscus,DN3 3SQ,53.530865637428700,-1.054097290988280
Kite and Egret,DN3 3SY,53.534383202670300,-1.043170690503360
taipan and Parakeet,DN3 3UT,53.507170000000000,-1.040270000000000
B and Polecat,DN4 0BL,53.518768898065200,-1.146368860291350
Myna and Diving bird,DN4 0DA,53.517530022103200,-1.152909103351750
Marmoset and Logrunners,DN4 0HE,53.513917934153900,-1.156917142470340
cayman and Gila monster,DN4 0LN,53.512327417516600,-1.146845119713720
fer-de-lance and Solitaire,DN4 0RU,53.502957677629600,-1.162878760973960
Old World warbler and B,DN4 0TD,53.504276700028200,-1.163832793159100
puff adder and Flameback,DN4 0TF,53.505104311154300,-1.161358894615260
ringhals and perentie,DN4 0XL,53.509228088091400,-1.154688046736860
water snake and agama,DN4 5AB,53.514512000000000,-1.128071000000000
bandy-bandy and mountain devil,DN4 5AP,53.516835737330700,-1.121462746302520
perentie and rock snake,DN4 5AT,53.516676968210700,-1.120651625790840
thorny devil and Grouse,DN4 5DZ,53.516335303847200,-1.106090024764750
smooth snake and iguana,DN4 5FG,53.505369921016700,-1.101405400886590
green turtle and crocodile,DN4 5JW,53.509770725622900,-1.112953417062190
cobra de capello and Peafowl,DN4 5LG,53.515652641855000,-1.091837557830070
flying lizard and garter snake,DN4 5LS,53.511374371008700,-1.095442575605370
fer-de-lance and Diving bird,DN4 5NT,53.508429000000000,-1.117384000000000
tree snake and Goose,DN4 6AR,53.509034505682100,-1.077427884704780
Darwin's finches and Old World vulture,DN4 6HP,53.518242000000000,-1.082356000000000
Parrotbill and Prion,DN4 6HT,53.519441042265800,-1.081786978582530
terrapin and hognose snake,DN4 6LH,53.512485053792600,-1.079614977907420
Grosbeak and copperhead,DN4 6NH,53.510155040313100,-1.079363863109870
garter snake and tuatara,DN4 6NZ,53.500449896543100,-1.066955593199350
Viscacha and wall lizard,DN4 6PT,53.499161755721300,-1.062008984358050
Ibex and Black cockatoo,DN4 6RR,53.505840168809500,-1.064411000000000
Masked owl and Partridge,DN4 6RY,53.506943718286600,-1.067461379378090
snapping turtle and Chipmunk,DN4 6SE,53.499373725239500,-1.071893820498290
amphisbaena and Nukupuʻu,DN4 6UA,53.503306345395000,-1.058675986498370
Perching duck and wall lizard,DN4 6UF,53.506393480749300,-1.060326494674660
glass snake and Parrotbill,DN4 7AN,53.495962727981000,-1.065576800202890
thorn lizard and Grosbeak,DN4 7BJ,53.505772000000000,-1.086681000000000
Badger and Dorcopsis,DN4 7BL,53.505083861967400,-1.088550367550460
milk snake and American sparrow,DN4 7BS,53.502458250411200,-1.081385005839030
Marmoset and agama,DN4 7DF,53.507862856204900,-1.095849051046770
king cobra and Scimitar babbler,DN4 7DS,53.507071738131900,-1.089910002899660
blindworm and moloch,DN4 7FN,53.493665000000000,-1.072532000000000
water snake and Civet,DN4 7FS,53.491583000000000,-1.074115000000000
Chickadee and lizard,DN4 7HH,53.500624110473100,-1.083670954631230
Elephant and rock snake,DN4 7JQ,53.499919974823000,-1.089158594135720
Goose and green turtle,DN4 7JT,53.497133940630600,-1.074007951458250
Fulmarine petrel and Logrunners,DN4 7NX,53.495160536366800,-1.064147329305370
Maya and Cloud rat,DN4 7PT,53.497767490325600,-1.079225139856560
Chicken and pit viper,DN4 7PZ,53.497150675785100,-1.080836415327350
Warbler and goanna,DN4 7RU,53.502205342331000,-1.090632341432670
Grosbeak and Booted eagles,DN4 8DR,53.506425875843600,-1.146149393316270
Masked owl and anaconda,DN4 8EU,53.500840843046200,-1.152172000000000
Egret and blindworm,DN4 8HY,53.504027639151100,-1.146393575735580
Black jay and blue tongue,DN4 8JS,53.500030034702400,-1.149142000000000
Zebra and flying dragon,DN4 8ND,53.498671000000000,-1.140034000000000
tokay and grass snake,DN4 8PQ,53.503135531877300,-1.156378000000000
Capuchin and Kite,DN4 8PT,53.503841601282300,-1.155639490511930
habu and River dolphin,DN4 8PU,53.503827670061400,-1.156212691473130
puff adder and asp,DN4 8RF,53.503938709578600,-1.156662796761090
racer and taipan,DN4 8RQ,53.503308039733800,-1.157730684142710
gopher snake and chuckwalla,DN4 8RT,53.490469878438300,-1.139732535000040
Jackal and Lemming,DN4 9AG,53.499855910027600,-1.157663407033270
tiger snake and snake,DN4 9AR,53.491512106822000,-1.152251848257040
taipan and death adder,DN4 9BU,53.495393589850900,-1.164791356243550
chameleon and Grosbeak,DN4 9BY,53.495430414776300,-1.163629937588740
Dorcopsis and rat snake,DN4 9DB,53.494183000000000,-1.161290423592050
Jay and Ibex,DN4 9DT,53.501806745436900,-1.158981608368370
agama and Bunting,DN4 9EE,53.501158000000000,-1.162492000000000
horned viper and Rabbit,DN4 9HP,53.498277887936000,-1.165806000000000
bandy-bandy and caiman,DN4 9HR,53.500111295204000,-1.163311707126750
Buzzard and Greenbul,DN4 9JQ,53.499037000000000,-1.170252000000000
Solitaire and puff adder,DN4 9JU,53.499892402799400,-1.175798563501880
tiger snake and agama,DN4 9LD,53.499462000000000,-1.178475000000000
Fox and Philippine hawk-owl,DN4 9LQ,53.496419910308100,-1.179302825077950
Jackal and Diving bird,DN4 9NR,53.502345403061600,-1.174363969490860
Linsang and B,DN5 0AP,53.546800360555000,-1.145789985527540
Armadillo and tree snake,DN5 0BU,53.547638579404500,-1.151161144751020
gopher snake and Parakeet,DN5 0DP,53.545310118977000,-1.144673000000000
turtle and Myna,DN5 0DX,53.547680468135400,-1.148412000000000
wall lizard and chuckwalla,DN5 0EP,53.553430213518800,-1.147784838614030
Old World vulture and asp,DN5 0JN,53.554737920275800,-1.149660545763100
perentie and Dorcopsis,DN5 0PG,53.553552795113900,-1.144808732896360
Eagle and habu,DN5 0PS,53.555638204340100,-1.139800311643580
Logrunners and gavial,DN5 0QH,53.562742120200200,-1.152806508347510
skink and Lemming,DN5 0QR,53.565122572633400,-1.153861161453970
giant tortoise and amphisbaena,DN5 0RD,53.567329075646700,-1.160853512897820
dukite and bull snake,DN5 0SH,53.557943228041300,-1.126695342677360
bicycle lizard and galliwasp,DN5 0SN,53.557048905802900,-1.127317590977530
Elephant and adder,DN5 0UG,53.546970544018300,-1.141938024118660
Old World vulture and glass snake,DN5 7DY,53.560032000000000,-1.218082327292900
Polecat and coral snake,DN5 7EB,53.522743923578700,-1.212159241714770
rock python and Dolphin,DN5 7EX,53.522676693828000,-1.273972884760600
boa and tortoise,DN5 7EZ,53.520617056659500,-1.273766762796850
Pitohui and Buzzard,DN5 7HT,53.517451819300200,-1.278013573892160
diamondback turtle and Pitohui,DN5 7LA,53.514453442489400,-1.179755000000000
kabaragoya and crocodile,DN5 7LH,53.511280354121600,-1.180930935302250
boomslang and mamba,DN5 7LT,53.513523032300000,-1.186859525774680
lizard and Francolin,DN5 7NT,53.513917250992900,-1.186671015039070
blue tongue and Buzzard,DN5 7PA,53.513108170580400,-1.195960830585830
diamond snake and Jackal,DN5 7PD,53.513808211020000,-1.197138938599670
milk snake and Argus,DN5 7PP,53.515923495210300,-1.193569963330220
American sparrow and Kestrel,DN5 7QN,53.520327014299400,-1.194768400475790
Ice seal and Badger,DN5 7QQ,53.517246541348900,-1.191161943585560
horned toad and Vole,DN5 7QW,53.524000457891900,-1.194336738584450
moloch and Myna,DN5 7SG,53.505922100779800,-1.204751357067520
diamondback and Diving bird,DN5 7ST,53.499535113503500,-1.223127114056520
mountain devil and Schneider python,DN5 7TH,53.498614853546200,-1.222799000000000
garter snake and carpet snake,DN5 8BS,53.523473000000000,-1.163214000000000
Duck and tree snake,DN5 8EZ,53.526627999818100,-1.159485736684370
viper and bandy-bandy,DN5 8JA,53.534294760732100,-1.164539238705150
Vole and Dolphin,DN5 8LB,53.533292000000000,-1.168889000000000
Old World warbler and green turtle,DN5 8LJ,53.532656422891700,-1.171949107708420
Pheasant and New World blackbird,DN5 8LL,53.534108000000000,-1.171136000000000
Nukupuʻu and Grouse,DN5 8LW,53.535467185898000,-1.171562344982530
Lemming and jew lizard,DN5 8PA,53.534049890233100,-1.171982280473050
hognose snake and copperhead,DN5 8QZ,53.538019597153900,-1.176718265201530
Chickadee and Petrel,DN5 8SR,53.540157820666300,-1.175258348273460
swift and American sparrow,DN5 8TZ,53.533616539216600,-1.175611735285540
carpet snake and blind snake,DN5 8XG,53.531647000000000,-1.148358000000000
gecko and dugite,DN5 9EU,53.541939101279200,-1.165113116044900
sand viper and Asiatic leopard,DN5 9HJ,53.545512242368900,-1.168483000000000
giant tortoise and Elephant,DN5 9JG,53.544078874339100,-1.160045637298250
turtle and gavial,DN5 9JP,53.548384884171000,-1.160111330571080
Fox and Tree warbler,DN5 9LF,53.545945645019600,-1.166060544494000
gecko and blue racer,DN5 9NB,53.543340342539000,-1.154733134475580
Macaw and Wallaby,DN5 9PN,53.540127399300200,-1.161828986856880
giant tortoise and python,DN5 9PP,53.537726386383900,-1.160397674990620
Pratincole and jew lizard,DN5 9SG,53.531124336715300,-1.143299273415390
Flameback and sand viper,DN55 1LD,53.512923750490100,-1.125720996155070
brown snake and alligator,DN55 1RE,53.512923750490100,-1.125720996155070
lizard and bull snake,DN6 7AW,53.574790000000000,-1.182891000000000
blind snake and viper,DN6 7DL,53.569658442138400,-1.197742830364790
Rat and bearded lizard,DN6 7DS,53.569609103438600,-1.185119910309050
monitor and bearded dragon,DN6 7DX,53.569780951093100,-1.182640146469060
amphisbaena and Black cockatoo,DN6 7EQ,53.568463289395600,-1.196451752492660
slowworm and deaf adder,DN6 7FY,53.563267000000000,-1.197248000000000
Rat and snapping turtle,DN6 7JX,53.563417000000000,-1.193045000000000
Perching duck and tokay,DN6 7LU,53.563719091242100,-1.188720774759480
mud turtle and White ibis,DN6 7PS,53.559788855741700,-1.185746393809740
death adder and Chipmunk,DN6 7RA,53.559115196581300,-1.191118607756530
snake and diamond snake,DN6 7RH,53.560651521610400,-1.192342369389520
Grackle and Coati,DN6 7RN,53.561639300098000,-1.196203607181270
Hawk and Peafowl,DN6 7RZ,53.564173876305500,-1.192169601146240
Meadowlark and sidewinder,DN6 7SF,53.566481000000000,-1.191612000000000
snapping turtle and blue racer,DN6 7SL,53.566475050833500,-1.188199975244180
goanna and Ground sloth,DN6 7UD,53.568218435192500,-1.201499725650010
iguana and Fox,DN6 7UW,53.574228239767700,-1.190271502283910
Peafowl and box turtle,DN7 4DA,53.559329023241800,-1.036720253096900
gavial and gaboon viper,DN7 4FB,53.562708000000000,-1.022044000000000
anaconda and Lemming,DN7 4HU,53.568814476989700,-1.020407929585550
boa and green turtle,DN7 4PB,53.563683780081200,-1.030566884791920
habu and Tahr,DN7 6AL,53.569409796090600,-1.015184522097900
Black jay and garter snake,DN7 6AN,53.568116066905300,-1.017327000000000
agama and Greenbul,DN7 6AP,53.568456058466500,-1.015070774251140
Tit-tyrant and amphisbaena,DN7 6DA,53.543828365040800,-0.975635249482499
Mink and gopher snake,DN7 6DE,53.543848664167200,-0.973960000000000
Philippine hawk-owl and adder,DN7 6FQ,53.568682000000000,-0.990019000000000
diamond python and Dorcopsis,DN9 2BU,53.523077587351100,-0.927356000000000
black snake and diamondback terrapin,DN9 2EW,53.462415000000000,-0.911260000000000
racer and Logrunners,DN9 3AD,53.489828379795200,-0.992054054575783
Jackal and bearded lizard,DN9 3BA,53.495682109944500,-0.992292124296982
Ice seal and green turtle,DN9 3DA,53.484677000000000,-0.991717114773490
agama and bearded lizard,DN9 3GR,53.484794000000000,-1.019948000000000
adder and deaf adder,DN9 3HS,53.503697478219500,-1.023387037646580
garter snake and Jerboa,DN9 3JG,53.501782546656500,-1.016767273500010
Siskin and flying lizard,DN9 3LN,53.488335155709900,-1.013642000000000
tiger snake and Night heron,DN9 3ND,53.489740626364600,-1.023722695327460
frilled lizard and Ibex,DN9 3NJ,53.487606248304300,-1.023229128048150
Vulture and pit viper,DN9 3PL,53.490904395182700,-1.010025182439240
amethystine python and death adder,DN9 3PP,53.491440495819900,-1.010463000000000
gavial and taipan,DN9 3PS,53.498050535163900,-0.981140694796159
Jay and dukite,DN9 3QJ,53.490467000000000,-1.023374000000000
blind snake and Towhee,DN9 3RA,53.484827860106200,-0.986415673334888
mamba and Buzzard,S25 1YH,53.384333621510900,-1.213227499742530
Magpie and Civet,S25 1ZJ,53.388236422280700,-1.221711051560430
black snake and Goose,S25 2AD,53.367637532760000,-1.212648357880400
Gila monster and Tahr,S25 2AH,53.372364340200000,-1.206564224000000
Minke whale and Tree warbler,S25 2AU,53.374412000000000,-1.209112000000000
puff adder and sidewinder,S25 2LF,53.369671566446500,-1.219885127603380
gaboon viper and Rat,S25 2LP,53.367459727396900,-1.199426376554550
king snake and frilled lizard,S25 2NE,53.367890577009000,-1.212854097520980
Gull and amphisbaena,S25 2NU,53.368058365991800,-1.202916894833580
habu and Gull,S25 2QN,53.365583264045400,-1.203789620611990
diamondback turtle and Vulture,S25 2TQ,53.377300906667200,-1.205916164110870
terrapin and sand viper,S25 2UF,53.377549668567300,-1.206828505522360
Tattler and diamond python,S25 2UT,53.376456159330200,-1.207299773260010
Stilt and Marmoset,S25 2XN,53.368018699921500,-1.220050574329050
viper and python,S25 2XY,53.368663041860700,-1.216867665935780
Hawk and hognose snake,S25 3QT,53.375285036182100,-1.220564219961550
Grouse and diamondback terrapin,S25 3QW,53.378660262236900,-1.230950284311590
diamondback turtle and Grouse,S25 3RH,53.377430390867200,-1.232595910809010
frilled lizard and Parakeet,S25 3RU,53.377711715938400,-1.233011758898570
Mink and Stilt,S25 4BF,53.355180057100000,-1.226099483100000
Schneider python and slowworm,S25 4BU,53.358198250809300,-1.219343334727670
cerastes and king cobra,S25 4BX,53.358795862989700,-1.215891544518140
River dolphin and diamondback turtle,S25 4DD,53.359704613116000,-1.227054180994270
Marmoset and Tattler,S25 4DN,53.353085179977200,-1.219586968469930
Puffleg and Old World warbler,S25 4DU,53.353950069952800,-1.219886677745390
Puffleg and green turtle,S25 4FL,53.361513662344200,-1.219117466202400
Vole and copperhead,S25 4FU,53.354250217747300,-1.225950910302260
Booted eagles and rock python,S25 9FF,53.365443000000000,-1.235592000000000
saltwater crocodile and cobra,S26 1HF,53.352516854281400,-1.263120164955720
Cloud rat and Parrotlet,S60 4NJ,53.407656000000000,-1.291486000000000
swift and tuatara,S63 9GP,53.531521304200000,-1.292606000000000
snake and python,S63 9JH,53.536526337206300,-1.297771929671090
sand lizard and River dolphin,S63 9NX,53.529583372626700,-1.298656129843710
cerastes and frilled lizard,S64 0BP,53.494066000000000,-1.281377290157730
Treepie and pit viper,S64 0DD,53.495696457471300,-1.280508474877340
water snake and Dorcopsis,S64 0EB,53.500197812372200,-1.271281440270800
Recurvebill and blindworm,S64 0ED,53.499978000000000,-1.271873000000000
Chicken and frilled lizard,S64 0EJ,53.491900967393100,-1.283119962858790
skink and Vole,S64 0JJ,53.497558000000000,-1.255589000000000
Minke whale and Songlark,S64 0NW,53.498465284200000,-1.256552925100000
Condor and Minke whale,S64 0PG,53.501293849752000,-1.271489000000000
rock snake and Elephant,S64 0PT,53.501435369583900,-1.267868128863030
leathery turtle and Kestrel,S64 0PW,53.500006818999000,-1.266505787812810
monitor and boa constrictor,S64 0PZ,53.500852167159600,-1.270983783352840
Fox and Chickadee,S64 0QE,53.499956143930500,-1.274406202303550
Jackal and Stint,S64 0QS,53.501111686910600,-1.275230726814000
Night heron and perentie,S64 9AX,53.494638088612700,-1.292946994377490
rock snake and tortoise,S64 9BL,53.496249730760500,-1.285835354623260
Armadillo and jew lizard,S64 9EA,53.494587255349600,-1.296520266405970
puff adder and Night heron,S64 9ED,53.495656252602700,-1.299472139265380
Thrasher and Ibex,S64 9HZ,53.493591410361000,-1.292271032527740
Fish eagle and Linsang,S64 9JP,53.495398399382100,-1.284764338576110
jew lizard and Wallaby,S64 9LY,53.492995361559200,-1.296365726881800
Tattler and Argus,S64 9PN,53.498661317049900,-1.287634000000000
Quetzal and New World blackbird,S64 9RU,53.500045358404600,-1.299927456733710
Rat and Grosbeak,S65 4EB,53.449626164448400,-1.290457088476970
Chickadee and smooth snake,S65 4LJ,53.438144610473000,-1.260315370108800
grass snake and diamondback,S65 4LL,53.439083000000000,-1.259305000000000
Capuchin and snapping turtle,S65 4LZ,53.439814237641800,-1.267241407806760
whip snake and horned viper,S65 4RL,53.439645605937100,-1.261870000000000
Buzzard and Puffleg,S66 1DP,53.416895000000000,-1.283751630207900
New World blackbird and American sparrow,S66 1DY,53.410537838320300,-1.274589429184110
skink and swift,S66 1EJ,53.415314810592400,-1.279698866878360
Perching duck and Boto,S66 1ET,53.420640049595400,-1.278856533087230
Thrasher and Wader,S66 1EY,53.414483393432900,-1.278960650096640
worm lizard and boomslang,S66 1EZ,53.413758371168400,-1.277860000000000
Stint and Snipe,S66 1FD,53.414527844660500,-1.281863625703130
B and Black jay,S66 1JP,53.420487256596100,-1.274405108974400
tiger snake and box turtle,S66 1WB,53.419600202993200,-1.266039015561890
amphisbaena and Tattler,S66 1XB,53.420896746000000,-1.258613482700000
flying dragon and hawksbill,S66 1YA,53.418286383839100,-1.282071162222300
Egret and Songlark,S66 2DQ,53.423054000000000,-1.291456000000000
tokay and Civet,S66 2HN,53.423966494940200,-1.286444925425430
tiger snake and Magpie,S66 2LN,53.424216668223700,-1.272776572652790
Komodo dragon and diamond snake,S66 2ND,53.425548382883900,-1.268585247619580
Black jay and Gila monster,S66 2NH,53.431622484271700,-1.284540699480360
Cloud rat and Elephant,S66 2NS,53.425807935911400,-1.277264187366330
Mockingbird and diamond python,S66 2PU,53.428470873551800,-1.280620366083670
Songlark and Jackal,S66 2QA,53.428154130116300,-1.278774558200980
diamondback terrapin and snapping turtle,S66 2RZ,53.424312760474200,-1.266439437553150
blue tongue and Chickadee,S66 2SH,53.426001181631100,-1.263280130341050
anole and sand lizard,S66 2TJ,53.422497007130800,-1.267900245790070
Skunk and bicycle lizard,S66 2UE,53.423465515050900,-1.263143371067830
tree snake and River dolphin,S66 3QF,53.429233097825800,-1.268476865077190
cerastes and dugite,S66 3QH,53.430585738999300,-1.279546158036200
Hawaiian honeycreeper and Bronzewing pigeon,S66 3QZ,53.432567215372100,-1.277224818547570
Armadillo and Minke whale,S66 3XE,53.435010819765100,-1.279983128235290
smooth snake and Philippine hawk-owl,S66 3YL,53.428119327549600,-1.265681624779800
boa and chameleon,S66 3ZN,53.435825121867500,-1.273436477849120
frill-necked lizard and garter snake,S66 7BZ,53.444346000000000,-1.204034000000000
snapping turtle and amphisbaena,S66 7DQ,53.427258803496600,-1.200245040123470
Rabbit and gaboon viper,S66 7DX,53.425764895188700,-1.191965872394160
thorn lizard and Mouse,S66 7HA,53.429335064013100,-1.198881632848150
puff adder and mamba,S66 7HN,53.419068048673200,-1.198608109729820
Philippine hawk-owl and diamond snake,S66 7JF,53.416956034832400,-1.195984635430810
coral snake and Buzzard,S66 7JL,53.418098448717400,-1.194774414044310
python and gecko,S66 7JZ,53.416359372124200,-1.187509967790900
crocodile and Mink,S66 7RT,53.450840655568700,-1.217194374449550
Badger and anaconda,S66 8DJ,53.425443517907800,-1.227638434356800
Wallaby and taipan,S66 8EG,53.427898392053900,-1.212634250317180
sand lizard and coral snake,S66 8ET,53.423590118923800,-1.231554519951690
gavial and mamba,S66 8HD,53.421966264340900,-1.239062591535410
Logrunners and Guillemot,S66 8HJ,53.421277566900300,-1.241016029599350
taipan and boa,S66 8JH,53.426280736902600,-1.205891884545990
horned toad and Flameback,S66 8LG,53.423025289490800,-1.201618620062000
gecko and black snake,S66 8LX,53.422631586506800,-1.223716673554330
habu and Skunk,S66 8NT,53.399973482337800,-1.166735702999700
grass snake and saltwater crocodile,S66 8PJ,53.417152610513700,-1.217466929258250
indigo snake and perentie,S66 8PS,53.406599440374200,-1.234056844214640
puff adder and Cuscus,S66 8PW,53.407567029563500,-1.233259000000000
Ice seal and dugite,S66 8QN,53.428105000000000,-1.244446000000000
Myna and Wader,S66 8QU,53.429337942778200,-1.215572607228870
diamondback turtle and Thrasher,S66 8RN,53.428321925634300,-1.221024411337060
Herring gull and White ibis,S66 8SQ,53.431415197322000,-1.225347781933910
agama and galliwasp,S66 9AE,53.397427232067300,-1.257682681801700
swift and diamond python,S66 9AL,53.397001012198800,-1.259976033027670
alligator and perentie,S66 9DY,53.391614932549900,-1.255347757974360
mamba and worm lizard,S66 9EU,53.399220865688100,-1.255575979048180
rock snake and box turtle,S66 9FG,53.390595000000000,-1.250240006400000
brown snake and gecko,S66 9JG,53.402692051832200,-1.270000000000000
green turtle and Jay,S66 9LA,53.395752695430100,-1.257260652898200
Hawaiian honeycreeper and Tahr,S66 9NA,53.393699696500000,-1.263447031500000
iguana and Elephant,S66 9ND,53.393182179666400,-1.264568603151720
Maya and puff adder,S66 9NJ,53.394716961888700,-1.262737564397190
Towhee and sidewinder,S66 9NQ,53.394793037004800,-1.264871684889880
mountain devil and Boto,S66 9NU,53.393908085910500,-1.259849211442100
gaboon viper and alligator,S66 9PG,53.393379817651800,-1.263091495412770
massasauga and Gila monster,S81 0TF,53.370547777180800,-1.100366865026420
Polecat and ringhals,S81 8DW,53.375880085347400,-1.059773861651540
boomslang and Diving bird,S81 8DX,53.372925000000000,-1.062259000000000
king cobra and pit viper,S81 8HB,53.376614075612000,-1.058239457637790
fer-de-lance and Scimitar babbler,S81 8HN,53.377850501021900,-1.064585976992160
tiger snake and Pheasant,S81 8JE,53.389250000000000,-1.099687000000000
turtle and Mouse,S81 8JJ,53.390471618916700,-1.114186891590640
Jay and lizard,S81 8QP,53.351889491270800,-1.168950443269770
adder and American sparrow,S81 8QR,53.352062444163700,-1.167970564052680
Marsh harrier and Asiatic leopard,S81 9AN,53.357664537428800,-1.119374765154380
rattlesnake and American sparrow,S81 9AR,53.357551442536700,-1.121105006716770
habu and cobra de capello,S81 9BE,53.358398303645900,-1.117706825128850
frilled lizard and blindworm,S81 9BJ,53.357968548801700,-1.110668756150250
Siskin and mud turtle,S81 9HA,53.362399067597400,-1.127587113298960
leathery turtle and brown snake,S81 9HT,53.360620716456800,-1.126556553349350
tiger snake and Towhee,S81 9HW,53.359417058638500,-1.127903443838670
Triller and mamba,S81 9JW,53.360731836825400,-1.125772907660770
death adder and Viscacha,S81 9LB,53.364915000000000,-1.124921000000000
goanna and coral snake,S81 9ND,53.358502666449900,-1.114804719662080
perentie and blue tongue,S81 9NN,53.375357882148100,-1.121024153130610
White ibis and Goose,S81 9PF,53.377124858127900,-1.121724357282930
bushmaster and Zebra,S81 9PR,53.377866082697900,-1.125963296051650
Tattler and Flameback,S81 9QF,53.377203000000000,-1.119885705378770
lizard and White ibis,S81 9QY,53.362240311849400,-1.119430717673700
horned toad and wall lizard,S81 9RP,53.380460000000000,-1.117912000000000
Peafowl and gavial,S81 9SE,53.380542566732500,-1.124435230189270
flying dragon and viper,S81 9SR,53.378480538608100,-1.121501046285120
black snake and Goose,S81 9ST,53.377650256832100,-1.121052125256650
