name,postcode,lat,lon
The Georgian Tearooms,DN1 1BB,53.52335300000000,-1.13490400000000
Subway,DN1 1DE,53.52280400000000,-1.13354200000000
Mercure Doncaster Danum Hotel,DN1 1DN,53.52262100000000,-1.13309400000000
KFC,DN1 1DW,53.52312200000000,-1.13293200000000
The grind,DN1 1DW,53.52309700000000,-1.13303900000000
ZEST BAR AND GRILL,DN1 1DW,53.52309700000000,-1.13303900000000
Bowers Coffee Shop,DN1 1HF,53.52364900000000,-1.13233400000000
CHINESE CATERING LIMITED,DN1 1HT,53.5241,-1.1311
lalezar,DN1 1JD,53.52361200000000,-1.12969500000000
Legends desserts & burger,DN1 1JE,53.5232,-1.1292
Mecca Bingo Club,DN1 1JG,53.52428800000000,-1.13004300000000
The Georgian Patisserie,DN1 1LA,53.52406300000000,-1.13861500000000
Burger King,DN1 1LB,53.52406300000000,-1.13861500000000
KFC,DN1 1LB,53.52406300000000,-1.13861500000000
Subway,DN1 1LB,53.52406300000000,-1.13861500000000
Costa Coffee,DN1 1LD,53.52417800000000,-1.13469100000000
Debenhams Restaurant Doncaster,DN1 1LH,53.52406300000000,-1.13861500000000
Costa Coffee,DN1 1LJ,53.52406300000000,-1.13861500000000
C & P ROTHWELL LTD,DN1 1LQ,53.52499500000000,-1.13331700000000
D & L Rothwell Ltd,DN1 1LQ,53.52499500000000,-1.13331700000000
Olde Castle Hotel,DN1 1LQ,53.52499500000000,-1.13331700000000
MARKETPLACE ALEHOUSE & DELI,DN1 1ND,53.52493800000000,-1.13165900000000
MASONS ARMS,DN1 1ND,53.52493800000000,-1.13165900000000
magdalen sports cafe bar,DN1 1ND,53.52493800000000,-1.13165900000000
LYNNIES LUNCH STOP,DN1 1NE,53.5240,-1.1319
Hungry dragon,DN1 1NG,53.52539470000000,-1.13146200000000
Indian food hawker,DN1 1NG,53.52539470000000,-1.13146200000000
LollieJade’s Cupcake Emporium,DN1 1NG,53.52539470000000,-1.13146200000000
MARKET CAFE,DN1 1NG,53.52518900000000,-1.13166800000000
Movida Go Limited,DN1 1NG,53.52539470000000,-1.13146200000000
Scrapes,DN1 1NG,53.52539470000000,-1.13146200000000
Taste Peru,DN1 1NG,53.52539470000000,-1.13146200000000
The Rustic Pizza co ,DN1 1NG,53.52539470000000,-1.13146200000000
Zaytuna ,DN1 1NG,53.52539470000000,-1.13146200000000
Costa Coffee,DN1 1PE,53.52226300000000,-1.13961700000000
Costa Coffee,DN1 1PP,53.52210998535156,-1.13892996311188
Starbucks,DN1 1PP,53.52210998535156,-1.13892996311188
Starbucks Doncaster Frenchgate,DN1 1QB,53.52401300000000,-1.13671600000000
McDonald's Restaurant,DN1 1RX,53.52170200000000,-1.13661200000000
McDonalds Restaurant,DN1 1RX,53.52170200000000,-1.13661200000000
Patisserie Valerie ,DN1 1SR,53.5236,-1.1371
Starbucks,DN1 1SR,53.52341900000000,-1.13666700000000
KFC,DN1 1ST,53.5232,-1.1375
Dunkin Donuts Frenchgate,DN1 1SW,53.5229,-1.1366
Flip Out Doncaster,DN1 1SW,53.52290725708010,-1.13660502433777
Taco Bell,DN1 1SW,53.5229,-1.1366
Sue's diner ,DN1 1SZ,53.52335640000000,-1.13647950000000
Cafe Nero,DN1 1TA,53.52401300000000,-1.13671600000000
Doncaster Jazz Cafe Limited,DN1 1TJ,53.5224,-1.1356
The Glass Strawberry Coffee House,DN1 1TR,53.52192100000000,-1.13455600000000
Dreambakes Ltd,DN1 1TS,53.5226,-1.1344
Movida Bar & Restaurant ,DN1 1TS,53.52261352539060,-1.13440597057343
Fish Bits,DN1 2BY,53.51599700000000,-1.12826700000000
Salutation Doncaster Ltd ,DN1 2DR,53.52135300000000,-1.12686000000000
The Regent Hotel LTD,DN1 2DS,53.52218200000000,-1.12589300000000
Doncaster Tandoori ,DN1 2PE,53.52598900000000,-1.13026400000000
El Boca Doncaster Ltd,DN1 2PH,53.52494370000000,-1.13089150000000
La Rustica Doncaster Ltd,DN1 2PH,53.52511800000000,-1.13043300000000
zammuto steak and grill house,DN1 2PH,53.52511800000000,-1.13043300000000
EL TORERO DONCASTER LIMITED,DN1 2PW,53.5250,-1.1298
KOZ TURKISH BARBECUE AND MEZZE BAR,DN1 2PW,53.52503204345700,-1.12975597381592
Sarahs desserts snack bar ,DN1 2QP,53.5268,-1.1283
SPICE AND ICE,DN1 2SD,53.5303,-1.1270
The Leopard,DN1 3AA,53.52076721191410,-1.13783705234528
La Familia,DN1 3EL,53.52169780000000,-1.13323550000000
La Familia ( Rbcgroup uk LTD),DN1 3EN,53.53758239746090,-1.10195004940033
Opera Restaurant,DN1 3EY,53.51982500000000,-1.13315100000000
THE HAREWOOD,DN1 3EY,53.51982500000000,-1.13315100000000
Cupcakes 2 Love ltd,DN1 3JH,53.52008100000000,-1.13368800000000
Java Cafe,DN1 3JU,53.52079000000000,-1.13222600000000
Bake battle and roll ,DN1 3LW,53.52200540000000,-1.13257810000000
Cactus Jacks,DN1 3NA,53.52254600000000,-1.13027500000000
Tortilla Hut,DN1 3NA,53.52254600000000,-1.13027500000000
Poppadoms and Cream,DN1 3NL,53.52234500000000,-1.12858900000000
poppadomsandcream,DN1 3NL,53.5223,-1.1286
BLUE BELL INN,DN10 4RF,53.40805700000000,-0.89258000000000
So Good It Yurts,DN10 5BP,53.41175760000000,-0.96323390000000
Blacksmiths arm everton,DN10 5BQ,53.41392800000000,-0.96272000000000
Blacksmiths arms,DN10 5BQ,53.41392800000000,-0.96272000000000
Sun Inn - Everton,DN10 5BW,53.41029600000000,-0.95751400000000
The Pilgrim Fathers,DN10 6AT,53.40757300000000,-1.02134800000000
King William Inn,DN10 6BL,53.41819700000000,-1.00056500000000
The Classic & Contemporary Cake Co Coffee Shop ,DN10 6DG,53.45378000000000,-1.02621900000000
The Ship Inn (Newington) Ltd,DN10 6DJ,53.43931100000000,-0.99624600000000
The White Horse ,DN10 6ED,53.44593900000000,-0.96286000000000
The Ship,DN10 6HT,53.42773200000000,-1.01879300000000
BAWTRY'S BAR AND BRASSERIE,DN10 6JA,53.43077100000000,-1.02004700000000
The Chase Tea Rooms ,DN10 6JA,53.4304,-1.0199
LANCERS BAWTRY LTD,DN10 6JE,53.42948300000000,-1.02075400000000
El Toro Bawtry,DN10 6JG,53.42909400000000,-1.02044700000000
Magenta Tearoom,DN10 6JG,53.42909400000000,-1.02044700000000
31 Bawtry,DN10 6JL,53.4300,-1.0213
Dower House,DN10 6JL,53.42998200000000,-1.02128500000000
The Little Deli Bawtry,DN10 6JL,53.4300,-1.0213
WINDCOURT RESTAURANTS LTD T/A ZINIZ,DN10 6JL,53.42998200000000,-1.02128500000000
Emilios,DN10 6LS,53.42910600000000,-1.02184700000000
Bawtry Golf Club,DN10 6RF,53.44779000000000,-1.00503500000000
Waterfall Elior @,DN11 0EZ,53.48005100000000,-1.05840700000000
Rossington Hall Limited,DN11 0HR,53.46226900000000,-1.03998800000000
Mount Pleasant Hotel,DN11 0HW,53.47129300000000,-1.03653000000000
Nelson Coffee Shop Limited,DN11 0PE,53.4786,-1.0799
Addu's Indian restaurant,DN11 0PG,53.47885000000000,-1.08072000000000
Blacksmiths Arms,DN11 8LB,53.4172,-1.0764
Styrrup Hall Golf & Country Club ,DN11 8NB,53.40779113769530,-1.08983397483826
Wadworth Primary School,DN11 9AP,53.46583000000000,-1.14060800000000
Wadworth Supermarket,DN11 9AW,53.46807600000000,-1.14294200000000
Wadworth Village Hall,DN11 9BW,53.46712600000000,-1.14332300000000
Wellingtons Cafe,DN11 9EX,53.43222300000000,-1.09224700000000
TAJ COTTAGE ,DN11 9HZ,53.43548700000000,-1.11028600000000
Jamps Restaurant,DN11 9LX,53.4327,-1.1098
WINDCOURT RESTAURANTS LTD T/A ROCCOS,DN11 9LX,53.43268600000000,-1.10960700000000
Zara’s ,DN11 9PT,53.43251400000000,-1.10697700000000
Daisy's Coffee Shop & Bistro,DN11 9QU,53.43129200000000,-1.10950100000000
Compass Group UK @ Wavin,DN12 1BY,53.48870200000000,-1.18492300000000
Robbo's Diner,DN12 1NP,53.47668100000000,-1.18837800000000
The Topiary Coffee Shop,DN12 2AE,53.48111000000000,-1.21502500000000
The Indus Restaurant & Bar ,DN12 2BT,53.47867000000000,-1.22947500000000
Seafish Restaurant,DN12 3AG,53.48210600000000,-1.22427500000000
English Heritage Trust,DN12 3BX,53.48403167724610,-1.22737598419189
Balti palace Conisbrough limited ,DN12 4DG,53.49103600000000,-1.24176100000000
Urban Fresh Burgers & Fries,DN2 4BG,53.54154586791990,-1.10667598247528
Buzz Bingo,DN2 4PE,53.54299700000000,-1.10008100000000
JJ's Cafe and Sandwich Bar,DN2 4PW,53.5433,-1.0954
GO BOUNCE TRAMPOLINE PARK,DN2 4SQ,53.54326200000000,-1.07949100000000
The Wheatley,DN2 5DR,53.54177000000000,-1.09588200000000
KFC,DN2 5DX,53.54473600000000,-1.08288500000000
McDonald's Restaurant,DN2 5DX,53.54473500000000,-1.08288500000000
McDonalds,DN2 5DX,53.54473500000000,-1.08288500000000
The Landing Pad Cafe,DN2 5DX,53.54473600000000,-1.08288500000000
Sandall Park Cafe,DN2 5DZ,53.54390200000000,-1.08783800000000
Vivo’s ,DN2 6AA,53.52020600000000,-1.12121200000000
Earl Of Doncaster Hotel,DN2 6AD,53.51922900000000,-1.11791500000000
Crab & Moo T/As The Indus,DN2 6AX,53.51874900000000,-1.11023300000000
Grand St Leger Hotel & Bar,DN2 6AX,53.51874900000000,-1.11023300000000
Hilton Garden Inn Doncaster Racecourse,DN2 6BB,53.52033200000000,-1.10790700000000
Whitbys,DN2 6DR,53.52407400000000,-1.10595700000000
The Blue Bell ,DN22 8NJ,53.38453400000000,-1.01468900000000
Torworth Grange Farmshop & Lakes Ltd,DN22 8NY,53.3693,-1.0128
The Gate Inn,DN22 8PT,53.35520200000000,-0.98032800000000
Coaching Inns North Limited,DN22 8QS,53.3526,-1.0047
Spa at Ye Olde Bell Ltd,DN22 8QS,53.35289500000000,-1.00523300000000
White Horse Inn,DN22 8QS,53.35230520000000,-1.00402550000000
Brewers Arms,DN22 9AD,53.38531900000000,-0.90563500000000
The Olive,DN3 1HA,53.57237800000000,-1.06686900000000
BRIX COFFEE CO,DN3 1HE,53.56324070000000,-1.07301210000000
The Glasshouse,DN3 1HP,53.56089700000000,-1.07237500000000
The Cabin,DN3 1JR,53.56229700000000,-1.06855500000000
La Fiesta,DN3 2BU,53.53804500000000,-1.06851400000000
The Beverley Inn,DN3 2JE,53.55310300000000,-1.06765500000000
Waterfall Elior @,DN3 2PP,53.55635452270510,-1.07154297828674
Shimla Restaurant,DN3 3AE,53.5354,-1.0538
Croziers Kitchen,DN3 3DL,53.53607600000000,-1.05019400000000
Elachi Indian restaurant limited ,DN3 3DL,53.53607600000000,-1.05019400000000
Joannes tearooms,DN3 3DL,53.53588800000000,-1.05031900000000
horse and groom,DN3 3JU,53.52916400000000,-1.04678900000000
Yorkshire Wildlife Park Limited,DN3 3NH,53.50726300000000,-1.03729800000000
Canters Bistro ,DN3 3QL,53.51393508911130,-1.05352497100830
The Dell Cafe,DN4 0JD,53.51366424560550,-1.15793299674988
Suburb - Buns & Slice,DN4 0RG,53.5091,-1.1462
Daisy’s deli,DN4 0RS,53.50343600000000,-1.16176900000000
Colosseo restaurant ,DN4 5DS,53.51637900000000,-1.11435400000000
Innovation Cafe ,DN4 5HX,53.51283100000000,-1.13056400000000
Elior Uk,DN4 5JJ,53.51139300000000,-1.12558700000000
Costa Coffee,DN4 5PH,53.50745200000000,-1.11407300000000
KFC,DN4 5PH,53.50745200000000,-1.11407300000000
McDonald's Restaurant,DN4 5PH,53.5074,-1.1141
Pizza Hut,DN4 5PH,53.50745200000000,-1.11407300000000
McDonalds Restaurant,DN4 5PJ,53.50669097900390,-1.11221897602081
El Futuro Wine & Tapas,DN4 5PL,53.50890350341800,-1.10098695755005
Baxterstorey,DN4 5PN,53.50423431396480,-1.10678505897522
Subway,DN4 6NN,53.50804519653320,-1.07464504241943
Clam & Cork,DN4 6ST,53.4946,-1.0582
Burger King,DN4 7FW,53.51388020000000,-1.10216030000000
Costa Coffee,DN4 7FW,53.51388020000000,-1.10216030000000
Dunkin Donuts Herten,DN4 7FW,53.5144,-1.1026
Estabulo Bar & Grill,DN4 7FW,53.51388020000000,-1.10216030000000
TGI Fridays,DN4 7FW,53.51388020000000,-1.10216030000000
Urban Fresh Burgers & Fries,DN4 7FW,53.51388020000000,-1.10216030000000
The Counting House,DN4 7JA,53.50023651123050,-1.08802199363709
The Flying Childers,DN4 7JA,53.50023600000000,-1.08802200000000
Doncaster Tenpin,DN4 7NW,53.51293182373050,-1.10527205467224
McDonalds Restaurant,DN4 7NW,53.51231600000000,-1.10459200000000
Nandos,DN4 7NW,53.51231600000000,-1.10459200000000
Pizza Express,DN4 7NW,53.51231600000000,-1.10459200000000
Taco Bell,DN4 7NW,53.5129,-1.1054
Campanile Doncaster,DN4 7PD,53.4939,-1.0629
Doncaster Golf Club,DN4 7PD,53.51411800000000,-1.09677200000000
McDonald's Restaurant,DN4 7PD,53.4939,-1.0629
The Dome,DN4 7PD,53.51411800000000,-1.09677200000000
McDonald's Restaurant,DN4 8DD,53.5066,-1.1473
McDonalds Restaurant,DN4 8PL,53.50597763061520,-1.15098404884338
Pizza Hut,DN4 8RT,53.49048000000000,-1.13974800000000
SUBWAY,DN4 8SN,53.49132919311520,-1.13795197010040
Lotus Indian restaurant ,DN4 9LU,53.49875259399410,-1.18221294879913
Cafè L.A.,DN5 0AT,53.5461,-1.1468
Moona Coffee,DN5 0AT,53.54608100000000,-1.14681600000000
The Tea Garden,DN5 0EU,53.55513700000000,-1.14880800000000
The Plough Inn,DN5 0SF,53.55584400000000,-1.12840000000000
Marr Lodge,DN5 7AX,53.5411,-1.2281
The bulrush bistro,DN5 7EE,53.51788900000000,-1.25829400000000
The Crown Inn,DN5 7JQ,53.5195,-1.2630
Mehfil Indian Brasserie,DN5 7RF,53.51251200000000,-1.18868900000000
OTTO COFFEE AND WINE BAR LTD,DN5 7RF,53.51263770000000,-1.18846260000000
BUTLERS TEA ROOM,DN5 7TU,53.52897100000000,-1.17710500000000
The Old Brewhouse,DN5 7TU,53.5290,-1.1771
KFC,DN5 8BN,53.52898900000000,-1.14993500000000
Newton arms,DN5 8BP,53.52473800000000,-1.15765300000000
Trattoria Toscana,DN5 8HX,53.53458404541020,-1.16074705123901
The Sun Inn,DN5 8QE,53.5368,-1.1678
NAAZ INDIAN RESTAURANT & TAKE-AWAY,DN5 9BG,53.53410800000000,-1.15449500000000
McDonald's Restaurant,DN5 9TP,53.53157043457030,-1.14620304107666
Mcdonalds Restaurant Ltd,DN5 9TP,53.53157043457030,-1.14620304107666
McDonald's Restaurant,DN6 7FB,53.5729,-1.2146
Mcdonalds Restaurant,DN6 7FE,53.57487000000000,-1.20820100000000
5 Flavours Cafe ,DN6 7HP,53.56312179565430,-1.19459104537964
Aagrah Doncaster,DN6 7RA,53.55912500000000,-1.19113400000000
Sarah-janes tearooms and coffee lounge,DN7 4BY,53.56268670000000,-1.02688330000000
Boston Park Farm,DN7 6DS,53.53566300000000,-0.98349800000000
Punchbowl Inn,DN8 4BE,53.53758239746094,-1.10195004940033
The station restaurant and bar ,DN9 3AA,53.48938000000000,-0.99092000000000
the station restaurant and bar,DN9 3AA,53.48938000000000,-0.99092000000000
Walkers Nurseries Ltd,DN9 3BA,53.49569200000000,-0.99230700000000
THE HARVEY ARMS,DN9 3BY,53.48344000000000,-0.99220600000000
Waterfall Elior @ St Oswalds,DN9 3EQ,53.48607500000000,-0.98287400000000
Eagle & Child,DN9 3HS,53.50370800000000,-1.02340200000000
Eagle and Child,DN9 3HS,53.50370800000000,-1.02340200000000
Costa Coffee,DN9 3RH,53.4830,-1.0104
Bengal tandoori,S25 2PN,53.36915900000000,-1.21006600000000
the royal elephant ,S25 2PQ,53.36673500000000,-1.21195900000000
Paulos Restaurant ,S25 2PS,53.36923400000000,-1.21057500000000
Whiter's CafeBistro ,S25 2PS,53.36923400000000,-1.21057500000000
aroma coffee shop,S25 2PS,53.36923400000000,-1.21057500000000
Dolcetti Coffee House and Bistro ,S25 3SA,53.37834000000000,-1.23124200000000
Tropical Butterfly House Ltd,S25 4EQ,53.35589500000000,-1.21352600000000
Greenbean Coffee Shop & Bistro,S26 1DJ,53.3613,-1.2666
Ricardo's Cafe and Bistro,S26 2EB,53.36306600000000,-1.29805700000000
ASTON  HALL HOTEL LIMITED,S26 2EE,53.36267400000000,-1.29864900000000
KNEAD BAKERY,S64 0AJ,53.49767400000000,-1.28338500000000
Pekish Cafe & Desserts ,S64 0DB,53.49508380000000,-1.28136450000000
Pastures Lodge,S64 0JJ,53.49684700000000,-1.25828500000000
REEDS RESTAURANT,S64 0JJ,53.49684700000000,-1.25828500000000
The Manvers Arms,S64 0NL,53.51049300000000,-1.29407100000000
Tea or coffee,S64 9AB,53.49361400000000,-1.29141100000000
Rosie's Tea Shoppe,S64 9AU,53.4938,-1.2910
30 Mexborough tearooms,S64 9AW,53.49343109130860,-1.28802299499512
W S Pettit & Co,S64 9AW,53.49343200000000,-1.28802300000000
The Corner Cafe,S64 9DG,53.49300500000000,-1.29017100000000
Empire Bingo Mexborough,S64 9JB,53.49332500000000,-1.29411500000000
GOA SPICE,S64 9JB,53.49353060000000,-1.29264580000000
The Old College Coffee Shop and dining room,S64 9JP,53.49546310000000,-1.28467430000000
Casper’s Coffee House ,S64 9LL,53.49287730000000,-1.28515490000000
Wetherspoon,S64 9QA,53.49280800000000,-1.28740100000000
earl of strafford,S65 4PF,53.46751000000000,-1.27315200000000
Seven Seas Limited,S66 1AG,53.41994700000000,-1.28746000000000
Ewans,S66 1DY,53.4108,-1.2748
McDonald's Bramley - Bawtry Rd,S66 1YY,53.42196400000000,-1.25420100000000
McDonalds,S66 1YY,53.42196400000000,-1.25420100000000
Chaudrys Restaurant Ltd,S66 2BW,53.42182500000000,-1.28437400000000
Gas Lamp Wickersley Limited,S66 2BW,53.4218,-1.2844
The Courtyard ,S66 2BW,53.42182500000000,-1.28437400000000
The Olive Lounge Wickersley Limited,S66 2BW,53.42182500000000,-1.28437400000000
The Three Tuns,S66 7QT,53.43607000000000,-1.17008000000000
Grazing Harts ,S66 7RR,53.44684219360350,-1.22687399387360
The Haynook,S66 8HZ,53.42932500000000,-1.21349600000000
The Cove Coffee House,S66 8LF,53.4233,-1.2036
Roche Abbey English Heritage,S66 8NW,53.40442400000000,-1.18501500000000
Hellaby Hall Hotel ,S66 8SN,53.42517400000000,-1.24011900000000
The Croft Steakhouse ltd,S66 9AN,53.3981,-1.2627
The Greasy Spoon,S66 9DD,53.3942,-1.2572
The White Swan Inn,S81 8EQ,53.37613500000000,-1.06113600000000
AASHA ,S81 8HB,53.37728990000000,-1.06122280000000
The Angel inn blyth ltd,S81 8HG,53.38208600000000,-1.06235900000000
The Red Hart Hotel,S81 8HG,53.38208600000000,-1.06235900000000
The Black Lion,S81 8JY,53.38923900000000,-1.15730700000000
Blue Bell Inn,S81 9DT,53.35515600000000,-1.11188400000000
The Grey Horses Inn,S81 9EW,53.35417600000000,-1.11064300000000
