name,postcode,lat,lon
The Georgian Tearooms,DN1 1BB,53.523342537326400,-1.134888593784790
Mercure Doncaster Danum Hotel,DN1 1DN,53.522610335976800,-1.132958000000000
KFC,DN1 1DW,53.523086337162900,-1.133023419161800
The grind,DN1 1DW,53.523086337162900,-1.133023419161800
ZEST BAR AND GRILL,DN1 1DW,53.523086337162900,-1.133023419161800
Bowers Coffee Shop,DN1 1HF,53.523504000000000,-1.132318282564390
CHINESE CATERING LIMITED,DN1 1HT,53.524062000000000,-1.131105121274540
Legends desserts & burger,DN1 1JE,53.523220278968700,-1.129189382744250
The Georgian Patisserie,DN1 1LA,53.523142000000000,-1.138136000000000
C & P ROTHWELL LTD,DN1 1LQ,53.524984961616900,-1.133301434521180
D & L Rothwell Ltd,DN1 1LQ,53.524984961616900,-1.133301434521180
Olde Castle Hotel,DN1 1LQ,53.524984961616900,-1.133301434521180
MARKETPLACE ALEHOUSE & DELI,DN1 1ND,53.524927991124300,-1.131643305219800
LYNNIES LUNCH STOP,DN1 1NE,53.523969000000000,-1.131889000000000
Hungry dragon,DN1 1NG,53.525315000000000,-1.131545000000000
Indian food hawker,DN1 1NG,53.525315000000000,-1.131545000000000
Movida Go Limited,DN1 1NG,53.525315000000000,-1.131545000000000
Scrapes,DN1 1NG,53.525315000000000,-1.131545000000000
Taste Peru,DN1 1NG,53.525315000000000,-1.131545000000000
The Rustic Pizza co ,DN1 1NG,53.525315000000000,-1.131545000000000
Zaytuna ,DN1 1NG,53.525315000000000,-1.131545000000000
Starbucks Doncaster Frenchgate,DN1 1QB,53.523869000000000,-1.136700325057120
McDonald's Restaurant,DN1 1RX,53.521691974729200,-1.136596461337820
Patisserie Valerie ,DN1 1SR,53.523409212079500,-1.136998000000000
KFC,DN1 1ST,53.523156000000000,-1.137529167549210
Dunkin Donuts Frenchgate,DN1 1SW,53.522881461826200,-1.136677000000000
Flip Out Doncaster,DN1 1SW,53.522881461826200,-1.136677000000000
Taco Bell,DN1 1SW,53.522881461826200,-1.136677000000000
Doncaster Jazz Cafe Limited,DN1 1TJ,53.522368913441600,-1.135603000000000
The Glass Strawberry Coffee House,DN1 1TR,53.521910821382500,-1.134540670673960
Movida Bar & Restaurant ,DN1 1TS,53.522503440583600,-1.134453176939610
Fish Bits,DN1 2BY,53.515986549728900,-1.128130000000000
Salutation Doncaster Ltd ,DN1 2DR,53.521445000000000,-1.127220000000000
The Regent Hotel LTD,DN1 2DS,53.522171409416700,-1.125877434350990
El Boca Doncaster Ltd,DN1 2PH,53.525081435419700,-1.130493743575260
La Rustica Doncaster Ltd,DN1 2PH,53.525081435419700,-1.130493743575260
zammuto steak and grill house,DN1 2PH,53.525081435419700,-1.130493743575260
EL TORERO DONCASTER LIMITED,DN1 2PW,53.525057097977100,-1.129619339647460
SPICE AND ICE,DN1 2SD,53.530269142414200,-1.126962905982560
The Leopard,DN1 3AA,53.520757006117800,-1.137822105509130
La Familia ( Rbcgroup uk LTD),DN1 3EN,53.521079000000000,-1.132506000000000
Opera Restaurant,DN1 3EY,53.520909446052700,-1.131559548807750
THE HAREWOOD,DN1 3EY,53.520909446052700,-1.131559548807750
Cupcakes 2 Love ltd,DN1 3JH,53.519997532172100,-1.133478616003600
Java Cafe,DN1 3JU,53.520558000000000,-1.132487000000000
Bake battle and roll ,DN1 3LW,53.521895414709400,-1.132578000000000
Poppadoms and Cream,DN1 3NL,53.522334906746600,-1.128574026160550
BLUE BELL INN,DN10 4RF,53.408047409990100,-0.892565795051008
So Good It Yurts,DN10 5BP,53.411091848372400,-0.962322948268790
Blacksmiths arms,DN10 5BQ,53.413917706104000,-0.962705538347429
Sun Inn - Everton,DN10 5BW,53.410323298642900,-0.957677976642225
The Pilgrim Fathers,DN10 6AT,53.407562868037800,-1.021332599534640
King William Inn,DN10 6BL,53.418186484710500,-1.000549840385560
The Classic & Contemporary Cake Co Coffee Shop ,DN10 6DG,53.453769605512200,-1.025783000000000
The Ship Inn (Newington) Ltd,DN10 6DJ,53.438960000000000,-0.996230733456827
The White Horse ,DN10 6ED,53.445928521425200,-0.962844492999880
BAWTRY'S BAR AND BRASSERIE,DN10 6JA,53.430411561122600,-1.019935000000000
The Chase Tea Rooms ,DN10 6JA,53.430411561122600,-1.019935000000000
El Toro Bawtry,DN10 6JG,53.429083923809700,-1.020432071467600
Magenta Tearoom,DN10 6JG,53.429083923809700,-1.020432071467600
Dower House,DN10 6JL,53.430018000000000,-1.021344000000000
The Little Deli Bawtry,DN10 6JL,53.430018000000000,-1.021344000000000
WINDCOURT RESTAURANTS LTD T/A ZINIZ,DN10 6JL,53.430018000000000,-1.021344000000000
Emilios,DN10 6LS,53.429095389844900,-1.021951000000000
Bawtry Golf Club,DN10 6RF,53.447779304107100,-1.003982000000000
Rossington Hall Limited,DN11 0HR,53.462258602107300,-1.039972831388280
Mount Pleasant Hotel,DN11 0HW,53.471282524585800,-1.036848000000000
Blacksmiths Arms,DN11 8LB,53.417216000000000,-1.076377000000000
Styrrup Hall Golf & Country Club ,DN11 8NB,53.407696000000000,-1.090317000000000
Wellingtons Cafe,DN11 9EX,53.432130540981600,-1.090864119179770
TAJ COTTAGE ,DN11 9HZ,53.435476652943700,-1.110453000000000
Jamps Restaurant,DN11 9LX,53.432676071477600,-1.109788000000000
WINDCOURT RESTAURANTS LTD T/A ROCCOS,DN11 9LX,53.432676071477600,-1.109788000000000
Zara’s ,DN11 9PT,53.432511492257400,-1.106977000000000
Robbo's Diner,DN12 1NP,53.476670681137800,-1.188362599508370
The Topiary Coffee Shop,DN12 2AE,53.481100279923700,-1.215115000000000
The Indus Restaurant & Bar ,DN12 2BT,53.478659481222600,-1.229776000000000
Seafish Restaurant,DN12 3AG,53.481957000000000,-1.224850000000000
Urban Fresh Burgers & Fries,DN2 4BG,53.540656000000000,-1.109215000000000
JJ's Cafe and Sandwich Bar,DN2 4PW,53.543228929523000,-1.095382000000000
GO BOUNCE TRAMPOLINE PARK,DN2 4SQ,53.543252315522000,-1.079476043531090
The Wheatley,DN2 5DR,53.541759360144400,-1.095866537405820
KFC,DN2 5DX,53.545633000000000,-1.081477000000000
McDonald's Restaurant,DN2 5DX,53.545633000000000,-1.081477000000000
The Landing Pad Cafe,DN2 5DX,53.545633000000000,-1.081477000000000
Vivo’s ,DN2 6AA,53.520031000000000,-1.120658000000000
Earl Of Doncaster Hotel,DN2 6AD,53.519199833055500,-1.117809145664400
Crab & Moo T/As The Indus,DN2 6AX,53.518739098575500,-1.109932000000000
Grand St Leger Hotel & Bar,DN2 6AX,53.518739098575500,-1.109932000000000
Whitbys,DN2 6DR,53.524064478499700,-1.105942431443090
The Blue Bell ,DN22 8NJ,53.384523390954800,-1.014674221087850
Torworth Grange Farmshop & Lakes Ltd,DN22 8NY,53.369307312118000,-1.012770866241830
The Gate Inn,DN22 8PT,53.355191424947400,-0.980313272002082
Coaching Inns North Limited,DN22 8QS,53.352612000000000,-1.004683000000000
Spa at Ye Olde Bell Ltd,DN22 8QS,53.352612000000000,-1.004683000000000
White Horse Inn,DN22 8QS,53.352612000000000,-1.004683000000000
Idle Valley Rural Learning Centre,DN22 8SG,53.352049000000000,-0.968039000000000
Brewers Arms,DN22 9AD,53.385308620787800,-0.905620197727237
The Olive,DN3 1HA,53.572682000000000,-1.066741000000000
The Glasshouse,DN3 1HP,53.561679000000000,-1.072359924781300
The Cabin,DN3 1JR,53.562286569164700,-1.068539755675850
La Fiesta,DN3 2BU,53.538034794383900,-1.068649000000000
The Beverley Inn,DN3 2JE,53.552936000000000,-1.068156000000000
Shimla Restaurant,DN3 3AE,53.535512938425400,-1.054114447648410
Croziers Kitchen,DN3 3DL,53.535922824410800,-1.050257752461350
Elachi Indian restaurant limited ,DN3 3DL,53.535922824410800,-1.050257752461350
Joannes tearooms,DN3 3DL,53.535922824410800,-1.050257752461350
The Local,DN3 3FP,53.507335000000000,-1.042860000000000
horse and groom,DN3 3JU,53.529153566616000,-1.046773427461400
Yorkshire Wildlife Park Limited,DN3 3NH,53.507148000000000,-1.037557000000000
Canters Bistro ,DN3 3QL,53.513760000000000,-1.052880000000000
The Dell Cafe,DN4 0JD,53.513630000000000,-1.157948000000000
Suburb - Buns & Slice,DN4 0RG,53.508847467474500,-1.146205000000000
Colosseo restaurant ,DN4 5DS,53.516369711711800,-1.114338858432660
KFC,DN4 5PH,53.507441846879600,-1.114057510440540
McDonald's Restaurant,DN4 5PH,53.507441846879600,-1.114057510440540
El Futuro Wine & Tapas,DN4 5PL,53.508882000000000,-1.100974201690090
Dunkin Donuts Herten,DN4 7FW,53.513882000000000,-1.102163000000000
Estabulo Bar & Grill,DN4 7FW,53.513882000000000,-1.102163000000000
Urban Fresh Burgers & Fries,DN4 7FW,53.513882000000000,-1.102163000000000
The Counting House,DN4 7JA,53.500225797003500,-1.088006283587230
The Flying Childers,DN4 7JA,53.500225797003500,-1.088006283587230
Taco Bell,DN4 7NW,53.512879000000000,-1.105394000000000
Campanile Doncaster,DN4 7PD,53.514279000000000,-1.096756717681770
Doncaster Golf Club,DN4 7PD,53.514279000000000,-1.096756717681770
Doncaster Golf Club,DN4 7PD,53.514279000000000,-1.096756717681770
McDonald's Restaurant,DN4 7PD,53.514279000000000,-1.096756717681770
The Dome,DN4 7PD,53.514279000000000,-1.096756717681770
McDonald's Restaurant,DN4 8DD,53.507268000000000,-1.148123000000000
Subway,DN4 8SN,53.491492000000000,-1.137933000000000
Lotus Indian restaurant ,DN4 9LU,53.497956000000000,-1.181652763815270
Cafè L.A.,DN5 0AT,53.546070505988400,-1.146800747300730
Moona Coffee,DN5 0AT,53.546070505988400,-1.146800747300730
The Plough Inn,DN5 0SF,53.556339000000000,-1.127211000000000
Marr Lodge,DN5 7AX,53.541218208135200,-1.227736501869020
The bulrush bistro,DN5 7EE,53.517879368060100,-1.258279283837230
The Crown Inn,DN5 7JQ,53.519525670641900,-1.262865758036940
Mehfil Indian Brasserie,DN5 7RF,53.512501658302600,-1.188673592010790
OTTO COFFEE AND WINE BAR LTD,DN5 7RF,53.512501658302600,-1.188673592010790
BUTLERS TEA ROOM,DN5 7TU,53.528961619271900,-1.177090007629670
The Old Brewhouse,DN5 7TU,53.528961619271900,-1.177090007629670
KFC,DN5 8BN,53.528978343207800,-1.150041000000000
Newton arms,DN5 8BP,53.524727382695700,-1.157637805735260
Trattoria Toscana,DN5 8HX,53.534573719314100,-1.160731606843420
The Sun Inn,DN5 8QE,53.537027300623300,-1.168408532145660
McDonald's Restaurant,DN5 9TP,53.531489000000000,-1.146339000000000
McDonald's Restaurant,DN6 7FB,53.574382000000000,-1.210415000000000
Aagrah Doncaster,DN6 7RA,53.559115196581300,-1.191118607756530
Boston Park Farm,DN7 6DS,53.532197000000000,-0.979748000000000
The station restaurant and bar ,DN9 3AA,53.489166000000000,-0.990110000000000
Walkers Nurseries Ltd,DN9 3BA,53.495682109944500,-0.992292124296982
THE HARVEY ARMS,DN9 3BY,53.483429483550700,-0.992190641107749
Eagle & Child,DN9 3HS,53.503697478219500,-1.023387037646580
Costa Coffee,DN9 3RH,53.482980000000000,-1.010390000000000
the royal elephant ,S25 2PQ,53.366725010983200,-1.211943812290640
Paulos Restaurant ,S25 2PS,53.369223760134400,-1.210378000000000
Whiter's CafeBistro ,S25 2PS,53.369223760134400,-1.210378000000000
aroma coffee shop,S25 2PS,53.369223760134400,-1.210378000000000
Dolcetti Coffee House and Bistro ,S25 3SA,53.378329456354000,-1.231226827449830
Tropical Butterfly House Ltd,S25 4EQ,53.355922335369700,-1.213600427435010
Greenbean Coffee Shop & Bistro,S26 1DJ,53.361338469240500,-1.266619471121140
Ricardo's Cafe and Bistro,S26 2EB,53.363055428478300,-1.297696000000000
ASTON  HALL HOTEL LIMITED,S26 2EE,53.362663402576200,-1.298634162989440
Pekish Cafe & Desserts ,S64 0DB,53.494558101246000,-1.281040237707650
Pastures Lodge,S64 0JJ,53.497558000000000,-1.255589000000000
REEDS RESTAURANT,S64 0JJ,53.497558000000000,-1.255589000000000
The Manvers Arms,S64 0NL,53.509973000000000,-1.295949000000000
Tea or coffee,S64 9AB,53.493540311954100,-1.291397000000000
Rosie's Tea Shoppe,S64 9AU,53.493810301134200,-1.291031000000000
Rosie's Tea Shoppe,S64 9AU,53.493810301134200,-1.291031000000000
30 Mexborough tearooms,S64 9AW,53.493422285300500,-1.288008153984310
W S Pettit & Co,S64 9AW,53.493422285300500,-1.288008153984310
Empire Bingo Mexborough,S64 9JB,53.493126000000000,-1.293982000000000
GOA SPICE,S64 9JB,53.493126000000000,-1.293982000000000
The Old College Coffee Shop and dining room,S64 9JP,53.495398399382100,-1.284764338576110
Casper’s Coffee House ,S64 9LL,53.492823944648600,-1.284144433801140
earl of strafford,S65 4PF,53.467499440275300,-1.273136905604200
Seven Seas Limited,S66 1AG,53.419936527346800,-1.287445293964700
McDonald's Bramley - Bawtry Rd,S66 1YY,53.421953760747900,-1.254185927277170
Gas Lamp Wickersley Limited,S66 2BW,53.421814704088300,-1.284359202723710
The Courtyard ,S66 2BW,53.421814704088300,-1.284359202723710
The Olive Lounge Wickersley Limited,S66 2BW,53.421814704088300,-1.284359202723710
The Three Tuns,S66 7QT,53.436059733206300,-1.170064335121350
Grazing Harts ,S66 7RR,53.446831678412700,-1.226859168689430
The Haynook,S66 8HZ,53.429315204171200,-1.213481005412560
The Cove Coffee House,S66 8LF,53.423175064583700,-1.204083000000000
Hellaby Hall Hotel ,S66 8SN,53.425163899368400,-1.240104089169060
The Croft Steakhouse ltd,S66 9AN,53.398095731982400,-1.262723000000000
The Greasy Spoon,S66 9DD,53.394135000000000,-1.257150822558970
The Angel inn blyth ltd,S81 8HG,53.381986655468400,-1.062268000000000
The Red Hart Hotel,S81 8HG,53.381986655468400,-1.062268000000000
The Black Lion,S81 8JY,53.389228479703600,-1.157292113397280
Blue Bell Inn,S81 9DT,53.355145972283900,-1.111869359023000
The Grey Horses Inn,S81 9EW,53.353989000000000,-1.110857000000000
