id,postcode,lat,lon
PPL,WALKDEN,53.51667,-2.4
PPL,WALKER,54.97449,-1.55349
PPL,WALKERBURN,55.62328,-3.01468
PPL,WALKERGATE,54.98333,-1.56667
PPL,WALKERINGHAM,53.42551,-0.8441
PPL,WALKERITH,53.42743,-0.81645
PPL,WALKERN,51.91888,-0.12758
PPL,WALKHAMPTON,50.50939,-4.07226
ADM4,WALKINGHAMHILLWITHOCCANEY,54.05265,-1.46829
PPL,WALKINGTON,53.8195,-0.48958
PPLX,WALKLEY,53.39458,-1.5024
