id,postcode,lat,lon
PPL,WALKDEN,53.5167,-2.4000
PPL,WALKER,54.9745,-1.5535
PPL,WALKERBURN,55.6233,-3.0147
PPL,WALKERGATE,54.9833,-1.5667
PPL,WALKERINGHAM,53.4255,-0.8441
PPL,WALKERITH,53.4274,-0.8165
PPL,WALKERN,51.9189,-0.1276
PPL,WALKHAMPTON,50.5094,-4.0723
ADM4,WALKINGHAMHILLWITHOCCANEY,54.0526,-1.4683
PPL,WALKINGTON,53.8195,-0.4896
PPLX,WALKLEY,53.3946,-1.5024
