name,postcode,lat,lon
dugite and Kākāriki,KW16 3AT,58.961548140398100,-3.302021724339170
tree snake and Egret,KW16 3DH,58.957739846234000,-3.302034609818700
Mole and Grosbeak,KW16 3DS,58.956434051044600,-3.303271896265200
diamond python and Hawaiian honeycreeper,KW16 3NJ,58.911968477879300,-3.330401753921110
kabaragoya and Shearwater,KW16 3NU,58.841789000000000,-3.211405000000000
