name,postcode,lat,lon
Scimitar babbler and Black cockatoo,KW16 3DG,58.959057469690500,-3.302186000000000
carpet snake and gavial,KW16 3EF,58.967705598476000,-3.282619506712310
Moluccan boobook and brown snake,KW16 3JH,58.971937493283400,-3.274271542068290
gavial and Recurvebill,KW16 3JR,58.957309295114400,-3.306434375032370
thorn lizard and dugite,KW16 3NX,58.817262000000000,-3.201632000000000
