name,postcode,lat,lon
Boto and puff adder,KW16 3AP,58.961830593100300,-3.300728268920480
king snake and Goose,KW16 3AW,58.963531367050600,-3.301296623741570
bearded lizard and Old World vulture,KW16 3DX,58.961857617185400,-3.305180642198760
Kangaroo and Jackal,KW16 3EF,58.967705598476000,-3.282619506712310
Cloud rat and Chicken,KW16 3NS,58.835842676409200,-3.208616338356120
