name,postcode,lat,lon
Booted eagles and Pitohui,BL7 9XW,53.623626390000000,-2.431947242000000
Partridge and Night heron,BL8 2DU,53.585181770000000,-2.327749862000000
Towhee and Chickadee,BL8 3ED,53.605811500000000,-2.333682795000000
Argus and Bunting,M28 1NL,53.509933058997300,-2.431754703241530
Mockingbird and Chipmunk,BL2 1LS,53.573478350000000,-2.412181443000000
Mole and Siskin,M28 0JN,53.522738512795300,-2.427616400876260
Capuchin and Grouse,BL6 7PN,53.597954350000000,-2.548516703000000
Cuscus and Fish eagle,BL1 5TQ,53.591171780000000,-2.476334749000000
Pitohui and Marmoset,BL4 9PB,53.542573130000000,-2.402555135000000
Fish eagle and Songlark,M26 1UQ,53.553551241358900,-2.321331660146430
B and Mockingbird,BL6 6AX,53.599108760000000,-2.531728702000000
Dorcopsis and Mouse,BL2 1PJ,53.570884620000000,-2.405783823000000
Towhee and Mouse,BL1 1PS,53.578997000000000,-2.422807000000000
Stilt and Parrotbill,M28 3ER,53.536224155127700,-2.400820094758590
Gull and Hawaiian honeycreeper,M29 8NF,53.524454284619600,-2.466339064274180
Kākāriki and Stilt,M26 1GL,53.540771974178900,-2.364421460193100
Grosbeak and Coati,BL0 9QZ,53.635298440000000,-2.331737843000000
Thicketbird and Linsang,M28 7BQ,53.519123011194400,-2.396978554380330
Chipmunk and Old World quail,BL4 7UF,53.548655280000000,-2.406099257000000
Gull and Buzzard,BL5 2HL,53.536191670000000,-2.516968079000000
Buzzard and New World blackbird,BL3 1JW,53.557471330000000,-2.367704941000000
Darwin's finches and Egret,BL7 0ER,53.637591190000000,-2.404518471000000
Kākāriki and Kestrel,BL0 9TQ,53.635668060000000,-2.324783929000000
Herring gull and Ice seal,BL1 1PT,53.578108800000000,-2.424610977000000
Egret and Skunk,BL3 4LG,53.559616810000000,-2.464084013000000
Condor and Grackle,BL1 2QP,53.583590450000000,-2.439876653000000
Cloud rat and Quetzal,BL1 4TQ,53.577129370000000,-2.435491000000000
Prion and Cloud rat,BL6 6LW,53.586904090000000,-2.521167238000000
Solitaire and Duck,BL8 2AE,53.593085060000000,-2.309681000000000
Chickadee and Badger,BL4 9NG,53.540575050000000,-2.397979097000000
Quetzal and Armadillo,M26 3RW,53.563343120125700,-2.339553366810680
Mouse and Lemming,BL1 3AB,53.583083110000000,-2.440958928000000
Vulture and Bronzewing pigeon,M46 9DE,53.524183847753600,-2.489022212206370
Perching duck and Philippine hawk-owl,M27 6PZ,53.522815238060500,-2.336106700749690
Perching duck and Kākāriki,BL3 3LN,53.559299450000000,-2.453090407000000
Vulture and Bronzewing pigeon,BL0 9EH,53.647031210000000,-2.324039287000000
Quetzal and Thicketbird,BL4 0HJ,53.552830740000000,-2.422848322000000
Armadillo and Jay,BL6 6ZE,53.588218000000000,-2.538918000000000
Dorcopsis and Mockingbird,BL0 9HS,53.642995860000000,-2.323902448000000
Stint and Linsang,BL3 6XF,53.570316660000000,-2.436869764000000
Lemming and Parrotbill,M28 2GN,53.509454085470100,-2.385187163079980
Quetzal and Fulmarine petrel,BL1 7QB,53.598480120000000,-2.464706517000000
Buzzard and Jackal,BL1 4PW,53.583884290000000,-2.457386500000000
Lemming and Elephant,M28 0BH,53.525720403441800,-2.418098045963780
Mamo and Wader,BL2 4LY,53.595243890000000,-2.392056528000000
Kākāriki and Logrunners,WN7 1RL,53.502001913936800,-2.520546971822890
Meadowlark and Argus,BL4 7BU,53.548945500000000,-2.402676013000000
Snipe and River dolphin,BL5 3HN,53.550019490000000,-2.503492542000000
Black cockatoo and Warbler,M27 0NE,53.511780655898200,-2.344448688615260
Quetzal and Parakeet,M46 0FR,53.530589000000000,-2.500939000000000
Thrasher and Parrotbill,BL1 4LD,53.578213000000000,-2.435818000000000
Badger and Philippine hawk-owl,M27 6ED,53.515783717361200,-2.333819053467160
Tree warbler and Booted eagles,BL1 7PH,53.608563030000000,-2.476636342000000
Armadillo and Marmoset,M26 3WA,53.566323434196100,-2.347141739847430
Ibex and Pitohui,M28 7GJ,53.511205248551800,-2.404700456545740
Goose and Fulmarine petrel,BL6 6QH,53.597271760000000,-2.516081976000000
Jerboa and Mole,WN7 5NS,53.513562712748400,-2.534441779900890
Argus and Thrasher,BL5 3PU,53.560377320000000,-2.523679171000000
Ice seal and Kangaroo,M27 6FT,53.519576845079400,-2.337016142593710
Piping shrike and Wallaby,BL1 8PG,53.598345000000000,-2.431461113000000
Shearwater and Old World vulture,WN7 5BD,53.499863073608100,-2.530666405760160
Capuchin and Philippine hawk-owl,BL1 4LL,53.576219880000000,-2.449948000000000
Treepie and Bronzewing pigeon,M45 7LA,53.545200224610500,-2.307988065222630
Jerboa and Cuscus,WN7 5DF,53.502866315745000,-2.534457934658110
Mink and Herring gull,BL6 6NJ,53.590693600000000,-2.528133153000000
Wallaby and Fulmarine petrel,BL4 7AZ,53.548750000000000,-2.394162000000000
Tahr and Fulmarine petrel,BL1 6AY,53.589002270000000,-2.463454347000000
Capuchin and Peafowl,BL8 2HG,53.590481160000000,-2.335571198000000
Buzzard and Darwin's finches,BL2 5LN,53.585805230000000,-2.386818057000000
Coati and Siskin,BL3 1SG,53.569449820000000,-2.396755430000000
Night heron and Armadillo,M26 2AJ,53.560803000000000,-2.324811000000000
Masked owl and Pratincole,BL3 1JQ,53.557591990000000,-2.369381607000000
Wader and Dolphin,BL5 2AE,53.543772080000000,-2.524500272000000
Crow and Vole,WN7 2GA,53.500415109765800,-2.502783730910940
Ground sloth and Guillemot,WN7 1EU,53.500233616539500,-2.517917259390650
Zebra and Cloud rat,BL8 4QQ,53.626711870000000,-2.339139882000000
Armadillo and Songlark,BL8 9TH,53.592643000000000,-2.310205000000000
Peafowl and Kestrel,BL2 3QQ,53.599124540000000,-2.384461685000000
Piping shrike and White ibis,M46 0TS,53.531586000000000,-2.505114000000000
Linsang and Old World vulture,BL0 9DS,53.650340940000000,-2.323277988000000
Skunk and Masked owl,BL3 1AA,53.564462106086900,-2.372869066708630
Stilt and Cloud rat,BL2 1EX,53.572308210000000,-2.420400069000000
Guillemot and Chicken,WN7 1TS,53.510981230898400,-2.516449958337070
Quetzal and Badger,M38 9GZ,53.532620525588000,-2.424049911796800
Moluccan boobook and Viscacha,BL2 2LT,53.589626670000000,-2.408033138000000
Petrel and Kangaroo,BL4 7QH,53.550423320000000,-2.390721193000000
Buzzard and Tit-tyrant,WN7 1JA,53.503579810476900,-2.506861714252940
Masked owl and Cloud rat,BL2 4HA,53.598690910000000,-2.376675926000000
Old World quail and Piping shrike,WN7 5TE,53.520560035485300,-2.539492062896900
Tit-tyrant and Linsang,M46 9AG,53.516915985227200,-2.481443082299120
Black cockatoo and Meadowlark,WN2 4SL,53.524972454138200,-2.553455772687770
Parrotlet and Perching duck,M29 7HG,53.500768248896200,-2.447912937998410
Grackle and Darwin's finches,M27 8LA,53.524630077198300,-2.329951748286750
Snipe and Cuscus,M29 8FB,53.514025518600000,-2.475001501200000
Snipe and American sparrow,BL2 3DD,53.602277410000000,-2.406810193000000
Fish eagle and Marmoset,M29 7WQ,53.508008060146200,-2.453975312191040
Marmoset and Mink,BL6 6HN,53.586547120000000,-2.526736989000000
Snipe and Mouse,M38 9UN,53.532110969180600,-2.425794868494910
Vole and Songlark,BL4 8RR,53.530706500000000,-2.354951423000000
Solitaire and Fulmarine petrel,BL2 5RE,53.588641780000000,-2.350119498000000
Dorcopsis and Mamo,M46 0GN,53.522535382407500,-2.507133324252200
Marsh harrier and Dorcopsis,BL3 3BY,53.559252330000000,-2.431819208000000
Puffleg and Old World warbler,BL3 2BB,53.563373000000000,-2.423378675000000
Skunk and Duck,BL5 3PJ,53.562098000000000,-2.531219000000000
New World blackbird and Goose,BL5 3TS,53.553006720000000,-2.525746580000000
Warbler and Fish eagle,BL6 4PP,53.574256900000000,-2.495927711000000
Minke whale and B,BL2 4DJ,53.609970900000000,-2.390787382000000
Vulture and Puffleg,M28 3UD,53.526779000000000,-2.400701000000000
Solitaire and Condor,M28 3BJ,53.528980728362600,-2.400449946140780
Badger and Snipe,M26 4GN,53.569958629811600,-2.336344785176100
Badger and Pheasant,M27 8JN,53.522586000000000,-2.318442000000000
Linsang and Jay,BL11 1BF,53.572026719678200,-2.425139238112670
Tree warbler and Parakeet,BL7 8BW,53.637634000000000,-2.491635000000000
Marsh harrier and Coati,BL3 3SQ,53.556046270000000,-2.466943192000000
Kangaroo and Wallaby,WN7 1JW,53.500656590730400,-2.509434894893670
Thicketbird and Zebra,BL7 8BB,53.643464270000000,-2.500929678000000
Myna and Asiatic leopard,WN7 1TG,53.500321246476700,-2.519607086789170
Parrotbill and Tattler,BL5 3BB,53.549166910000000,-2.524099131000000
Buzzard and Shearwater,M26 3GG,53.563763365084400,-2.349672301374500
Masked owl and Jackal,BL11 1AF,53.572021800000000,-2.425138891000000
Perching duck and River dolphin,BL3 1SF,53.570113530000000,-2.397184451000000
New World blackbird and Pheasant,BL3 2BS,53.563798050000000,-2.427487137000000
Old World vulture and Skunk,M27 8BB,53.514478234528300,-2.324820909240650
Towhee and Grosbeak,BL4 9LJ,53.542494580000000,-2.393756734000000
Ibex and Armadillo,BL3 2PQ,53.561854690000000,-2.410060438000000
Eagle and Mink,BL4 8RP,53.531922190000000,-2.354192183000000
Rat and White ibis,BL4 8JA,53.539733940000000,-2.383062943000000
Old World warbler and Shearwater,BL2 5FA,53.588668550000000,-2.385258012000000
Prion and Duck,M27 6PH,53.529543922989500,-2.340565033824880
Flameback and Kestrel,BL1 2JL,53.587337170000000,-2.432876041000000
Civet and Elephant,BL8 2HB,53.589774680000000,-2.343798981000000
Goose and Viscacha,BL5 2NY,53.541297920000000,-2.520923531000000
Marsh harrier and Kite,M28 1LA,53.500828658075600,-2.416300173747600
Chickadee and Shearwater,M26 1BG,53.549727168130600,-2.326132381930080
Cloud rat and Tit-tyrant,BL3 5QT,53.567916380000000,-2.463238757000000
Kestrel and Triller,M46 0LA,53.525414602263000,-2.497890881852270
Argus and Buzzard,BL8 3DF,53.605928590000000,-2.330132000000000
Darwin's finches and Jerboa,M28 3LU,53.523155353443500,-2.387076290029930
Vulture and Macaw,M28 1AX,53.506671998405500,-2.431269214800260
Maya and Old World warbler,BL2 5DL,53.590833090000000,-2.394040081000000
Prion and Philippine hawk-owl,BL4 7DR,53.549205240000000,-2.402950149000000
Thicketbird and Stint,M46 0FD,53.524251135887500,-2.494513523337340
Grouse and Elephant,BL3 5QH,53.569771970000000,-2.455180513000000
Hawk and Partridge,BL1 6QF,53.601830940000000,-2.434097217000000
Logrunners and B,M26 3TT,53.570378659516000,-2.358817244822760
Asiatic leopard and Quetzal,M27 0DL,53.503046106788400,-2.355956411285430
Quetzal and Tree warbler,M45 7LG,53.544766882528600,-2.308724379947530
Shearwater and Ground sloth,BL7 0DR,53.639911110000000,-2.396176519000000
Myna and Guillemot,BL4 0EA,53.554567400000000,-2.417190068000000
Black jay and Minke whale,BL8 2DA,53.587154000000000,-2.323339000000000
Meadowlark and Meadowlark,BL1 1DA,53.578814050000000,-2.428772000000000
Cloud rat and Moluccan boobook,M6 7WS,53.501645302465300,-2.313777720705200
Mockingbird and Snipe,M26 1BJ,53.552841762781500,-2.324435637108580
Crow and American sparrow,BL0 9PQ,53.638894100000000,-2.328347901000000
Songlark and Fish eagle,BL1 3LD,53.594361020000000,-2.448872567000000
Minke whale and Gull,BL8 1UT,53.603789150000000,-2.320534408000000
Tattler and Chipmunk,BL1 1AP,53.577567800000000,-2.425088843000000
Nukupuʻu and Puffleg,BL2 1JS,53.579247380000000,-2.412615178000000
Darwin's finches and Pitohui,BL8 2AZ,53.589230230000000,-2.312946210000000
Logrunners and Elephant,M28 3DD,53.522533292197400,-2.401263926540260
Argus and Bronzewing pigeon,BL5 2HQ,53.536145790000000,-2.523379978000000
Treepie and Songlark,M26 1QS,53.546425663719300,-2.364424782130600
White ibis and Solitaire,M26 3NN,53.569351465845900,-2.350579122319040
Tit-tyrant and Stilt,WN7 2TP,53.505832000000000,-2.493002000000000
Flameback and Pitohui,M28 3SH,53.520923981911500,-2.406693547778780
Grackle and Dolphin,WN7 1SF,53.505345066634900,-2.520678413430030
Bronzewing pigeon and Jerboa,M46 9DJ,53.525126734797600,-2.487041963870540
Gull and Francolin,BL4 9NZ,53.544076660000000,-2.404485952000000
Tattler and Stint,BL1 3XH,53.588003210000000,-2.444877450000000
Myna and Tree warbler,BL9 5NT,53.630824000000000,-2.311576000000000
Towhee and Meadowlark,BL1 9ZE,53.588504000000000,-2.425423000000000
Duck and Buzzard,BL4 7HY,53.554863470000000,-2.412166438000000
Black cockatoo and Recurvebill,M28 0GG,53.522579245714000,-2.403632430036320
Zebra and Piping shrike,BL2 3EG,53.609772340000000,-2.407199671000000
Chickadee and Flameback,BL8 1QQ,53.598526000000000,-2.311668000000000
New World blackbird and Myna,BL7 0HH,53.630140320000000,-2.407048070000000
Skunk and White ibis,BL1 8QR,53.602433000000000,-2.431655299000000
Guillemot and Nukupuʻu,BL7 9XG,53.622648000000000,-2.431862000000000
Old World vulture and Dolphin,BL6 7BW,53.607217630000000,-2.541442773000000
Peafowl and Ibex,BL3 4PR,53.573697200000000,-2.481121708000000
Armadillo and Goose,BL2 2ER,53.586018490000000,-2.409161510000000
Boto and Duck,BL3 1FZ,53.562250668439900,-2.370071695428100
Fish eagle and Tahr,BL1 6NL,53.598646330000000,-2.434850287000000
Tree warbler and Chipmunk,BL8 4JB,53.630865600000000,-2.348125322000000
Bunting and Tit-tyrant,M29 7PR,53.510766479552400,-2.461288002342920
Buzzard and Thicketbird,BL4 9SX,53.539827310000000,-2.411748678000000
Songlark and Logrunners,BL3 4JA,53.567105760000000,-2.463667768000000
Black jay and Dolphin,BL6 6AT,53.599292330000000,-2.536913958000000
Quetzal and Fish eagle,BL2 6HY,53.581608060000000,-2.392217239000000
Zebra and Polecat,M28 7XE,53.509291803960600,-2.412266715593090
Shearwater and Mockingbird,BL3 2NB,53.567075250000000,-2.413160980000000
Jay and Eagle,BL3 3HZ,53.556636220000000,-2.449031471000000
Kite and Jerboa,BL5 2BP,53.555041200000000,-2.537183531000000
Nukupuʻu and Bunting,BL7 9ED,53.620579090000000,-2.432021939000000
Argus and Mockingbird,BL3 5RG,53.567757500000000,-2.455460857000000
Pheasant and Songlark,BL3 1HZ,53.562734700000000,-2.368943320000000
Badger and Solitaire,M28 3YR,53.517391000000000,-2.411997000000000
Lemming and Diving bird,M38 9RG,53.535961141545200,-2.417263530108010
Philippine hawk-owl and Kākāriki,BL1 9SN,53.578230570000000,-2.430774245000000
Snipe and Stilt,M28 1EU,53.505513032183700,-2.410707229960440
Jackal and Pheasant,M38 0DE,53.530587703955600,-2.431979967554360
Boto and Gull,BL0 9UW,53.625736700000000,-2.324541292000000
Egret and Cloud rat,BL2 3AE,53.595958220000000,-2.409559789000000
Buzzard and Grackle,BL2 3PN,53.598242900000000,-2.379074455000000
Crow and Solitaire,BL2 4BY,53.608134080000000,-2.391767917000000
Nukupuʻu and Parrotlet,BL7 9XB,53.631689120000000,-2.439288266000000
Kākāriki and Nukupuʻu,BL1 7QD,53.607162390000000,-2.443704000000000
Night heron and Zebra,M28 3UP,53.517885000000000,-2.407162000000000
Armadillo and Guillemot,BL7 8AG,53.637021000000000,-2.490100000000000
Shearwater and Gull,BL2 5DB,53.593148480000000,-2.392399718000000
Marmoset and Ground sloth,M28 7EX,53.513287997224000,-2.394722312106850
Quetzal and Peafowl,WN7 2GG,53.499897148079100,-2.499837925929650
B and Magpie,BL5 2NL,53.543967020000000,-2.518964316000000
Songlark and Snipe,BL0 9RF,53.639699290000000,-2.319778310000000
Vole and Thicketbird,BL3 4EN,53.564421900000000,-2.458052081000000
Myna and Eagle,BL1 4HR,53.582814220000000,-2.452783110000000
Bunting and Maya,BL1 8NB,53.597375030000000,-2.433462224000000
New World blackbird and Solitaire,BL8 1XN,53.605144400000000,-2.304087056000000
Herring gull and Puffleg,BL1 3NA,53.590876500000000,-2.438381174000000
Wallaby and Towhee,M26 2FU,53.563939216782100,-2.318934391347430
New World blackbird and Marsh harrier,M46 0RE,53.531151776613600,-2.503721192778360
Egret and Partridge,M28 0JH,53.522642376300000,-2.424493000000000
Perching duck and Warbler,BL8 1LH,53.596924360000000,-2.309437234000000
Pitohui and Cuscus,BL7 9SQ,53.628445830000000,-2.436426936000000
Solitaire and Dorcopsis,M29 8LF,53.514887620890700,-2.464786229280700
Egret and Night heron,M26 1HW,53.548631806154800,-2.371884342882700
Shearwater and Tattler,BL1 3QY,53.592199850000000,-2.435358163000000
Old World warbler and Capuchin,M26 1AW,53.554718241298100,-2.324646000000000
Zebra and Chicken,M29 8LN,53.521865000000000,-2.466885035289910
Coati and Snipe,BL6 5PZ,53.595377250000000,-2.540052345000000
Tahr and Stint,BL1 3JQ,53.592935140000000,-2.445594051000000
Perching duck and Francolin,BL5 2DT,53.533615200000000,-2.532612323000000
Chipmunk and Old World quail,BL2 4AS,53.607149540000000,-2.395960312000000
Pheasant and Gull,BL6 4LX,53.586306000000000,-2.520614160000000
Viscacha and Pratincole,BL2 1LF,53.572400680000000,-2.414511606000000
Prion and Jerboa,WN7 5BT,53.501216245611100,-2.539608150996310
Gull and Tree warbler,M26 4JS,53.579909248133500,-2.339338823188690
Greenbul and Condor,M27 8JP,53.521282775245100,-2.318025433978540
Warbler and Recurvebill,BL4 0EU,53.549711260000000,-2.415300944000000
Thrasher and Meadowlark,BL6 4DQ,53.577108980000000,-2.501730338000000
Snipe and Shearwater,BL8 3EB,53.607771790000000,-2.333380875000000
Shearwater and Siskin,M26 3BE,53.563009567345700,-2.330280774852090
Shearwater and Flameback,M28 1LB,53.501318000000000,-2.415412945850000
Tree warbler and Chipmunk,BL2 3HY,53.604520300000000,-2.391915801000000
Grouse and Black jay,BL0 9NR,53.641971900000000,-2.326950001000000
Fulmarine petrel and Duck,WN7 5LL,53.512770448006200,-2.538729561947560
Egret and Guillemot,WN7 2UR,53.503386228173700,-2.484184372088170
Hawaiian honeycreeper and Black jay,M26 1FT,53.543165182620600,-2.357711649546970
Hawaiian honeycreeper and Greenbul,M46 0HW,53.529392145102600,-2.498933213707590
Ground sloth and Argus,M46 9TE,53.532350722217400,-2.494276021931350
Linsang and Grackle,BL2 5BZ,53.593335100000000,-2.393051110000000
Civet and Greenbul,BL2 3AR,53.600131020000000,-2.411534366000000
Tattler and Snipe,BL3 2EN,53.559300780000000,-2.428347549000000
Booted eagles and Jerboa,BL2 5QJ,53.586748340000000,-2.355164365000000
Macaw and Grouse,BL4 0QW,53.544562330000000,-2.432635421000000
Treepie and Night heron,M27 8FF,53.525758000000000,-2.332163000000000
New World blackbird and Pitohui,BL1 1TD,53.576994690000000,-2.432015192000000
White ibis and Shearwater,M29 8SJ,53.511033000000000,-2.435806000000000
Badger and Capuchin,BL8 4AR,53.616702660000000,-2.340994539000000
Peafowl and Moluccan boobook,M46 0SJ,53.523418511221500,-2.506179000000000
Quetzal and Shearwater,BL6 7HQ,53.602138680000000,-2.541559127000000
Kestrel and Bronzewing pigeon,BL1 9WY,53.588504000000000,-2.425423000000000
B and Coati,BL1 8DN,53.597560243188500,-2.442576000000000
Crow and Bunting,BL8 2DY,53.586244610000000,-2.326942374000000
Pitohui and Herring gull,BL1 8RA,53.604234000000000,-2.430903000000000
Capuchin and Thicketbird,M27 6HE,53.520347019938500,-2.338017699075010
Ibex and Skunk,WN7 2EH,53.503459000000000,-2.492627000000000
Songlark and Boto,M27 8SY,53.508907739944900,-2.313861559072530
Francolin and Diving bird,BL5 1HP,53.542315800000000,-2.470549477000000
Kangaroo and Kākāriki,M28 3AQ,53.522758194548800,-2.398520891939670
Recurvebill and Ground sloth,BL3 4TY,53.568553040000000,-2.477333678000000
New World blackbird and Guillemot,M27 5AP,53.510832000000000,-2.340204000000000
Nukupuʻu and Tahr,WN7 2TS,53.501582021895900,-2.487993066174490
Viscacha and Condor,WN7 5HX,53.513717622532800,-2.525863110610050
Cloud rat and Cuscus,BL4 7DD,53.548495030000000,-2.408286128000000
Chipmunk and Darwin's finches,M28 2NJ,53.503384847304400,-2.374518309569840
Stilt and Cuscus,M46 0QP,53.517274827451100,-2.507673730122200
Crow and Macaw,M26 3YY,53.559670627030600,-2.347737000000000
Mink and Peafowl,M45 7LW,53.543918247699100,-2.313607613429030
Scimitar babbler and Fish eagle,BL3 4NQ,53.568691310000000,-2.474209600000000
Philippine hawk-owl and Capuchin,BL6 6LG,53.588923110000000,-2.526041417000000
Grosbeak and Philippine hawk-owl,BL7 9XJ,53.630821210000000,-2.443089949000000
Black jay and Mouse,BL2 4EL,53.599898290000000,-2.378590630000000
Vole and Prion,BL1 3PD,53.591873560000000,-2.438557688000000
Rabbit and Parakeet,BL1 3SN,53.591286000000000,-2.437010613000000
Greenbul and Mink,BL1 6DY,53.591169890000000,-2.451331496000000
Buzzard and Marmoset,BL4 9ND,53.540289700000000,-2.405325023000000
Hawk and Tit-tyrant,M46 0DE,53.524003084452800,-2.495807839913740
Polecat and Peafowl,WN7 5ST,53.508511324994500,-2.522209991648650
Marsh harrier and Macaw,BL3 2TB,53.563001530000000,-2.434016377000000
Darwin's finches and Pitohui,BL8 3BZ,53.606018580000000,-2.339941178000000
American sparrow and Wallaby,BL3 2LB,53.560251450000000,-2.416219452000000
Mockingbird and Polecat,M28 3HN,53.521937979264900,-2.379900758454520
Skunk and Elephant,M46 9QW,53.536526724802700,-2.470681400574390
Argus and Fulmarine petrel,BL6 7HZ,53.601214110000000,-2.551127880000000
Songlark and Francolin,M28 3QB,53.530076270213700,-2.400762005573970
Mamo and Piping shrike,M26 4HX,53.575327477673800,-2.335345389682690
Vole and Thicketbird,BL7 9LR,53.615650500000000,-2.409886522000000
Booted eagles and Kākāriki,BL4 0ER,53.550945040000000,-2.414618738000000
Bronzewing pigeon and Rat,BL1 5BQ,53.581250490000000,-2.484817415000000
Kākāriki and Kākāriki,BL2 5QW,53.584456720000000,-2.358045345000000
Macaw and Argus,BL3 1SS,53.570256240000000,-2.397517993000000
Ice seal and Parrotbill,M27 8TP,53.510207781994800,-2.315107634104580
New World blackbird and Guillemot,BL3 4PE,53.572057450000000,-2.477599678000000
Mockingbird and Asiatic leopard,BL4 8BH,53.545646580000000,-2.386391203000000
Parrotbill and Ground sloth,M26 4QD,53.572120626533100,-2.340997910798280
Polecat and Parrotbill,BL0 9XA,53.625741820000000,-2.325962608000000
Puffleg and Fox,BL5 3SQ,53.552337670000000,-2.524591146000000
Quetzal and River dolphin,M26 4JZ,53.582481933184300,-2.328967530538830
Elephant and Armadillo,BL3 3QX,53.558198910000000,-2.456490324000000
Francolin and Civet,M6 7LJ,53.502770501455900,-2.306217801326410
Snipe and Boto,BL1 2AB,53.579744530000000,-2.432179177000000
Lemming and Fish eagle,M26 1FH,53.550729000000000,-2.314775000000000
Lemming and Guillemot,M28 0HA,53.523405220590300,-2.419071000000000
Zebra and Jackal,BL6 4DD,53.580912150000000,-2.501473314000000
Civet and Pratincole,M26 6BL,53.558767000000000,-2.326456000000000
Diving bird and Chicken,BL1 3RQ,53.588513160000000,-2.438220740000000
Duck and Puffleg,BL6 9DN,53.588202000000000,-2.538918000000000
Guillemot and Parrotbill,M45 7WP,53.553536749004900,-2.306312815306160
Prion and Puffleg,BL8 1JR,53.611575640000000,-2.319550494000000
Kite and Herring gull,BL1 8AJ,53.594404280000000,-2.437193897000000
Grackle and Triller,WN7 5HD,53.508985551625000,-2.538892639478200
Kangaroo and Puffleg,BL6 7AY,53.599755580000000,-2.545774769000000
Masked owl and Moluccan boobook,BL4 0JE,53.554006860000000,-2.420686457000000
Kestrel and Marsh harrier,M26 4GE,53.573150258138100,-2.339254461619550
Prion and Magpie,BL8 4HD,53.628264060000000,-2.340120073000000
American sparrow and Bunting,BL1 7HS,53.609786770000000,-2.426274069000000
Wallaby and Hawaiian honeycreeper,M26 2TU,53.561708901132900,-2.326043441396700
Boto and Herring gull,M26 1JQ,53.553510760573600,-2.316289890793890
Chickadee and Marsh harrier,BL3 2HL,53.562125960000000,-2.417385260000000
Pitohui and Songlark,BL7 9EB,53.620203010000000,-2.431625028000000
Egret and Shearwater,BL1 2DD,53.582023000000000,-2.431296000000000
Grosbeak and Booted eagles,M28 3HR,53.520785000000000,-2.380988551565130
Booted eagles and Night heron,BL5 2ED,53.532044310000000,-2.519889616000000
Rat and Fox,BL0 9HY,53.646272700000000,-2.318648148000000
Armadillo and Fulmarine petrel,M29 7BT,53.500944629542100,-2.458286804558240
Thrasher and Fox,BL6 9DS,53.588200640000000,-2.538918439000000
Skunk and Prion,M26 1ED,53.558313758225000,-2.321820653152800
Partridge and Cloud rat,M26 2UX,53.569946762471400,-2.314283512263290
Wader and Warbler,BL2 4AE,53.607760570000000,-2.398716702000000
Mouse and Ibex,BL2 2AG,53.582689360000000,-2.417950448000000
Viscacha and Darwin's finches,M26 4JE,53.576995764398000,-2.339783654734220
Parrotlet and Moluccan boobook,BL3 4HR,53.564846420000000,-2.457513131000000
Ground sloth and Stilt,BL3 4PS,53.574084570000000,-2.478664545000000
Bunting and Parrotlet,BL9 0TZ,53.589085150000000,-2.306494505000000
Kākāriki and Linsang,BL8 3LD,53.610940070000000,-2.335023120000000
Thicketbird and Night heron,BL2 6BW,53.579429180000000,-2.401455483000000
Crow and Pratincole,BL4 8SD,53.534876100000000,-2.364250098000000
Tit-tyrant and Treepie,M27 5TE,53.510161010392000,-2.338765916595350
Elephant and Towhee,BL7 8AW,53.641673840000000,-2.494873275000000
Egret and Fox,M26 3QF,53.568146834503800,-2.350644649534780
Macaw and Logrunners,M29 8NT,53.513527643649400,-2.449042838163420
Siskin and Asiatic leopard,M46 0PX,53.518316560417100,-2.512105155065490
Maya and Peafowl,M38 9TZ,53.538418978339200,-2.428830706633500
Shearwater and Polecat,M28 3UL,53.517896000000000,-2.408774000000000
River dolphin and Marmoset,M27 5NS,53.504885751420400,-2.335241053273390
Jerboa and Siskin,BL7 9DP,53.616529000000000,-2.423712000000000
Elephant and Bunting,BL6 4DE,53.574085000000000,-2.500652000000000
Partridge and White ibis,BL1 3DT,53.588890310000000,-2.440762598000000
Ice seal and Old World vulture,M46 9DT,53.524543457083000,-2.484591663214830
Old World warbler and Lemming,BL2 2UR,53.589182990000000,-2.414207605000000
Ibex and Flameback,BL0 9TY,53.631319940000000,-2.327275877000000
Philippine hawk-owl and Eagle,WN2 4GL,53.526277119741800,-2.541389985243160
Vole and Kite,M29 7GH,53.503542719181000,-2.460516012918390
Recurvebill and Magpie,BL6 7LA,53.602590410000000,-2.548939478000000
Lemming and Mole,M28 7UT,53.516370372491300,-2.405654566063990
Darwin's finches and Thicketbird,WN2 4UG,53.531180000000000,-2.548030000000000
Francolin and Siskin,M38 0FY,53.527831760890400,-2.435964550859620
Cloud rat and Shearwater,BL6 6DQ,53.596427510000000,-2.534354310000000
Shearwater and Booted eagles,BL1 5JB,53.585605060000000,-2.470260047000000
Maya and Tit-tyrant,BL7 9DH,53.614479690000000,-2.425988815000000
Parrotlet and Rabbit,BL4 7BE,53.548032470000000,-2.401550512000000
Guillemot and Dorcopsis,M26 4PA,53.566158976658700,-2.335484186630210
Herring gull and Badger,M46 0PS,53.517926187101500,-2.510908994548150
Armadillo and Wader,BL4 8BU,53.546838050000000,-2.382040516000000
Hawaiian honeycreeper and Tahr,BL4 8RB,53.536457610000000,-2.364399475000000
Jay and Badger,M27 8SU,53.511231226299000,-2.318960420635220
Rabbit and Boto,M26 4AB,53.574677350900000,-2.341260411200000
River dolphin and Towhee,M28 7FR,53.513712219078700,-2.391453877897070
Jay and Shearwater,M46 9AJ,53.518358748125500,-2.480298149207970
Tattler and Chickadee,BL6 4GP,53.579944000000000,-2.522018000000000
Polecat and Pheasant,BL2 5BD,53.587154000000000,-2.394759000000000
Parakeet and Old World vulture,BL8 4SA,53.620299410000000,-2.334114611000000
Treepie and Pheasant,M27 9UP,53.515808606823400,-2.350242248022090
Viscacha and Kākāriki,M46 9LL,53.532760878284400,-2.479646497768800
Moluccan boobook and Ground sloth,BL6 6JZ,53.589589430000000,-2.533769000000000
Night heron and Badger,BL8 2BX,53.587004640000000,-2.321932000000000
Ibex and Jay,M28 3SE,53.519762969947100,-2.407134889019820
Marsh harrier and Stint,WN7 5LU,53.509717282120600,-2.530035616731050
Grosbeak and Macaw,BL5 2SJ,53.534431450000000,-2.535006402000000
Fox and Gull,BL6 7DD,53.601988490000000,-2.544942205000000
Tree warbler and Lemming,BL3 1NL,53.562013720000000,-2.363698297000000
Guillemot and Zebra,BL4 8DU,53.544168030000000,-2.376523369000000
Meadowlark and Herring gull,BL2 5NH,53.585346850000000,-2.384019338000000
Parrotbill and Tahr,WN2 4QX,53.529701859066700,-2.553140313936260
Vulture and Fox,BL6 6PZ,53.595708920000000,-2.498868490000000
Kestrel and Old World vulture,BL6 7DY,53.604279000000000,-2.545410000000000
New World blackbird and Crow,BL1 4EA,53.582133640000000,-2.454482637000000
Mockingbird and Lemming,M46 9NZ,53.533861245586100,-2.491985263910400
B and Stilt,M28 1AW,53.508003866485100,-2.433318284186440
Francolin and Diving bird,BL8 1WL,53.602227551780600,-2.318059672869420
Coati and Mink,M27 5LX,53.501989448530500,-2.326232951112140
Flameback and Thrasher,BL8 1BH,53.599859600000000,-2.307479199000000
Masked owl and Mockingbird,BL1 7RN,53.611267090000000,-2.424520550000000
Marmoset and Hawk,BL5 2HH,53.537303370000000,-2.521764697000000
Myna and Myna,M28 3QX,53.529139009938900,-2.404162490982360
New World blackbird and Booted eagles,BL5 3ZP,53.558554480000000,-2.510794767000000
Solitaire and Recurvebill,BL6 5NJ,53.591400740000000,-2.543748000000000
Hawk and Solitaire,BL8 4DJ,53.626016120000000,-2.330818264000000
Darwin's finches and Philippine hawk-owl,BL4 8NF,53.542411408467900,-2.379284672218100
Cuscus and Vole,BL8 4AB,53.619937070000000,-2.341474162000000
Lemming and Fox,BL7 9GX,53.620929000000000,-2.422395000000000
Vole and Masked owl,M28 8EY,53.513067000000000,-2.362206000000000
Badger and Gull,BL2 3NT,53.594892810000000,-2.389469640000000
Pitohui and Duck,M28 1ND,53.504991369626900,-2.418572380413260
Goose and Ice seal,BL8 2XD,53.588143240000000,-2.322863168000000
Siskin and Dorcopsis,BL5 3AU,53.549100000000000,-2.520898642000000
Rat and Pitohui,BL1 1TZ,53.580260640000000,-2.423470000000000
Mink and Tit-tyrant,BL1 2ST,53.583129320000000,-2.423196156000000
Triller and Elephant,WN7 5JJ,53.510398391704100,-2.526425160425850
Kangaroo and American sparrow,BL8 1UB,53.605213740000000,-2.325547483000000
Bronzewing pigeon and Prion,BL3 3JR,53.560457040000000,-2.446430025000000
Hawaiian honeycreeper and Towhee,BL6 5PL,53.593616280000000,-2.541873130000000
Francolin and White ibis,M27 5PU,53.504399000000000,-2.339230460085260
Grosbeak and Boto,M45 7PU,53.542707893429000,-2.305480050948100
Dorcopsis and Triller,BL1 8TX,53.602438500000000,-2.430129074000000
Shearwater and Myna,M29 7BS,53.500101193445100,-2.455549075485980
Eagle and Fulmarine petrel,M28 3RY,53.532273396799800,-2.401401000000000
Old World vulture and Logrunners,M27 8RA,53.522588625676800,-2.330343119066720
Macaw and Goose,BL4 8AX,53.545611000000000,-2.389046969000000
Pheasant and Ice seal,BL2 5RF,53.587571840000000,-2.350231499000000
Lemming and Marmoset,BL7 0DY,53.637560990000000,-2.397440043000000
Pheasant and Philippine hawk-owl,BL3 1SB,53.568526500000000,-2.401397454000000
Condor and Eagle,M38 9NJ,53.536560874362600,-2.415398491196320
Mouse and Crow,BL1 8EQ,53.598016620000000,-2.432516858000000
Fox and Warbler,BL1 2UX,53.587699260000000,-2.432169740000000
Prion and Nukupuʻu,M28 1GR,53.507926000000000,-2.391129000000000
Kite and Dolphin,M26 3WB,53.567029807326300,-2.348415846525980
Crow and Nukupuʻu,BL3 4BE,53.566083630000000,-2.453631014000000
Myna and Tit-tyrant,M28 3WX,53.525608841006200,-2.389949607550290
Tahr and Gull,M46 9WX,53.534085597444200,-2.494250973627430
Snipe and Elephant,BL8 3BB,53.601818610000000,-2.340799004000000
Petrel and Bronzewing pigeon,BL7 9PP,53.634231380000000,-2.446951835000000
Diving bird and Triller,BL8 3AZ,53.602399560000000,-2.338793837000000
Logrunners and Goose,BL2 2SD,53.582354000000000,-2.400669432000000
Condor and Fulmarine petrel,WN7 2EZ,53.505129000000000,-2.490882000000000
Puffleg and Macaw,BL6 5WG,53.594520000000000,-2.550450000000000
Maya and Magpie,M29 7NU,53.510384691889300,-2.448240569722020
Chicken and Buzzard,BL1 3AP,53.584529050000000,-2.446124898000000
Coati and Rabbit,M28 1EQ,53.507432531567700,-2.427236068125700
Badger and Scimitar babbler,BL1 2JE,53.585780660000000,-2.433192000000000
Night heron and Partridge,M29 7NG,53.507741660050500,-2.445950967583380
Mole and Macaw,BL3 5RL,53.568378480000000,-2.455256139000000
Ice seal and Rabbit,M28 1HN,53.506626722835800,-2.413567665668340
Darwin's finches and Jackal,BL3 2LH,53.559411870000000,-2.414686475000000
Masked owl and Armadillo,M27 5NW,53.508227683338500,-2.335870568675300
Tattler and White ibis,M27 0EN,53.505888047149100,-2.355422377755480
Mole and Chicken,BL0 9UF,53.628153470000000,-2.324937871000000
Bronzewing pigeon and Tahr,BL1 2XA,53.585484260000000,-2.435712063000000
Hawk and Francolin,M27 6BY,53.517345010474300,-2.334781459807890
Parakeet and Armadillo,M46 9NY,53.533661645180700,-2.492435566066180
Minke whale and Tahr,BL4 9NP,53.544213480000000,-2.401227616000000
Cuscus and Marsh harrier,M28 7JA,53.515939128146200,-2.383828412080590
Boto and Tree warbler,M27 5EG,53.506186417756600,-2.323159260637350
Minke whale and Parakeet,BL3 1SY,53.570460940000000,-2.395420976000000
Songlark and Kestrel,M26 2UE,53.561800264105400,-2.325500646997510
Nukupuʻu and Fox,M26 1UA,53.554956395889400,-2.320225305963530
Triller and Old World warbler,BL1 6LP,53.599027360000000,-2.462657499000000
Zebra and Mouse,M38 9PW,53.529566241775800,-2.413278340628200
Triller and Cloud rat,M28 1YT,53.508937712492200,-2.415882094249210
Fulmarine petrel and Armadillo,M27 9SY,53.516580000000000,-2.342014000000000
Hawaiian honeycreeper and Wallaby,BL2 5RP,53.586596690000000,-2.351734031000000
Macaw and B,BL4 9PZ,53.544871430000000,-2.408658696000000
Rabbit and Zebra,BL6 6TU,53.589487000000000,-2.532468000000000
Partridge and Macaw,BL3 2LS,53.558246470000000,-2.411187911000000
Jerboa and Jackal,BL4 0DF,53.549285300000000,-2.416307985000000
Darwin's finches and Armadillo,BL2 6EL,53.577578300000000,-2.390382682000000
Perching duck and Kestrel,BL8 3AY,53.602247490000000,-2.338535722000000
Egret and Argus,BL3 4QP,53.566067790000000,-2.469378835000000
Badger and Myna,BL4 9QT,53.545303930000000,-2.410971837000000
Piping shrike and Parrotlet,BL1 2LQ,53.584534170000000,-2.434977231000000
Dolphin and Jackal,BL3 4LD,53.558594940000000,-2.465673008000000
Cuscus and Pratincole,BL5 1AF,53.552943330000000,-2.469731604000000
Ground sloth and Fox,M28 3WF,53.523583665685000,-2.376808273968450
Eagle and Tree warbler,BL6 7FN,53.602502260000000,-2.548560540000000
Maya and Pitohui,BL3 4TU,53.569332770000000,-2.477901160000000
River dolphin and Parrotbill,BL5 3EZ,53.553390780000000,-2.522204189000000
Marmoset and Hawaiian honeycreeper,BL5 1ET,53.543740260000000,-2.471742366000000
Meadowlark and Dolphin,BL8 2RH,53.597411000000000,-2.319459000000000
Marmoset and Masked owl,BL4 8QH,53.539877710000000,-2.374568923000000
Jay and Rat,M46 0RP,53.515644840430600,-2.510504516136270
Crow and Mouse,BL3 3TG,53.561439210000000,-2.457672607000000
Vulture and Fox,BL3 2JU,53.561905150000000,-2.416265890000000
Rat and Flameback,BL2 5PE,53.589332940000000,-2.371290094000000
Puffleg and Capuchin,M29 8JE,53.513089000000000,-2.474448000000000
Triller and Grackle,BL8 4FA,53.615248930000000,-2.346424656000000
Quetzal and Marsh harrier,BL5 2PJ,53.544653430000000,-2.522338046000000
Fish eagle and Tattler,M28 3DF,53.519877857070900,-2.391586159906810
Siskin and Chicken,M28 7GR,53.510085145492800,-2.403679498852050
Ground sloth and Hawaiian honeycreeper,BL2 3ES,53.606622880000000,-2.400262636000000
Thrasher and Guillemot,BL1 7NJ,53.598929910000000,-2.466917584000000
Dolphin and Parrotbill,BL1 1AU,53.579121000000000,-2.425374000000000
Asiatic leopard and Songlark,BL4 9DN,53.544182100000000,-2.397167862000000
Eagle and Diving bird,BL7 0LJ,53.641284680000000,-2.404720214000000
Minke whale and Marsh harrier,BL1 7BN,53.605344670000000,-2.446495488000000
Peafowl and American sparrow,BL5 3BQ,53.555965880000000,-2.495834444000000
Rat and Buzzard,BL6 7TX,53.599676680000000,-2.549264343000000
B and Wallaby,BL3 6TP,53.566199000000000,-2.442384000000000
Booted eagles and Skunk,M38 9NG,53.530090529950100,-2.420162626889670
Diving bird and Songlark,BL6 7ND,53.603781700000000,-2.549846555000000
Towhee and Armadillo,BL5 2EQ,53.533546150000000,-2.523830696000000
Capuchin and Old World quail,M27 5GE,53.503479065694700,-2.340009174292900
Jerboa and Condor,WN2 4GG,53.526277319489500,-2.537362388314540
Mamo and Hawaiian honeycreeper,BL1 7RB,53.608285210000000,-2.421346960000000
Elephant and Old World warbler,M26 3SL,53.555936040947300,-2.342935690678800
Asiatic leopard and Linsang,BL3 4NB,53.569855010000000,-2.475415534000000
Zebra and Prion,M28 1DT,53.507644598370600,-2.423212388914670
Goose and Nukupuʻu,BL5 2QD,53.542751400000000,-2.515312634000000
Grackle and Philippine hawk-owl,BL8 2QY,53.596261180000000,-2.315566813000000
Condor and Hawk,BL5 3UH,53.551061100000000,-2.510100742000000
Stint and Black cockatoo,BL1 9YZ,53.588504000000000,-2.425423000000000
Fox and Wader,M46 0EY,53.529468378357400,-2.502192631950210
Coati and Grackle,M28 7UY,53.511189761385900,-2.411862929141620
Asiatic leopard and Boto,M38 0WH,53.527258000000000,-2.410435000000000
Marsh harrier and Parrotbill,M27 5NT,53.505804707806000,-2.334479369763260
Ice seal and Mamo,BL1 5RT,53.592076630000000,-2.461040507000000
Myna and Magpie,M26 4WN,53.569957050910900,-2.346341015484230
B and Macaw,BL6 6PG,53.585563560000000,-2.541679438000000
Polecat and Kite,BL1 8PN,53.597391990000000,-2.431256353000000
Mole and Pheasant,M26 1GW,53.545570739180300,-2.370604905879230
Meadowlark and Dorcopsis,M28 8FN,53.513067000000000,-2.362206000000000
Egret and Partridge,BL7 0PQ,53.650116330000000,-2.397815367000000
Badger and Tree warbler,M28 3HP,53.522661022514800,-2.384281377266620
American sparrow and Mockingbird,M27 6UN,53.514529529339900,-2.344893000000000
Coati and Old World warbler,BL4 0QD,53.545739930000000,-2.430112066000000
Tattler and Coati,BL3 6JB,53.567122240000000,-2.445141333000000
Fulmarine petrel and Civet,M29 7RE,53.506900240704000,-2.447419745102090
Stilt and Rabbit,BL1 6PW,53.600629420000000,-2.438225319000000
Triller and Egret,M28 7UZ,53.513914886679300,-2.411391724046150
Rat and Partridge,BL5 2BB,53.546276560000000,-2.535382216000000
Cloud rat and Greenbul,BL4 7LE,53.554394880000000,-2.401957961000000
Macaw and Guillemot,M46 9AP,53.517341972568800,-2.478326058458350
Flameback and Black jay,BL2 3QR,53.595067020000000,-2.388413610000000
Meadowlark and Cuscus,BL8 2DE,53.584159530000000,-2.326760000000000
Cuscus and Stilt,M28 7DA,53.519192709950900,-2.397642815934720
Recurvebill and Cloud rat,BL3 4LF,53.559803860000000,-2.464523860000000
Bunting and Black jay,BL3 5NR,53.572282450000000,-2.449710742000000
Fish eagle and Eagle,BL7 9BD,53.620024450000000,-2.431290610000000
Petrel and Viscacha,M26 4PG,53.568294164399300,-2.336920447684550
Fox and Quetzal,BL3 1NH,53.562394090000000,-2.365709514000000
Jay and Masked owl,BL2 6BZ,53.577225300000000,-2.404636360000000
Duck and Vole,BL2 2BU,53.579672920000000,-2.419476343000000
Hawaiian honeycreeper and Mamo,BL1 4BB,53.582266890000000,-2.445345839000000
Chickadee and Zebra,M26 2PH,53.567139892955300,-2.308343858792770
Lemming and Stint,M27 0HA,53.504929923281600,-2.360208828172070
Hawk and Chickadee,BL9 5QW,53.632178320000000,-2.312145141000000
Thicketbird and Darwin's finches,BL2 3PW,53.597940320000000,-2.378119811000000
Piping shrike and Grouse,M29 7AL,53.501927269158400,-2.462202077489420
Songlark and Boto,M29 7TP,53.507641596900000,-2.468702877600000
Asiatic leopard and Rabbit,BL6 6AE,53.596187070000000,-2.535862228000000
Recurvebill and Mole,M28 3TX,53.525370296122700,-2.385904842726870
Moluccan boobook and White ibis,M28 7HE,53.514211324265700,-2.403537774917920
Polecat and Francolin,M26 3WN,53.564968338102600,-2.352550922574210
Fulmarine petrel and Night heron,BL2 5PJ,53.587152840000000,-2.375742410000000
Chickadee and Grouse,M29 8SA,53.513285008491800,-2.460832809213250
Elephant and Capuchin,BL7 0AP,53.645178710000000,-2.393306417000000
American sparrow and Chipmunk,BL2 3AG,53.595817840000000,-2.405917085000000
B and Boto,M27 8UB,53.509355065641800,-2.307758073245650
Egret and Flameback,BL1 5NT,53.587641450000000,-2.468983512000000
Partridge and Fulmarine petrel,M29 8NB,53.526385568855900,-2.452633278704680
Maya and Marmoset,BL7 0QN,53.650534780000000,-2.390844901000000
Kestrel and Egret,BL8 2AR,53.593085060000000,-2.309937949000000
Wader and Cloud rat,BL3 4LB,53.558946630000000,-2.463065228000000
Rat and Siskin,BL3 6AR,53.568425000000000,-2.440245000000000
Petrel and Philippine hawk-owl,M29 7SR,53.506942532254200,-2.457612728468170
Mockingbird and Marmoset,M27 4UN,53.510305083050100,-2.329026129658660
Kite and Kite,BL3 3LB,53.557252760000000,-2.450004121000000
Moluccan boobook and Capuchin,BL7 9EQ,53.620622550000000,-2.432430575000000
Pitohui and Crow,M45 7WQ,53.555246069817100,-2.309208280181960
Parrotlet and Parrotlet,BL1 8PE,53.598897120000000,-2.432616520000000
Piping shrike and Tit-tyrant,BL3 4AB,53.567200670000000,-2.448207283000000
Pheasant and Jay,M26 3DG,53.563154000000000,-2.329661000000000
Mink and Goose,BL1 7JG,53.608037100000000,-2.430442930000000
Rabbit and Ground sloth,BL5 2JD,53.539007350000000,-2.528771938000000
Goose and Booted eagles,BL7 8BR,53.639727850000000,-2.493791731000000
New World blackbird and Tit-tyrant,BL1 7BH,53.606367010000000,-2.444707817000000
Jerboa and Prion,BL3 3SY,53.558490330000000,-2.460191994000000
Greenbul and River dolphin,BL1 8LH,53.594537670000000,-2.430154539000000
Minke whale and Siskin,BL11 1BH,53.572026719678200,-2.425139238112670
Moluccan boobook and Fish eagle,BL4 8SH,53.534290490000000,-2.364697691000000
Wader and Puffleg,M28 1FB,53.503004582000600,-2.416095359999890
Parrotbill and Peafowl,BL3 3HL,53.556030480000000,-2.442745466000000
Pheasant and Darwin's finches,BL1 4LH,53.576984950000000,-2.446891174000000
Old World quail and Parakeet,BL9 9UG,53.581040000000000,-2.309848000000000
Siskin and Rat,BL1 3PF,53.593018200000000,-2.440155923000000
Greenbul and Jay,WN7 2YF,53.505692057958500,-2.483004479146750
Dorcopsis and Grosbeak,BL4 8EF,53.536885170000000,-2.365670566000000
Linsang and Polecat,M46 9NP,53.532666391030800,-2.489648027652420
Jackal and Myna,BL6 4AP,53.581453560000000,-2.519922026000000
Asiatic leopard and Tit-tyrant,M46 0HS,53.530403125825800,-2.500061472468940
Thrasher and Vole,BL1 6DZ,53.591194680000000,-2.451905853000000
Marsh harrier and Solitaire,WN7 5NJ,53.512587062653900,-2.529483332213130
Boto and Argus,BL8 3DT,53.606455310000000,-2.328398297000000
Shearwater and Old World quail,M29 8QU,53.514718000000000,-2.467031000000000
Darwin's finches and Wallaby,BL2 2QD,53.584957790000000,-2.409181470000000
Mouse and Capuchin,BL4 7PH,53.551736680000000,-2.395865124000000
Towhee and Vulture,WN2 4AU,53.528393751792800,-2.547481638088740
Marmoset and Crow,BL1 7QU,53.603854000000000,-2.455439000000000
Darwin's finches and Linsang,BL7 9NF,53.615801120000000,-2.410522873000000
Night heron and Goose,BL4 7PY,53.555050000000000,-2.397177349000000
Stint and Bunting,BL1 6DJ,53.588605970000000,-2.454295302000000
White ibis and Recurvebill,BL8 3NL,53.614792670000000,-2.339407067000000
Pheasant and Vole,M38 0DU,53.531967607438400,-2.435644975086700
Snipe and Old World warbler,M28 1ED,53.505846785922100,-2.410363680195180
Stilt and Tahr,M26 1QX,53.551547000000000,-2.318418000000000
Piping shrike and Perching duck,M27 4FH,53.506105000000000,-2.320475000000000
Cuscus and B,BL7 0EB,53.636586000000000,-2.399110000000000
Tree warbler and Vole,BL3 1FW,53.564055000000000,-2.380427000000000
Asiatic leopard and Scimitar babbler,BL1 8UR,53.597934920000000,-2.414988327000000
Meadowlark and Parakeet,BL3 5LJ,53.568521280000000,-2.443570574000000
Magpie and Magpie,WN7 1NT,53.505486285513200,-2.517136992320150
Boto and Marmoset,M28 1BL,53.507304431444800,-2.427868048113300
Moluccan boobook and Myna,BL4 7TF,53.553765000000000,-2.397075247000000
Minke whale and Nukupuʻu,BL3 1DP,53.565734890000000,-2.381018112000000
Parrotbill and American sparrow,BL7 8BL,53.639197560000000,-2.476166000000000
Partridge and Grackle,BL8 4QB,53.624128430000000,-2.340479901000000
Greenbul and Wallaby,BL6 7AU,53.600793130000000,-2.547042000000000
Meadowlark and Piping shrike,BL1 4LT,53.578084720000000,-2.457927984000000
Bunting and Magpie,M38 9ES,53.537255002948400,-2.414816839547830
Chipmunk and Black jay,M26 1LQ,53.557296589071100,-2.322371463160900
Zebra and Recurvebill,BL3 4AE,53.566240760000000,-2.447713967000000
Kangaroo and Parakeet,M27 4AP,53.509564280411500,-2.333619356076190
New World blackbird and Myna,BL4 0NS,53.546397380000000,-2.432383000000000
Hawaiian honeycreeper and Thicketbird,BL1 7LS,53.606105390000000,-2.430226807000000
Tree warbler and Ice seal,M26 4WQ,53.573160990232500,-2.348028349000640
Old World vulture and Dorcopsis,BL1 3NF,53.590471090000000,-2.433542000000000
Recurvebill and Lemming,BL8 4QN,53.620986510000000,-2.342238552000000
Rabbit and Kite,BL8 4DW,53.626390990000000,-2.334994373000000
Jay and Guillemot,BL8 3HH,53.610766570000000,-2.339178266000000
Kite and Tree warbler,M46 9TD,53.531015810425700,-2.495391941812980
Treepie and Tattler,M46 0QE,53.521307306615300,-2.512669140849010
White ibis and Grackle,BL2 6EU,53.576770390000000,-2.392806740000000
American sparrow and Coati,BL0 9SL,53.632049170000000,-2.333360657000000
Jerboa and Viscacha,M28 3AD,53.524190854879100,-2.400163399229550
Viscacha and Fulmarine petrel,M26 1JP,53.552989000000000,-2.316678000000000
Old World vulture and Ice seal,M27 9GQ,53.518388272509300,-2.356326393031700
Treepie and Jay,M28 7UH,53.513011437655600,-2.410116261165570
Parrotbill and Siskin,BL8 3QY,53.614334000000000,-2.342530000000000
Viscacha and Darwin's finches,BL6 4HZ,53.563231260000000,-2.501641501000000
Parakeet and Black jay,M27 4HL,53.513697586715500,-2.327619824018360
Scimitar babbler and Viscacha,BL3 3RY,53.555633810000000,-2.457383495000000
Partridge and Old World warbler,BL1 2NE,53.584737170000000,-2.433529200000000
Polecat and Jerboa,BL3 2SE,53.564138040000000,-2.425407038000000
Piping shrike and Ibex,M27 9RA,53.517520277613500,-2.355022102876670
Nukupuʻu and Flameback,M28 1HA,53.502961481209100,-2.412974146937510
Chicken and River dolphin,M38 9AJ,53.525098377428200,-2.405587163240890
Condor and Parrotbill,BL2 1LT,53.572517770000000,-2.411839873000000
Vulture and Elephant,BL4 7TP,53.556084600000000,-2.409929134000000
Vulture and Logrunners,WN7 5EZ,53.506219559254500,-2.538344903022590
Songlark and Francolin,M28 7XA,53.509873327757800,-2.410447835672300
Viscacha and Civet,BL1 7PD,53.612647930000000,-2.497677626000000
Pratincole and Asiatic leopard,BL1 2BE,53.580426000000000,-2.430298000000000
White ibis and Goose,BL9 5PN,53.632474780000000,-2.315625475000000
Chicken and Grouse,M28 3YS,53.517391000000000,-2.411997000000000
Pitohui and Philippine hawk-owl,M28 3HF,53.522639848112300,-2.388051999168250
Grackle and Perching duck,M26 4LY,53.583078000000000,-2.343486000000000
Triller and Fish eagle,M27 6HA,53.521445000000000,-2.337602000000000
Towhee and Lemming,BL7 9LE,53.619180000000000,-2.423617338000000
Buzzard and Guillemot,BL6 5QA,53.594818220000000,-2.540438048000000
Fulmarine petrel and Chickadee,BL3 6JL,53.570407490000000,-2.441506486000000
Quetzal and Guillemot,WN7 2UG,53.500743915399500,-2.484109022842840
Black jay and Cloud rat,BL0 9PN,53.639032330000000,-2.330375687000000
New World blackbird and Cloud rat,BL4 8JE,53.538788290000000,-2.380836320000000
Towhee and Grouse,BL5 3QA,53.558240220000000,-2.520965000000000
Ice seal and Diving bird,M46 9QL,53.529641906065600,-2.479641408444300
Hawaiian honeycreeper and Kākāriki,M27 5LP,53.504396734879600,-2.326824364772890
New World blackbird and Shearwater,BL3 1NY,53.559688870000000,-2.359692888000000
Stint and Coati,BL3 4UG,53.567987450000000,-2.479411028000000
Mouse and Philippine hawk-owl,BL4 7SL,53.550310450000000,-2.386735576000000
B and Shearwater,BL3 3AG,53.564179340000000,-2.441290607000000
Cuscus and Tree warbler,BL1 7AL,53.602178780000000,-2.432362951000000
Grosbeak and Thicketbird,BL4 7LJ,53.554453990000000,-2.403090614000000
Mole and B,BL8 4DR,53.623999000000000,-2.335913000000000
Minke whale and Solitaire,BL6 9LL,53.588218000000000,-2.538918000000000
Peafowl and Black jay,M27 5QX,53.501844000000000,-2.342964424441800
Dorcopsis and Darwin's finches,BL1 2EX,53.585050000000000,-2.426946000000000
Civet and Polecat,M45 7RS,53.555822145650700,-2.305393444590220
Snipe and Petrel,M26 1BH,53.553074799676100,-2.324678925809970
Partridge and American sparrow,BL8 1UJ,53.606773190000000,-2.323897035000000
Argus and Elephant,M28 1LT,53.502968346841600,-2.418748431612610
Old World vulture and Capuchin,BL1 8EZ,53.593074370000000,-2.432149078000000
Booted eagles and Flameback,M26 1HQ,53.549083969829300,-2.376748142750180
Grosbeak and Guillemot,BL6 6RS,53.604991000000000,-2.522962000000000
Ice seal and Pheasant,BL1 5BF,53.578980560000000,-2.465685687000000
Hawaiian honeycreeper and Piping shrike,M27 5UF,53.510161010392000,-2.338765916595350
Jay and Solitaire,BL3 5ES,53.569047170000000,-2.442337897000000
Rabbit and Egret,BL6 5NE,53.594769680000000,-2.547160948000000
B and Warbler,BL7 9AB,53.610612000000000,-2.414312000000000
American sparrow and Minke whale,BL0 9XP,53.640591470000000,-2.328860227000000
Darwin's finches and Diving bird,BL5 2QU,53.537505040000000,-2.533098735000000
Elephant and Cuscus,BL0 9JY,53.641602610000000,-2.320594377000000
Mamo and Moluccan boobook,BL1 4JL,53.585768790000000,-2.451092649000000
Coati and Mouse,BL3 1LS,53.560523480000000,-2.368969357000000
Meadowlark and Kite,BL2 2UW,53.588614280000000,-2.414912058000000
Zebra and Masked owl,M26 3GF,53.564705789200500,-2.343942765105380
Chicken and Prion,M27 8RB,53.521548698374700,-2.329354637982080
Jackal and Egret,BL0 9HF,53.646334240000000,-2.325834092000000
Maya and Black cockatoo,BL6 6HS,53.585801830000000,-2.524522268000000
Treepie and Goose,BL1 1NJ,53.576657300000000,-2.428356946000000
Fox and Wallaby,M27 8TQ,53.509472215408200,-2.314544267417940
Mockingbird and Tree warbler,M46 0DL,53.523190403560000,-2.496703356213460
Fish eagle and Old World vulture,M29 8WS,53.513699000000000,-2.446692000000000
Guillemot and Shearwater,M26 2XA,53.570034935190700,-2.314933470017900
Magpie and Kestrel,BL0 9FS,53.649387764276400,-2.315101626941350
Chickadee and Dolphin,M28 7UB,53.512973462774300,-2.405441145917910
Quetzal and Triller,BL1 1DW,53.578163490000000,-2.426922289000000
Booted eagles and Night heron,BL2 6PH,53.584284820000000,-2.387242216000000
Siskin and Myna,BL5 2QH,53.544010010000000,-2.513169926000000
Ibex and Chipmunk,M28 0SX,53.524658826529800,-2.413200373777680
Black cockatoo and Petrel,BL8 9ZZ,53.592627000000000,-2.310206000000000
Eagle and Warbler,BL8 1NN,53.597754890000000,-2.314943335000000
Stint and Flameback,WN7 5PQ,53.518003859145200,-2.534256387640720
Egret and Vulture,BL3 1UB,53.563789740000000,-2.382163157000000
Tit-tyrant and Egret,M27 5TT,53.510161010392000,-2.338765916595350
Fish eagle and Thrasher,BL1 3AE,53.583576380000000,-2.443682959000000
Vole and Old World vulture,BL1 3QH,53.589823000000000,-2.431481383000000
Marsh harrier and Cuscus,BL1 7ND,53.600792340000000,-2.471033249000000
Crow and Pratincole,WN7 5PL,53.517679917766500,-2.532321867754420
Meadowlark and B,BL4 9BA,53.543795770000000,-2.394402630000000
Kite and Condor,BL2 2PB,53.589638080000000,-2.409951851000000
Fulmarine petrel and Petrel,BL8 3BD,53.602530900000000,-2.340185000000000
Parrotbill and Viscacha,BL3 2DB,53.561901030000000,-2.430125114000000
Petrel and Towhee,BL4 8JB,53.539270850000000,-2.381715825000000
Buzzard and Cuscus,M28 3LH,53.525510502910900,-2.395258369554050
Hawk and Stilt,BL1 8JU,53.595472150000000,-2.430239582000000
Logrunners and Stint,M27 6PB,53.520632118668600,-2.335727427512670
Coati and Gull,BL2 6NL,53.574583260000000,-2.385431909000000
Grouse and Polecat,BL1 3EX,53.592369330000000,-2.450271609000000
Condor and Songlark,BL1 7HB,53.609279780000000,-2.432299500000000
Crow and Condor,M27 0DS,53.502287428078100,-2.363141311046630
Perching duck and Scimitar babbler,BL8 1TJ,53.603211360000000,-2.321482080000000
Eagle and Thicketbird,M28 3UE,53.525794000000000,-2.382497000000000
Rabbit and Quetzal,BL9 9FY,53.580289000000000,-2.305374000000000
Dolphin and Peafowl,BL1 7PY,53.591621000000000,-2.492112000000000
Logrunners and Civet,BL1 7DL,53.611996650000000,-2.441487024000000
Jerboa and River dolphin,BL0 9JE,53.643603530000000,-2.321880177000000
Parrotlet and Kite,BL1 2UA,53.583005620000000,-2.425475000000000
Kestrel and Jackal,WN7 5PZ,53.522786182023500,-2.526050886956770
Polecat and Piping shrike,WN7 1HL,53.501834017216800,-2.503086970709180
Myna and Cuscus,BL3 3EA,53.561921140000000,-2.439425225000000
Maya and Macaw,BL2 6BB,53.580701120000000,-2.405424770000000
Diving bird and New World blackbird,BL8 9FT,53.592625960000000,-2.310206533000000
Vulture and Logrunners,WN7 5QN,53.507024146756100,-2.523141603748050
Dolphin and Stint,BL3 6XN,53.570574440000000,-2.435196285000000
Petrel and Peafowl,BL3 3AA,53.564752150000000,-2.439514977000000
Siskin and Quetzal,M27 6DJ,53.515999771913800,-2.333700105945670
Moluccan boobook and Peafowl,BL7 9RX,53.620907320000000,-2.433219638000000
Old World warbler and Scimitar babbler,M27 9UH,53.515457712728700,-2.350359997801130
Towhee and Buzzard,M28 3AL,53.520273332607700,-2.399734315405970
Piping shrike and Dolphin,M28 0HW,53.523049257399600,-2.415975132420700
Coati and Cloud rat,M27 4LY,53.513424000000000,-2.332504000000000
Mockingbird and Kite,M27 6LH,53.527602353600000,-2.346839890241320
Peafowl and Coati,BL7 8AR,53.640797450000000,-2.495967168000000
Duck and Thrasher,M38 9NU,53.532852597463000,-2.421970239004470
Magpie and Mink,M46 0HR,53.530028105966200,-2.501610905067410
Fulmarine petrel and Vulture,BL2 6NN,53.575018630000000,-2.384212618000000
Crow and Myna,BL3 4RR,53.558433180000000,-2.485990494000000
Magpie and Greenbul,BL3 4EH,53.563595880000000,-2.455461417000000
Tree warbler and Siskin,BL2 6NS,53.578019600000000,-2.387199000000000
Thrasher and Tree warbler,BL1 8QU,53.603017060000000,-2.431706594000000
Old World quail and Guillemot,BL8 4DA,53.625097390000000,-2.328255838000000
Egret and Ibex,M26 1DF,53.548438446416500,-2.330635093493230
Chickadee and Warbler,BL8 9TQ,53.592643000000000,-2.310205000000000
Maya and Grackle,BL6 6FA,53.587774820000000,-2.533655946000000
Chicken and Stint,BL4 9ED,53.547280310000000,-2.400698234000000
Chicken and Moluccan boobook,BL2 4JF,53.595973900000000,-2.372088000000000
Kākāriki and Mole,BL3 4JY,53.562494670000000,-2.463677703000000
Chickadee and Dorcopsis,BL5 2PZ,53.542482620000000,-2.525435020000000
Zebra and Perching duck,BL6 4JZ,53.580552000000000,-2.497598838000000
Triller and Grouse,BL1 5AZ,53.580235580000000,-2.484624551000000
Wader and Chipmunk,BL5 2NW,53.542329050000000,-2.519442253000000
Peafowl and Ice seal,M27 5NR,53.505950133540500,-2.337103966506590
Asiatic leopard and Meadowlark,BL2 2QH,53.584462730000000,-2.409388159000000
Puffleg and Dorcopsis,M28 2WB,53.499857431788100,-2.372904309039120
Francolin and Rabbit,M28 1HR,53.501816578054400,-2.429229889116190
Prion and B,M29 7GB,53.505564761081700,-2.455924308011930
Mockingbird and Kestrel,M26 4PF,53.568058598197500,-2.337582946995350
Bunting and Magpie,BL4 7BH,53.547838640000000,-2.403057898000000
Night heron and Pratincole,M45 7TP,53.543826591666400,-2.317681438473120
Mink and Recurvebill,M46 0DT,53.524653227293200,-2.490732116740910
Tit-tyrant and Goose,M28 1DP,53.505101245856400,-2.438068090257560
Macaw and Stilt,M26 3NG,53.565039636959500,-2.349697933844230
Civet and Thrasher,BL6 6ET,53.588129250000000,-2.532784227000000
Night heron and Rat,M46 9EY,53.524241000000000,-2.486202000000000
Macaw and Jackal,BL6 4NH,53.580040230000000,-2.495013689000000
Bunting and Parrotbill,BL1 4EG,53.583293100000000,-2.456851443000000
Bronzewing pigeon and Jackal,BL7 9TB,53.631095100000000,-2.441943553000000
Cuscus and Cuscus,BL8 2JQ,53.584501540000000,-2.333017000000000
Jay and Pitohui,BL1 6EL,53.591417000000000,-2.455232000000000
Songlark and Tattler,M27 5AF,53.508978274594000,-2.334248042469810
Vole and Towhee,M27 5WS,53.505232073841700,-2.333540081337300
Piping shrike and Vulture,WN7 5SS,53.507432103552700,-2.522347498914990
Cuscus and Songlark,BL6 6RQ,53.579248230000000,-2.538910242000000
Wallaby and Songlark,M38 9TB,53.535934000000000,-2.432668000000000
Prion and Perching duck,WN7 5HR,53.510621702825700,-2.540828448683470
Towhee and Gull,BL3 3JH,53.561010430000000,-2.452248175000000
Jackal and Jay,M27 5YW,53.508317310266700,-2.342294568090440
Wader and American sparrow,BL3 2AB,53.569309720000000,-2.424462378000000
Chickadee and Recurvebill,BL5 3ZL,53.556941960000000,-2.511635779000000
Snipe and Badger,BL1 7DJ,53.610967260000000,-2.440327559000000
Rabbit and Mamo,BL1 7NW,53.599821110000000,-2.471158436000000
Peafowl and Tree warbler,BL3 2JR,53.564161000000000,-2.419172000000000
Parrotbill and Diving bird,BL8 2AQ,53.593511720000000,-2.308309362000000
Cuscus and Capuchin,M45 7GG,53.541296223921800,-2.309166892335940
Ibex and Francolin,M26 3UW,53.569225433630500,-2.344462657377730
Condor and American sparrow,M46 9NJ,53.528772433297300,-2.487928599185050
Marsh harrier and Vole,BL7 9UP,53.628845820000000,-2.435191133000000
Wallaby and Tree warbler,BL1 8JQ,53.590943930000000,-2.429710113000000
Asiatic leopard and Francolin,BL8 2EU,53.592740630000000,-2.340725896000000
Myna and Fish eagle,BL8 3GF,53.606838740000000,-2.335972994000000
Petrel and Hawk,M26 1DN,53.548025336588400,-2.334284000000000
Civet and American sparrow,M45 7QJ,53.533166000000000,-2.307886000000000
Pheasant and Mamo,BL3 3QW,53.558051140000000,-2.452805336000000
Dolphin and Thrasher,BL3 2JZ,53.561372600000000,-2.419476329000000
Eagle and Elephant,BL0 9LU,53.642844810000000,-2.309667652000000
Old World quail and Petrel,BL4 9RY,53.546711130000000,-2.424960511000000
Peafowl and Snipe,BL1 5PX,53.586463650000000,-2.487052376000000
Jerboa and Tree warbler,BL8 4EY,53.629316050000000,-2.339992447000000
Parrotbill and Linsang,M38 9SZ,53.535767224521000,-2.433858357708400
Linsang and Meadowlark,BL4 9DQ,53.544675290000000,-2.397519577000000
Maya and Hawk,BL3 2HY,53.558479760000000,-2.419070295000000
Black jay and Jay,BL6 5RB,53.596445380000000,-2.554133042000000
Condor and Myna,BL3 4SW,53.563018010000000,-2.470069740000000
Mockingbird and Parakeet,BL4 8QP,53.537965590000000,-2.370915659000000
Cuscus and Meadowlark,BL5 3DQ,53.547661730000000,-2.520926250000000
Mole and Old World quail,BL2 2PA,53.590433990000000,-2.408509249000000
Parrotlet and Rabbit,M28 3GF,53.535442845312700,-2.400616569690560
Mole and Tattler,M38 9RD,53.533493631991600,-2.426231187090330
Vole and Marmoset,M29 7AS,53.505761980110100,-2.463073067544890
Mamo and Lemming,M26 4HF,53.574256313121600,-2.339082102893970
Condor and Kestrel,WN2 4PT,53.523479137962700,-2.551777095910690
Songlark and Asiatic leopard,BL3 5LP,53.568245340000000,-2.442842909000000
Old World warbler and Towhee,WN7 1NE,53.501521322435100,-2.516953000000000
Tattler and Petrel,M27 6NN,53.533445476019200,-2.352756544026960
Civet and River dolphin,BL0 9LT,53.640885230000000,-2.319968792000000
Armadillo and Grouse,BL1 8HT,53.587515550000000,-2.428270422000000
Ice seal and Cuscus,M28 3YT,53.517391000000000,-2.411997000000000
B and Pratincole,M29 8TD,53.514588632986700,-2.458540000000000
Stilt and Triller,M26 1WT,53.546154001536100,-2.368014248498790
Black jay and Lemming,M46 0RT,53.521895858243800,-2.511665684831710
Mamo and Asiatic leopard,M27 9TE,53.518933000000000,-2.345588606565450
Quetzal and Eagle,BL8 2RX,53.592553520000000,-2.320630597000000
Mole and American sparrow,BL3 2HN,53.561650010000000,-2.417259795000000
Hawk and Towhee,M27 4BR,53.511540859626700,-2.337133286481370
Tahr and Condor,BL11 1AE,53.572021800000000,-2.425138891000000
Solitaire and Grouse,M27 8JA,53.523782899086100,-2.324213379450390
Mouse and Tit-tyrant,BL2 3DR,53.603273000000000,-2.397072000000000
Asiatic leopard and Grosbeak,M46 9PD,53.532648650056900,-2.485182109190830
Greenbul and Darwin's finches,BL4 0NF,53.549683320000000,-2.428310740000000
Night heron and Grosbeak,M28 3SU,53.534053852559400,-2.407347482800980
Chipmunk and Stint,WN7 2UZ,53.502085292632200,-2.488013924802090
Francolin and Treepie,M46 9LB,53.532041956021900,-2.479608196249790
Mouse and Meadowlark,M27 8JD,53.522571654993500,-2.323404714011840
Moluccan boobook and Logrunners,M26 4HY,53.575540137904000,-2.336434421445380
Mockingbird and Snipe,M46 0PB,53.519164826829900,-2.504981559005260
Partridge and Polecat,BL2 4HN,53.594751810000000,-2.383031940000000
Tit-tyrant and Boto,M46 9GS,53.536990891943400,-2.471501325155580
Skunk and Old World warbler,BL7 8AP,53.641216740000000,-2.496728369000000
Parakeet and Myna,BL2 6QQ,53.577636220000000,-2.363576000000000
Eagle and Crow,WN7 2YR,53.506759808168500,-2.479005963711610
Partridge and Old World quail,BL8 2JD,53.585626810000000,-2.335804616000000
New World blackbird and Stint,BL2 2QN,53.587420470000000,-2.409220379000000
Scimitar babbler and Rabbit,BL8 3AU,53.603365430000000,-2.337335710000000
Guillemot and Francolin,M27 0BA,53.505130245178500,-2.350274769682040
Booted eagles and Black jay,BL2 5SF,53.587145400000000,-2.363612062000000
Stint and Egret,M27 9LE,53.511196868888800,-2.353521613430120
Duck and Mink,WN7 5BH,53.501169131917800,-2.534089836783010
Mink and Thicketbird,BL5 1BG,53.549722080000000,-2.468307364000000
Mink and Vulture,M46 0PT,53.518552734472700,-2.509423430168890
Greenbul and Puffleg,BL4 9EZ,53.546544340000000,-2.394971502000000
Grosbeak and Greenbul,M29 8AX,53.516758737944800,-2.468999294419490
Elephant and Black jay,WN7 5PJ,53.517561393882300,-2.532697419941280
Pratincole and Stint,BL0 9AP,53.635853700000000,-2.315877569000000
Chipmunk and Kite,BL5 3RQ,53.545993930000000,-2.528195024000000
Vole and Ibex,BL2 5LS,53.586531630000000,-2.384543689000000
Mockingbird and Mole,BL2 2QY,53.587569000000000,-2.405370000000000
Pitohui and Condor,BL1 2PU,53.582976430000000,-2.438193646000000
Bronzewing pigeon and Prion,BL2 2NQ,53.591559200000000,-2.405377687000000
Towhee and Civet,M29 8PX,53.513213041361500,-2.439373269265860
Booted eagles and Vulture,BL2 2AH,53.584324290000000,-2.418223376000000
Buzzard and Tit-tyrant,M26 1RT,53.546629397216800,-2.368335302493290
Ibex and Night heron,BL6 4RQ,53.573979930000000,-2.486772910000000
Flameback and Hawk,BL1 2DU,53.581666770000000,-2.430038883000000
Wallaby and Perching duck,M29 7DW,53.505335029536600,-2.471119613538960
Asiatic leopard and Cloud rat,M46 9JU,53.529214603300400,-2.483076105193500
Rabbit and Grouse,BL4 7LQ,53.554348470000000,-2.402395262000000
Towhee and Snipe,M26 3BW,53.560332427400000,-2.334895000000000
Stint and Capuchin,BL7 9HQ,53.618166410000000,-2.428081907000000
Grouse and Prion,WN2 4GD,53.524752377091300,-2.538806000000000
Hawaiian honeycreeper and Linsang,BL2 5AD,53.589807410000000,-2.394347783000000
Thicketbird and Thrasher,BL1 9SH,53.578230570000000,-2.430774245000000
Grosbeak and Solitaire,M28 3WT,53.523378398246200,-2.390351448175900
Viscacha and Stilt,M45 7JL,53.546008328642300,-2.311781909524660
Ibex and Fox,BL4 0DU,53.553290200000000,-2.414852995000000
Puffleg and Tattler,BL2 6RT,53.573171000000000,-2.363084000000000
Coati and Meadowlark,BL1 7HQ,53.609992600000000,-2.436493471000000
Bronzewing pigeon and Magpie,BL1 8JH,53.590821240000000,-2.428832630000000
Kestrel and Civet,BL8 2PR,53.591219460000000,-2.318686713000000
Stilt and Siskin,M27 9UD,53.520689723452800,-2.347024705798220
New World blackbird and Night heron,BL8 3HE,53.606256150000000,-2.325631071000000
Mamo and Thrasher,M28 1UU,53.500916416898600,-2.414326135814840
Pheasant and Goose,BL4 7ED,53.552153000000000,-2.400593000000000
Kākāriki and B,M38 0EW,53.524875614176900,-2.433203960448410
Marsh harrier and Linsang,BL1 7NA,53.599967230000000,-2.470570740000000
Mole and Perching duck,BL2 3PU,53.597751790000000,-2.380883255000000
Chicken and Scimitar babbler,BL3 3SP,53.556825510000000,-2.460702259000000
Civet and Old World warbler,M28 0HF,53.524378797197900,-2.423861957040700
Elephant and Grosbeak,M29 8BL,53.517491315763400,-2.470138499421850
Egret and Pheasant,BL4 8DL,53.544147090000000,-2.380084000000000
Elephant and Black jay,BL1 6BS,53.591631380000000,-2.452892525000000
Pratincole and Bunting,M27 4BJ,53.512338016841500,-2.334938000595650
Black jay and Duck,BL0 9QG,53.638703270000000,-2.332354437000000
Jay and Piping shrike,BL6 7NZ,53.598142610000000,-2.548624914000000
Bunting and Towhee,BL1 7DZ,53.608868520000000,-2.439096593000000
Hawk and Myna,BL3 1QF,53.569198850000000,-2.371355189000000
Marmoset and Marmoset,M29 8EZ,53.519995984058000,-2.468642924899520
Jay and Songlark,BL2 1AL,53.578298480000000,-2.416683763000000
Moluccan boobook and Songlark,BL3 1TD,53.556071170000000,-2.375723404000000
Diving bird and Tit-tyrant,BL3 5AS,53.571939030000000,-2.442987228000000
Herring gull and Prion,BL1 3TS,53.590746350000000,-2.439558214000000
Condor and Songlark,BL2 5HD,53.588192700000000,-2.382292791000000
Old World quail and Pitohui,M29 8JX,53.513399255443400,-2.475265628585010
Armadillo and Bunting,BL1 2EF,53.581995760000000,-2.428531784000000
Perching duck and Bunting,BL1 7DP,53.611966280000000,-2.442408728000000
Meadowlark and Goose,WN2 4HU,53.532778037416400,-2.552682550392670
Flameback and Jackal,M46 0HF,53.528142079347900,-2.494770063658830
Greenbul and Macaw,BL4 9AF,53.547525701401700,-2.393230253943390
Rabbit and Zebra,M28 0JX,53.524040992623000,-2.420253561267110
Skunk and Fulmarine petrel,BL8 2NQ,53.589708030000000,-2.322557855000000
Gull and American sparrow,BL5 1DU,53.545145950000000,-2.473131314000000
Moluccan boobook and Cuscus,BL1 5HT,53.580620770000000,-2.466881830000000
Zebra and Eagle,M29 7RB,53.504765411854000,-2.453397875608240
Stilt and Francolin,M28 1SA,53.508589844242600,-2.432841759212440
Elephant and Rat,M27 9QT,53.519594040323800,-2.355884052905490
Rabbit and Peafowl,M28 7DP,53.518963126952200,-2.396403944565810
Towhee and Scimitar babbler,BL2 4DD,53.608410340000000,-2.389745226000000
Parrotlet and Goose,BL1 8PP,53.597958810000000,-2.428602752000000
Thicketbird and Viscacha,M45 7WL,53.552185849962500,-2.303827680892500
Greenbul and Zebra,BL1 4DQ,53.578802380728300,-2.435568096489670
Mamo and Polecat,M27 0WE,53.513482035654500,-2.343557696868390
Moluccan boobook and Pratincole,BL9 0HS,53.593326620000000,-2.303367573000000
Partridge and Herring gull,BL1 8DU,53.594831000000000,-2.431428127000000
Tattler and Argus,BL8 4DN,53.624064000000000,-2.334915000000000
Logrunners and B,BL0 0BZ,53.645552580000000,-2.305270409000000
Linsang and Greenbul,M46 9PQ,53.532093205992100,-2.497848564564200
Jay and Herring gull,BL1 5SF,53.592129200000000,-2.479669293000000
Mamo and Cuscus,BL5 3TR,53.552361250000000,-2.525361227000000
Hawaiian honeycreeper and Asiatic leopard,BL1 9YX,53.588504000000000,-2.425423000000000
Mole and Parrotlet,BL3 4DW,53.563953440000000,-2.455978592000000
Eagle and New World blackbird,BL7 9EU,53.622116510000000,-2.429406991000000
Duck and Black jay,M27 8JH,53.522363660435200,-2.320537334654190
Mole and Mink,BL1 6EE,53.591671160000000,-2.454252658000000
Viscacha and Pheasant,BL7 0HF,53.629144610000000,-2.419483249000000
Mockingbird and Egret,WN2 4SQ,53.524802176917900,-2.552353000000000
American sparrow and Greenbul,M46 9HG,53.530001932682000,-2.472751211926290
Macaw and Night heron,WN7 5ND,53.511445201020900,-2.527523853858330
Cloud rat and Parrotlet,BL2 6DL,53.578745600000000,-2.396208183000000
Marsh harrier and Songlark,BL1 7BZ,53.611210180000000,-2.445121490000000
Pratincole and Eagle,BL3 3LY,53.560596630000000,-2.454704536000000
Francolin and Armadillo,BL2 5HL,53.587776040000000,-2.388573000000000
Viscacha and Night heron,M46 0BX,53.522744887084700,-2.493590970463330
Mamo and Treepie,BL4 7TY,53.555174680000000,-2.407912720000000
Armadillo and Diving bird,M27 8RS,53.519621996462900,-2.317243796695630
Cuscus and Civet,BL2 3AX,53.595331000000000,-2.406350581000000
Old World quail and Thrasher,WN7 5AZ,53.499968585340500,-2.531195359310580
Hawk and River dolphin,BL1 1LE,53.577503000000000,-2.428320000000000
Old World vulture and Elephant,BL2 5DJ,53.590054810000000,-2.392914899000000
Stilt and Old World vulture,M27 8UL,53.511814488627600,-2.322674331088630
Skunk and Mouse,BL1 2JY,53.586556970000000,-2.434862059000000
Black jay and Ibex,BL3 4TB,53.564230260000000,-2.472649865000000
Viscacha and Bunting,M27 8JJ,53.523300659284300,-2.319714823571840
Fulmarine petrel and Egret,M26 4GY,53.575827375689400,-2.336572622876320
Parrotlet and Snipe,BL4 7NH,53.555739840000000,-2.410861692000000
Pratincole and Mamo,WN7 1TN,53.509125719089700,-2.517347180232270
Parakeet and Jay,BL5 3PB,53.560747190000000,-2.529496046000000
Cloud rat and Bunting,BL2 3JA,53.602849990000000,-2.388696623000000
Marsh harrier and Tattler,M29 8FD,53.514914549201900,-2.462479199165330
Booted eagles and Minke whale,BL1 8RY,53.605307820000000,-2.416724000000000
Egret and Egret,BL4 8BT,53.547161480000000,-2.382088707000000
Partridge and Flameback,BL7 9UW,53.628623430000000,-2.434553759000000
Bronzewing pigeon and Pheasant,BL1 3LE,53.593496300000000,-2.449361978000000
Myna and Masked owl,BL5 3ZF,53.557335990000000,-2.509874342000000
Rabbit and Logrunners,BL2 1BZ,53.576471270000000,-2.422540629000000
Piping shrike and Tree warbler,BL4 8AN,53.547501930000000,-2.390769728000000
Eagle and Grosbeak,BL2 4DT,53.608506540000000,-2.390562260000000
Night heron and Maya,M26 2QS,53.565901521154400,-2.304046840465630
Jay and Kangaroo,BL7 9BL,53.615173200000000,-2.420508607000000
Ibex and Boto,BL1 5NA,53.587223880000000,-2.463117647000000
Gull and Kākāriki,BL3 4RW,53.561644150000000,-2.467427592000000
Moluccan boobook and Bronzewing pigeon,BL3 1UQ,53.562469310000000,-2.381894591000000
Bronzewing pigeon and B,M46 9QU,53.533375340545100,-2.496460507309490
Tahr and Triller,BL6 5QE,53.598100340000000,-2.549999397000000
Solitaire and Songlark,M28 8AT,53.513050000000000,-2.362208000000000
Gull and Jackal,BL7 9BY,53.617024070000000,-2.423263170000000
Ice seal and Petrel,BL1 3XQ,53.588962670000000,-2.445491809000000
Vole and Asiatic leopard,BL3 3JN,53.561870600000000,-2.448196197000000
Prion and Mamo,BL3 2JE,53.557877510000000,-2.419079435000000
Fulmarine petrel and Thrasher,BL3 1HY,53.563729530000000,-2.369872953000000
B and Masked owl,BL3 5ED,53.573670130000000,-2.443971825000000
Chicken and Black cockatoo,BL2 3JG,53.601883200000000,-2.387478824000000
Skunk and Jay,BL3 4QB,53.572168620000000,-2.469959863000000
Warbler and Mockingbird,BL3 4XH,53.560293750000000,-2.472545574000000
Scimitar babbler and Old World warbler,M27 0AS,53.503714795989900,-2.351725515009260
Treepie and Prion,BL2 4AA,53.606025530000000,-2.396100921000000
Fulmarine petrel and Cloud rat,BL3 6YH,53.567729160000000,-2.431603618000000
Vole and Vulture,BL1 2RY,53.584069050000000,-2.424338434000000
Kestrel and Tattler,BL5 3UJ,53.552907690000000,-2.509172034000000
Fish eagle and Prion,M28 2RA,53.511821759103300,-2.381227682191820
Goose and Vulture,BL8 1HX,53.608569970000000,-2.314117035000000
Fulmarine petrel and Condor,BL1 8UJ,53.600383870000000,-2.416387441000000
Petrel and Polecat,M27 8BJ,53.515050730346200,-2.325835686473760
Songlark and Perching duck,BL4 9NX,53.544710270000000,-2.405835105000000
Guillemot and Jackal,BL2 6QF,53.580353360000000,-2.374247211000000
Linsang and Jay,BL4 7HT,53.555581370000000,-2.415101846000000
Dorcopsis and Diving bird,M46 0TU,53.526042000000000,-2.493825000000000
Nukupuʻu and Philippine hawk-owl,M38 9AQ,53.536104000000000,-2.422589000000000
Snipe and Hawaiian honeycreeper,BL5 3DY,53.552329450000000,-2.516153559000000
Bunting and Fox,BL7 9YL,53.611315650000000,-2.407985386000000
Myna and Booted eagles,BL6 6RH,53.585737200000000,-2.533041138000000
Pratincole and Treepie,BL8 1DT,53.603801960000000,-2.312298398000000
Armadillo and Lemming,BL8 3HB,53.610304530000000,-2.337285254000000
Rat and Booted eagles,BL8 3HT,53.608912840000000,-2.343077915000000
Old World quail and Old World warbler,WN7 5LG,53.510192253691000,-2.538395270921130
Elephant and Shearwater,BL2 2DP,53.587179860000000,-2.413840562000000
Siskin and Gull,M26 2GN,53.570109867759500,-2.303337146576890
Capuchin and Black cockatoo,M28 3WA,53.527830125951900,-2.386832323273190
Macaw and Duck,BL2 1DU,53.571250380000000,-2.422548000000000
Night heron and Recurvebill,BL0 9RG,53.633091360000000,-2.333520105000000
Macaw and Fish eagle,M46 9WN,53.531383696918300,-2.488999593682150
Hawaiian honeycreeper and Polecat,M28 0JF,53.521911000000000,-2.425617000000000
Zebra and B,BL7 9SZ,53.630623480000000,-2.440653272000000
Vulture and Partridge,M28 3BL,53.522374869203900,-2.397567052441840
Greenbul and Philippine hawk-owl,BL2 6SA,53.576267800000000,-2.392575543000000
Magpie and Songlark,BL5 3PA,53.560300080000000,-2.526939111000000
Stint and Diving bird,M46 0AL,53.522393162339500,-2.496045446432780
Coati and Grouse,M27 9TJ,53.516455791675500,-2.344049281918150
Solitaire and Mouse,M27 8GW,53.518004979671900,-2.323611214740740
Greenbul and Macaw,BL4 9BD,53.544326410000000,-2.391570464000000
Rat and Ground sloth,BL9 9LN,53.579352530000000,-2.305819907000000
Chickadee and American sparrow,BL4 7BJ,53.547713530000000,-2.405501641000000
Thicketbird and Meadowlark,M27 6PU,53.527959803964600,-2.341321657343940
Civet and Nukupuʻu,BL1 3EJ,53.590345710000000,-2.448210586000000
Diving bird and Magpie,M26 4UG,53.568763447031600,-2.329797152308420
Maya and Mink,BL2 6AH,53.580432350000000,-2.410436669000000
Philippine hawk-owl and Zebra,BL3 4SR,53.558174300000000,-2.489957761000000
Pheasant and Rat,M29 7BE,53.503468264575800,-2.458841715136530
Scimitar babbler and Herring gull,BL4 7UG,53.548564170000000,-2.406460604000000
Eagle and Minke whale,M27 6PR,53.529018038985900,-2.342159874628500
Tahr and Cuscus,BL6 4LW,53.583868090000000,-2.520691823000000
Fox and Bronzewing pigeon,M26 3DT,53.563258687559100,-2.331203675118560
Kite and B,BL7 8BH,53.641723570000000,-2.484921100000000
Chipmunk and Hawaiian honeycreeper,BL2 3HQ,53.604068250000000,-2.398152975000000
River dolphin and Fox,BL4 7AL,53.549195060000000,-2.397939275000000
Rabbit and Fox,BL0 9JD,53.643939630000000,-2.320566735000000
Myna and Thicketbird,BL6 5TQ,53.596763860000000,-2.545464216000000
Siskin and Towhee,M29 7WR,53.508711520100900,-2.455716843629330
Peafowl and Mamo,BL1 8HJ,53.591521420000000,-2.426573554000000
Kestrel and Coati,BL8 2BL,53.589791480000000,-2.314853858000000
Kangaroo and Scimitar babbler,BL5 2HG,53.536572120000000,-2.522495029000000
Armadillo and White ibis,BL2 2LQ,53.589533090000000,-2.411733470000000
Logrunners and Moluccan boobook,M27 5LW,53.504894341648600,-2.325637118208620
Tit-tyrant and Ice seal,BL5 2LT,53.533983120000000,-2.522568753000000
Vole and Kestrel,BL8 2ES,53.592468790000000,-2.341494220000000
Mockingbird and Jerboa,M28 1NH,53.503560429752200,-2.416507871934960
Flameback and Tattler,M46 9EX,53.523435076066100,-2.487490140517340
Myna and Parrotlet,BL1 6LX,53.596405540000000,-2.459606926000000
Shearwater and Macaw,M29 7DS,53.500777944670700,-2.454862859810250
Old World warbler and Recurvebill,BL4 7JZ,53.555536520000000,-2.401350000000000
Rabbit and Armadillo,BL3 3HJ,53.557199730000000,-2.444961635000000
Civet and Kite,M27 5LE,53.505049112596400,-2.325291000000000
Egret and Minke whale,M6 7LQ,53.502215004342000,-2.305520300431200
Badger and Lemming,BL1 6EQ,53.590623060000000,-2.453319854000000
Petrel and Tahr,BL5 1EU,53.543221390000000,-2.471117879000000
Francolin and Bunting,M38 9PD,53.530298206180400,-2.417328516966850
Piping shrike and Old World warbler,WN7 5RJ,53.506945998138700,-2.526608527450210
Vulture and Wader,BL3 2JY,53.561183160000000,-2.417104228000000
Duck and Mockingbird,BL4 0RP,53.544117430000000,-2.423847971000000
Rabbit and Masked owl,M28 0YB,53.524536511816800,-2.425009912603570
Treepie and Nukupuʻu,BL2 2RZ,53.588238070000000,-2.404031607000000
Hawaiian honeycreeper and Old World vulture,BL8 4JU,53.632706580000000,-2.372533031000000
Black cockatoo and Scimitar babbler,BL3 1RP,53.567069000000000,-2.404766000000000
Greenbul and Stint,BL8 1LS,53.599187490000000,-2.313624277000000
Magpie and Night heron,BL1 2SG,53.584444450000000,-2.424931302000000
Mink and Polecat,M46 9JF,53.526969467741500,-2.487017860257280
Darwin's finches and Fulmarine petrel,M29 7DN,53.504832825401100,-2.470827579367090
Goose and Minke whale,BL0 9XB,53.625330600000000,-2.325142967000000
Myna and Grouse,BL3 5QL,53.569719890000000,-2.457052359000000
Parrotbill and Eagle,M26 4WR,53.570459160797800,-2.346767928092730
Magpie and Buzzard,BL3 4NE,53.568300340000000,-2.470792727000000
Boto and Philippine hawk-owl,BL5 3SG,53.552141320000000,-2.524271746000000
Civet and Wader,M45 7BX,53.546566647274800,-2.304406163224940
Thicketbird and Petrel,WN7 1RW,53.501292516057800,-2.520387519913850
Wader and Asiatic leopard,M28 7DX,53.518687222791100,-2.400971170299830
Duck and Fish eagle,BL0 9LW,53.641262000000000,-2.320243905000000
Treepie and White ibis,BL1 6HS,53.593855450000000,-2.458929563000000
Pratincole and Philippine hawk-owl,BL6 7HN,53.604528590000000,-2.539791325000000
Towhee and Kākāriki,BL3 6NJ,53.566736500000000,-2.427697973000000
New World blackbird and Pheasant,BL6 6ND,53.590779750000000,-2.531004671000000
Marmoset and Fox,M26 1QU,53.546069720987300,-2.363244579849340
Stint and Old World vulture,BL6 7NN,53.606009630000000,-2.544208115000000
B and Towhee,BL1 2HZ,53.587307550000000,-2.431123407000000
Pratincole and Stilt,BL4 7RB,53.550445790000000,-2.392094876000000
Perching duck and Bunting,BL8 2NR,53.590202590000000,-2.315748245000000
Lemming and Old World vulture,M28 3EU,53.536836460824000,-2.400493938631290
Parakeet and Argus,M28 1JN,53.502551900901400,-2.424684325307110
Ice seal and Herring gull,BL3 2RU,53.566164860000000,-2.416488926000000
Marsh harrier and Siskin,BL1 4LX,53.578483500000000,-2.459412406000000
Petrel and Dorcopsis,BL3 1NP,53.563121630000000,-2.357095000000000
Puffleg and Jerboa,BL3 6DA,53.572921410000000,-2.427443297000000
Darwin's finches and Flameback,M6 7PS,53.500973187525400,-2.323134658693570
Dolphin and Logrunners,BL8 2TR,53.594077930000000,-2.335055807000000
Shearwater and Linsang,M29 8QG,53.513619017355600,-2.457956000000000
Egret and B,BL1 7RE,53.607105010000000,-2.419566943000000
Kākāriki and Fulmarine petrel,M46 9FB,53.527081341233700,-2.479356020539240
Petrel and Triller,BL1 8RD,53.604660760000000,-2.429532055000000
Stint and Myna,M38 0BN,53.529695368429700,-2.427671432734490
Night heron and Duck,M27 4AN,53.512298975859000,-2.332826554510750
Treepie and Capuchin,M28 1UR,53.499827138793300,-2.419953623950620
Old World warbler and Goose,BL0 9YY,53.636068250000000,-2.312899814000000
Thicketbird and American sparrow,BL4 9NR,53.544024940000000,-2.401165468000000
Civet and Bunting,BL1 6RQ,53.604036650000000,-2.438049037000000
Goose and Skunk,M28 2NY,53.514946000000000,-2.356720000000000
Armadillo and Mouse,M29 8HU,53.512753054375100,-2.470478099784320
Kangaroo and Marmoset,BL3 6BH,53.570943290000000,-2.425112966000000
Buzzard and Warbler,BL3 4UH,53.568183490000000,-2.482070760000000
Mouse and Crow,BL1 6HW,53.592850450000000,-2.456138742000000
Songlark and Mouse,BL1 4EZ,53.586367620000000,-2.454361920000000
White ibis and Civet,BL7 8AB,53.637711760000000,-2.494448769000000
Argus and River dolphin,M27 0YN,53.502790047054400,-2.348295559754820
Tahr and Tattler,M28 3LB,53.525637970260900,-2.397190000000000
Ibex and Puffleg,M26 3GS,53.564869568743000,-2.349454957915770
Partridge and Egret,M27 4DQ,53.513317931100100,-2.325113627414680
Old World warbler and Old World vulture,BL2 1NJ,53.570055640000000,-2.409022410000000
Buzzard and Mouse,BL3 3HQ,53.557023070000000,-2.441699149000000
Mink and American sparrow,M28 7EG,53.516780491412100,-2.387711882543920
White ibis and Tree warbler,BL8 1NZ,53.597178340000000,-2.312007750000000
Booted eagles and Grouse,BL1 3UF,53.591826800000000,-2.434130585000000
American sparrow and Tit-tyrant,M28 1YB,53.500088129826800,-2.412117066740540
Mouse and Old World warbler,BL1 5EB,53.585399490000000,-2.474714000000000
Dorcopsis and Eagle,BL5 3JU,53.557706810000000,-2.509335354000000
Tahr and Peafowl,BL1 1BU,53.579081000000000,-2.429620000000000
Viscacha and Jay,BL3 2BF,53.562915000000000,-2.422766000000000
Booted eagles and Shearwater,WN7 5QR,53.507837232643000,-2.524252320853100
Polecat and Condor,M27 9TT,53.518748006825400,-2.340855431577350
Shearwater and Songlark,BL2 6DQ,53.578992400000000,-2.397675514000000
Diving bird and Duck,M27 8SA,53.513702000000000,-2.323154716177830
Kite and Petrel,BL0 9SB,53.634487870000000,-2.332169000000000
Siskin and White ibis,BL1 1QZ,53.579181120000000,-2.431388050000000
Masked owl and Tree warbler,M26 4AA,53.574698000000000,-2.341183000000000
Towhee and Polecat,BL3 4TG,53.560624780000000,-2.468367448000000
Stilt and Skunk,M28 2FG,53.507411033442400,-2.388787310827140
Perching duck and Polecat,BL7 8BS,53.639567110000000,-2.495710728000000
Booted eagles and Chickadee,BL9 0HH,53.591026000000000,-2.303593000000000
Tattler and American sparrow,WN2 4TY,53.520841720198700,-2.540807839256170
Siskin and Argus,M26 4FF,53.572968467229800,-2.336791520202720
Masked owl and Grouse,BL4 8DP,53.545465900000000,-2.381077396000000
Kākāriki and Elephant,M46 9FR,53.525663105897800,-2.483337360987870
Wader and Pratincole,WN2 4HG,53.525153443070300,-2.549294879619170
Wallaby and Magpie,M28 1HS,53.501916550344400,-2.421165000000000
Kākāriki and Diving bird,M26 3TR,53.569236170239200,-2.359139762767490
Mockingbird and Magpie,BL1 8NE,53.596302040000000,-2.431910064000000
Argus and Night heron,BL1 3SU,53.589831950000000,-2.433974162000000
Wallaby and Thicketbird,BL8 2HT,53.588286040000000,-2.333061206000000
Ice seal and Towhee,BL1 9SJ,53.578230570000000,-2.430774245000000
Crow and Tattler,BL3 4WL,53.562330070555800,-2.465684162436480
Grosbeak and Siskin,BL0 0BA,53.648669260000000,-2.309634719000000
Siskin and Dolphin,M46 0GU,53.522651351768300,-2.505219127033750
Jay and Treepie,BL3 1RY,53.569197810000000,-2.402234305000000
Mink and Songlark,BL2 6HT,53.582950450000000,-2.391262972000000
Vole and Chickadee,BL2 5LY,53.584366770000000,-2.381321719000000
Argus and Moluccan boobook,BL1 3UN,53.591092790000000,-2.433292137000000
Logrunners and Guillemot,M38 9SB,53.538671639862700,-2.426041801017970
Nukupuʻu and Darwin's finches,BL1 7QF,53.606852620000000,-2.447055480000000
Warbler and Macaw,BL8 3PG,53.618523220000000,-2.354750933000000
Buzzard and Masked owl,M27 0EZ,53.504987030179200,-2.359153924470960
Ibex and Old World quail,M28 2JB,53.512119475496700,-2.380763000000000
Logrunners and Nukupuʻu,BL3 1EG,53.559872410000000,-2.378836792000000
Fulmarine petrel and Nukupuʻu,BL5 3SR,53.553234090000000,-2.523092817000000
Tahr and Songlark,M26 2GJ,53.564759513790400,-2.318049773179780
Buzzard and Pitohui,WN7 5QQ,53.504570878650800,-2.523005844439210
Warbler and Stilt,BL1 3JF,53.592794310000000,-2.444791830000000
Marsh harrier and Buzzard,M27 6FS,53.519753712125400,-2.338043137304700
Nukupuʻu and Quetzal,BL3 6RR,53.568658350000000,-2.433153249000000
Egret and Meadowlark,BL9 5NN,53.628996850000000,-2.312000673000000
Kangaroo and Herring gull,BL6 5QS,53.598021760000000,-2.551448955000000
Capuchin and Cuscus,BL4 8QL,53.537729590000000,-2.368755923000000
Minke whale and Polecat,BL6 6DP,53.593241860000000,-2.541188455000000
B and Parrotbill,BL4 8NH,53.540785290000000,-2.377504341000000
Siskin and Flameback,BL5 3DB,53.547460230000000,-2.511385531000000
Quetzal and Polecat,BL3 2LL,53.559269160000000,-2.414368056000000
Crow and Mouse,BL5 2RX,53.539482460000000,-2.537122262000000
Mouse and Recurvebill,BL5 1AH,53.550003620000000,-2.465261682000000
Stilt and Marmoset,M28 3QG,53.529950473321300,-2.398060448405880
Solitaire and Pitohui,M29 7HU,53.500530817270700,-2.446508418032330
Rat and Parrotlet,M28 2GL,53.510952679591700,-2.385954715854670
Asiatic leopard and Coati,WN7 5PG,53.517161481433100,-2.533687773763820
Tattler and Hawk,BL4 7AP,53.548283000000000,-2.396859000000000
Ibex and Zebra,M27 5QJ,53.504179118101700,-2.340376620645070
Bunting and Egret,M27 4JN,53.504158201094900,-2.311821250313250
Nukupuʻu and Chipmunk,BL1 6JZ,53.600634530000000,-2.458443971000000
Coati and Jerboa,BL8 4HN,53.628731700000000,-2.340033110000000
Hawk and Herring gull,BL0 9QJ,53.641709960000000,-2.324119473000000
Cuscus and Pratincole,M46 0NY,53.512835963769700,-2.509445310217170
Coati and Masked owl,BL2 2SR,53.582043800000000,-2.401752152000000
Logrunners and Lemming,M46 9WA,53.527477303061900,-2.476992144640080
Quetzal and Coati,M26 1DY,53.543807139746200,-2.344180653030070
Nukupuʻu and Rat,BL4 8PW,53.535356530000000,-2.368795641000000
Quetzal and Ground sloth,M27 6DP,53.516186283434900,-2.337698021115400
Civet and Black jay,BL3 4YQ,53.588487400000000,-2.425440191000000
Tit-tyrant and Guillemot,BL2 5HJ,53.588109870000000,-2.388470625000000
Treepie and Fox,M26 2XP,53.569574365089900,-2.312332859752170
Jay and Marmoset,BL4 7BB,53.548572570000000,-2.401314148000000
Pitohui and Perching duck,M27 5LR,53.503263719758900,-2.326996559433340
Myna and Quetzal,BL2 5RR,53.587211040000000,-2.353718050000000
Nukupuʻu and Francolin,BL7 9AU,53.614972120000000,-2.408504376000000
Duck and Chicken,BL3 5AJ,53.572790820000000,-2.441123597000000
Viscacha and Linsang,BL1 3UH,53.591704310000000,-2.433207749000000
Eagle and Philippine hawk-owl,M46 9LE,53.528035828333100,-2.478929332300370
Polecat and Nukupuʻu,BL1 8JL,53.593370860000000,-2.429689427000000
Nukupuʻu and Ground sloth,BL3 3RB,53.558357010000000,-2.455103195000000
Snipe and Meadowlark,BL5 1EJ,53.547741000000000,-2.469387000000000
Bunting and Parrotlet,BL3 3QT,53.558027280000000,-2.456714914000000
Jerboa and Moluccan boobook,BL1 8EH,53.593973820000000,-2.431976958000000
Lemming and Fulmarine petrel,BL3 6AB,53.574761260000000,-2.428216955000000
Grouse and Black jay,M27 4HY,53.507018341533800,-2.314556240322640
Duck and Parrotlet,WN7 5JH,53.509992934615800,-2.526646316239990
Peafowl and Lemming,BL6 7EJ,53.602065270000000,-2.543870267000000
Greenbul and Skunk,M38 9TA,53.536462317262200,-2.433035617149260
Skunk and Black jay,M27 4TT,53.508060132421200,-2.331361000000000
Badger and Condor,BL1 6DL,53.589753000000000,-2.453114000000000
Mamo and Myna,BL1 4BP,53.582618780000000,-2.449790302000000
Songlark and Condor,M46 9BF,53.519725861838000,-2.484536656973100
Greenbul and Mouse,BL2 5JN,53.589547000000000,-2.383211446000000
Herring gull and B,BL4 0EG,53.552044240000000,-2.419021763000000
Myna and Eagle,BL1 4NF,53.582557560000000,-2.458807107000000
Peafowl and Marmoset,BL1 1NB,53.577020770000000,-2.429765166000000
Marmoset and Jackal,BL5 1AU,53.548508400000000,-2.477455106000000
Old World vulture and Maya,BL2 3NA,53.600836370000000,-2.388768791000000
B and Treepie,M28 2NL,53.500431000000000,-2.379558000000000
Old World vulture and Logrunners,M27 6TA,53.526825257419100,-2.338868804593050
Siskin and Black cockatoo,BL2 6UB,53.576055000000000,-2.380807609000000
Cloud rat and Boto,M28 7EJ,53.516696609201000,-2.388631066118330
Logrunners and Tahr,M27 8JF,53.521586941627900,-2.321919088955790
Buzzard and Condor,BL9 5PQ,53.632557030000000,-2.315111928000000
Grackle and Black jay,BL3 3PY,53.562167770000000,-2.452819129000000
Parrotlet and Nukupuʻu,BL4 7AD,53.548308740000000,-2.399576026000000
Mole and Tahr,M27 8HT,53.523194249899100,-2.329110993662400
Jerboa and Herring gull,M26 3GU,53.564169728811200,-2.349026441042040
Chickadee and Puffleg,BL5 2QX,53.546162770000000,-2.520439992000000
Siskin and Fish eagle,BL8 3JX,53.607060640000000,-2.340146026000000
Stilt and Peafowl,BL4 9BX,53.542707080000000,-2.383693418000000
Old World warbler and Stilt,M26 4EJ,53.567093865139500,-2.332230197812700
Wallaby and Parakeet,BL1 3HZ,53.588657180000000,-2.443041295000000
Cloud rat and Masked owl,M26 3AW,53.561332162271500,-2.332290695021440
Piping shrike and New World blackbird,BL3 4JD,53.564845080000000,-2.464850895000000
Bronzewing pigeon and Wader,BL5 3QE,53.559761970000000,-2.524622650000000
Chickadee and Macaw,BL5 2SQ,53.538384530000000,-2.531389649000000
Mole and Puffleg,M28 7FP,53.518579984412100,-2.387155212929650
Asiatic leopard and White ibis,BL0 9NA,53.642378760000000,-2.322763273000000
Wader and Vulture,BL3 4HS,53.565378160000000,-2.457141410000000
Ground sloth and Petrel,M28 3AW,53.521859429375700,-2.398497368354680
Myna and Snipe,BL1 4HL,53.583826700000000,-2.451253220000000
Chicken and Francolin,BL8 3QD,53.608096970000000,-2.329559681000000
Partridge and Pitohui,BL6 4LH,53.588664130000000,-2.513242708000000
Parrotlet and Macaw,M26 1FU,53.545789476592400,-2.366592000000000
B and Fox,BL8 2JN,53.585748610000000,-2.334038217000000
Buzzard and Asiatic leopard,BL6 4AU,53.582679380000000,-2.521205871000000
Elephant and Mole,M27 6BQ,53.517466073956300,-2.333274275680570
Skunk and Stilt,BL4 7JS,53.554100810000000,-2.398513638000000
Wallaby and B,BL2 5HE,53.587276980000000,-2.381952184000000
Viscacha and Asiatic leopard,M27 8RX,53.517431503035700,-2.319610277312760
Siskin and Kangaroo,BL3 5JQ,53.571828370000000,-2.446157236000000
Tit-tyrant and Gull,BL5 2AR,53.544127210000000,-2.533619617000000
Prion and Hawaiian honeycreeper,M27 0YL,53.504821937837300,-2.345025461576130
Capuchin and Parrotlet,M27 5GR,53.502044038467500,-2.342063084405330
Jay and Goose,BL2 5EW,53.589954580000000,-2.387822837000000
Fox and Badger,M26 3XH,53.562945179081000,-2.349756134046160
Mink and Hawaiian honeycreeper,BL8 9HB,53.592625960000000,-2.310206533000000
Cuscus and Night heron,BL5 3HY,53.550557180000000,-2.495273108000000
Coati and Minke whale,BL3 4LP,53.557927240000000,-2.466329890000000
Ice seal and Marmoset,M46 9BB,53.521163889229000,-2.484418000000000
Pheasant and Minke whale,BL1 9YW,53.588504000000000,-2.425423000000000
Kangaroo and Parakeet,M28 0BF,53.526559911413500,-2.424728487022870
Goose and Scimitar babbler,BL6 4RW,53.571725990000000,-2.484028870000000
Stilt and Hawk,M26 2GQ,53.564668385783500,-2.318517132290550
Kestrel and Parrotbill,M26 2SU,53.561709008292700,-2.322691881674570
Tit-tyrant and Shearwater,BL4 8DR,53.544688870000000,-2.382338063000000
Asiatic leopard and Songlark,BL8 1QY,53.599689210000000,-2.324341452000000
Scimitar babbler and Philippine hawk-owl,BL1 5JP,53.587405800000000,-2.455536250000000
Grouse and Condor,BL1 8AH,53.593991740000000,-2.439395504000000
Ground sloth and Black cockatoo,BL3 4DD,53.568234860000000,-2.452838674000000
Siskin and Pratincole,BL1 5LN,53.587113680000000,-2.465458000000000
Magpie and Magpie,BL6 6QA,53.596235000000000,-2.497893000000000
Kākāriki and River dolphin,M27 9TH,53.517350653485300,-2.345428939992100
Chickadee and Minke whale,M28 2TQ,53.504255308644100,-2.366279021624020
American sparrow and Rabbit,M27 6PX,53.521221944515800,-2.336938712506490
Linsang and Black jay,BL2 1HF,53.569912370000000,-2.419243785000000
Petrel and Viscacha,BL5 1HH,53.540505070000000,-2.466998408000000
Vole and Thrasher,M28 3NU,53.523588324734300,-2.389372945806660
Condor and Piping shrike,BL2 3AB,53.596349870000000,-2.408052629000000
Armadillo and Rabbit,M28 7AT,53.511072000000000,-2.396057000000000
Jerboa and Francolin,M26 1PL,53.543536298165600,-2.362815426788570
Guillemot and Jay,BL1 8NZ,53.600290000000000,-2.430394000000000
Chipmunk and Bunting,M28 3FX,53.523531185862400,-2.393098064236850
Grouse and Stint,BL2 6PA,53.580694380000000,-2.385729196000000
Mouse and Treepie,BL1 6NZ,53.599248210000000,-2.439858067000000
Puffleg and Maya,M28 3SJ,53.520398600280300,-2.405240595873950
Tahr and Night heron,BL11 1XX,53.572021800000000,-2.425138891000000
Mink and Treepie,M38 0BX,53.529954943535200,-2.427975766979380
Booted eagles and Pitohui,BL1 2RW,53.584685590000000,-2.437818595000000
Civet and Thrasher,M46 9PW,53.531663573246000,-2.495248640361920
Cloud rat and Francolin,M26 2RL,53.566304795478500,-2.318318054414740
Magpie and Tree warbler,BL3 2DG,53.563125470000000,-2.429563831000000
Fulmarine petrel and Parrotbill,M26 4FH,53.571933894609800,-2.337115509997320
Elephant and Gull,BL1 7DX,53.608398930000000,-2.439696272000000
Philippine hawk-owl and Hawaiian honeycreeper,BL8 4AE,53.614952870000000,-2.343111801000000
Chickadee and Ground sloth,BL7 9BU,53.616332900000000,-2.422999269000000
Cuscus and Perching duck,BL1 6RY,53.603104540000000,-2.434850768000000
Greenbul and Grackle,M27 6NR,53.529920606309300,-2.343992539257890
Linsang and Old World quail,M29 8EY,53.520766057906000,-2.469390477409900
Black cockatoo and Mamo,BL3 3LD,53.557627470000000,-2.450747790000000
Ibex and Mouse,BL3 2DF,53.562675630000000,-2.429680051000000
Armadillo and Mamo,M26 3GE,53.568246770076700,-2.344092311882000
Warbler and B,BL6 7TE,53.601118070000000,-2.554405783000000
Myna and Bunting,BL2 6ES,53.575418510000000,-2.388414611000000
Moluccan boobook and Prion,BL2 1LP,53.571147830000000,-2.412913791000000
Fox and Mink,BL3 1TP,53.556540000000000,-2.369886000000000
Mink and Tit-tyrant,BL3 6HU,53.570810110000000,-2.434655092000000
Duck and Coati,BL3 6TF,53.566869270000000,-2.440639168000000
Thicketbird and Parrotbill,BL0 0AX,53.647414530000000,-2.304724143000000
Bronzewing pigeon and American sparrow,M26 4TL,53.563195359528500,-2.328093063895790
Logrunners and Mamo,BL7 0DW,53.644432660000000,-2.396037401000000
Mamo and American sparrow,BL4 0BB,53.547395890000000,-2.414252002000000
Petrel and Scimitar babbler,BL0 9BJ,53.647956200000000,-2.317632152000000
Logrunners and Solitaire,M46 0TY,53.530471000000000,-2.507288000000000
American sparrow and Perching duck,BL1 7AG,53.602884450000000,-2.433579110000000
Chickadee and Grackle,M38 9SD,53.537999263120100,-2.423017299904570
Ice seal and Warbler,BL9 9PP,53.578719960000000,-2.303625378000000
Capuchin and Maya,BL3 3DU,53.561736330000000,-2.435890567000000
Egret and Kestrel,BL4 0JY,53.549156330000000,-2.429890150000000
Booted eagles and Stint,M28 1UY,53.501205292560900,-2.413967138262300
Eagle and Wallaby,BL6 7DE,53.606649210000000,-2.541919124000000
Old World warbler and Thicketbird,BL2 5EN,53.589330280000000,-2.389086104000000
Jerboa and Siskin,BL2 6HX,53.581058650000000,-2.392559543000000
Chipmunk and Moluccan boobook,BL6 6AB,53.598684570000000,-2.540139878000000
Lemming and Fish eagle,WN2 4AY,53.529777677206200,-2.547274000000000
Viscacha and Triller,M27 0FU,53.505891368262300,-2.357322144520550
River dolphin and Treepie,M26 3GR,53.564945950025100,-2.350995612936040
Mamo and Moluccan boobook,BL5 3UD,53.550670310000000,-2.506881169000000
Treepie and Kite,BL2 2PE,53.595242000000000,-2.409039000000000
Kākāriki and Parakeet,M26 4PN,53.567881220158300,-2.336735971255690
Minke whale and Treepie,BL5 2RP,53.534496900000000,-2.532427255000000
Songlark and Dolphin,M27 8TA,53.515457706514300,-2.324918889943550
Fulmarine petrel and Marsh harrier,BL6 7QA,53.600300630000000,-2.552355087000000
Mamo and Songlark,BL2 3JR,53.603204070000000,-2.393112564000000
Flameback and Myna,BL3 4SD,53.558251170000000,-2.484327850000000
Chipmunk and Rat,BL3 1PR,53.560164600000000,-2.362882307000000
Kestrel and Tahr,M28 2RU,53.510205490574500,-2.386174000000000
Chickadee and Mole,BL3 6RN,53.565712670000000,-2.432458795000000
Old World vulture and Cuscus,M27 9RD,53.517971267266300,-2.351451541203700
Ground sloth and Siskin,BL2 3NB,53.600348410000000,-2.389565187000000
Night heron and Jerboa,BL1 5LH,53.585038040000000,-2.463546903000000
Vole and Armadillo,M27 8JU,53.521645050451400,-2.323699308628840
Siskin and Goose,BL2 4NE,53.612124190000000,-2.397427705000000
Pheasant and Parrotbill,M46 9NL,53.529660400330800,-2.488391385182570
Mole and B,BL7 9QR,53.628312980000000,-2.459893275000000
Rat and Petrel,M28 7FG,53.515402556922200,-2.394033184065340
Treepie and Grosbeak,M46 0RB,53.515059845562300,-2.510467000000000
Macaw and B,M28 7LH,53.511454908530900,-2.402636973575720
Condor and Marmoset,BL4 7TH,53.552904380000000,-2.396102440000000
Masked owl and Songlark,M28 1JF,53.500744256544000,-2.422419999350440
Tit-tyrant and Chickadee,M28 7AD,53.510049081855700,-2.398356342483850
Tree warbler and Ibex,BL8 3BX,53.600113450000000,-2.339878620000000
Mockingbird and Puffleg,BL2 3HT,53.605272270000000,-2.392844641000000
Perching duck and Vulture,M27 5TY,53.510161010392000,-2.338765916595350
Linsang and Moluccan boobook,BL7 9QW,53.627656180000000,-2.440970116000000
Ground sloth and Wallaby,M46 0QD,53.522049102023200,-2.513658504338380
Herring gull and Mouse,BL1 5XW,53.578309280000000,-2.491912420000000
Puffleg and Logrunners,BL1 5RB,53.591969910000000,-2.469983269000000
Jerboa and Elephant,M29 8AN,53.514911449702500,-2.467893084690780
Siskin and Scimitar babbler,BL2 3HE,53.604847820000000,-2.390709833000000
Zebra and Flameback,BL8 3JZ,53.606974190000000,-2.342094942000000
Badger and Flameback,BL3 5RD,53.568321620000000,-2.456025605000000
Ground sloth and Black cockatoo,M28 2GW,53.508599478109600,-2.385405583342150
Pitohui and Tit-tyrant,BL4 0BE,53.548091730000000,-2.413172155000000
Vole and Diving bird,M28 0HQ,53.522201148482900,-2.414307676239150
Stint and Dorcopsis,BL8 2LQ,53.591526570000000,-2.324807662000000
Solitaire and Philippine hawk-owl,BL1 2BS,53.581560220000000,-2.432167500000000
Magpie and Ibex,M27 4AY,53.514646625928200,-2.332226668690180
Scimitar babbler and Lemming,BL8 3LP,53.613124970000000,-2.341116845000000
Black jay and Badger,BL1 4NG,53.582597100000000,-2.457871049000000
Wallaby and Recurvebill,M27 8QD,53.518889611230000,-2.325533361603290
Kite and Philippine hawk-owl,BL1 5FS,53.588487400000000,-2.425440191000000
Chipmunk and Mole,M38 9QG,53.532534000000000,-2.413171000000000
Piping shrike and Pheasant,BL5 3SA,53.553236330000000,-2.524632455000000
White ibis and Songlark,M38 9QJ,53.533730716886200,-2.420198683020640
Duck and Peafowl,BL1 2QW,53.586394210000000,-2.440041736000000
Dolphin and Treepie,M27 9GL,53.518424103883200,-2.362344309694250
Treepie and Viscacha,BL3 1EN,53.561302620000000,-2.378502347000000
Cloud rat and Siskin,BL2 6BY,53.579821560000000,-2.402380523000000
Tit-tyrant and Kangaroo,BL4 8AJ,53.547743730000000,-2.391043616000000
Gull and Snipe,BL2 2FQ,53.588631000000000,-2.414910000000000
Jackal and Nukupuʻu,M26 1AT,53.543392214681300,-2.359931885714620
Flameback and Grackle,BL1 6RN,53.605312440000000,-2.438198260000000
Black jay and Perching duck,WN7 2UY,53.502436544888000,-2.485635930628750
Armadillo and Fish eagle,M38 9WE,53.528716906287500,-2.406707906445470
Flameback and Rabbit,WN7 5PX,53.522348963410800,-2.533436255081540
Siskin and Moluccan boobook,BL1 4PB,53.579850000000000,-2.454866000000000
Egret and Fulmarine petrel,BL8 1TY,53.604479960000000,-2.324347959000000
Logrunners and Diving bird,BL3 4AR,53.565400290000000,-2.448928064000000
Viscacha and Parrotlet,BL5 2EA,53.544920999506500,-2.538142210354470
Jerboa and Stint,M28 1DA,53.504605374443400,-2.423528866014500
Petrel and Vulture,BL3 4SB,53.558206170000000,-2.484342432000000
Macaw and Solitaire,BL5 1DB,53.541334570000000,-2.449925730000000
Stilt and Fish eagle,M27 8RP,53.519605081574200,-2.320214852753400
Dorcopsis and Civet,BL1 5AE,53.580963380000000,-2.475736586000000
Pratincole and Argus,BL3 5QZ,53.568533260000000,-2.459440397000000
Pheasant and Logrunners,BL1 8FS,53.595996980000000,-2.429505000000000
Triller and Bronzewing pigeon,WN7 5JY,53.510489158965800,-2.536333208109600
Mole and Solitaire,M27 5DL,53.502186204735800,-2.345757843019180
Mink and Solitaire,BL1 3LG,53.594903600000000,-2.450389223000000
Badger and Kite,BL6 4JU,53.578695090000000,-2.494257907000000
Dolphin and Ibex,M27 0JH,53.509547087676200,-2.345983659052980
Stilt and Flameback,BL6 4LP,53.584264540000000,-2.518400697000000
Pheasant and Black cockatoo,BL1 3UR,53.588868570000000,-2.439342327000000
Treepie and Buzzard,BL1 4BY,53.581558330000000,-2.447121000000000
Polecat and Black cockatoo,BL1 7PF,53.614159870000000,-2.437398083000000
Mouse and Parakeet,BL5 3SB,53.551670110000000,-2.525141351000000
Snipe and Ibex,M27 0WL,53.509961335431300,-2.342594320619190
Cloud rat and Puffleg,M28 1LF,53.503188208580100,-2.404232000000000
Meadowlark and Coati,M27 5NY,53.502945443144200,-2.331592360074240
Vulture and Warbler,BL7 9HR,53.618099270000000,-2.429260376000000
Cuscus and American sparrow,BL78 1AA,53.554956000000000,-2.403487852000000
Mole and Prion,M28 3RJ,53.532814359688300,-2.401768521224720
Kite and Old World warbler,BL8 2SA,53.592766640000000,-2.324922937000000
Hawk and Goose,BL3 2LD,53.559413820000000,-2.416514000000000
Black jay and Eagle,BL8 1US,53.599245800000000,-2.304981507000000
Petrel and Marmoset,M46 9BN,53.516316139206300,-2.483080114964410
Fox and Snipe,WN7 5RR,53.507469096421400,-2.526207909784140
Ice seal and Viscacha,BL6 7EQ,53.603345260000000,-2.543070665000000
Skunk and Coati,M28 3AJ,53.520716423736000,-2.398939112417590
Peafowl and Ibex,M26 4NT,53.570416572466700,-2.349047714374160
Kestrel and Wader,BL3 6HL,53.570580000000000,-2.434049000000000
Songlark and Mink,BL1 3EY,53.591856770000000,-2.447939535000000
Vulture and Macaw,M27 4JP,53.503918462226600,-2.314126205306550
Crow and Treepie,BL9 0HN,53.591026000000000,-2.303593000000000
Cloud rat and Recurvebill,BL8 1QU,53.597707130000000,-2.322739713000000
Towhee and Marmoset,BL6 6EH,53.591301170000000,-2.537024111000000
Logrunners and Warbler,M29 8HW,53.513493352403500,-2.464681000000000
Macaw and Towhee,M27 5AS,53.510849000000000,-2.340202000000000
