name,id,postcode,lat,lon
thorny devil and cobra de capello,682351,NN7 3AZ,52.186103429259200,-0.923945591416344
Cloud rat and Philippine hawk-owl,2617154,NN12 6FA,52.120801000000000,-0.985051000000000
Jerboa and jew lizard,798521,MK12 5NH,52.063789311216200,-0.829384159330465
Jackal and Jackal,797938,MK13 0ZG,52.047581333862500,-0.828772319088846
Asiatic leopard and Mamo,785119,MK8 8LZ,52.037181586106100,-0.801344111607034
Gull and rattlesnake,785926,MK6 2RU,52.033826795176400,-0.751023463734318
milk snake and gaboon viper,798358,MK12 5DT,52.056764444087800,-0.810242235903469
gaboon viper and monitor,793596,MK3 7HE,52.003304000000000,-0.754481000000000
Booted eagles and iguana,798417,MK12 5HR,52.060079336610100,-0.810854322108453
mud turtle and hawksbill,795362,MK18 1LS,52.001629642199200,-0.992324025433039
crocodile and Parrotbill,685002,NN4 8PB,52.223740776018300,-0.900739705510351
Pheasant and River dolphin,693089,NN12 7AU,52.141809829743100,-0.986343643085087
tree snake and Tree warbler,691944,NN13 6JU,52.029954604358800,-1.147697661848320
mud turtle and Warbler,692981,NN12 6RD,52.120731000000000,-0.988867000000000
horned toad and garter snake,692260,NN13 6BB,52.026560239863000,-1.152018105753810
New World blackbird and boa,682584,NN7 2DU,52.193657000000000,-0.846935798982210
lizard and Solitaire,797535,MK13 9EL,52.048280718952300,-0.784189739257178
Thicketbird and dugite,692953,NN12 6JL,52.124784711235800,-0.994106588773348
Wader and amphisbaena,794611,MK19 6HS,52.049417874773100,-0.886530782130295
gavial and Eagle,785251,MK77 1TW,52.042087858939300,-0.818869917662657
python and Argus,784946,MK8 0NZ,52.021534337456500,-0.811730883898388
gavial and flying dragon,682338,NN7 3AH,52.192122735695900,-0.923449180716228
Guillemot and Parrotlet,692453,NN13 5JN,52.019361000000000,-1.096549588677340
iguana and hoop snake,2264012,NN12 9BU,52.132235000000000,-0.988343000000000
dugite and elapid,798079,MK13 7HW,52.059040758472100,-0.787456665981980
tuatara and Tattler,692075,NN13 7DF,52.035133051610900,-1.141461920895110
mamba and coral snake,692825,NN12 6BY,52.131875995937200,-0.989607865931022
horned viper and Greenbul,693997,NN11 3NL,52.139375734241600,-1.158133621135200
thorn lizard and Hawk,685081,NN4 7AL,52.219289649899800,-0.838694783383004
Viscacha and tree snake,692991,NN12 6RR,52.130813676388100,-0.992597574888949
Booted eagles and Grosbeak,692683,NN12 8SD,52.124836819695600,-1.089038032443480
Bronzewing pigeon and Puffleg,798609,MK11 2AH,52.051118311212900,-0.835475740193196
bearded dragon and gavial,785058,MK8 8EL,52.038996101816200,-0.795886572876810
deaf adder and indigo snake,784854,MK9 1BL,52.032102000000000,-0.770773705645008
Parrotlet and agamid,682228,NN7 2LX,52.156942345895900,-0.903993689191084
skink and Partridge,685277,NN4 6AA,52.203910000000000,-0.875167000000000
Ground sloth and Old World warbler,786325,MK5 7JA,52.014598584483700,-0.786676583821022
diamondback turtle and Skunk,794360,MK19 7HU,52.111926350508800,-0.833833889301742
Gila monster and Francolin,797610,MK14 5DN,52.068225557058900,-0.761122623929634
Thicketbird and Grosbeak,793197,MK4 2EX,52.007923889214300,-0.777663752615730
ringhals and fer-de-lance,682357,NN7 3BN,52.174714886536300,-0.943158084183153
Hawk and blue racer,682805,NN7 1DF,52.222268532932700,-0.765448844178484
Eagle and copperhead,786923,MK5 6DU,52.019404466911700,-0.784506330205177
Grackle and Egret,692153,NN13 5SE,52.009747777196600,-1.145866922401380
leathery turtle and Fulmarine petrel,794519,MK19 6DH,52.047454450561300,-0.863568857569479
whip snake and pit viper,794497,MK19 6BA,52.064859000000000,-0.877307000000000
boa constrictor and moloch,794710,MK18 5HP,52.033303968929300,-0.969337865821620
Jackal and gaboon viper,784827,MK8 9HP,52.031623005717000,-0.793212917301617
deaf adder and Parakeet,793583,MK3 7ER,52.000576978739200,-0.751832446535779
Parrotbill and Parrotbill,793112,MK4 4EL,52.003401000000000,-0.808312133428267
frilled lizard and smooth snake,798549,MK11 1JF,52.055960075601600,-0.847834639440219
elapid and Old World vulture,785055,MK8 8EF,52.036712544499200,-0.801196287977164
Viscacha and tuatara,2617116,NN13 6FP,52.046465000000000,-1.151421000000000
galliwasp and dugite,786878,MK5 6AN,52.019452836668400,-0.783965810636463
carpet snake and Bunting,797443,MK13 9DF,52.052462006718600,-0.787722247425727
Gila monster and Crow,785239,MK77 1SF,52.042087858939300,-0.818869917662657
Viscacha and Black jay,794582,MK19 6FG,52.066266241629600,-0.867191000000000
swift and Ice seal,784727,MK8 9AS,52.035896752814200,-0.794380771581610
blindworm and Old World warbler,786377,MK5 8BH,52.024601776415900,-0.780197039878884
agama and Black cockatoo,794671,MK18 5DA,52.022191646962500,-1.030861681316300
Duck and Francolin,794292,MK19 7DA,52.122279364902600,-0.838836728898223
Night heron and Prion,682366,NN7 3DB,52.160824000000000,-0.930948419398849
Greenbul and constrictor,682492,NN7 3JS,52.219107594231900,-1.038424436710260
Lemming and Myna,2636170,NN12 6UA,52.120912000000000,-0.976095000000000
alligator and mamba,794288,MK19 7BW,52.119116871777100,-0.832696900194691
Tattler and moloch,692623,NN12 8QQ,52.165568000000000,-0.975414470944550
Logrunners and box turtle,797880,MK13 8NQ,52.043941990778200,-0.776754410409884
loggerhead and Quetzal,798058,MK12 5RJ,52.063954048893700,-0.809804000000000
sand lizard and Petrel,691929,NN13 6JA,52.032198849928600,-1.162261098526330
Egret and Grosbeak,794662,MK18 5BG,52.069530065821600,-0.961487000000000
racer and Condor,784997,MK8 8BE,52.043106881861400,-0.804014317540421
Skunk and cobra,682126,NN7 3RE,52.210068887454800,-1.007636776192060
Condor and wall lizard,797885,MK13 8PQ,52.042810272025000,-0.779468172848999
soft-shelled turtle and coral snake,797449,MK13 9DP,52.048830697432200,-0.781724909690155
leguaan and milk snake,786284,MK6 2NZ,52.030158792051500,-0.755309173674922
Logrunners and diamondback turtle,2655234,MK8 1DH,52.029543000000000,-0.819298000000000
Towhee and tiger snake,784761,MK8 9DL,52.034034000000000,-0.801195000000000
monitor and hawksbill,797882,MK13 8PG,52.045122000165500,-0.772639357478758
thorny devil and crocodile,685159,NN4 5AB,52.191591114329900,-0.879852087771657
massasauga and Francolin,793380,MK3 7WN,52.001690676834300,-0.757672165466943
Tree warbler and Greenbul,692716,NN12 8TW,52.102244114826900,-1.037128601020190
Pratincole and brown snake,2643759,MK11 4BX,52.045724000000000,-0.839695000000000
sand lizard and cerastes,681989,NN7 4TE,52.218693998537700,-1.060506000000000
copperhead and wall lizard,797769,MK13 8DA,52.046823904147600,-0.772024035174082
anaconda and Cloud rat,693098,NN12 7HS,52.138433800459300,-0.976455034788827
flying lizard and giant tortoise,1793563,MK5 7GW,52.011884707900000,-0.787449485600000
dukite and River dolphin,794269,MK19 7AN,52.075512000000000,-0.803210154078792
boa and gecko,692983,NN12 6RF,52.120450846289000,-0.989866188823290
Gull and Herring gull,785986,MK6 2XP,52.032671025846400,-0.760778886963532
Bronzewing pigeon and Wader,2655806,NN13 6QZ,52.038067000000000,-1.137701000000000
Polecat and moloch,796621,MK16 8NS,52.131488339935900,-0.777660245873398
Crow and Bronzewing pigeon,785065,MK8 8EW,52.039460383635400,-0.795567925570697
cycling lizard and Old World quail,693652,NN11 3SJ,52.136821126744500,-1.161746869290310
amethystine python and sea snake,798144,MK12 6DA,52.050309153499800,-0.816524037846078
snapping turtle and garter snake,682337,NN7 3AG,52.188959000000000,-0.920468000000000
diamondback and Thicketbird,682064,NN7 3QU,52.209982000000000,-1.005663000000000
turtle and water snake,798542,MK11 1HX,52.048657604456800,-0.844901751955829
monitor and black snake,2608215,MK8 1AP,52.029077000000000,-0.814034000000000
agamid and coral snake,786477,MK5 8HQ,52.028890408571500,-0.782791553346382
Vulture and Meadowlark,798442,MK11 1BS,52.058248034130800,-0.850109504329731
hawksbill and amethystine python,692331,NN12 8XD,52.090503000000000,-0.990881267368154
Recurvebill and Wallaby,785257,MK77 1XY,52.042087858939300,-0.818869917662657
thorny devil and Marsh harrier,2628409,MK9 3FJ,52.048014000000000,-0.754020000000000
Siskin and mamba,786612,MK5 7BJ,52.021169121643300,-0.777783717227933
loggerhead and mountain devil,692004,NN13 6PU,52.039937621404900,-1.154374785061030
Black jay and Fox,692886,NN12 8DD,52.143127540705200,-1.018842917719260
Coati and Towhee,794506,MK19 6BP,52.048599452062400,-0.911531024627259
Partridge and moloch,786552,MK5 6JF,52.025144533089300,-0.788358883341097
Grouse and death adder,692424,NN13 5JF,52.021570138586300,-1.117704401815600
Viscacha and Coati,692228,NN12 8UN,52.091867382497700,-1.023850180133720
Wallaby and Greenbul,797799,MK13 8EQ,52.043466919517300,-0.775163465380316
flying lizard and Guillemot,798134,MK12 6AR,52.052595000000000,-0.817499000000000
rattlesnake and iguana,692539,NN12 8JF,52.182091751127700,-1.078859291998430
blindworm and B,786895,MK5 6BH,52.021616347692400,-0.780161651591059
Black jay and harlequin snake,692049,NN13 7AT,52.035251005535500,-1.142844567030690
Marmoset and Tattler,785255,MK77 1UF,52.042087858939300,-0.818869917662657
Chickadee and Tahr,692733,NN12 7QU,52.062250765259100,-0.896378880799395
Minke whale and Perching duck,693295,NN12 6AH,52.130020000000000,-0.985397000000000
Crow and black snake,685105,NN4 7BX,52.218071000000000,-0.857463000000000
Darwin's finches and Wallaby,682249,NN7 2NY,52.156364623407400,-0.890281811010727
deaf adder and racer,2636167,NN12 6NT,52.120893000000000,-0.974956000000000
Stint and Songlark,784783,MK8 9EP,52.033578848135000,-0.791046486013732
blue tongue and frilled lizard,692708,NN12 8TL,52.074960606258100,-1.022292877825460
diamond snake and Herring gull,692320,NN13 6HJ,52.031887409467200,-1.159044000000000
king snake and glass snake,682542,NN7 2AR,52.171045360956000,-0.813454968685120
sand lizard and Dorcopsis,794416,MK19 7PB,52.115414000000000,-0.826426000000000
habu and Goose,1793063,MK19 6LE,52.050739000000000,-0.882546000000000
Moluccan boobook and Dolphin,794706,MK18 5HH,52.031629409882000,-0.971140171417009
sand viper and Crow,786441,MK5 6ES,52.023620739053700,-0.784450349483712
sand lizard and Jay,786600,MK5 7AU,52.020486572839200,-0.776126359434736
Parrotlet and pit viper,794653,MK18 5AU,52.055002027667100,-0.978960396135679
coral snake and Skunk,692939,NN12 6HS,52.125424441421800,-0.985868158021484
Schneider python and python,692681,NN12 8SA,52.135834197272900,-1.104520388062170
diamondback and Rabbit,785246,MK77 1TF,52.042087858939300,-0.818869917662657
green turtle and Flameback,692879,NN12 8BU,52.142570345143100,-1.024291228929050
Maya and Greenbul,798093,MK13 7LN,52.051409394394500,-0.779817249966669
galliwasp and puff adder,793021,MK4 4DF,52.007081752600800,-0.795417392207784
gaboon viper and Vulture,692589,NN12 8NW,52.170205000000000,-1.011960000000000
Buzzard and Quetzal,794588,MK19 6GG,52.053463713900100,-0.886517727973329
habu and Eagle,682426,NN7 1HT,52.213975197548100,-0.773714364931850
Diving bird and Marsh harrier,797866,MK13 0QE,52.053406257670700,-0.790365611609454
Kestrel and chuckwalla,2579239,MK11 9HQ,52.047583885300000,-0.828772363100000
blindworm and Zebra,785967,MK6 2UH,52.029828003246400,-0.758044184883247
taipan and Magpie,796636,MK16 8PB,52.155970857812200,-0.787251492257402
Towhee and Goose,2628304,MK3 7FE,52.005583000000000,-0.750595000000000
Fish eagle and Pratincole,2582003,MK11 4AS,52.044426000000000,-0.836874000000000
Kākāriki and alligator,794128,MK19 6JP,52.049008001546700,-0.892651115940482
whip snake and Jay,692969,NN12 6LQ,52.104700496985300,-0.939863976987939
anaconda and massasauga,794782,MK18 5NP,52.028496504777700,-0.933270875213183
Boto and Hawk,784537,MK9 2FZ,52.037535000000000,-0.762365000000000
Ice seal and Grouse,784736,MK8 9BD,52.035784898763300,-0.793115449945731
Snipe and horned toad,785833,MK6 2RL,52.030855646844600,-0.760858221587700
Perching duck and Logrunners,682591,NN7 2ED,52.181613035888300,-0.865915487842351
Komodo dragon and hoop snake,692070,NN13 7BZ,52.031409000000000,-1.138547623964010
deaf adder and bearded dragon,784627,MK9 3AD,52.042595089049900,-0.758011160296240
Fish eagle and Recurvebill,682566,NN7 2BX,52.163803000000000,-0.796015000000000
wall lizard and anole,691972,NN13 6NE,52.041095886480100,-1.151655663559050
Puffleg and Logrunners,794493,MK19 6AW,52.062473000000000,-0.865697000000000
Gull and viper,693073,NN12 6YZ,52.133388790712000,-0.989880461132149
Dolphin and Kākāriki,798508,MK12 5LD,52.061977397310200,-0.811839599687390
water snake and giant tortoise,798447,MK11 1DB,52.059831816962600,-0.845824000000000
lizard and Logrunners,793399,MK4 1AZ,52.012180480515000,-0.755691477195862
flying lizard and Booted eagles,684690,NN4 9DL,52.214673311896300,-0.927587976090563
Fish eagle and Triller,692532,NN12 8HX,52.167765713650600,-1.109991342126730
Triller and amphisbaena,692434,NN12 8GR,52.066558000000000,-1.012906000000000
turtle and crocodile,692634,NN12 7PB,52.104063285787800,-0.950041088541681
Fish eagle and chuckwalla,794369,MK19 7JP,52.075417604871800,-0.840592659574218
rat snake and amphisbaena,682561,NN7 2BQ,52.192853576069300,-0.785692245399687
worm lizard and puff adder,794558,MK19 6DZ,52.023674195732100,-0.873047430783588
carpet snake and Fulmarine petrel,786271,MK6 2NH,52.031139772665500,-0.755398554264447
Rabbit and Partridge,797786,MK13 8DY,52.044414362861100,-0.772031742245700
blind snake and Ground sloth,793201,MK4 2GB,52.008587834087100,-0.779262899928063
Parrotlet and habu,682376,NN7 3DS,52.183223653960500,-0.944550711251004
Skunk and Mamo,797406,MK14 6EU,52.056388805308900,-0.771191000000000
Perching duck and sidewinder,682129,NN7 3RH,52.207114333164100,-1.005902572527340
Kākāriki and Gull,793424,MK4 1DH,52.006952994173500,-0.763033621688982
Solitaire and Darwin's finches,685229,NN4 5BN,52.185556308243400,-0.882490362737575
Parrotlet and Badger,785177,MK77 1AA,52.042087858939300,-0.818869917662657
Siskin and dugite,793223,MK4 2HW,52.005035342052400,-0.775702841929641
Mole and tree snake,792986,MK4 4AJ,52.000233697206000,-0.804559865950073
Rabbit and Ibex,784678,MK9 3ES,52.042595089049900,-0.758011160296240
giant tortoise and Warbler,685427,NN4 0QD,52.212880438419200,-0.905632826166318
smooth snake and boa constrictor,795467,MK18 1QU,52.012612463479100,-0.973091687814737
frill-necked lizard and Fulmarine petrel,684714,NN4 9QZ,52.218201988721100,-0.939008471704432
sea snake and Marsh harrier,685054,NN4 6TP,52.198461000000000,-0.874178000000000
mud turtle and grass snake,692041,NN13 7AD,52.028970000000000,-1.146944000000000
Chicken and Mockingbird,794764,MK18 5LB,52.038901097660300,-1.037965019394410
Scimitar babbler and Greenbul,682383,NN7 3EB,52.185005999127000,-0.949832777298488
Fox and diamondback terrapin,798272,MK12 5AE,52.059990435434100,-0.812738323727071
wall lizard and Meadowlark,682334,NN7 3AB,52.194347061553800,-0.939737350514506
Goose and Zebra,797630,MK13 7PH,52.055124255502900,-0.773036207054007
saltwater crocodile and Scimitar babbler,798327,MK12 5AZ,52.058111943715500,-0.818170260911054
leathery turtle and Magpie,682065,NN7 3QW,52.212075166743600,-1.006728561981050
Booted eagles and Condor,784828,MK8 9HW,52.031412500382400,-0.793728781749548
wall lizard and Rabbit,795426,MK18 1NT,52.001246155150200,-0.985355018353548
caiman and diamondback,786518,MK6 1LS,52.018174000000000,-0.750949000000000
Wader and iguana,685124,NN4 7EQ,52.212639305862100,-0.880874264064980
Gull and horned viper,786606,MK5 7BB,52.019851012660500,-0.775531622234217
monitor and rattlesnake,684758,NN4 8AZ,52.214856656372000,-0.899641670193572
Pitohui and Jay,793320,MK4 2JY,52.003826929448800,-0.775357038382812
Moluccan boobook and agama,786924,MK5 6DW,52.027313971451600,-0.793868198599514
pit viper and Ice seal,786364,MK5 8AR,52.026620905174200,-0.786788558070480
Minke whale and snapping turtle,798044,MK12 5PT,52.066048673144600,-0.811673214617058
viper and Mockingbird,682128,NN7 3RG,52.210972328996000,-1.014597801052590
slowworm and terrapin,693670,NN11 3TG,52.176256728806800,-1.133454349415370
kabaragoya and Fish eagle,692889,NN12 8DG,52.089168354270200,-1.022551672242270
B and king cobra,692734,NN12 7QX,52.080078267933700,-0.921462117457894
Rabbit and fer-de-lance,682384,NN7 3ED,52.184571149746800,-0.948453460532316
Stilt and hawksbill,692768,NN12 7TN,52.095449975521600,-0.882538673490522
cobra de capello and rat snake,691925,NN13 6HW,52.033876672608900,-1.160509606083600
Grouse and tree snake,2655070,MK11 4DG,52.046011000000000,-0.842357000000000
bull snake and grass snake,692009,NN13 6QA,52.029130000000000,-1.149171000000000
Coati and coral snake,786539,MK5 6HJ,52.021867813387700,-0.779265797720815
sea snake and bearded dragon,798394,MK12 5GN,52.061015656228300,-0.819027182860130
slowworm and perentie,691948,NN13 6JZ,52.036744000000000,-1.156432000000000
racer and Chickadee,2655236,MK8 1DU,52.033683000000000,-0.814262000000000
sand lizard and boa constrictor,785064,MK8 8EU,52.035842769195000,-0.802312938483024
Argus and Argus,786892,MK5 6BE,52.026392463917200,-0.794315674367737
skink and Rabbit,793590,MK3 7EZ,52.001927422521900,-0.751998833771403
flying dragon and Myna,685027,NN4 6LY,52.208114879064700,-0.890471000000000
diamond python and death adder,692992,NN12 6SY,52.132246800643300,-0.989862454531297
elapid and Partridge,794677,MK18 5DJ,52.018689436202500,-1.034667952353480
terrapin and water snake,684916,NN4 8LH,52.224227961750700,-0.906730084854978
tiger snake and Towhee,685086,NN4 7AS,52.222632328496600,-0.858780916602283
horned toad and python,691980,NN13 6NQ,52.038555664692700,-1.158512135071090
Skunk and glass snake,798404,MK12 5GZ,52.060533449209300,-0.815772514869514
harlequin snake and Hawaiian honeycreeper,685478,NN4 0SU,52.206369969212800,-0.895856169748935
Mouse and carpet snake,2256039,NN7 3NR,52.214697000000000,-1.030322000000000
Badger and indigo snake,795820,MK18 1HN,52.015563498780200,-0.976419346340324
blindworm and Masked owl,692426,NN12 8FE,52.093025066064100,-1.029036008350550
Quetzal and glass snake,682817,NN7 1DW,52.211812170397900,-0.778413563047046
Skunk and Francolin,692083,NN13 7DR,52.033420616736200,-1.143360613090380
diamond python and blue racer,795449,MK18 1PX,52.004244508579900,-0.983772156975892
Flameback and viper,797781,MK13 8DS,52.043101753415400,-0.771178275581498
Kestrel and Partridge,784641,MK9 3AY,52.044625030379800,-0.758669386888677
agama and massasauga,797459,MK14 6HG,52.058677923580200,-0.750986920181690
python and Wader,786462,MK5 8FH,52.030966013242800,-0.776583724190475
Goose and Fox,692093,NN13 7ED,52.029699434897900,-1.143504584114170
sea snake and rat snake,784728,MK8 9AT,52.033897153243800,-0.795790294885234
Night heron and Old World vulture,792729,MK4 4TA,52.006625867532100,-0.804506129887547
galliwasp and Masked owl,685415,NN4 6EW,52.211190809170200,-0.878876286638086
Old World vulture and Fox,786721,MK5 7GB,52.008042548983000,-0.790030026264299
Elephant and krait,685463,NN4 0SA,52.206305572378600,-0.893779718182780
Pheasant and snapping turtle,691957,NN13 6LL,52.036565169535400,-1.150502241517850
Francolin and rock python,794700,MK18 5HA,52.032328000000000,-0.968617000000000
Stilt and wall lizard,784845,MK9 1AT,52.035975537992000,-0.768953600235090
Siskin and sidewinder,784927,MK8 0NA,52.025267794498100,-0.809270792222120
B and ringhals,784635,MK9 3AQ,52.044652798145800,-0.754483743693947
Crow and water snake,797498,MK14 6LR,52.054095917281000,-0.758975742958881
Egret and Puffleg,786466,MK5 8FR,52.026863886644800,-0.773780528035449
Partridge and amphisbaena,784559,MK9 2NL,52.042407644508900,-0.764869000000000
Eagle and iguana,794579,MK19 6FD,52.050410497049100,-0.889772738374466
thorny devil and Mouse,692817,NN12 8AN,52.145644813406500,-1.016069000000000
hognose snake and Rabbit,785202,MK77 1JL,52.042087858939300,-0.818869917662657
flying dragon and Recurvebill,797811,MK13 8HR,52.043120520440300,-0.766949292153026
puff adder and Black cockatoo,692714,NN12 8TT,52.091454667601100,-1.025041491635290
dukite and gecko,2655132,MK19 7FS,52.113038000000000,-0.833963000000000
soft-shelled turtle and Guillemot,685210,NN4 7SL,52.216874175016600,-0.879948138057301
puff adder and dukite,685440,NN4 0QU,52.207609113914600,-0.910196591992351
Wallaby and milk snake,798512,MK12 5LT,52.062447012132200,-0.815619802151626
horned toad and Myna,2655130,MK19 7FL,52.113038000000000,-0.833963000000000
Night heron and Tree warbler,786535,MK5 6HD,52.019906955472800,-0.785279673262727
Herring gull and White ibis,2579254,MK19 6XB,52.047583885300000,-0.828772363100000
Vulture and water snake,1792928,MK14 6GG,52.072841461500000,-0.771529407600000
Solitaire and Ibex,797467,MK14 6HS,52.058478654338700,-0.750000632584446
Parrotlet and Snipe,786560,MK5 6JR,52.022147875489400,-0.794240329564715
Partridge and krait,691999,NN13 6PP,52.042238960460800,-1.153077469388510
Schneider python and Piping shrike,692179,NN13 5TQ,52.050610875232300,-1.111285000000000
gaboon viper and bushmaster,682137,NN7 3RZ,52.174029373090700,-0.942911104052837
sand lizard and Peafowl,797835,MK13 0LA,52.058690940486800,-0.795430075396176
Fox and Perching duck,797849,MK13 0PG,52.053524990186000,-0.793177172401003
Booted eagles and copperhead,797454,MK13 9DU,52.048340189113400,-0.781242438593650
racer and gopher snake,785831,MK6 2RH,52.031369103169800,-0.759240546850177
Myna and Zebra,682240,NN7 2NN,52.159294978046600,-0.897883767817127
hognose snake and skink,793028,MK4 1EH,52.005554050396300,-0.765956791711990
massasauga and gaboon viper,685599,NN4 0XF,52.193981638927900,-0.896923854021431
White ibis and bearded lizard,692780,NN12 7UE,52.097603556034100,-0.883988518082021
tokay and perentie,682708,NN7 2JS,52.141615323722600,-0.880317038247100
adder and thorn lizard,786507,MK6 1BN,52.029270000000000,-0.763876000000000
bull snake and mountain devil,685601,NN4 0XH,52.208025349050300,-0.895010232363131
krait and Parrotbill,692467,NN13 5LE,52.015512895410800,-1.099040786470260
Ground sloth and indigo snake,1792870,MK12 5EP,52.067174045600000,-0.807120955700000
swift and rock python,785305,MK8 0DY,52.028217273207800,-0.808419935293724
Diving bird and agamid,693088,NN12 7AT,52.138408579416000,-0.990219897979627
Mink and black snake,684948,NN4 6JL,52.206251743917000,-0.889961548475847
Ibex and Myna,784670,MK9 3DZ,52.047259000000000,-0.755966991375363
Skunk and grass snake,2608178,MK8 1DN,52.030124000000000,-0.819866000000000
Mockingbird and Eagle,2644487,NN12 7FB,52.082882000000000,-0.900421000000000
White ibis and coral snake,794379,MK19 7LF,52.114168826188000,-0.829671654987835
lizard and hoop snake,797780,MK13 8DR,52.043627988945100,-0.769909871332955
massasauga and Stilt,798554,MK11 1JN,52.055485173169200,-0.850763824814469
Kākāriki and Hawaiian honeycreeper,797783,MK13 8DU,52.045453136903000,-0.774219690371895
Mole and hognose snake,785230,MK77 1PS,52.042087858939300,-0.818869917662657
frilled lizard and Treepie,797647,MK13 7QE,52.052275768817300,-0.780129081489167
Darwin's finches and fer-de-lance,682387,NN7 3EG,52.194735000000000,-0.943751000000000
Triller and Bunting,1792880,MK12 5GE,52.059324326600000,-0.827677711000000
Tit-tyrant and Chickadee,786541,MK5 6HP,52.018959439713500,-0.789312922265671
frill-necked lizard and Rabbit,785220,MK8 9AH,52.032215000000000,-0.795613707109286
constrictor and swift,792681,MK4 4JG,52.009176000000000,-0.801364000000000
Vulture and Herring gull,685020,NN4 8PZ,52.218075853210100,-0.901626085684948
Myna and bearded dragon,798522,MK12 5NJ,52.062899715652500,-0.826723352440448
Vole and Tit-tyrant,692522,NN13 5QB,52.093580000000000,-1.144658569749430
taipan and Macaw,2644482,NN12 6LZ,52.120535000000000,-0.975125000000000
boa and carpet snake,786363,MK5 8AQ,52.025891134495000,-0.784739000000000
snake and dugite,1797439,NN4 9DG,52.215640252900000,-0.938776877400000
Bunting and Fox,685257,NN4 5DX,52.190014538770800,-0.887118332693381
Black cockatoo and Macaw,692015,NN13 6QH,52.041591047620400,-1.158017750878270
Black jay and Francolin,797474,MK14 6JA,52.061348005023100,-0.756061620736118
Quetzal and Black jay,797423,MK14 6HB,52.060503479856100,-0.751869549143686
gopher snake and Puffleg,797878,MK13 8NJ,52.045305379138400,-0.776440140172908
blind snake and Mink,786724,MK5 7GF,52.008583048829700,-0.791006187973077
Chickadee and Chicken,685179,NN4 5BB,52.187231792083800,-0.881877876679859
swift and whip snake,784791,MK8 9HB,52.036908890791200,-0.794003654704482
dukite and Ibex,685123,NN4 7EH,52.217464000000000,-0.871868000000000
Buzzard and Capuchin,692031,NN13 5QP,52.086157013303300,-1.145299555972380
leguaan and Kangaroo,692893,NN12 8DN,52.089683840322800,-1.023999990738480
Polecat and bicycle lizard,786911,MK5 6DE,52.025351817915800,-0.795422213632804
bearded dragon and Macaw,784735,MK8 9BB,52.034639981902200,-0.794574932756827
Black jay and Rabbit,798020,MK13 7HP,52.059198513809600,-0.787933737488232
Viscacha and grass snake,796192,MK17 0HF,52.015569180283500,-0.906008498198198
dukite and Ibex,692131,NN13 5RA,52.073089000000000,-1.115274000000000
Moluccan boobook and Thrasher,798707,MK11 3HA,52.049022000000000,-0.824331000000000
dugite and Stint,691827,NN13 6HU,52.032565452424300,-1.156933623018560
Parrotbill and cobra,794364,MK19 7JG,52.077729736396300,-0.848076885640607
Macaw and Parrotbill,786610,MK5 7BG,52.010847773392100,-0.787404551536147
dukite and blindworm,2263964,NN12 8XZ,52.086655000000000,-1.022589000000000
Kite and Guillemot,685162,NN4 5AF,52.192557899811100,-0.880354458922485
death adder and boa constrictor,798526,MK11 1HA,52.051331418224600,-0.845107000000000
bearded lizard and Marmoset,692210,NN13 5YA,52.019485451537400,-1.095332356275500
Prion and kabaragoya,785098,MK8 8JR,52.036809484756300,-0.803657517433738
Pheasant and Black jay,794600,MK19 6HD,52.050875000000000,-0.889353000000000
Peafowl and Mole,785936,MK6 2SL,52.029920218400000,-0.754003898581831
dugite and Quetzal,792993,MK4 4AT,52.001484580948900,-0.803783612679515
sand viper and asp,794556,MK19 6DX,52.024525257852400,-0.875547474023145
blind snake and Badger,786314,MK6 2QN,52.034852910965400,-0.753677272446361
Shearwater and Old World quail,685451,NN4 0RJ,52.213439730382600,-0.912644587391174
skink and diamondback turtle,793086,MK4 1LJ,52.010715422418000,-0.772021813134036
Logrunners and rock python,692128,NN13 5QX,52.088829582237800,-1.093828827197380
python and Jerboa,785039,MK8 8DL,52.038130000000000,-0.808754000000000
alligator and horned viper,794666,MK18 5BN,52.033885603507500,-0.986642764306733
racer and slowworm,793384,MK4 1AF,52.011113770231100,-0.757702655758342
caiman and Logrunners,794774,MK18 5LX,52.024961000000000,-1.065198000000000
Parrotlet and asp,798469,MK11 1EF,52.058372206356300,-0.848093477248826
king cobra and gecko,794817,MK18 7BL,52.000145250389800,-0.972444672563623
Ibex and Eagle,685190,NN4 7HW,52.223236029019000,-0.876728400670371
agama and Herring gull,798419,MK12 5HT,52.060614647245700,-0.812225832292079
smooth snake and habu,793057,MK4 1HT,52.007562024942500,-0.767955847942207
anole and flying lizard,794623,MK19 6JG,52.055477756447900,-0.893205840952777
gopher snake and skink,693072,NN12 6YY,52.132297673020400,-0.987406864152275
monitor and monitor,682593,NN7 2EF,52.177606336929200,-0.860650095735172
B and green turtle,793026,MK4 1EF,52.008152670510900,-0.765972739047013
glass snake and whip snake,798498,MK12 5JQ,52.063281000000000,-0.807169135478926
adder and diamondback turtle,786568,MK5 6LJ,52.019334673269600,-0.791707365032985
pit viper and Civet,786269,MK6 2NF,52.030786848338500,-0.756035160105197
skink and slowworm,793095,MK4 1LY,52.012710893981200,-0.771967192201138
Zebra and Darwin's finches,785277,MK8 0BF,52.025175000000000,-0.806175753789285
Crow and Jerboa,685048,NN4 6RY,52.207197617832500,-0.885386669511421
boomslang and Songlark,685239,NN4 5BZ,52.183559708855500,-0.882423391494289
Hawk and flying lizard,784801,MK9 3XJ,52.046999698087200,-0.751823000000000
ringhals and Boto,798285,MK13 0BB,52.064053220044800,-0.795781814448905
habu and Old World warbler,784643,MK9 3BA,52.044043834122200,-0.753013382872184
horned toad and Tree warbler,786500,MK6 1AP,52.028280000000000,-0.762912000000000
Kangaroo and harlequin snake,692926,NN12 6GX,52.141531196436400,-0.996871169746919
Boto and Rabbit,692677,NN12 8RW,52.146705762608500,-1.085990575189260
Jerboa and Moluccan boobook,691945,NN13 6JW,52.036872040986300,-1.155394000000000
New World blackbird and Black jay,795587,MK18 1TW,52.003038823628200,-0.975364792753332
tuatara and Perching duck,692213,NN13 5YF,52.069217246988100,-1.080628786492880
Zebra and anaconda,784713,MK9 3NX,52.046987431770600,-0.752493994512329
smooth snake and Zebra,2255249,NN7 2QR,52.154988000000000,-0.894378000000000
Skunk and Nukupuʻu,798483,MK11 1EY,52.051395612403900,-0.844466569940567
Cloud rat and goanna,785102,MK8 8JW,52.035935278719900,-0.805226175299894
diamondback terrapin and Snipe,685191,NN4 7JE,52.224871000000000,-0.870802000000000
cobra de capello and gaboon viper,794663,MK18 5BH,52.060726563286500,-0.955054034012052
horned toad and harlequin snake,784996,MK8 8BD,52.040162615643400,-0.801833001495803
Francolin and White ibis,794312,MK19 7EF,52.091335983984600,-0.835553039964135
Hawaiian honeycreeper and Mole,693936,NN11 3BS,52.210999536837300,-1.161244568864250
American sparrow and Pitohui,798538,MK11 1HR,52.055931309751800,-0.851467000000000
mud turtle and bushmaster,793178,MK4 2DY,52.001263378090200,-0.776985693724637
Minke whale and goanna,793038,MK4 1EW,52.008920243362700,-0.773178250982814
death adder and soft-shelled turtle,798888,MK10 1SR,52.043551287996700,-0.760871712162347
Tree warbler and turtle,682348,NN7 3AW,52.196193742768000,-0.927198741784057
diamondback terrapin and Snipe,692735,NN12 7RL,52.147915515638000,-0.925494684869880
amphisbaena and tiger snake,2588299,NN4 6FP,52.202674000000000,-0.863843000000000
Solitaire and Darwin's finches,797157,MK14 7DS,52.052364289955000,-0.758469525402288
perentie and Treepie,792730,MK4 4TB,52.007551823792400,-0.803986000000000
ringhals and Parrotlet,682245,NN7 2NT,52.157702244322600,-0.890553000000000
snake and frill-necked lizard,784581,MK9 2YH,52.041045679875700,-0.766291947815955
Cloud rat and kabaragoya,797845,MK13 0PB,52.056052184505500,-0.791882000000000
Ibex and soft-shelled turtle,692060,NN13 7BH,52.023096795250300,-1.143164000000000
king cobra and cobra de capello,685172,NN4 5AT,52.190432185306800,-0.878052592590588
Chicken and Thrasher,798532,MK11 1HH,52.051281341616400,-0.847488298746065
Tit-tyrant and king snake,797606,MK14 5DG,52.064260484408300,-0.755149206080751
Black jay and agama,2643885,MK8 1DX,52.032425000000000,-0.815330000000000
Gull and giant tortoise,1793596,MK9 3GD,52.038750000000000,-0.755683000000000
Bronzewing pigeon and tuatara,682499,NN7 3LB,52.211466000000000,-1.041678000000000
Elephant and Cloud rat,685317,NN4 6DB,52.214218000000000,-0.886089000000000
Lemming and sand lizard,692232,NN12 8US,52.088655000000000,-1.025567031695720
amphisbaena and Snipe,685456,NN4 0RR,52.208128095826200,-0.908954579587154
