name,postcode,lat,lon
Costa Coffee  Stony Stratford,MK11 1AA,52.056454323932400,-0.852416253022498
Out Of Office Coffee,MK11 1AA,52.056454323932400,-0.852416253022498
Royal Thai Restaurant,MK11 1AF,52.056430382156900,-0.851804289927743
Anatolia6372 Ltd,MK11 1AH,52.058059612683700,-0.854767175207041
The Bull Hotel,MK11 1AQ,52.057179815002800,-0.853054008237532
Bean in Stony Ltd,MK11 1AY,52.057470380344400,-0.854271749025270
the crown ,MK11 1BE,52.056176133571100,-0.854319439401394
PASSAGE TO INDIA,MK11 1BY,52.055853000000000,-0.852388000000000
Miss Havisham’s Tea Shop Ltd,MK11 1EJ,52.057753910973600,-0.853841514396756
French Affaire,MK11 1FA,52.057458000000000,-0.852857000000000
Greek Affaire,MK11 1FA,52.057458000000000,-0.852857000000000
calcutta brasserie,MK11 1LJ,52.059234000000000,-0.856123000000000
Cafe Gusto,MK11 1PA,52.051932000000000,-0.838517000000000
Safari MK,MK11 3ET,52.047722000000000,-0.829279000000000
Namji,MK12 5DG,52.061244478675300,-0.810487888213771
ole tapas bar,MK12 5FJ,52.064555228850700,-0.805847000000000
Braai Shack,MK12 5JN,52.062515867933000,-0.809068333912576
Sunnyside Up Cafe,MK12 5JN,52.062515867933000,-0.809068333912576
Akasaka Wolverton,MK12 5LW,52.062744667406800,-0.812140161837861
ZOUK LOUNGE,MK12 5LW,52.062744667406800,-0.812140161837861
1538 Wolverton McDonalds - Kaizen Restaurants,MK12 5RJ,52.063954048893700,-0.809804000000000
KFC STACEY BUSHES,MK12 6HS,52.050636360427900,-0.798213322696400
The New Inn,MK13 0EN,52.063911000000000,-0.787952000000000
HALLEYS COMET,MK13 7AW,52.059033358491900,-0.784991817705711
Central Cash & Carry(Watford)Ltd,MK13 9HG,52.045739910411600,-0.794174274319773
The Nags Head,MK14 5AX,52.070351710029400,-0.757255846075268
taste of paradise 2,MK14 7BW,52.047290147493900,-0.759878792869400
Binn Smokehouse,MK18 1JX,52.000527701842400,-0.987541715295451
Subway Buckingham,MK18 1JX,52.000527701842400,-0.987541715295451
The Kings Head,MK18 1JX,52.000527701842400,-0.987541715295451
Prego,MK18 1NT,52.001246155150200,-0.985355018353548
Carnitas,MK18 1SB,52.000941000000000,-0.985260000000000
The Robin hood,MK18 5DN,52.011468032316500,-1.031180745818150
The White Lion at Wicken,MK19 6BS,52.048427000000000,-0.910237000000000
shoulder of mutton,MK19 6ED,52.044499316205300,-0.849966576802536
kingfisher country club limited ,MK19 6JY,52.041107598451900,-0.878674448076465
The Navigation,MK19 7BE,52.084829000000000,-0.851359250071107
THE BARLEY MOW,MK19 7JD,52.075823828817300,-0.845338962126365
The Watts Arms Pub,MK19 7LG,52.114448000000000,-0.831373000000000
582 Westcroft McDonalds - Kaizen Restaurants,MK4 4DD,52.003996000000000,-0.794330913912261
Costa Coffee Westcroft,MK4 4DD,52.003996000000000,-0.794330913912261
KFC WESTCROFT,MK4 4DE,52.004426065600500,-0.795095335751006
PAPA JS INDIAN TAPAS,MK4 4TB,52.007551823792400,-0.803986000000000
The Coffee Boutique,MK4 4TB,52.007551823792400,-0.803986000000000
RAILWAY CURY LIMITED,MK5 6JG,52.026078000000000,-0.788948774346727
bv shenley pavilions,MK5 6LB,52.015689385777600,-0.793962211550725
Burnt Oak,MK5 7HH,52.014476553583800,-0.783561564298925
The Grumpy Cook,MK5 8DL,52.032020092680600,-0.788100177917049
360 Play (Milton Keynes) Limited,MK5 8HL,52.021700406924300,-0.771808492050874
Bollywood Junction,MK6 2RX,52.029408797598400,-0.760927363613965
SMC Pneumatics,MK8 0AN,52.029411619452900,-0.798534532469008
Ash's Fish & Chicken,MK8 0PX,52.021875511955700,-0.807362000000000
simply Good ltd,MK8 0PX,52.021875511955700,-0.807362000000000
Abbey Hill Golf Centre,MK8 8AA,52.044099000000000,-0.810418000000000
Subway Train Station,MK9 1BB,52.034317000000000,-0.773591000000000
peel juice bar,MK9 1BB,52.034317000000000,-0.773591000000000
BURGER KING-Portway Central Milton Keynes,MK9 1DY,52.038578000000000,-0.777017000000000
olive tree restaurant,MK9 1EA,52.038008627722900,-0.767337778228383
Thai Modern,MK9 1EH,52.038482124089000,-0.767047746790709
Fourth & Fifth,MK9 1EJ,52.038738000000000,-0.766487000000000
Sizzling Grillz,MK9 1LR,52.033887533732400,-0.772013000000000
AKASAKA CMK,MK9 2EA,52.039209829126500,-0.760991748118372
Melis Restaurant,MK9 2EA,52.039209829126500,-0.760991748118372
Middletons Steakhouse & Grill MK,MK9 2EA,52.039209829126500,-0.760991748118372
bon viveur exchange house,MK9 2EA,52.039209829126500,-0.760991748118372
SUBWAY THE HUB (58446),MK9 2FB,52.038033800661900,-0.762875827269459
Banana Tree,MK9 2FS,52.037366200434000,-0.762923000000000
DEROKA LTD,MK9 2FS,52.037366200434000,-0.762923000000000
Bogota Coffee Co,MK9 2FZ,52.037535000000000,-0.762365000000000
Maaya Indian Kitchen & Bar,MK9 2FZ,52.037535000000000,-0.762365000000000
Brasserie Blanc Milton Keynes ,MK9 2GA,52.037569875833400,-0.762363783717049
Legend One Sushi Bar,MK9 2JH,52.037090780019500,-0.761300000000000
Homeground,MK9 2NR,52.042145000000000,-0.764731000000000
KFC MILTON KEYNES - THE CENTRE,MK9 3AB,52.044255862160400,-0.755209261256356
BURGER KING-Silbury Arcade Central Milton Keynes,MK9 3AG,52.043398677556200,-0.757478552033940
34 CMK McDonalds - Kaizen Restaurants,MK9 3BB,52.042613057531300,-0.756466000000000
G TRIBE,MK9 3EL,52.045236000000000,-0.758477000000000
Pepes Piri Piri Milton Keynes,MK9 3EL,52.045236000000000,-0.758477000000000
Ori Caffe,MK9 3EP,52.044846936225400,-0.752436936036819
Chopstix Milton Keynes,MK9 3GB,52.040851000000000,-0.757068000000000
Churros Mexicanos,MK9 3GB,52.040851000000000,-0.757068000000000
KOKORO,MK9 3GB,52.040851000000000,-0.757068000000000
Made in Sud Pizzeria,MK9 3GB,52.040851000000000,-0.757068000000000
Wrapchic,MK9 3GB,52.040851000000000,-0.757068000000000
THE GREEN ELEPHANT CAFE,MK9 3HP,52.039608936865700,-0.763036465415167
Urban Dhaba,MK9 3NT,52.042915026991700,-0.752549044551474
taste of paradise ,MK9 3NT,52.042915026991700,-0.752549044551474
olive tree restaurant,NN12 6AJ,52.127393356105200,-0.982726538391359
Brave old oak,NN12 6BT,52.132889385756900,-0.989307355681111
THE LITTLE BLUE BAKERY,NN12 6BT,52.132889385756900,-0.989307355681111
TRUVA CHARCOAL GRILL & BAR,NN12 6BU,52.131316393386000,-0.988305672913088
185 Watling ST. Pub & Kitchen,NN12 6BX,52.132623000000000,-0.989562000000000
Clarke & Dean,NN12 6BX,52.132623000000000,-0.989562000000000
Frank's hamburger house,NN12 6BX,52.132623000000000,-0.989562000000000
Ten Hands Cafe Bar,NN12 6BX,52.132623000000000,-0.989562000000000
The bull towcester,NN12 6DH,52.131432646499600,-0.994541286485950
Bell Plantation Cafe,NN12 6GX,52.141531196436400,-0.996871169746919
The Folly Inn,NN12 6LB,52.122408000000000,-0.972732000000000
Kazper Restaurants Limited,NN12 6TQ,52.126716323236700,-1.004536985671410
The ARTea Room,NN12 7FA,52.085280000000000,-0.910753000000000
Super Sausage Cafe,NN12 7QD,52.083918430232100,-0.902090832668420
The Old Talbot,NN12 7QD,52.083918430232100,-0.902090832668420
Potterspury House ,NN12 7QL,52.078211003278000,-0.890761372300477
Wellingtons Cafe,NN12 7QN,52.074098775610700,-0.885639743491822
The Boat Inn,NN12 7SB,52.142625140955400,-0.918198475819745
Pury Hill Cafe / Bandit Street Food,NN12 7TB,52.111566547410600,-0.928588244149331
The Butchers Arms,NN12 8BA,52.142150149670800,-1.024389000000000
JACK'S HILL CAFE,NN12 8ET,52.144393767335400,-1.000460290647160
Peggottys,NN12 8LB,52.180121039125500,-1.026014688599420
The Crown Inn Weston ltd,NN12 8PX,52.117150931400100,-1.140719984486260
Whittlebury Hall & Spa Limited,NN12 8QH,52.080307350591800,-0.998200000000000
The New Inn,NN12 8QT,52.113750779245800,-1.051352981072930
The Silverstone Experience,NN12 8TN,52.075664000000000,-1.024568000000000
Fox and Hounds,NN12 8XJ,52.086969424171700,-0.992037920831156
The Kings Head,NN13 5HW,52.067543506309700,-1.080444323342810
The Red Lion Evenley,NN13 5SH,52.008187175026900,-1.145153599231780
Chilli and Pepper,NN13 6AU,52.026199499591600,-1.151575000000000
Rossetti,NN13 6DF,52.026739053454900,-1.150630083484140
Brackley Leisure Centre,NN13 6JJ,52.038009758548600,-1.154121000000000
Brackley bar and grill,NN13 7AB,52.026754563766800,-1.149041095480740
Hummingbirds Bistro Ltd,NN13 7AB,52.026754563766800,-1.149041095480740
Mercedes Benz Grand Prix Ltd,NN13 7BD,52.021902979643300,-1.144557030129160
The Greyhound Inn,NN13 7BW,52.031818000000000,-1.144165880216990
Ann's Fish Bar,NN13 7DP,52.027156000000000,-1.149794129010350
The Crown Hotel,NN13 7DP,52.027156000000000,-1.149794129010350
The old fire station cafe,NN13 7DW,52.029459881509200,-1.146424371815240
The Green Room,NN13 7EP,52.025942183781900,-1.149843555306050
The Unicorn Hotel,NN13 7EP,52.025942183781900,-1.149843555306050
Brackley Central Cafe,NN13 7UG,52.035521000000000,-1.140186000000000
Virgin Active Northampton Collingtree,NN4 0EB,52.198295889845400,-0.899670210752997
Campanile Northampton,NN4 5EZ,52.185062970134000,-0.891778000000000
OG’s Eatery,NN4 5EZ,52.185062970134000,-0.891778000000000
subway,NN4 6DE,52.214432000000000,-0.889743000000000
The Sun Inn,NN4 7BT,52.213937209997200,-0.879319438526090
Delapre Golf Centre,NN4 7DU,52.219931066931000,-0.881847463808387
Robinsons Catering Services,NN4 7DU,52.219931066931000,-0.881847463808387
Northampton Marriott,NN4 7HW,52.223236029019000,-0.876728400670371
Wickes Brackmills,NN4 7JE,52.224871000000000,-0.870802000000000
Restaurant Hibiscus ,NN4 8AW,52.224914000000000,-0.889627021593705
The Orangery,NN4 8AW,52.224914000000000,-0.889627021593705
subway,NN4 8BU,52.215544839522600,-0.903678000000000
The Red Lion,NN7 1BP,52.221179281485500,-0.799310173925184
The White Hart,NN7 2AD,52.187092906662400,-0.819610462901388
The Old Crown,NN7 2JN,52.142355312461700,-0.886304498766643
The Cock at Roade ,NN7 2NW,52.158481915715700,-0.894585460485351
The Roade House Cafe,NN7 2NW,52.158481915715700,-0.894585460485351
BV Briary Barn cafe,NN7 3DB,52.160824000000000,-0.930948419398849
Taberna Ltd   T/A The Walnut tree Inn,NN7 3DS,52.183223653960500,-0.944550711251004
Bakers Arms ,NN7 3PG,52.208766000000000,-1.009715000000000
The Wharf Inn,NN7 3QB,52.206328512639200,-1.019441930679920
The Narrowboat at Weedon,NN7 4RZ,52.222718000000000,-1.061257000000000
The Barn ,NN7 4SH,52.205444125600700,-1.059278000000000
