name,postcode,lat,lon
Siskin and Fish eagle,MK10 1SR,52.043551287996700,-0.760871712162347
wall lizard and box turtle,MK10 1SU,52.043551287996700,-0.760871712162347
alligator and blind snake,MK11 1AQ,52.057179815002800,-0.853054008237532
cobra and Dolphin,MK11 1EA,52.056971933551500,-0.849252559685860
Wallaby and Herring gull,MK11 1EH,52.057966576933200,-0.846149430765954
fer-de-lance and Zebra,MK11 1FD,52.056663287392600,-0.853563132398882
garter snake and Siskin,MK11 1FJ,52.054516750400000,-0.846908000000000
Old World vulture and Kākāriki,MK11 1LD,52.052808603925200,-0.851970040433877
Tree warbler and White ibis,MK11 1NL,52.053963447508500,-0.836787293715975
taipan and caiman,MK11 1NZ,52.052284846623300,-0.841628956788858
coral snake and Goose,MK11 1YA,52.056264091869200,-0.853194137069809
Guillemot and copperhead,MK11 3EA,52.042127049332300,-0.821887055904153
blindworm and River dolphin,MK11 3HD,52.048876000000000,-0.822293000000000
Fulmarine petrel and blue tongue,MK11 4AE,52.045747000000000,-0.834055000000000
Grackle and tokay,MK11 4BJ,52.043501000000000,-0.837683000000000
Ice seal and fer-de-lance,MK12 5AW,52.058443323635300,-0.813566972152183
Bunting and blind snake,MK12 5BA,52.059379056696000,-0.818107652272207
habu and gecko,MK12 5BH,52.059721191499200,-0.816362857250516
snake and Bunting,MK12 5BY,52.060845156549200,-0.817266696088550
Komodo dragon and habu,MK12 5DF,52.054197000000000,-0.814934000000000
New World blackbird and Crow,MK12 5DU,52.057459374345000,-0.807831747118346
Boto and hoop snake,MK12 5EP,52.067174045600000,-0.807120955700000
puff adder and box turtle,MK12 5FD,52.061958335914700,-0.821584221504296
Nukupuʻu and Snipe,MK12 5FQ,52.060309885200000,-0.830044090300000
Schneider python and ringhals,MK12 5GA,52.064951971900000,-0.822191184100000
Moluccan boobook and tree snake,MK12 5GU,52.060350788338500,-0.831705767242247
Piping shrike and soft-shelled turtle,MK12 5HG,52.059702268994200,-0.808238804596677
Moluccan boobook and snake,MK12 5JN,52.062515867933000,-0.809068333912576
Cloud rat and Schneider python,MK12 5JR,52.062005480381700,-0.813735167254228
hoop snake and wall lizard,MK12 5PD,52.063258210177000,-0.824803008684772
puff adder and Asiatic leopard,MK12 5TS,52.058339000000000,-0.832750000000000
bearded lizard and krait,MK12 6AQ,52.053389218209700,-0.819724113573845
blue tongue and Old World vulture,MK12 6HQ,52.053352392400700,-0.805359645063549
Warbler and monitor,MK12 6HU,52.049840457701400,-0.799517983261044
sea snake and Buzzard,MK12 6HX,52.052916000000000,-0.808346000000000
massasauga and amphisbaena,MK12 6JE,52.051025664986500,-0.811780074768552
Hawaiian honeycreeper and rock python,MK12 6JZ,52.049354379073400,-0.806545388469363
tuatara and green turtle,MK13 0AL,52.064755261744400,-0.797615602305853
Old World warbler and boomslang,MK13 0AR,52.064006464347200,-0.798248391946316
Cuscus and grass snake,MK13 0BE,52.064656099109300,-0.794948678322812
Rabbit and Scimitar babbler,MK13 0EP,52.064048735101500,-0.786577087304281
monitor and cycling lizard,MK13 0EQ,52.064876609400200,-0.788392739324028
Linsang and blue tongue,MK13 0PF,52.057431046361400,-0.790927851742519
Tree warbler and asp,MK13 0QL,52.054424070588900,-0.788049000000000
Buzzard and racer,MK13 7BL,52.061834106379600,-0.782815301990011
Argus and Lemming,MK13 7DD,52.065664728461600,-0.778509755612431
bandy-bandy and Logrunners,MK13 7DR,52.055536983959000,-0.782490539550914
boa constrictor and blue tongue,MK13 7EU,52.060687625716400,-0.780629294612274
bearded dragon and thorn lizard,MK13 7EW,52.057597219918500,-0.783484701065949
rock python and Mockingbird,MK13 7FA,52.063309569668000,-0.786202000000000
Siskin and Old World quail,MK13 7FB,52.054410000000000,-0.771460000000000
deaf adder and Wallaby,MK13 7LP,52.051422536491800,-0.777614765814335
lizard and Ground sloth,MK13 7LW,52.051351615302000,-0.778579218245638
Dorcopsis and mamba,MK13 7LZ,52.056141246935500,-0.774860664069949
rock python and diamondback terrapin,MK13 7NE,52.055742103578600,-0.777117675728661
Dorcopsis and mountain devil,MK13 7NU,52.049715161801500,-0.777705100428997
Masked owl and turtle,MK13 7QJ,52.053282055059200,-0.782668501230866
Darwin's finches and Condor,MK13 7UQ,52.063319339074800,-0.789091311586088
worm lizard and B,MK13 8BH,52.043335490988700,-0.768591029798442
sand viper and copperhead,MK13 8DA,52.046823904147600,-0.772024035174082
saltwater crocodile and leguaan,MK13 8DD,52.045536413797000,-0.771855175519465
gecko and Ibex,MK13 8EF,52.047966412012200,-0.766918010585367
Chipmunk and Philippine hawk-owl,MK13 8EG,52.047904871319700,-0.767911313379084
Chicken and crocodile,MK13 8HR,52.043120520440300,-0.766949292153026
Jerboa and Parrotbill,MK13 8LW,52.040514440934600,-0.781951000000000
Rabbit and Tree warbler,MK13 8NP,52.040398044744300,-0.785307557604042
Ground sloth and rock python,MK13 8NQ,52.043941990778200,-0.776754410409884
flying lizard and Ibex,MK13 8RF,52.041252594201900,-0.774057560883836
perentie and Thrasher,MK13 9AL,52.049071951430400,-0.790307643548097
Pheasant and mamba,MK13 9DF,52.052462006718600,-0.787722247425727
carpet snake and Mouse,MK13 9DL,52.051294416994800,-0.783480858075801
Lemming and boa,MK13 9DX,52.046898698378500,-0.780960841478639
ringhals and rock python,MK13 9EZ,52.050580359056400,-0.782246080928383
brown snake and amphisbaena,MK13 9HR,52.045289950551300,-0.785379093000207
sidewinder and Kangaroo,MK14 5AU,52.072613346051900,-0.759425413377918
soft-shelled turtle and New World blackbird,MK14 5BA,52.067206000000000,-0.752150000000000
racer and Jay,MK14 5DN,52.068225557058900,-0.761122623929634
king cobra and Capuchin,MK14 5ED,52.071338957827700,-0.764786127165197
Myna and Badger,MK14 5EH,52.068543488014600,-0.752053917368156
monitor and hoop snake,MK14 5FQ,52.079582000000000,-0.752520000000000
anole and water snake,MK14 5QG,52.075402876511500,-0.752825715286920
caiman and Snipe,MK14 6AU,52.067212535434800,-0.768269979635084
jew lizard and Jackal,MK14 6AX,52.066547751650000,-0.764028407789124
green turtle and terrapin,MK14 6BJ,52.061977788701700,-0.761222540892489
Towhee and Mink,MK14 6FN,52.070618890200000,-0.777411760200000
tiger snake and glass snake,MK14 6GD,52.059620000000000,-0.763476000000000
king snake and flying dragon,MK14 6GQ,52.070331184900000,-0.773086451300000
diamondback and cerastes,MK14 6GT,52.072146740900000,-0.772161268700000
diamond snake and Tree warbler,MK14 6HY,52.061341026950300,-0.753698739997126
Magpie and Hawk,MK14 6JQ,52.060963048526100,-0.753665498856309
Tree warbler and Guillemot,MK14 6LR,52.054095917281000,-0.758975742958881
Skunk and galliwasp,MK14 6PP,52.054653487700000,-0.757049804700000
chameleon and diamond snake,MK14 7AW,52.047802817065300,-0.758187619465051
Jackal and cobra de capello,MK14 7DP,52.050467538672600,-0.762780422836050
caiman and cayman,MK14 7EX,52.050187996908300,-0.758427754225558
flying dragon and mountain devil,MK14 7LW,52.053080886162800,-0.751405501444831
pit viper and cobra de capello,MK16 8LN,52.136855000000000,-0.784381000000000
Minke whale and Armadillo,MK16 8LP,52.150600000000000,-0.800903000000000
Lemming and cayman,MK16 8RD,52.088960141131000,-0.750156251537267
flying lizard and Ibex,MK16 8SJ,52.087269854274000,-0.750159685218296
Eagle and water snake,MK18 1FL,52.008549000000000,-0.982334000000000
king cobra and Ground sloth,MK18 1GE,52.008240935600000,-0.981875179900000
gaboon viper and carpet snake,MK18 1GH,52.006952816655300,-0.976732317350963
swift and Buzzard,MK18 1GY,52.007299522200000,-0.983222320400000
Guillemot and Rat,MK18 1HE,52.000047296577100,-0.988690000000000
Vole and tiger snake,MK18 1HU,52.001742992923400,-0.992962437684788
caiman and smooth snake,MK18 1LH,52.005060554822700,-0.987701685187866
horned viper and sea snake,MK18 1NS,52.000329436841500,-0.987487920442883
Bronzewing pigeon and Civet,MK18 1QA,52.009800000000000,-0.976245000000000
coral snake and Quetzal,MK18 1QB,52.010191222251300,-0.974851789447918
Pitohui and Fox,MK18 1QX,52.013680531118600,-0.972877816031779
tortoise and bearded lizard,MK18 1SB,52.000941000000000,-0.985260000000000
Badger and krait,MK18 1WR,52.000614000000000,-0.985908000000000
Black cockatoo and Komodo dragon,MK18 1YR,52.004046862348300,-0.973418805828244
Grackle and B,MK18 5BD,52.058228420601000,-0.960290208397790
Linsang and Grackle,MK18 5BG,52.069530065821600,-0.961487000000000
Night heron and garter snake,MK18 5BJ,52.074750000000000,-0.959378000000000
Chipmunk and Solitaire,MK18 5BZ,52.018259317719500,-1.017437898174960
puff adder and blindworm,MK18 5HP,52.033303968929300,-0.969337865821620
bearded lizard and ringhals,MK18 5JG,52.016865691178400,-1.000331632051880
snapping turtle and Kite,MK18 5JJ,52.017279379772800,-1.003528306544360
flying lizard and Towhee,MK18 5JP,52.016833342458800,-1.001818707051110
Siskin and hawksbill,MK18 5PA,52.038191000000000,-0.926494000000000
gopher snake and krait,MK18 7BB,52.001184855028100,-0.973090956540583
Fox and skink,MK18 7BH,52.001409869489900,-0.976217738694405
Snipe and Cloud rat,MK19 6BQ,52.047583000000000,-0.828772000000000
Kākāriki and Mink,MK19 6FE,52.053551332675100,-0.894872279400594
Schneider python and Siskin,MK19 7AZ,52.091877119100000,-0.832736491800000
alligator and Ibex,MK19 7BL,52.118089130789000,-0.832417032473134
gaboon viper and perentie,MK19 7EH,52.091141743520700,-0.835003429177758
loggerhead and dugite,MK19 7ER,52.093941144205400,-0.830784856855169
fer-de-lance and ringhals,MK19 7HD,52.095708615454400,-0.838697000000000
Bunting and Thrasher,MK19 7HP,52.118320107287900,-0.847673606466712
blind snake and Rabbit,MK19 7JF,52.077003913272300,-0.849248323054233
anole and hoop snake,MK19 7JL,52.076232370232500,-0.842074492004593
Kestrel and coral snake,MK19 7NP,52.115855310713900,-0.825669655512587
New World blackbird and Crow,MK19 7NS,52.115441368353200,-0.824731242419508
Fish eagle and boa,MK19 7NX,52.115259007720800,-0.825378630451260
boa and Bronzewing pigeon,MK3 7HG,52.003759965732800,-0.752690846374026
Gull and Wader,MK3 7HS,52.000306306137700,-0.753442347368953
water snake and Condor,MK3 7NA,52.002941007476500,-0.756020518128782
ringhals and Komodo dragon,MK3 7NH,52.006103705301500,-0.751562167092746
cerastes and sand viper,MK3 7SL,52.005177591752900,-0.754108302907853
Macaw and diamondback,MK3 7UE,52.005050909723900,-0.759997520203488
Stilt and anaconda,MK4 1AF,52.011113770231100,-0.757702655758342
New World blackbird and Marmoset,MK4 1AX,52.012680454551000,-0.755357046472972
Kangaroo and New World blackbird,MK4 1BP,52.010914833708700,-0.760156002811740
cerastes and dugite,MK4 1DB,52.007181256171900,-0.760798233789689
chuckwalla and Duck,MK4 1DS,52.008920945733200,-0.756947462473192
blue racer and Tahr,MK4 1EL,52.008153224590600,-0.758323702017144
sea snake and anaconda,MK4 1JQ,52.010200457577000,-0.772647857058215
Jay and cycling lizard,MK4 1JR,52.012647000000000,-0.766607000000000
Grouse and Tit-tyrant,MK4 1JS,52.013022350868900,-0.765634792187946
Songlark and Lemming,MK4 1JZ,52.011890071240000,-0.770853141061370
Francolin and Songlark,MK4 2AD,52.000073534264000,-0.771511819105059
taipan and mamba,MK4 2BB,52.000480985091400,-0.773510920610168
rattlesnake and Goose,MK4 2BE,52.002716245753500,-0.768860979380333
giant tortoise and Moluccan boobook,MK4 2DW,52.003086000000000,-0.779272530197980
Jackal and death adder,MK4 2EX,52.007923889214300,-0.777663752615730
Goose and Pheasant,MK4 2JG,52.008039891750000,-0.780181117039913
giant tortoise and diamondback terrapin,MK4 2JQ,52.008384415135300,-0.779588965959397
Mole and Zebra,MK4 2JZ,52.004558642023000,-0.784369461903368
caiman and frilled lizard,MK4 2LA,52.007071013923500,-0.773461919448554
anole and Pitohui,MK4 2LG,52.004767386247600,-0.772417682897119
Marmoset and puff adder,MK4 4BJ,52.005878457652700,-0.800854711380719
Chickadee and Philippine hawk-owl,MK4 4EA,52.001913448869600,-0.806175816323346
Chipmunk and Parrotlet,MK4 4EY,52.005245742497100,-0.801410656324957
Tree warbler and Parakeet,MK4 4FB,52.004500060675600,-0.803237045651398
water snake and water snake,MK4 4HB,52.000144888306400,-0.807329943793753
saltwater crocodile and habu,MK4 4HZ,52.010047281300000,-0.800306298000000
diamond snake and Scimitar babbler,MK4 4JE,52.009951000000000,-0.802480000000000
asp and Rat,MK4 4SY,52.007687297583200,-0.810771811133042
sand viper and Prion,MK4 4TN,52.007910392885800,-0.805273224340170
Philippine hawk-owl and Parrotlet,MK4 4TZ,52.008172983852400,-0.810992000000000
perentie and monitor,MK46 5AW,52.150147781287900,-0.758163342114236
Kākāriki and cerastes,MK5 6AN,52.019452836668400,-0.783965810636463
water snake and Moluccan boobook,MK5 6AS,52.023131968446100,-0.782394032511433
massasauga and Armadillo,MK5 6BP,52.020405653973500,-0.781331316072880
Chickadee and indigo snake,MK5 6BX,52.021498000000000,-0.785149000000000
Polecat and cerastes,MK5 6EY,52.025461382892100,-0.788568949135834
cycling lizard and sand viper,MK5 6GB,52.016590135612500,-0.810040334448818
Pheasant and giant tortoise,MK5 6JU,52.027403000000000,-0.790164000000000
Crow and cerastes,MK5 6LL,52.023359387628900,-0.788756903846169
B and snake,MK5 6LW,52.018892764200000,-0.802780292600000
Parrotlet and Cuscus,MK5 7BB,52.019851012660500,-0.775531622234217
caiman and water snake,MK5 7BH,52.021731540361200,-0.776529603138301
thorny devil and Polecat,MK5 7BQ,52.010261509203400,-0.784608344526990
Crow and Maya,MK5 7DQ,52.017907674200700,-0.771956068248667
diamondback and Jerboa,MK5 7DS,52.019770977031700,-0.778215298428015
racer and Skunk,MK5 7DT,52.018558862476400,-0.776645295328926
Meadowlark and constrictor,MK5 7DW,52.019178027569600,-0.773932377859318
Perching duck and Partridge,MK5 7DZ,52.017389132190500,-0.776560618794284
wall lizard and elapid,MK5 7FJ,52.015207412489400,-0.786426966850121
Hawaiian honeycreeper and Grackle,MK5 7PA,52.017501969673600,-0.780506710589457
Fox and thorny devil,MK5 8AG,52.024273660292200,-0.779768721832847
Solitaire and Nukupuʻu,MK5 8AS,52.033720811722500,-0.781260923043277
elapid and viper,MK5 8AW,52.031071000000000,-0.784846000000000
bull snake and hawksbill,MK5 8DL,52.032020092680600,-0.788100177917049
Perching duck and Pitohui,MK6 1BP,52.026385000000000,-0.761463945378595
bull snake and Pratincole,MK6 2AR,52.029785672283700,-0.751485884393755
Skunk and White ibis,MK6 2HW,52.030249026330200,-0.751939437117409
frill-necked lizard and grass snake,MK6 2LW,52.028789325516800,-0.758451940352694
rattlesnake and Quetzal,MK6 2NP,52.031360791225500,-0.755042567452824
glass snake and Pheasant,MK6 2PS,52.034346849906200,-0.758545846456207
Booted eagles and black snake,MK6 2PX,52.033656616485600,-0.754483160213048
Fulmarine petrel and sand lizard,MK6 2PZ,52.034346669024300,-0.752568834724526
death adder and Night heron,MK6 2QU,52.030168654544600,-0.750294503314563
worm lizard and Polecat,MK6 2SD,52.029170472549000,-0.753674901215611
Minke whale and tortoise,MK77 1AE,52.042087858939300,-0.818869917662657
Vulture and Moluccan boobook,MK77 1SZ,52.042087858939300,-0.818869917662657
Guillemot and coral snake,MK77 1TQ,52.042087858939300,-0.818869917662657
Ground sloth and Maya,MK8 0AJ,52.027413894652800,-0.800133096079132
boa constrictor and cayman,MK8 0AS,52.026484662793600,-0.802475461800517
Chicken and sidewinder,MK8 0BT,52.024905832420400,-0.804601844234436
diamond snake and B,MK8 0LE,52.030532459227600,-0.804422671723807
racer and Skunk,MK8 0LG,52.029829447376400,-0.805141093473156
Eagle and Minke whale,MK8 1BA,52.028615000000000,-0.815562000000000
python and Capuchin,MK8 1BE,52.032068000000000,-0.808565000000000
gavial and Maya,MK8 1BH,52.035435000000000,-0.811489000000000
perentie and anaconda,MK8 1BR,52.027211000000000,-0.813617000000000
rock python and black snake,MK8 8AG,52.040439077620400,-0.814947612946843
leathery turtle and Dolphin,MK8 8AQ,52.040704177092800,-0.817171355285312
boomslang and Viscacha,MK8 8DF,52.042313358892100,-0.795841184501061
pit viper and bearded lizard,MK8 8DL,52.038130000000000,-0.808754000000000
Warbler and diamondback turtle,MK8 8EF,52.036712544499200,-0.801196287977164
Puffleg and Vulture,MK8 8ES,52.039155013283100,-0.796480067160459
Dolphin and box turtle,MK8 8HR,52.042906872159300,-0.802911513743040
Condor and Bronzewing pigeon,MK8 9AB,52.036144279165500,-0.798368655983055
adder and flying lizard,MK8 9AD,52.032080048224600,-0.796582547898103
perentie and Komodo dragon,MK8 9ED,52.035521899434700,-0.797291959142202
bushmaster and tortoise,MK8 9EL,52.033297535162300,-0.796943462476188
Jerboa and Mamo,MK8 9HP,52.031623005717000,-0.793212917301617
Stint and Flameback,MK8 9HW,52.031412500382400,-0.793728781749548
python and Francolin,MK8 9LG,52.037987182783800,-0.786932874026309
Duck and habu,MK9 1BL,52.032102000000000,-0.770773705645008
Cloud rat and pit viper,MK9 1LA,52.034561302025100,-0.773876115977694
Peafowl and alligator,MK9 1PG,52.031837298700000,-0.770218949400000
Ground sloth and Recurvebill,MK9 2AJ,52.041045679875700,-0.766291947815955
viper and Cloud rat,MK9 2DH,52.043002203909700,-0.763380228830606
wall lizard and saltwater crocodile,MK9 2DT,52.041206692754900,-0.765354375581438
Greenbul and blind snake,MK9 2FQ,52.036776000000000,-0.761977000000000
rattlesnake and water snake,MK9 2FT,52.035511000000000,-0.759724000000000
Stilt and copperhead,MK9 2HS,52.037741665481700,-0.759034985336996
adder and Maya,MK9 2LD,52.042073000000000,-0.762939000000000
sidewinder and python,MK9 3BE,52.043207222119900,-0.756375706837804
Shearwater and Coati,MK9 3DF,52.039384815330500,-0.753711626972875
gopher snake and Vulture,MK9 3EJ,52.043264000000000,-0.760871712162347
agama and Parrotlet,MK9 3HL,52.043734313634100,-0.759466861760170
green turtle and box turtle,MK9 3PT,52.043573287468800,-0.750183163133897
Stint and thorn lizard,NN11 3BH,52.208708622458600,-1.115890975245740
Meadowlark and puff adder,NN11 3BN,52.212613676070500,-1.128400399426120
Ibex and Darwin's finches,NN12 6AA,52.133720653400000,-1.002131056600000
Black cockatoo and Eagle,NN12 6AF,52.130019000000000,-0.985735000000000
Macaw and bull snake,NN12 6DZ,52.129688793287600,-0.984091337058806
thorny devil and Asiatic leopard,NN12 6EN,52.125628226848600,-0.986564696864139
Komodo dragon and Rabbit,NN12 6HU,52.128090605167500,-0.991680213008518
diamondback terrapin and king snake,NN12 6HY,52.126531676719500,-0.984981162452465
swift and racer,NN12 6JL,52.124784711235800,-0.994106588773348
Philippine hawk-owl and smooth snake,NN12 6LU,52.128416458403500,-0.997209475278588
Gull and Parrotbill,NN12 6NE,52.122839000000000,-0.981572000000000
Treepie and glass snake,NN12 6NU,52.121058000000000,-0.974178000000000
Partridge and Tattler,NN12 6NX,52.119868000000000,-0.972803000000000
Recurvebill and bicycle lizard,NN12 6PG,52.140974028300000,-0.993406012400000
Fox and Parakeet,NN12 6RD,52.120731000000000,-0.988867000000000
worm lizard and Dorcopsis,NN12 6RN,52.130213277376700,-0.992830249641373
whip snake and Snipe,NN12 6YP,52.133018140750000,-0.997018518814445
Diving bird and deaf adder,NN12 7AS,52.138795716352500,-0.989232148567700
Dolphin and massasauga,NN12 7HX,52.158030000000000,-0.959472000000000
Komodo dragon and chameleon,NN12 7LE,52.121115537133600,-0.962859057858779
amethystine python and Bronzewing pigeon,NN12 7LP,52.115799684683400,-0.920527357977908
sea snake and caiman,NN12 7NQ,52.105095148559000,-0.951827372599184
Grouse and elapid,NN12 7PD,52.081653128455700,-0.891566249665475
Jerboa and Mole,NN12 7QN,52.074098775610700,-0.885639743491822
green turtle and Kākāriki,NN12 7RT,52.143468000000000,-0.938622000000000
Badger and diamond snake,NN12 7RX,52.145631072605400,-0.935326556568023
diamondback terrapin and puff adder,NN12 7SF,52.141380929369700,-0.916840399795959
bull snake and Ibex,NN12 7SR,52.113363000000000,-0.898987000000000
Duck and Marsh harrier,NN12 7XG,52.095434726583800,-0.885677589048043
boomslang and rattlesnake,NN12 8AT,52.173013744068200,-1.010333100364290
Wader and Hawaiian honeycreeper,NN12 8AY,52.142214521630000,-1.026929337476570
Mouse and Badger,NN12 8BG,52.138117270111900,-1.025060647598370
Schneider python and Gila monster,NN12 8DD,52.143127540705200,-1.018842917719260
Warbler and Goose,NN12 8DG,52.089168354270200,-1.022551672242270
Mole and tiger snake,NN12 8EB,52.130763664223400,-1.056119598652210
Schneider python and frill-necked lizard,NN12 8FW,52.112172323800000,-1.052598664400000
Minke whale and amphisbaena,NN12 8GS,52.116577128400000,-1.128273537300000
Recurvebill and Masked owl,NN12 8HG,52.168272246068600,-1.111589593788240
goanna and asp,NN12 8HL,52.167592268905400,-1.106076321182280
Nukupuʻu and cobra,NN12 8HX,52.167765713650600,-1.109991342126730
Maya and king cobra,NN12 8JU,52.182344106954400,-1.024123241846050
Old World quail and rock python,NN12 8LW,52.174531255584400,-1.045015748920820
Parakeet and pit viper,NN12 8NF,52.180582970793500,-1.008073674261050
box turtle and worm lizard,NN12 8NQ,52.179095348338900,-1.007580259612920
tree snake and Parrotlet,NN12 8PF,52.115962755818400,-1.066027218561180
deaf adder and cobra,NN12 8PN,52.118494000000000,-1.121529109947070
Diving bird and Goose,NN12 8RS,52.145556000000000,-1.090642557583400
Pitohui and Crow,NN12 8SH,52.106459819514500,-1.089062029664020
Kangaroo and Treepie,NN12 8SW,52.105923591264300,-1.085992134633840
Parrotlet and Kangaroo,NN12 8UH,52.090907270308000,-1.022995356433300
Wallaby and Parrotbill,NN12 8WJ,52.106462000000000,-1.085645000000000
Stint and garter snake,NN12 8XB,52.094443450563100,-1.034245669097900
Old World quail and Mouse,NN12 9BT,52.132186000000000,-0.988430000000000
soft-shelled turtle and Warbler,NN12 9SW,52.127929167620800,-1.001237700535300
Meadowlark and Logrunners,NN13 5GL,52.038529000000000,-1.142155000000000
Francolin and sea snake,NN13 5GW,52.016178195028500,-1.097861682502050
moloch and Mink,NN13 5HU,52.072199797497600,-1.081472123820810
snapping turtle and Booted eagles,NN13 5QN,52.092563724144800,-1.138608688974100
alligator and glass snake,NN13 5RP,52.001129056665200,-1.111099574883510
Piping shrike and bull snake,NN13 5RS,52.001353366164700,-1.114620336725010
sidewinder and Grosbeak,NN13 5RZ,52.013894351163400,-1.144870013437960
water snake and Black cockatoo,NN13 6AA,52.030084823867900,-1.157053143818760
python and Snipe,NN13 6AF,52.031196638435700,-1.153972000000000
flying dragon and Grackle,NN13 6BT,52.036843866461000,-1.143047366993920
flying dragon and gavial,NN13 6DQ,52.035029143076700,-1.156960184556650
Hawaiian honeycreeper and Perching duck,NN13 6EU,52.040723903615100,-1.146209888090980
leathery turtle and bearded dragon,NN13 6EX,52.041702487774400,-1.147255590767490
habu and black snake,NN13 6GY,52.046314000000000,-1.149207000000000
loggerhead and green turtle,NN13 6HT,52.032869925757200,-1.158021184868900
sand viper and Towhee,NN13 6LN,52.036040932667800,-1.150118563884780
Tahr and tortoise,NN13 6LY,52.034894996351100,-1.158318443998410
Tree warbler and jew lizard,NN13 6NB,52.040103457141700,-1.151178742608990
water snake and gopher snake,NN13 6NQ,52.038555664692700,-1.158512135071090
Mamo and Eagle,NN13 6NS,52.036154620313100,-1.162230916062800
Snipe and tokay,NN13 6QX,52.041937000000000,-1.138195000000000
Goose and gopher snake,NN13 7AL,52.029517948701200,-1.134660366990500
blue racer and thorny devil,NN13 7BN,52.033120779815600,-1.142929024228470
thorn lizard and Wallaby,NN13 7US,52.029270465490100,-1.146340521384640
Masked owl and mud turtle,NN4 0JN,52.201491000000000,-0.893168000000000
Vole and gopher snake,NN4 0NH,52.195435708508600,-0.900516245395597
worm lizard and dukite,NN4 0NT,52.194220867806400,-0.901365502828262
alligator and mud turtle,NN4 0RA,52.208164609555900,-0.906099912325037
giant tortoise and garter snake,NN4 0RP,52.207068911418000,-0.909640000000000
Mink and Rat,NN4 0TZ,52.206274330374600,-0.898931000000000
Mole and gecko,NN4 0YT,52.197756799134100,-0.897781449066096
kabaragoya and skink,NN4 5AL,52.189980000000000,-0.880542127560210
Tahr and Wallaby,NN4 5BR,52.185746301565400,-0.881666466009063
Condor and box turtle,NN4 5DQ,52.188441598605700,-0.876727631732426
harlequin snake and brown snake,NN4 5EL,52.188037000000000,-0.889889000000000
black snake and Grouse,NN4 5FB,52.184450000000000,-0.885151000000000
coral snake and puff adder,NN4 6AQ,52.203131278269600,-0.866245845888070
cerastes and Old World vulture,NN4 6AX,52.206015800966700,-0.878318718897648
bandy-bandy and Ice seal,NN4 6DR,52.214311014837700,-0.877026693505935
habu and Vulture,NN4 6ER,52.207823000000000,-0.876356000000000
rock snake and frill-necked lizard,NN4 6JD,52.198732351549300,-0.885817890883518
Greenbul and Vulture,NN4 6JJ,52.199720486448700,-0.880028180767341
Black jay and diamondback,NN4 6LN,52.199186216408600,-0.885323693274107
Pratincole and Logrunners,NN4 6RW,52.206382788557300,-0.887646084385735
Magpie and Chicken,NN4 7EX,52.220672891670400,-0.857908886089155
Mockingbird and tree snake,NN4 7NX,52.218650947866400,-0.837745314655794
Ibex and Hawk,NN4 8AP,52.224832282702200,-0.897272302976582
amphisbaena and thorn lizard,NN4 8BN,52.213919511652000,-0.899416000307793
snapping turtle and skink,NN4 8JP,52.221151618631300,-0.902692058564004
rock python and Mamo,NN4 8LS,52.219133000000000,-0.910793000000000
gecko and gopher snake,NN4 8NS,52.222904680524000,-0.899779495554904
hoop snake and diamondback turtle,NN4 8NT,52.222547042283600,-0.899993285503109
Asiatic leopard and Rat,NN4 8PT,52.219139236421200,-0.902858754667632
sand viper and Wallaby,NN4 8QR,52.219299353419800,-0.913365175971349
massasauga and Mole,NN4 9BH,52.213545405934600,-0.951150567635955
Myna and slowworm,NN4 9DF,52.215442235700000,-0.938752321500000
thorn lizard and bull snake,NN4 9QN,52.219091833424100,-0.939982674127784
Guillemot and monitor,NN4 9SE,52.217998137434000,-0.934343828399081
Petrel and Marmoset,NN4 9UD,52.215766359560200,-0.925190428324208
Warbler and Kākāriki,NN4 9UH,52.212032682946300,-0.924914624965598
snapping turtle and rat snake,NN4 9XB,52.216162703235600,-0.933202123514384
Lemming and death adder,NN4 9XT,52.213174062347200,-0.925853075052003
snapping turtle and Magpie,NN4 9YF,52.223134548922500,-0.927691623656589
mamba and swift,NN7 1BG,52.218969052444800,-0.801228851866269
Songlark and garter snake,NN7 1DS,52.212016938975300,-0.774748905033921
Elephant and Triller,NN7 2AE,52.188955157536800,-0.824227653368159
giant tortoise and gaboon viper,NN7 2BE,52.183616344711000,-0.801170357705249
Civet and Jay,NN7 2EE,52.182996691981000,-0.869566177422363
hoop snake and Duck,NN7 2FE,52.186785122100000,-0.845495311000000
Egret and Vulture,NN7 2FF,52.161490000000000,-0.898311000000000
Mouse and tree snake,NN7 2LB,52.149176571509600,-0.843954199889721
Quetzal and Petrel,NN7 2LN,52.161082830102000,-0.913248337331149
dugite and Rat,NN7 2NE,52.158386391650300,-0.904586817187618
Asiatic leopard and Mouse,NN7 2QA,52.173267256400200,-0.900828802348595
agamid and Ice seal,NN7 2QP,52.154064000000000,-0.891741000000000
Nukupuʻu and wall lizard,NN7 3AG,52.188959000000000,-0.920468000000000
Maya and death adder,NN7 3AX,52.192403695190500,-0.928635879491279
Badger and Dorcopsis,NN7 3BL,52.172616626124600,-0.944787084527418
Mink and River dolphin,NN7 3BS,52.176044506044500,-0.938037374759484
dugite and hoop snake,NN7 3BT,52.172056336136100,-0.938454026622889
bushmaster and Grackle,NN7 3BX,52.173656177493700,-0.939395717779880
Stilt and gopher snake,NN7 3DF,52.173158613408700,-0.929975000000000
Fish eagle and Minke whale,NN7 3DT,52.185744115458700,-0.950941695232467
grass snake and Minke whale,NN7 3EE,52.184248852434900,-0.948607329871390
cerastes and rock python,NN7 3HY,52.206215000000000,-0.957743742376102
Mole and boa,NN7 3JF,52.194479000000000,-0.982162000000000
black snake and Tit-tyrant,NN7 3JN,52.211681154420400,-0.952819042990101
Siskin and Logrunners,NN7 3JZ,52.215295000000000,-1.043703000000000
Jay and wall lizard,NN7 3PL,52.209840470642200,-1.007202809462300
Gull and diamond snake,NN7 3PP,52.209617445240500,-1.004207584848220
Puffleg and smooth snake,NN7 3QR,52.209920246522100,-1.012425795270870
Wader and Mole,NN7 3QZ,52.210856343508900,-1.005058020677210
galliwasp and Jerboa,NN7 3RH,52.207114333164100,-1.005902572527340
