name,postcode,lat,lon
black snake and Kākāriki,MK10 1SA,52.043551287996700,-0.760871712162347
leathery turtle and garter snake,MK10 1SG,52.043551287996700,-0.760871712162347
puff adder and Fulmarine petrel,MK10 1ST,52.043551287996700,-0.760871712162347
viper and Old World vulture,MK10 1SU,52.043551287996700,-0.760871712162347
leguaan and dugite,MK11 1AW,52.059360366482500,-0.857242724552003
Gull and thorn lizard,MK11 1BS,52.058248034130800,-0.850109504329731
agama and anole,MK11 1DN,52.057949020240500,-0.845274743624435
Chickadee and sand viper,MK11 1HE,52.050117486644400,-0.848918216469540
Gull and Herring gull,MK11 1HP,52.049644294820200,-0.841915973563218
bull snake and Jerboa,MK11 1JG,52.055376089271500,-0.847878830214829
Armadillo and water snake,MK11 1JH,52.052819138486500,-0.845684074072505
Greenbul and giant tortoise,MK11 1NN,52.055002977997100,-0.838262524245299
iguana and Kite,MK11 1NT,52.053870455275500,-0.839210708596408
snapping turtle and Prion,MK11 2BN,52.047913321203700,-0.834144548861221
amphisbaena and copperhead,MK11 2BQ,52.049619460215000,-0.827581567826449
Duck and Mink,MK11 4AB,52.046277000000000,-0.834945000000000
tokay and Old World quail,MK11 4AL,52.045219000000000,-0.832771000000000
Lemming and Perching duck,MK11 4BJ,52.043501000000000,-0.837683000000000
brown snake and dugite,MK11 4BP,52.043238000000000,-0.838389000000000
Grosbeak and boa constrictor,MK11 4BZ,52.044616000000000,-0.838631000000000
Perching duck and frilled lizard,MK11 9FH,52.047583885300000,-0.828772363100000
green turtle and Tit-tyrant,MK12 5BB,52.058754742388200,-0.817715720536469
Bronzewing pigeon and Booted eagles,MK12 5DS,52.055869680386800,-0.811564069679687
Warbler and Myna,MK12 5GQ,52.060851000000000,-0.830394000000000
racer and Dorcopsis,MK12 5GX,52.059602525816700,-0.832410838429480
puff adder and frilled lizard,MK12 5HE,52.060373458184300,-0.807039437642129
Ibex and Armadillo,MK12 5HF,52.060024228940300,-0.807180017631306
Darwin's finches and boomslang,MK12 5HJ,52.059155870892100,-0.810222467164615
White ibis and wall lizard,MK12 5HR,52.060079336610100,-0.810854322108453
glass snake and Diving bird,MK12 5JQ,52.063281000000000,-0.807169135478926
Black cockatoo and whip snake,MK12 5PE,52.063463205504800,-0.824622579086801
Jackal and gopher snake,MK12 6AR,52.052595000000000,-0.817499000000000
Peafowl and Crow,MK12 6HS,52.050636360427900,-0.798213322696400
Tit-tyrant and Pheasant,MK13 0AA,52.065903540160100,-0.790887000000000
Magpie and Towhee,MK13 0LG,52.057013756249800,-0.800244611847090
diamondback and Partridge,MK13 0LH,52.058280183045500,-0.797468552797806
Kite and Marsh harrier,MK13 0PQ,52.053734743929000,-0.792588147390300
Stilt and Masked owl,MK13 7AG,52.057368415598400,-0.786583051288976
terrapin and puff adder,MK13 7AY,52.059551898236300,-0.780353905620108
gaboon viper and Polecat,MK13 7DF,52.056658016773100,-0.786573126185462
bushmaster and Flameback,MK13 7DZ,52.066068836152100,-0.779330269497563
gavial and chuckwalla,MK13 7ES,52.057898592227500,-0.786554101957502
Peafowl and coral snake,MK13 7NG,52.055109878420700,-0.776843239726984
agama and iguana,MK13 7QR,52.049329435424900,-0.775192775511099
Polecat and Bronzewing pigeon,MK13 7UQ,52.063319339074800,-0.789091311586088
mamba and dugite,MK13 8AG,52.044644590679400,-0.765667932481194
Goose and Jay,MK13 8AJ,52.044575749445700,-0.766821759741647
cerastes and horned viper,MK13 8AN,52.046150576427100,-0.769534399669658
terrapin and Boto,MK13 8AT,52.047318174468800,-0.769414840908780
Fox and Parrotbill,MK13 8AW,52.046513778796900,-0.769014054412607
horned viper and black snake,MK13 8AZ,52.047798035297200,-0.771457786378462
sand viper and Asiatic leopard,MK13 8BW,52.044360336866200,-0.767717149257991
chuckwalla and Tahr,MK13 8DP,52.047641074011200,-0.772789088158738
Tahr and Eagle,MK13 8DW,52.047063950142900,-0.773490259094059
B and snake,MK13 8DX,52.046426128610500,-0.775272140008316
Jerboa and Bunting,MK13 8EA,52.048707745226200,-0.769026688545636
Triller and king cobra,MK13 8EE,52.048790011309400,-0.767434905907917
Parakeet and Greenbul,MK13 8EZ,52.044138649118900,-0.770493000000000
Chipmunk and Parakeet,MK13 8NF,52.043225688416200,-0.776176144639817
cobra de capello and Myna,MK13 8RD,52.042595505973700,-0.770915123228471
chameleon and wall lizard,MK13 8RF,52.041252594201900,-0.774057560883836
cerastes and python,MK13 8RN,52.042006982774200,-0.775059000000000
Rabbit and thorn lizard,MK13 8WX,52.047581333862500,-0.828772319088846
Black cockatoo and Meadowlark,MK13 9BG,52.047764006988500,-0.783780870530747
snake and Grackle,MK13 9DX,52.046898698378500,-0.780960841478639
king cobra and Komodo dragon,MK14 5AY,52.068638331070500,-0.755071250557951
indigo snake and monitor,MK14 5ED,52.071338957827700,-0.764786127165197
Fish eagle and thorn lizard,MK14 5HE,52.069600250875300,-0.755059091315402
Mockingbird and anaconda,MK14 6AQ,52.066233236797000,-0.770062123032521
Egret and Wallaby,MK14 6AR,52.063356966461600,-0.773598367158433
crocodile and blind snake,MK14 6BD,52.065184760250500,-0.766093779809130
Fulmarine petrel and Stint,MK14 6EF,52.064225659729600,-0.763800747926812
Old World vulture and Cuscus,MK14 6GF,52.072794412200000,-0.769604740400000
indigo snake and Thicketbird,MK14 6GH,52.072960457500000,-0.770869562800000
whip snake and Francolin,MK14 6GS,52.072481337000000,-0.769759250600000
horned viper and goanna,MK14 6JG,52.060514500878100,-0.754611525219830
Nukupuʻu and bushmaster,MK14 6LD,52.054620838000000,-0.770220676800000
Old World vulture and Pratincole,MK14 6TS,52.054889272841800,-0.760033035537217
hoop snake and Wader,MK14 7AS,52.048822818854100,-0.758567666127120
Thrasher and viper,MK14 7BE,52.050357256864600,-0.754018906757278
Perching duck and milk snake,MK14 7BS,52.047007110410300,-0.762890560450744
kabaragoya and Polecat,MK14 7DD,52.047171463808900,-0.762273567845049
pit viper and giant tortoise,MK14 7DW,52.050015000000000,-0.764076000000000
frilled lizard and Skunk,MK14 7DY,52.051481511999300,-0.761731563485586
black snake and Coati,MK16 8LT,52.100650217648200,-0.761392515746237
moloch and Mole,MK16 8LW,52.140741000000000,-0.793306000000000
Recurvebill and Stilt,MK16 8SQ,52.088148172002800,-0.752441257441331
blue racer and Parrotbill,MK17 0EY,52.003060063500300,-0.868612103419460
Fox and Egret,MK17 0NG,52.000273834413100,-0.829147783939025
amethystine python and thorny devil,MK18 1GY,52.007299522200000,-0.983222320400000
anole and bearded lizard,MK18 1LB,52.003864794909900,-0.985616310902605
sand viper and Bunting,MK18 1LH,52.005060554822700,-0.987701685187866
Maya and rattlesnake,MK18 1NP,52.000063386993100,-0.987916355183471
perentie and indigo snake,MK18 1NW,52.000150527114300,-0.987593923068812
saltwater crocodile and diamond python,MK18 1PW,52.008683985767600,-0.980408056155384
Fish eagle and chameleon,MK18 1RF,52.013951128959900,-0.977111837393106
gaboon viper and krait,MK18 1UD,52.005203690085600,-0.978243603369696
Capuchin and Macaw,MK18 1WR,52.000614000000000,-0.985908000000000
Pitohui and Quetzal,MK18 1YS,52.003018378472400,-0.971985566746108
Darwin's finches and Piping shrike,MK18 5AN,52.048649115137500,-0.998251940898097
gopher snake and ringhals,MK18 5BF,52.057132243746600,-0.959353025518017
Macaw and Linsang,MK18 5BJ,52.074750000000000,-0.959378000000000
kabaragoya and copperhead,MK18 5BP,52.058888491072400,-0.961733468997750
Triller and Triller,MK18 5DA,52.022191646962500,-1.030861681316300
lizard and Myna,MK18 5EZ,52.016246173210300,-0.926829952096608
brown snake and ringhals,MK18 5HB,52.032565259466800,-0.968144936365738
Black jay and Mamo,MK18 5HD,52.032350765520600,-0.966240262296689
Kākāriki and monitor,MK18 5LD,52.036829066205100,-1.028693783269650
deaf adder and whip snake,MK18 5ZR,52.000482000000000,-0.986261000000000
Rat and garter snake,MK18 7AS,52.002966723113600,-0.969160630119662
Dorcopsis and Viscacha,MK18 9DQ,52.000492000000000,-0.986242000000000
snapping turtle and hognose snake,MK19 6AF,52.063847150854400,-0.863780156187493
Petrel and goanna,MK19 6AN,52.063598972539900,-0.866279000000000
Old World vulture and worm lizard,MK19 6AS,52.060929856470300,-0.864277182648708
galliwasp and bicycle lizard,MK19 6EH,52.064119207558200,-0.864954852385105
jew lizard and Gila monster,MK19 6FJ,52.064522000000000,-0.869027000000000
deaf adder and bearded lizard,MK19 6GG,52.053463713900100,-0.886517727973329
green turtle and anaconda,MK19 6HN,52.049493000000000,-0.882037000000000
python and sand viper,MK19 6HQ,52.048310773878700,-0.888308190956357
king cobra and brown snake,MK19 6HR,52.049916294657100,-0.885993407537104
Snipe and Kite,MK19 6JF,52.053623137488700,-0.895818480208897
boa constrictor and Black jay,MK19 7BB,52.070016000000000,-0.862792000000000
bearded lizard and amphisbaena,MK19 7BD,52.071108704502800,-0.856535000000000
Bunting and thorny devil,MK19 7BT,52.117459671670300,-0.835135419143976
frilled lizard and diamondback turtle,MK19 7BU,52.120734037305300,-0.834392791690328
Ground sloth and Jerboa,MK19 7DN,52.084864000000000,-0.808620000000000
Jackal and giant tortoise,MK19 7DR,52.085987000000000,-0.806639481822720
Tahr and hognose snake,MK19 7EZ,52.076118744400000,-0.844893718900000
adder and kabaragoya,MK19 7FH,52.113959000000000,-0.834275000000000
coral snake and milk snake,MK19 7JP,52.075417604871800,-0.840592659574218
goanna and Eagle,MK19 7LX,52.113990327169800,-0.826185980508390
box turtle and Vole,MK19 7NY,52.114796224178300,-0.824952665219341
Quetzal and sidewinder,MK19 7ZS,52.047581333862500,-0.828772319088846
Mink and green turtle,MK3 7ET,52.001078332025400,-0.751629128579501
Stilt and leathery turtle,MK3 7HB,52.002920482983500,-0.752379117997780
Boto and Partridge,MK3 7HD,52.003067798256200,-0.753555024442892
python and perentie,MK3 7HU,52.000558085926300,-0.754294813660184
Kangaroo and Tit-tyrant,MK3 7NF,52.006592482060700,-0.751869087500370
dukite and Vole,MK3 7NJ,52.005774405779700,-0.751032283077233
New World blackbird and Marmoset,MK3 7QJ,52.000757217626700,-0.762097288830075
Parrotlet and jew lizard,MK3 7WG,52.002037281828300,-0.759847708213632
Vulture and Mamo,MK3 7WL,52.001491462487400,-0.758391483003497
ringhals and blue tongue,MK4 1AE,52.011012817188100,-0.758361123689572
Myna and Partridge,MK4 1DA,52.007544367606300,-0.759418684605637
Guillemot and Songlark,MK4 1ET,52.008522281496500,-0.759216809471304
boomslang and Petrel,MK4 2BJ,52.003410355557700,-0.767312295409937
dugite and sand viper,MK4 2BL,52.003411572795200,-0.768288319161388
Darwin's finches and Mamo,MK4 2DY,52.001263378090200,-0.776985693724637
mountain devil and Polecat,MK4 2EH,52.007483369978800,-0.778535343486084
whip snake and swift,MK4 2EU,52.008570013053000,-0.777544162632670
racer and Partridge,MK4 2JW,52.004025035656900,-0.774521244264346
cerastes and Hawk,MK4 4DY,52.006224589240500,-0.798645559195755
jew lizard and jew lizard,MK4 4TB,52.007551823792400,-0.803986000000000
water snake and viper,MK4 4TS,52.008269086056600,-0.807130000000000
Meadowlark and Armadillo,MK46 5AR,52.147483928177100,-0.760488156214655
Condor and giant tortoise,MK5 6AJ,52.015657000000000,-0.811887000000000
Pratincole and tree snake,MK5 6AS,52.023131968446100,-0.782394032511433
bandy-bandy and Peafowl,MK5 6AW,52.019363365496200,-0.783137565207966
smooth snake and iguana,MK5 6DH,52.024081585266400,-0.795179415594833
constrictor and dukite,MK5 6DP,52.017937391048700,-0.785231005215339
Stint and Herring gull,MK5 6DT,52.019785115568700,-0.783927654825968
python and Dorcopsis,MK5 6FF,52.017047971411500,-0.806108000000000
deaf adder and Parrotbill,MK5 6FY,52.017715302335500,-0.811803000000000
anaconda and Tree warbler,MK5 6GF,52.013333777300000,-0.795482769600000
Dorcopsis and crocodile,MK5 6HF,52.025705707891300,-0.790471704033753
Piping shrike and king snake,MK5 6LB,52.015689385777600,-0.793962211550725
Guillemot and Mockingbird,MK5 7BA,52.017185852697500,-0.771713526112242
rattlesnake and Guillemot,MK5 7DR,52.019029313795600,-0.774329916429391
Minke whale and skink,MK5 7ER,52.015548659389100,-0.779423203031750
frill-necked lizard and alligator,MK5 7FY,52.017792458259600,-0.772979310654690
Treepie and mud turtle,MK5 7GG,52.008766000000000,-0.790427466035569
terrapin and mud turtle,MK5 7HD,52.009957269938100,-0.785621924571779
gopher snake and Herring gull,MK5 8AS,52.033720811722500,-0.781260923043277
mountain devil and cayman,MK5 8EA,52.027207127818100,-0.782604037911494
Thicketbird and Marsh harrier,MK5 8FH,52.030966013242800,-0.776583724190475
hawksbill and Hawaiian honeycreeper,MK5 8HB,52.030370376429000,-0.789427526856709
Solitaire and bearded dragon,MK5 8PG,52.024281000000000,-0.767463952859449
Schneider python and thorn lizard,MK5 8RR,52.021484115613200,-0.765737103845571
hoop snake and gavial,MK6 2JB,52.029745151434000,-0.760422463821938
soft-shelled turtle and gaboon viper,MK6 2NA,52.032292313573500,-0.758967178835846
Kestrel and River dolphin,MK6 2ND,52.032715145094400,-0.759844703994427
Logrunners and Parrotlet,MK6 2QB,52.033407917816700,-0.753921536596543
cobra de capello and Perching duck,MK6 2QP,52.031570216473500,-0.751042601649480
Mink and Black jay,MK6 2RX,52.029408797598400,-0.760927363613965
Philippine hawk-owl and carpet snake,MK6 2SZ,52.029086000000000,-0.757562175694553
snake and rock snake,MK6 2TX,52.027448104891800,-0.759159568050635
Petrel and Tit-tyrant,MK6 2UE,52.027545000000000,-0.759627599746540
Booted eagles and wall lizard,MK6 2XN,52.031665841613800,-0.760952445040621
amethystine python and frill-necked lizard,MK6 5LF,52.023491776349800,-0.753176879099163
Warbler and Songlark,MK6 5LX,52.022354327600100,-0.751896826201765
Fish eagle and cycling lizard,MK6 5NB,52.024779124711600,-0.755881180472120
asp and boa constrictor,MK77 1BB,52.042087858939300,-0.818869917662657
bicycle lizard and Zebra,MK77 1LJ,52.042087858939300,-0.818869917662657
Grosbeak and rattlesnake,MK77 1QA,52.042087858939300,-0.818869917662657
Badger and Hawk,MK77 1TW,52.042087858939300,-0.818869917662657
rat snake and snake,MK77 1XY,52.042087858939300,-0.818869917662657
alligator and Nukupuʻu,MK8 0AB,52.029757713634600,-0.799851722946410
Pitohui and Ibex,MK8 0AU,52.025190634681000,-0.800775588911199
harlequin snake and frill-necked lizard,MK8 0BE,52.026228485083400,-0.801155943129790
Boto and Macaw,MK8 0DU,52.027314533382900,-0.805397597214886
saltwater crocodile and Darwin's finches,MK8 0DY,52.028217273207800,-0.808419935293724
Schneider python and saltwater crocodile,MK8 0EQ,52.027662749782500,-0.806044233000337
Snipe and Wader,MK8 0EW,52.029476819522100,-0.804946420969028
sand lizard and Dolphin,MK8 0HA,52.029024306055000,-0.805541534122801
Tree warbler and Meadowlark,MK8 0PW,52.023394828124800,-0.812556053523550
Fulmarine petrel and black snake,MK8 1AL,52.028293000000000,-0.813049000000000
Logrunners and chuckwalla,MK8 1BL,52.034685000000000,-0.812909000000000
bandy-bandy and Jerboa,MK8 1EH,52.031121000000000,-0.813513000000000
gavial and Magpie,MK8 8EA,52.039029496718800,-0.808015863277276
hoop snake and Solitaire,MK8 8HE,52.037665589453100,-0.802964028104698
cerastes and leguaan,MK8 8HR,52.042906872159300,-0.802911513743040
Scimitar babbler and Komodo dragon,MK8 8JF,52.040207666004300,-0.797428655578125
horned viper and Rat,MK8 8JT,52.037224887246600,-0.803835956524693
Night heron and thorn lizard,MK8 8JW,52.035935278719900,-0.805226175299894
Dolphin and amphisbaena,MK8 8JY,52.040802930142300,-0.798491612660277
Linsang and Perching duck,MK8 8LH,52.038248000000000,-0.800878000000000
Boto and Civet,MK8 9AD,52.032080048224600,-0.796582547898103
perentie and Black cockatoo,MK8 9AT,52.033897153243800,-0.795790294885234
Mole and Grosbeak,MK8 9BW,52.033408313710600,-0.792829568938464
bull snake and goanna,MK8 9DH,52.034295383873400,-0.802223079964211
Pheasant and Songlark,MK8 9DX,52.035022167335800,-0.796780550246837
boomslang and Fulmarine petrel,MK8 9EN,52.034742533618300,-0.795811319145375
sea snake and milk snake,MK9 1NL,52.040033341065800,-0.768594000000000
Francolin and Stint,MK9 1NR,52.040033341065800,-0.768361004831197
sidewinder and dukite,MK9 2PS,52.036267149988700,-0.759762000000000
Kite and milk snake,MK9 2PT,52.036995000000000,-0.758064000000000
grass snake and Francolin,MK9 2YH,52.041045679875700,-0.766291947815955
Perching duck and Recurvebill,MK9 3AF,52.043022157056700,-0.758436751161952
glass snake and glass snake,MK9 3AJ,52.044431000000000,-0.753834000000000
diamondback turtle and Nukupuʻu,NN11 3BE,52.213935398157200,-1.135751275910660
Coati and swift,NN11 3SH,52.138833118106700,-1.161475322433370
sea snake and saltwater crocodile,NN12 6AP,52.125695881864400,-0.980851587637892
Chipmunk and Moluccan boobook,NN12 6BW,52.122706250060400,-0.990764638279751
chameleon and Grosbeak,NN12 6DJ,52.131687329196200,-0.994886183705645
agamid and Stint,NN12 6DN,52.132091653983200,-0.999084676049408
Diving bird and turtle,NN12 6ET,52.131384237201100,-0.992029549212198
mud turtle and Cuscus,NN12 6FQ,52.125715000000000,-0.983493000000000
Scimitar babbler and box turtle,NN12 6HP,52.147830166447200,-0.986981551355290
boa and Petrel,NN12 6JT,52.127957648875800,-0.999294156025933
Mink and Tit-tyrant,NN12 6NJ,52.122434000000000,-0.976337000000000
gaboon viper and Philippine hawk-owl,NN12 6RF,52.120450846289000,-0.989866188823290
snapping turtle and frill-necked lizard,NN12 6RN,52.130213277376700,-0.992830249641373
flying lizard and chuckwalla,NN12 6RR,52.130813676388100,-0.992597574888949
Bronzewing pigeon and Chicken,NN12 6YP,52.133018140750000,-0.997018518814445
tortoise and iguana,NN12 7BF,52.102053000000000,-0.949329000000000
Hawk and Old World warbler,NN12 7HW,52.114388457918500,-0.899166584509173
Kestrel and indigo snake,NN12 7LQ,52.105531000000000,-0.940107000000000
Partridge and Hawk,NN12 7NN,52.103103450555400,-0.942237882119694
taipan and Goose,NN12 7PZ,52.080394044714800,-0.887700000000000
mountain devil and Viscacha,NN12 7RS,52.143264686680100,-0.937121975283602
Flameback and Buzzard,NN12 7SE,52.142461000000000,-0.914856000000000
Tahr and slowworm,NN12 7SZ,52.142378958978700,-0.915866336890348
Egret and Snipe,NN12 7UD,52.097431345815000,-0.891467238304755
Solitaire and Chicken,NN12 8AL,52.147137882617600,-1.022145376691200
frill-necked lizard and anole,NN12 8BB,52.140330805722300,-1.020935479566800
puff adder and Masked owl,NN12 8GR,52.066558000000000,-1.012906000000000
B and Ibex,NN12 8GS,52.116577128400000,-1.128273537300000
flying dragon and cerastes,NN12 8LY,52.172717348056300,-0.993362387855996
Boto and Rat,NN12 8NN,52.175679737253400,-1.011970325037950
horned viper and Black jay,NN12 8NP,52.173546819252100,-1.012792602218350
snapping turtle and Myna,NN12 8NR,52.170977020929900,-1.010831579834210
blue racer and American sparrow,NN12 8PY,52.118541520149500,-1.142781782078430
copperhead and leathery turtle,NN12 8QE,52.139503000000000,-0.998173000000000
tortoise and habu,NN12 8RH,52.148195111759400,-1.086749289360690
python and thorny devil,NN12 8RJ,52.146374771940300,-1.089694759631070
thorn lizard and Minke whale,NN12 8RN,52.146290731730900,-1.086963610578530
bull snake and adder,NN12 8SE,52.135815522040600,-1.111563162754270
Viscacha and milk snake,NN12 8TL,52.074960606258100,-1.022292877825460
flying lizard and Nukupuʻu,NN12 8WL,52.094071736300000,-1.020444843400000
Jay and Thrasher,NN12 8WR,52.089257000000000,-1.020766000000000
turtle and mountain devil,NN12 8XW,52.084728126460100,-0.991738145105623
Petrel and Jerboa,NN12 9SN,52.127929167620800,-1.001237700535300
Asiatic leopard and Marsh harrier,NN12 9TP,52.127929167620800,-1.001237700535300
snapping turtle and Bunting,NN13 5HS,52.069753860517600,-1.082572726368850
Wallaby and bearded lizard,NN13 5QG,52.079179000000000,-1.142544000000000
coral snake and garter snake,NN13 5TW,52.070538000000000,-1.101333000000000
Badger and gaboon viper,NN13 6AQ,52.028356938553800,-1.153062732636210
indigo snake and Ice seal,NN13 6AU,52.026199499591600,-1.151575000000000
Eagle and Kākāriki,NN13 6BY,52.036281227793000,-1.146046669368400
Old World warbler and jew lizard,NN13 6ET,52.041283559674300,-1.147759277567770
Prion and soft-shelled turtle,NN13 6GD,52.042430000000000,-1.147038000000000
racer and thorny devil,NN13 6GU,52.042766000000000,-1.147483000000000
Chipmunk and ringhals,NN13 6GW,52.043977000000000,-1.145839937900000
Magpie and soft-shelled turtle,NN13 6QF,52.040256932191000,-1.157532526341720
tokay and Elephant,NN13 6QR,52.043131000000000,-1.149166000000000
Kestrel and Badger,NN13 6YL,52.029522492406400,-1.146379451761530
Buzzard and diamond snake,NN13 7BW,52.031818000000000,-1.144165880216990
goanna and rock python,NN13 7DA,52.030919377884800,-1.143116868304650
harlequin snake and B,NN13 7EY,52.028556000000000,-1.140699000000000
Quetzal and rock snake,NN13 7JA,52.028975312905300,-1.137906690730800
brown snake and horned viper,NN13 9BG,52.029525000000000,-1.146363000000000
brown snake and diamondback,NN4 0FH,52.211848147968900,-0.903872603333673
Pheasant and Duck,NN4 0NG,52.195842780469000,-0.902715437569431
Kestrel and puff adder,NN4 0NQ,52.195767746730000,-0.900449531423967
deaf adder and Pratincole,NN4 0QA,52.213754276296100,-0.904850253490273
constrictor and Schneider python,NN4 0RL,52.210562229886200,-0.917486007215426
Vulture and dukite,NN4 0RN,52.211889582060300,-0.909316160345413
amphisbaena and turtle,NN4 0RT,52.209245278519100,-0.915059317236164
frill-necked lizard and Mamo,NN4 0SH,52.201751960789300,-0.896204728771103
agama and sand lizard,NN4 0SP,52.205121061598200,-0.902691811972907
sidewinder and Gila monster,NN4 0TE,52.203693442437700,-0.904834162412401
Pratincole and Schneider python,NN4 0YU,52.196278060709900,-0.895403932226471
Cuscus and Komodo dragon,NN4 5EB,52.193914834826000,-0.883129348115590
moloch and Partridge,NN4 6AQ,52.203131278269600,-0.866245845888070
Old World vulture and Guillemot,NN4 6BQ,52.204921174194800,-0.871951347877072
Warbler and diamondback,NN4 6DA,52.213891134905400,-0.883945778415208
Rabbit and Stint,NN4 6DB,52.214218000000000,-0.886089000000000
Chickadee and indigo snake,NN4 6EA,52.200641142891900,-0.884204508894487
krait and Flameback,NN4 6EZ,52.199986000000000,-0.883226000000000
Prion and flying lizard,NN4 6GB,52.209534115100000,-0.884040423400000
alligator and Zebra,NN4 6JF,52.197708752099300,-0.883107424592487
sidewinder and Stint,NN4 6JQ,52.200280480195600,-0.878404566520833
Parakeet and wall lizard,NN4 6LY,52.208114879064700,-0.890471000000000
Songlark and Coati,NN4 7AE,52.221566620313000,-0.855499771908153
gopher snake and American sparrow,NN4 7AL,52.219289649899800,-0.838694783383004
Condor and perentie,NN4 7BB,52.222128000000000,-0.864181000000000
carpet snake and racer,NN4 7BH,52.218009538605100,-0.867960326939368
indigo snake and milk snake,NN4 7EE,52.219401000000000,-0.864763000000000
Dorcopsis and gaboon viper,NN4 7RG,52.218533279003000,-0.878677000000000
Linsang and Francolin,NN4 8HS,52.224225081384400,-0.914211200900470
mountain devil and king snake,NN4 8HT,52.223282797034100,-0.918318654643476
milk snake and caiman,NN4 8HZ,52.224608230804300,-0.913835853457051
agama and Diving bird,NN4 8LJ,52.223816680114900,-0.908921525991176
soft-shelled turtle and Shearwater,NN4 8PN,52.220170481739700,-0.907415253918755
Stilt and perentie,NN4 8PQ,52.218914904704000,-0.907753463939760
skink and hoop snake,NN4 8PS,52.217545314519600,-0.905488918242538
kabaragoya and Macaw,NN4 8PY,52.217248211220200,-0.901573310151327
Kākāriki and Gila monster,NN4 8QW,52.221559506618600,-0.917657840709028
Black cockatoo and grass snake,NN4 8SG,52.223801059341900,-0.917969346805883
Chickadee and Stint,NN4 9DB,52.216139809900000,-0.938340491500000
White ibis and Egret,NN4 9DQ,52.214429000000000,-0.928326000000000
fer-de-lance and Egret,NN4 9DT,52.214125919600000,-0.938344586300000
Masked owl and Skunk,NN4 9EZ,52.221497000000000,-0.957844000000000
Marmoset and Old World vulture,NN4 9QZ,52.218201988721100,-0.939008471704432
alligator and Snipe,NN4 9RG,52.223330201226800,-0.922519098059414
Pratincole and bearded lizard,NN4 9UU,52.222321214854100,-0.935177284303728
Skunk and Treepie,NN4 9XT,52.213174062347200,-0.925853075052003
ringhals and Treepie,NN7 1BE,52.220016977686400,-0.800834670363211
blue tongue and Towhee,NN7 1DT,52.213515601448500,-0.772705000000000
Mouse and thorny devil,NN7 2AN,52.188174719185900,-0.818104361877542
Peafowl and monitor,NN7 2AQ,52.188133595371600,-0.822084339872462
indigo snake and Grackle,NN7 2BD,52.185478804561700,-0.802188078127861
chuckwalla and Fox,NN7 2DD,52.183688907533000,-0.824468921651535
garter snake and Parakeet,NN7 2DR,52.181847784677800,-0.804976847922874
Hawaiian honeycreeper and Mockingbird,NN7 2EG,52.171128000000000,-0.857128070493028
gavial and Jerboa,NN7 2HW,52.146935000000000,-0.855543000000000
gopher snake and leathery turtle,NN7 2JB,52.146248843044700,-0.857212281111484
elapid and tortoise,NN7 2JH,52.143549742264800,-0.882358272162867
cobra and Pheasant,NN7 2JN,52.142355312461700,-0.886304498766643
rattlesnake and flying lizard,NN7 2LA,52.148819343780400,-0.845118062484126
Gila monster and box turtle,NN7 2QB,52.169369074479500,-0.913865321428724
Piping shrike and carpet snake,NN7 2QF,52.169426470341300,-0.873009961693140
Perching duck and glass snake,NN7 2QX,52.156006000000000,-0.891649000000000
amethystine python and saltwater crocodile,NN7 3AB,52.194347061553800,-0.939737350514506
Jerboa and Parrotlet,NN7 3AN,52.194893157015200,-0.923587089578308
Maya and Moluccan boobook,NN7 3AZ,52.186103429259200,-0.923945591416344
amethystine python and amphisbaena,NN7 3DJ,52.174052887814500,-0.935525681116405
frilled lizard and anaconda,NN7 3EX,52.184650129451100,-0.972732332237896
soft-shelled turtle and hognose snake,NN7 3JE,52.202320669353200,-0.954385000000000
gaboon viper and Perching duck,NN7 3LF,52.221978451347800,-1.038772338589880
tuatara and Vulture,NN7 3PF,52.207585361611400,-1.013823920614290
Snipe and dugite,NN7 3PP,52.209617445240500,-1.004207584848220
bull snake and Chipmunk,NN7 3PS,52.210184617175800,-1.004297353447580
Fulmarine petrel and B,NN7 4TE,52.218693998537700,-1.060506000000000
