name,postcode,lat,lon
Tit-tyrant and River dolphin,MK11 1AB,52.057518442201600,-0.854591400745383
Tahr and Ice seal,MK11 1AG,52.056515439692800,-0.851306213343247
bull snake and deaf adder,MK11 1AR,52.059153000000000,-0.854331000000000
Booted eagles and Buzzard,MK11 1BL,52.057201998047800,-0.856262228801330
python and River dolphin,MK11 1DA,52.059091723876000,-0.844443050684174
perentie and American sparrow,MK11 1EH,52.057966576933200,-0.846149430765954
Chicken and tuatara,MK11 1FD,52.056663287392600,-0.853563132398882
Rabbit and puff adder,MK11 1HR,52.055931309751800,-0.851467000000000
Condor and frill-necked lizard,MK11 1NZ,52.052284846623300,-0.841628956788858
massasauga and puff adder,MK11 1PA,52.051932000000000,-0.838517000000000
tuatara and frill-necked lizard,MK11 4AZ,52.043825000000000,-0.833212000000000
Snipe and boa constrictor,MK11 4BA,52.042318000000000,-0.832668000000000
Scimitar babbler and Kangaroo,MK11 4BT,52.045326000000000,-0.840347000000000
Greenbul and Warbler,MK11 4DF,52.045405000000000,-0.842897000000000
Mouse and rattlesnake,MK11 4DL,52.046589000000000,-0.839921000000000
skink and Tattler,MK12 5BA,52.059379056696000,-0.818107652272207
chuckwalla and Piping shrike,MK12 5EH,52.054873737729900,-0.809096509781818
frilled lizard and Tit-tyrant,MK12 5EL,52.056312955163700,-0.802947056417095
Coati and Black jay,MK12 5FZ,52.065039174900000,-0.823720630100000
Pheasant and diamond snake,MK12 5GE,52.059324326600000,-0.827677711000000
Mole and diamond snake,MK12 5HZ,52.061012846772000,-0.808918676939949
Recurvebill and Songlark,MK12 5NE,52.058811000000000,-0.834955000000000
blind snake and Mouse,MK12 5PA,52.061803948128300,-0.830457142356459
diamondback terrapin and Partridge,MK12 5PL,52.063921960712000,-0.826448578856859
diamondback and brown snake,MK12 5ZQ,52.047583885300000,-0.828772363100000
milk snake and hoop snake,MK12 6AW,52.052241000000000,-0.820790000000000
Kestrel and Lemming,MK12 6HQ,52.053352392400700,-0.805359645063549
Viscacha and indigo snake,MK12 6HU,52.049840457701400,-0.799517983261044
boa and diamond snake,MK12 6LJ,52.053580447698000,-0.828075857001858
Fox and Parrotlet,MK13 0AU,52.064199455123200,-0.797776404369117
Eagle and sidewinder,MK13 0BU,52.065307610934400,-0.790087887750319
Mink and horned viper,MK13 0DY,52.065652634131800,-0.800975973606120
Grosbeak and sand viper,MK13 0EF,52.065149407800400,-0.787816422709214
Bronzewing pigeon and Gull,MK13 0ES,52.065163897085200,-0.785729934507925
moloch and Tree warbler,MK13 0PA,52.055562912047100,-0.791124128243621
elapid and turtle,MK13 0PS,52.052817048966600,-0.790775291453406
dugite and Solitaire,MK13 0QA,52.057323647702500,-0.789224244568015
frilled lizard and Darwin's finches,MK13 0QJ,52.055111101992800,-0.788277700143059
Marmoset and frilled lizard,MK13 0QN,52.053719367881300,-0.788461190843696
Bunting and turtle,MK13 7AA,52.063195570614400,-0.786673143315739
smooth snake and rat snake,MK13 7ES,52.057898592227500,-0.786554101957502
goanna and sea snake,MK13 7EU,52.060687625716400,-0.780629294612274
Recurvebill and Polecat,MK13 7EX,52.052099092100000,-0.773265009900000
bandy-bandy and kabaragoya,MK13 7FA,52.063309569668000,-0.786202000000000
gavial and mud turtle,MK13 7JH,52.062562045309900,-0.788017746991195
frilled lizard and Masked owl,MK13 7LQ,52.053519444891800,-0.779541010518789
River dolphin and king snake,MK13 7ND,52.055791552349400,-0.775818256850950
Fox and Flameback,MK13 7NZ,52.050095984256100,-0.776280141340504
Bronzewing pigeon and Mamo,MK13 7PE,52.049206055141000,-0.777164839830151
Parrotbill and mamba,MK13 7PS,52.052890355639900,-0.773505749153754
tortoise and Stint,MK13 8BD,52.047825338007400,-0.769765472774223
Zebra and Skunk,MK13 8BE,52.044830940753400,-0.768870726144334
gopher snake and puff adder,MK13 8NE,52.044227463117200,-0.774807307488954
blue racer and diamond python,MK13 8PQ,52.042810272025000,-0.779468172848999
anaconda and Pheasant,MK13 9AG,52.048229123860900,-0.787909694115638
Greenbul and mamba,MK13 9AW,52.050484496174700,-0.791275750090844
giant tortoise and Pitohui,MK13 9BN,52.051376635072300,-0.787970372099998
Dorcopsis and Kite,MK13 9EJ,52.047995068893400,-0.785262012673903
rattlesnake and worm lizard,MK13 9EL,52.048280718952300,-0.784189739257178
Polecat and Parakeet,MK13 9HG,52.045739910411600,-0.794174274319773
wall lizard and Parrotlet,MK13 9HZ,52.043661481185600,-0.784402557715474
frilled lizard and sidewinder,MK14 5AQ,52.075588464154800,-0.754221330605678
Cuscus and anole,MK14 5DW,52.067704736327700,-0.762041550101024
gavial and boa,MK14 5EX,52.064303983322600,-0.753309928107436
New World blackbird and fer-de-lance,MK14 5FD,52.080926000000000,-0.751242000000000
Magpie and gopher snake,MK14 5FQ,52.079582000000000,-0.752520000000000
Boto and Wader,MK14 5FR,52.078261384800000,-0.754234588500000
indigo snake and Fish eagle,MK14 6AF,52.066271831040200,-0.773766532797779
thorny devil and Asiatic leopard,MK14 6AL,52.064829720560100,-0.773426738157083
puff adder and bicycle lizard,MK14 6AR,52.063356966461600,-0.773598367158433
Bronzewing pigeon and rattlesnake,MK14 6BE,52.065415255104500,-0.765781075921656
Bronzewing pigeon and Herring gull,MK14 6BX,52.063040932611600,-0.762287187268304
dugite and goanna,MK14 6DG,52.062754525608500,-0.762411802167925
K훮k훮riki and king cobra,MK14 6ES,52.055681000000000,-0.771208477982408
crocodile and water snake,MK14 6FE,52.059499206872600,-0.760649304565380
chameleon and Tahr,MK14 6FS,52.071677000000000,-0.774669000000000
Jerboa and Armadillo,MK14 6HE,52.060054483748400,-0.752771836966389
tortoise and chameleon,MK14 6HG,52.058677923580200,-0.750986920181690
green turtle and perentie,MK14 6TA,52.060263186911700,-0.767483825133259
king cobra and hawksbill,MK14 7BB,52.048847711786200,-0.757400000000000
Francolin and Parrotbill,MK14 7BE,52.050357256864600,-0.754018906757278
Piping shrike and Linsang,MK14 7BN,52.047066000000000,-0.759827000000000
Komodo dragon and amethystine python,MK14 7BP,52.045906531121300,-0.762541819268414
Dorcopsis and Buzzard,MK14 7DJ,52.048577588544000,-0.759186935280385
Skunk and galliwasp,MK16 8TW,52.086401070585200,-0.750475855686550
Treepie and goanna,MK16 8UA,52.129550618658100,-0.778195000000000
python and Tit-tyrant,MK17 0HL,52.002209459022700,-0.888824084466738
sand viper and Moluccan boobook,MK17 0HQ,52.016164679877500,-0.905265375910355
Parrotlet and galliwasp,MK18 1JU,52.000197851032000,-0.987869623162799
perentie and Old World warbler,MK18 1LD,52.004834043266400,-0.986453927918532
Quetzal and viper,MK18 1LL,52.005233603470600,-0.987960011969439
Pitohui and anaconda,MK18 1NS,52.000329436841500,-0.987487920442883
Grackle and krait,MK18 1SB,52.000941000000000,-0.985260000000000
Recurvebill and Macaw,MK18 1TQ,52.000482000000000,-0.986261000000000
Mouse and Lemming,MK18 1TS,52.005618648220600,-0.980477701446466
Songlark and Wallaby,MK18 1UW,52.002656798015000,-0.984201429737074
Vole and cayman,MK18 1XR,52.003005013422900,-0.974578912326070
boa constrictor and Egret,MK18 5AJ,52.050279000000000,-0.990034000000000
Jerboa and Myna,MK18 5BD,52.058228420601000,-0.960290208397790
Old World warbler and Recurvebill,MK18 5BN,52.033885603507500,-0.986642764306733
Badger and Guillemot,MK18 5DT,52.005661089870600,-1.051221151310320
dukite and pit viper,MK18 5DU,52.004745338364400,-1.051386192048240
constrictor and Bunting,MK18 7AT,52.001991381063000,-0.976918272267887
Fulmarine petrel and goanna,MK18 7AU,52.001313208363800,-0.967202914944433
Gull and Shearwater,MK18 7BF,52.002059236826700,-0.977484851231915
Myna and rat snake,MK18 7BG,52.001167737838900,-0.972159057511805
Rabbit and elapid,MK18 8AX,52.000492000000000,-0.986242000000000
frill-necked lizard and thorny devil,MK19 6AE,52.062867930783800,-0.863863350411245
milk snake and Elephant,MK19 6BE,52.060693300587700,-0.867725601723892
taipan and sidewinder,MK19 6BW,52.048166145536600,-0.913291437666017
green turtle and Duck,MK19 6DJ,52.065811909149600,-0.866137353311121
Kite and Black jay,MK19 6EP,52.038296143466600,-0.822716718235051
Pratincole and Meadowlark,MK19 6GP,52.053224717705300,-0.889775915216120
slowworm and Asiatic leopard,MK19 6GU,52.050042885848600,-0.887973552214218
hoop snake and perentie,MK19 6HJ,52.048088203024900,-0.886636737811828
Old World warbler and snapping turtle,MK19 6HZ,52.052090645533500,-0.895243000000000
worm lizard and Mamo,MK19 6JR,52.047587000000000,-0.895340000000000
Vole and Black jay,MK19 6LG,52.052188000000000,-0.879829342000000
rat snake and iguana,MK19 6XB,52.047583885300000,-0.828772363100000
Jackal and leguaan,MK19 7AJ,52.077002587444800,-0.806610853369523
Schneider python and Kite,MK19 7AL,52.076466000000000,-0.804145000000000
Greenbul and Vulture,MK19 7BU,52.120734037305300,-0.834392791690328
Parrotbill and Towhee,MK19 7DD,52.125258898664600,-0.841023481567394
diamondback terrapin and Viscacha,MK19 7DL,52.085509000000000,-0.780162737184525
Night heron and Chicken,MK19 7JF,52.077003913272300,-0.849248323054233
krait and Old World warbler,MK19 7JL,52.076232370232500,-0.842074492004593
Parakeet and brown snake,MK19 7LD,52.115922455906800,-0.831524334942704
water snake and boa constrictor,MK19 7LG,52.114448000000000,-0.831373000000000
krait and Night heron,MK19 7NP,52.115855310713900,-0.825669655512587
Badger and boa constrictor,MK3 7JT,52.000748291620500,-0.750181591351505
anole and leguaan,MK3 7ND,52.005859277784900,-0.752253702815095
habu and Flameback,MK4 1AE,52.011012817188100,-0.758361123689572
jew lizard and Hawaiian honeycreeper,MK4 1HD,52.009895389777000,-0.765822815357743
Hawk and Grouse,MK4 1HE,52.009356694622300,-0.766755540600599
turtle and Lemming,MK4 2AL,52.003001750483400,-0.768649196577507
harlequin snake and Snipe,MK4 2BD,52.008582008054700,-0.776101436980669
Dolphin and galliwasp,MK4 2DH,52.001446667681700,-0.771270289344273
Myna and sea snake,MK4 2HJ,52.003061684334900,-0.775261378060013
habu and Night heron,MK4 2HU,52.003585000000000,-0.776223000000000
mountain devil and milk snake,MK4 2RH,52.002556915756400,-0.777737099683416
Marmoset and Elephant,MK4 4AW,52.001089372467900,-0.803823280742222
sand viper and viper,MK4 4DE,52.004426065600500,-0.795095335751006
Cuscus and Argus,MK4 4EH,52.001143923760000,-0.804768697022801
perentie and cayman,MK4 4EP,52.004015649489700,-0.807780663396856
Duck and Treepie,MK4 4FQ,52.003289289926200,-0.799293000000000
Jerboa and Mouse,MK4 4HZ,52.010047281300000,-0.800306298000000
thorn lizard and Meadowlark,MK4 4JX,52.003267716400000,-0.800283592900000
Tattler and Grackle,MK4 4TE,52.008425000000000,-0.803599000000000
Chipmunk and Marmoset,MK4 4TN,52.007910392885800,-0.805273224340170
puff adder and gopher snake,MK46 5AG,52.148541869595500,-0.759348014229326
Old World warbler and Kestrel,MK46 5AT,52.149045822074100,-0.760985000000000
Masked owl and wall lizard,MK5 6AA,52.012794142258200,-0.798353072063623
diamondback terrapin and Kangaroo,MK5 6BF,52.016665115352400,-0.811233271309280
Gull and Macaw,MK5 6BG,52.022563376506000,-0.781316403811869
massasauga and python,MK5 6BP,52.020405653973500,-0.781331316072880
milk snake and carpet snake,MK5 6BQ,52.022383302608900,-0.781292148999311
giant tortoise and bicycle lizard,MK5 6DY,52.027781935223700,-0.794788468111757
Petrel and dugite,MK5 6GF,52.013333777300000,-0.795482769600000
chuckwalla and Parrotbill,MK5 6GJ,52.017816000000000,-0.792535000000000
Night heron and Mouse,MK5 6GP,52.017736000000000,-0.795306000000000
king cobra and Bronzewing pigeon,MK5 6HF,52.025705707891300,-0.790471704033753
Gull and cycling lizard,MK5 6HQ,52.025144000000000,-0.786453245187643
asp and bicycle lizard,MK5 6JN,52.019320038035800,-0.788530811013235
Hawk and Recurvebill,MK5 6LT,52.021727596248700,-0.795344674286066
Flameback and bull snake,MK5 7AB,52.013726000000000,-0.785622000000000
indigo snake and bandy-bandy,MK5 7AU,52.020486572839200,-0.776126359434736
Vole and lizard,MK5 7BE,52.019695727685300,-0.773568466268887
python and diamond snake,MK5 7BT,52.013749799716600,-0.776761874953482
boomslang and boa,MK5 7BY,52.015606873197300,-0.775501759885425
box turtle and terrapin,MK5 7DZ,52.017389132190500,-0.776560618794284
anaconda and Capuchin,MK5 7FQ,52.012673108131900,-0.783056767858770
Thrasher and Philippine hawk-owl,MK5 8AE,52.032475961427200,-0.778262656653483
Condor and cayman,MK5 8AZ,52.030594547974600,-0.778911578506852
Gull and Bronzewing pigeon,MK5 8BQ,52.033546886561300,-0.779224760051466
turtle and Peafowl,MK5 8DD,52.029695753995100,-0.791151196648648
hoop snake and Tit-tyrant,MK5 8DG,52.030806140478800,-0.791587717143449
Meadowlark and Darwin's finches,MK5 8DS,52.031530209504500,-0.787676106854159
Polecat and Chipmunk,MK5 8ER,52.026265580268100,-0.782848232555725
Black cockatoo and massasauga,MK5 8EU,52.025489899249500,-0.780872488824617
flying dragon and bandy-bandy,MK5 8GH,52.023229000000000,-0.775041000000000
K훮k훮riki and Stilt,MK5 8PG,52.024281000000000,-0.767463952859449
iguana and agamid,MK6 1NJ,52.022568713550700,-0.756015375408382
Tahr and Linsang,MK6 2AR,52.029785672283700,-0.751485884393755
massasauga and mamba,MK6 2JD,52.030367692442000,-0.758918418624346
Bronzewing pigeon and Parrotbill,MK6 2NE,52.030740760515800,-0.756779861609836
loggerhead and Maya,MK6 2QF,52.034092171662600,-0.753159037343449
viper and moloch,MK6 2QS,52.030457368601400,-0.750388493173076
perentie and New World blackbird,MK6 2RG,52.031064260072100,-0.759321868852775
diamondback terrapin and diamondback terrapin,MK6 2SL,52.029920218400000,-0.754003898581831
Guillemot and Marmoset,MK6 2TH,52.034699164001000,-0.756145263905760
Perching duck and racer,MK6 2TQ,52.026887285577200,-0.758839847987274
Buzzard and Gila monster,MK6 2UE,52.027545000000000,-0.759627599746540
taipan and cerastes,MK6 2XE,52.033144865140000,-0.761378051248254
Parakeet and Wader,MK6 5NB,52.024779124711600,-0.755881180472120
Dolphin and Tattler,MK77 1AD,52.042087858939300,-0.818869917662657
Jerboa and Myna,MK8 0BH,52.026304520880800,-0.804214746722942
krait and chameleon,MK8 0BP,52.025444440816600,-0.805403693055242
anole and Towhee,MK8 0EB,52.028292120792400,-0.806931188854399
Darwin's finches and Parrotlet,MK8 0EQ,52.027662749782500,-0.806044233000337
cayman and American sparrow,MK8 0EW,52.029476819522100,-0.804946420969028
Tattler and Fish eagle,MK8 0LX,52.022160000000000,-0.806747468877337
alligator and tokay,MK8 0NA,52.025267794498100,-0.809270792222120
Parrotbill and Gila monster,MK8 0NG,52.022971089690500,-0.806212870298724
Capuchin and Civet,MK8 0NN,52.024298621064400,-0.810345909072662
Polecat and Wader,MK8 0PW,52.023394828124800,-0.812556053523550
Argus and terrapin,MK8 1AL,52.028293000000000,-0.813049000000000
Recurvebill and Myna,MK8 1BF,52.035651000000000,-0.811556000000000
dukite and alligator,MK8 1BP,52.032068000000000,-0.808565000000000
Civet and Viscacha,MK8 1BU,52.030498000000000,-0.821270000000000
habu and blue tongue,MK8 1DD,52.029614000000000,-0.816512000000000
taipan and moloch,MK8 1DL,52.030909000000000,-0.819248000000000
Stilt and Fish eagle,MK8 1EA,52.027182000000000,-0.816037000000000
American sparrow and puff adder,MK8 9AN,52.034414771458700,-0.795411938284920
Gila monster and elapid,MK8 9BN,52.032931915406900,-0.792842397627488
Parrotbill and Chicken,MK8 9DU,52.034662854789800,-0.797694039435311
lizard and leathery turtle,MK9 1AY,52.039652120883900,-0.771462398178256
Kite and Parrotlet,MK9 1FD,52.036370000000000,-0.767879000000000
mountain devil and tiger snake,MK9 1FH,52.032747000000000,-0.770378000000000
soft-shelled turtle and Egret,MK9 1SH,52.037239000000000,-0.764997000000000
Towhee and Prion,MK9 2AZ,52.039114524739600,-0.767336521683674
Armadillo and green turtle,MK9 2BQ,52.037955997089800,-0.764029735825962
Perching duck and gopher snake,MK9 2DB,52.037555608685600,-0.763574244954291
Marsh harrier and Buzzard,MK9 2FP,52.036644000000000,-0.762316000000000
Ibex and horned toad,MK9 3AR,52.044073813408000,-0.758407612965215
Meadowlark and tree snake,MK9 3BG,52.043868000000000,-0.753252000000000
Jackal and boomslang,MK9 3BS,52.046914047535900,-0.754056331307415
amphisbaena and bandy-bandy,MK9 3DZ,52.047259000000000,-0.755966991375363
Hawk and puff adder,MK9 3ES,52.042595089049900,-0.758011160296240
Guillemot and Puffleg,NN11 3TF,52.182207016008200,-1.143094246810000
caiman and Mamo,NN12 6AZ,52.126872564239800,-0.985937545903342
ringhals and iguana,NN12 6BX,52.132623000000000,-0.989562000000000
whip snake and racer,NN12 6EJ,52.124623079237100,-0.986777387861276
jew lizard and Fish eagle,NN12 6FH,52.133431054200000,-1.002970302600000
Macaw and boa constrictor,NN12 6LT,52.129390759494200,-0.997596653362780
Old World quail and blue racer,NN12 6NB,52.133430000000000,-0.989907000000000
Puffleg and agama,NN12 6NE,52.122839000000000,-0.981572000000000
Black jay and taipan,NN12 6UT,52.132273767466600,-0.953761095342602
pit viper and lizard,NN12 6YH,52.131636769414800,-1.001636926588620
dugite and Moluccan boobook,NN12 6YL,52.131663891248700,-1.002717426425140
Fox and anaconda,NN12 6YZ,52.133388790712000,-0.989880461132149
skink and jew lizard,NN12 7AZ,52.142192467051200,-0.985881954468408
Triller and Gila monster,NN12 7GB,52.103885112900000,-0.952950895900000
cycling lizard and Dorcopsis,NN12 7LS,52.110982000000000,-0.929464000000000
Old World quail and swift,NN12 7NZ,52.103547446935200,-0.964916406049024
Grackle and Prion,NN12 7PW,52.080085969431900,-0.892116000000000
tuatara and worm lizard,NN12 7SA,52.142191330156100,-0.920897791856947
loggerhead and Philippine hawk-owl,NN12 7TH,52.096352545116800,-0.891479377081631
perentie and Fox,NN12 7TP,52.093797550430600,-0.882740523750942
Flameback and sand lizard,NN12 7UL,52.095092356313900,-0.888576000000000
Tree warbler and turtle,NN12 8AT,52.173013744068200,-1.010333100364290
diamond snake and Guillemot,NN12 8BE,52.139271878765900,-1.022259162131560
Dorcopsis and Thicketbird,NN12 8DF,52.142177907247100,-1.025761098925100
Tree warbler and Hawaiian honeycreeper,NN12 8DY,52.158727199872200,-1.131324239635160
Tit-tyrant and iguana,NN12 8EA,52.129734090480900,-1.078273742770670
Duck and cobra,NN12 8EJ,52.130378606219700,-1.054067855829100
Warbler and milk snake,NN12 8FB,52.184442323836600,-1.012639150597740
sea snake and frill-necked lizard,NN12 8GX,52.078144820511000,-1.023551201340740
boa and massasauga,NN12 8JL,52.179269230879100,-1.042779032892690
Grackle and tiger snake,NN12 8LL,52.176835950245600,-1.049850915426400
Chipmunk and Recurvebill,NN12 8LW,52.174531255584400,-1.045015748920820
king cobra and Thicketbird,NN12 8PH,52.115637675963300,-1.094672881633310
pit viper and constrictor,NN12 8PR,52.114998263748700,-1.126624000000000
crocodile and taipan,NN12 8RG,52.147928937592600,-1.087207791716370
bull snake and grass snake,NN12 8SP,52.105812735248000,-1.083396000000000
Black jay and Vulture,NN12 8UT,52.088674386260700,-1.023700910066620
blind snake and soft-shelled turtle,NN12 8XD,52.090503000000000,-0.990881267368154
Diving bird and massasauga,NN12 8XE,52.086906230681100,-0.988857649834459
Asiatic leopard and king snake,NN12 8XW,52.084728126460100,-0.991738145105623
chuckwalla and Stint,NN12 9SE,52.127929167620800,-1.001237700535300
anaconda and tree snake,NN12 9TD,52.127929167620800,-1.001237700535300
Civet and amethystine python,NN13 5HP,52.069091221261700,-1.084074383595070
Macaw and anole,NN13 5PX,52.092002661563300,-1.078657190283590
Kite and sand lizard,NN13 5QZ,52.081420167085900,-1.134386901440840
Meadowlark and frilled lizard,NN13 5RZ,52.013894351163400,-1.144870013437960
frill-necked lizard and Kite,NN13 5TQ,52.050610875232300,-1.111285000000000
copperhead and Black cockatoo,NN13 5TR,52.056443000000000,-1.078371333392840
agamid and Grouse,NN13 6AL,52.029250741938200,-1.148397000000000
rock python and leguaan,NN13 6DF,52.026739053454900,-1.150630083484140
Philippine hawk-owl and frill-necked lizard,NN13 6EN,52.030747340118400,-1.149154817944740
Civet and Badger,NN13 6GR,52.043235000000000,-1.142648000000000
swift and Prion,NN13 6JQ,52.031705701158300,-1.153640858971630
Mockingbird and Cloud rat,NN13 6LY,52.034894996351100,-1.158318443998410
Shearwater and Grouse,NN13 6PL,52.036552737705700,-1.158797563251620
Fulmarine petrel and loggerhead,NN13 6PW,52.041559522894200,-1.154869066039920
tokay and indigo snake,NN13 6QD,52.042817942797200,-1.157338585324060
Mockingbird and Magpie,NN13 6QG,52.040883811446400,-1.157185409501430
Armadillo and bearded lizard,NN13 6QU,52.042867000000000,-1.138862000000000
horned toad and cerastes,NN13 7DJ,52.030228531312900,-1.142080575609220
gecko and cycling lizard,NN13 7EW,52.024430553207800,-1.149682741838290
cayman and Badger,NN13 7FE,52.029687952700000,-1.148827000000000
bicycle lizard and mamba,NN13 7HH,52.028698731550800,-1.145608038856460
Ice seal and harlequin snake,NN13 7NJ,52.029711304812900,-1.140195572407210
Rat and bearded dragon,NN13 7NL,52.030039393387500,-1.138338097149030
Ice seal and Skunk,NN4 0FG,52.211859600955600,-0.903169795764408
cayman and smooth snake,NN4 0JW,52.200868576516900,-0.893080655744139
water snake and gaboon viper,NN4 0RB,52.208723538250600,-0.906261806377800
Condor and pit viper,NN4 0RH,52.211355652215300,-0.916749572383534
mud turtle and puff adder,NN4 0RS,52.207300606024500,-0.906004052174723
blindworm and Hawk,NN4 0WE,52.212503260387200,-0.901807418421340
Cloud rat and diamondback,NN4 0WF,52.212156650802000,-0.901274430295426
cayman and Argus,NN4 0YT,52.197756799134100,-0.897781449066096
Diving bird and Crow,NN4 5DQ,52.188441598605700,-0.876727631732426
Scimitar babbler and whip snake,NN4 5EB,52.193914834826000,-0.883129348115590
glass snake and Jackal,NN4 6BL,52.204121928209300,-0.873932465776455
Eagle and rattlesnake,NN4 6BN,52.202573729418900,-0.874688607388230
Old World quail and Marsh harrier,NN4 6DL,52.212666179937500,-0.890387144596153
Parrotlet and green turtle,NN4 6EF,52.206436832618000,-0.868737346756540
slowworm and cycling lizard,NN4 6EW,52.211190809170200,-0.878876286638086
amphisbaena and Perching duck,NN4 6GB,52.209534115100000,-0.884040423400000
king cobra and loggerhead,NN4 6HR,52.198786900752600,-0.888742862390841
boomslang and Cuscus,NN4 6JS,52.204716820302300,-0.888316924569424
Hawk and Armadillo,NN4 6LA,52.200936157870100,-0.891659636400167
Fish eagle and Cuscus,NN4 6LT,52.209213562355200,-0.890370703164356
horned viper and Guillemot,NN4 6TP,52.198461000000000,-0.874178000000000
hawksbill and taipan,NN4 7AZ,52.222216876253200,-0.841970866517845
Kangaroo and Recurvebill,NN4 8AU,52.220071695264200,-0.897756166248668
Gull and Capuchin,NN4 8BE,52.213921000000000,-0.899416000000000
Towhee and Cuscus,NN4 8PD,52.224954920926000,-0.899816671491296
indigo snake and Night heron,NN4 8PQ,52.218914904704000,-0.907753463939760
Mockingbird and thorn lizard,NN4 8PT,52.219139236421200,-0.902858754667632
crocodile and sea snake,NN4 8PZ,52.218075853210100,-0.901626085684948
New World blackbird and Schneider python,NN4 8QP,52.224064340091800,-0.922179252787151
Parrotlet and asp,NN4 8RA,52.224651954865300,-0.910774995694349
loggerhead and bushmaster,NN4 8RH,52.223439021948700,-0.913791178011078
grass snake and terrapin,NN4 9DA,52.214770907714100,-0.928434565177172
Greenbul and caiman,NN4 9DQ,52.214429000000000,-0.928326000000000
copperhead and Bronzewing pigeon,NN4 9EH,52.221458000000000,-0.952062000000000
blue tongue and Duck,NN4 9EW,52.221369266200000,-0.952062000000000
Fish eagle and Stilt,NN4 9XA,52.215484032883100,-0.935706688071928
dukite and grass snake,NN4 9XY,52.212986664207100,-0.923047425150249
garter snake and cycling lizard,NN4 9YG,52.222657289427700,-0.926619796480731
Diving bird and hawksbill,NN4 9YJ,52.222770528230500,-0.928198133854733
frilled lizard and Buzzard,NN4 9YQ,52.212629999073900,-0.924358669046694
Armadillo and Cuscus,NN4 9YR,52.217677546050800,-0.936678914475747
Siskin and Wader,NN7 1AS,52.221539509320800,-0.802023363252687
Ibex and Peafowl,NN7 1DU,52.213035243958400,-0.773242604209433
Recurvebill and thorn lizard,NN7 2DU,52.193657000000000,-0.846935798982210
Asiatic leopard and Mouse,NN7 2EA,52.180934235683700,-0.864514044987188
New World blackbird and Buzzard,NN7 2EQ,52.162879464426200,-0.847707413705075
Mink and gopher snake,NN7 2HJ,52.147508291195700,-0.850807946640735
soft-shelled turtle and Fulmarine petrel,NN7 2NQ,52.156887644993700,-0.900048195900048
mountain devil and coral snake,NN7 2PS,52.147889297974100,-0.842876790854128
copperhead and Dolphin,NN7 2QL,52.154520000000000,-0.891379000000000
flying lizard and Black cockatoo,NN7 3AG,52.188959000000000,-0.920468000000000
Skunk and Recurvebill,NN7 3JJ,52.206944567516700,-0.959091410776091
Fox and viper,NN7 3LG,52.224535711543000,-1.044792716440060
Jay and Magpie,NN7 3NH,52.217748095205700,-1.038190311030810
tokay and thorny devil,NN7 3PX,52.210539434212700,-1.011211965946400
elapid and Mamo,NN7 4RH,52.224465490546600,-1.088099000000000
