name,postcode,lat,lon
Costa Coffee  Stony Stratford,MK11 1AA,52.0565,-0.8524
Out Of Office Coffee,MK11 1AA,52.0565,-0.8524
Royal Thai Restaurant,MK11 1AF,52.0564,-0.8518
Anatolia6372 Ltd,MK11 1AH,52.0581,-0.8548
The Bull Hotel,MK11 1AQ,52.0572,-0.8531
Bean in Stony Ltd,MK11 1AY,52.0575,-0.8543
the crown ,MK11 1BE,52.0562,-0.8543
PASSAGE TO INDIA,MK11 1BY,52.0559,-0.8524
Miss Havisham’s Tea Shop Ltd,MK11 1EJ,52.0578,-0.8538
French Affaire,MK11 1FA,52.0575,-0.8529
Greek Affaire,MK11 1FA,52.0575,-0.8529
calcutta brasserie,MK11 1LJ,52.0592,-0.8561
Cafe Gusto,MK11 1PA,52.0519,-0.8385
Safari MK,MK11 3ET,52.0477,-0.8293
Namji,MK12 5DG,52.0612,-0.8105
ole tapas bar,MK12 5FJ,52.0646,-0.8058
Braai Shack,MK12 5JN,52.0625,-0.8091
Sunnyside Up Cafe,MK12 5JN,52.0625,-0.8091
Akasaka Wolverton,MK12 5LW,52.0627,-0.8121
ZOUK LOUNGE,MK12 5LW,52.0627,-0.8121
khan peri peri mk ltd,MK12 5LW,52.0627,-0.8121
1538 Wolverton McDonalds - Kaizen Restaurants,MK12 5RJ,52.0640,-0.8098
KFC STACEY BUSHES,MK12 6HS,52.0506,-0.7982
The New Inn,MK13 0EN,52.0639,-0.7880
HALLEYS COMET,MK13 7AW,52.0590,-0.7850
Central Cash & Carry(Watford)Ltd,MK13 9HG,52.0457,-0.7942
The Nags Head,MK14 5AX,52.0704,-0.7573
taste of paradise 2,MK14 7BW,52.0473,-0.7599
Binn Smokehouse,MK18 1JX,52.0005,-0.9875
Subway Buckingham,MK18 1JX,52.0005,-0.9875
The Kings Head,MK18 1JX,52.0005,-0.9875
Prego,MK18 1NT,52.0012,-0.9854
Carnitas,MK18 1SB,52.0009,-0.9853
The Robin hood,MK18 5DN,52.0115,-1.0312
The White Lion at Wicken,MK19 6BS,52.0484,-0.9102
shoulder of mutton,MK19 6ED,52.0445,-0.8500
kingfisher country club limited ,MK19 6JY,52.0411,-0.8787
The Navigation,MK19 7BE,52.0848,-0.8514
THE BARLEY MOW,MK19 7JD,52.0758,-0.8453
The Watts Arms Pub,MK19 7LG,52.1144,-0.8314
582 Westcroft McDonalds - Kaizen Restaurants,MK4 4DD,52.0040,-0.7943
Costa Coffee Westcroft,MK4 4DD,52.0040,-0.7943
KFC WESTCROFT,MK4 4DE,52.0044,-0.7951
PAPA JS INDIAN TAPAS,MK4 4TB,52.0076,-0.8040
The Coffee Boutique,MK4 4TB,52.0076,-0.8040
Golden wonderful kitchen limited,MK5 6JG,52.0261,-0.7889
Spice Village,MK5 6JG,52.0261,-0.7889
bv shenley pavilions,MK5 6LB,52.0157,-0.7940
Burnt Oak,MK5 7HH,52.0145,-0.7836
The Grumpy Cook,MK5 8DL,52.0320,-0.7881
360 Play (Milton Keynes) Limited,MK5 8HL,52.0217,-0.7718
Bollywood Junction,MK6 2RX,52.0294,-0.7609
SMC Pneumatics,MK8 0AN,52.0294,-0.7985
Ash's Fish & Chicken,MK8 0PX,52.0219,-0.8074
simply Good ltd,MK8 0PX,52.0219,-0.8074
Abbey Hill Golf Centre,MK8 8AA,52.0441,-0.8104
Subway Train Station,MK9 1BB,52.0343,-0.7736
peel juice bar,MK9 1BB,52.0343,-0.7736
BURGER KING-Portway Central Milton Keynes,MK9 1DY,52.0386,-0.7770
olive tree restaurant,MK9 1EA,52.0380,-0.7673
Thai Modern,MK9 1EH,52.0385,-0.7670
Fourth & Fifth,MK9 1EJ,52.0387,-0.7665
Sizzling Grillz,MK9 1LR,52.0339,-0.7720
AKASAKA CMK,MK9 2EA,52.0392,-0.7610
Melis Restaurant,MK9 2EA,52.0392,-0.7610
Middletons Steakhouse & Grill MK,MK9 2EA,52.0392,-0.7610
bon viveur exchange house,MK9 2EA,52.0392,-0.7610
SUBWAY THE HUB (58446),MK9 2FB,52.0380,-0.7629
Banana Tree,MK9 2FS,52.0374,-0.7629
DEROKA LTD,MK9 2FS,52.0374,-0.7629
Bogota Coffee Co,MK9 2FZ,52.0375,-0.7624
Maaya Indian Kitchen & Bar,MK9 2FZ,52.0375,-0.7624
Brasserie Blanc Milton Keynes ,MK9 2GA,52.0376,-0.7624
Legend One Sushi Bar,MK9 2JH,52.0371,-0.7613
Homeground,MK9 2NR,52.0421,-0.7647
KFC MILTON KEYNES - THE CENTRE,MK9 3AB,52.0443,-0.7552
BURGER KING-Silbury Arcade Central Milton Keynes,MK9 3AG,52.0434,-0.7575
34 CMK McDonalds - Kaizen Restaurants,MK9 3BB,52.0426,-0.7565
G TRIBE,MK9 3EL,52.0452,-0.7585
Pepes Piri Piri Milton Keynes,MK9 3EL,52.0452,-0.7585
Ori Caffe,MK9 3EP,52.0448,-0.7524
Chopstix Milton Keynes,MK9 3GB,52.0409,-0.7571
Churros Mexicanos,MK9 3GB,52.0409,-0.7571
KOKORO,MK9 3GB,52.0409,-0.7571
Made in Sud Pizzeria,MK9 3GB,52.0409,-0.7571
Wrapchic,MK9 3GB,52.0409,-0.7571
THE GREEN ELEPHANT CAFE,MK9 3HP,52.0396,-0.7630
Urban Dhaba,MK9 3NT,52.0429,-0.7525
taste of paradise ,MK9 3NT,52.0429,-0.7525
olive tree restaurant,NN12 6AJ,52.1274,-0.9827
Brave old oak,NN12 6BT,52.1329,-0.9893
THE LITTLE BLUE BAKERY,NN12 6BT,52.1329,-0.9893
TRUVA CHARCOAL GRILL & BAR,NN12 6BU,52.1313,-0.9883
185 Watling ST. Pub & Kitchen,NN12 6BX,52.1326,-0.9896
Clarke & Dean,NN12 6BX,52.1326,-0.9896
Frank's hamburger house,NN12 6BX,52.1326,-0.9896
Ten Hands Cafe Bar,NN12 6BX,52.1326,-0.9896
The bull towcester,NN12 6DH,52.1314,-0.9945
Bell Plantation Cafe,NN12 6GX,52.1415,-0.9969
The Folly Inn,NN12 6LB,52.1224,-0.9727
Kazper Restaurants Limited,NN12 6TQ,52.1267,-1.0045
The ARTea Room,NN12 7FA,52.0853,-0.9108
Super Sausage Cafe,NN12 7QD,52.0839,-0.9021
The Old Talbot,NN12 7QD,52.0839,-0.9021
Potterspury House ,NN12 7QL,52.0782,-0.8908
Wellingtons Cafe,NN12 7QN,52.0741,-0.8856
The Boat Inn,NN12 7SB,52.1426,-0.9182
Pury Hill Cafe / Bandit Street Food,NN12 7TB,52.1116,-0.9286
The Butchers Arms,NN12 8BA,52.1422,-1.0244
JACK'S HILL CAFE,NN12 8ET,52.1444,-1.0005
Peggottys,NN12 8LB,52.1801,-1.0260
The Crown Inn Weston ltd,NN12 8PX,52.1172,-1.1407
Whittlebury Hall & Spa Limited,NN12 8QH,52.0803,-0.9982
The New Inn,NN12 8QT,52.1138,-1.0514
The Silverstone Experience,NN12 8TN,52.0757,-1.0246
Fox and Hounds,NN12 8XJ,52.0870,-0.9920
The Kings Head,NN13 5HW,52.0675,-1.0804
The Red Lion Evenley,NN13 5SH,52.0082,-1.1452
Chilli and Pepper,NN13 6AU,52.0262,-1.1516
CURRY JUNCTION LTD,NN13 6BA,52.0273,-1.1535
Rossetti,NN13 6DF,52.0267,-1.1506
Brackley Leisure Centre,NN13 6JJ,52.0380,-1.1541
Brackley bar and grill,NN13 7AB,52.0268,-1.1490
Hummingbirds Bistro Ltd,NN13 7AB,52.0268,-1.1490
The Courtyard Coffee House ,NN13 7AB,52.0268,-1.1490
The Greyhound Inn,NN13 7BW,52.0318,-1.1442
Ann's Fish Bar,NN13 7DP,52.0272,-1.1498
The Crown Hotel,NN13 7DP,52.0272,-1.1498
little istanbul restaurant,NN13 7DP,52.0272,-1.1498
The old fire station cafe,NN13 7DW,52.0295,-1.1464
The Green Room,NN13 7EP,52.0259,-1.1498
The Unicorn Hotel,NN13 7EP,52.0259,-1.1498
Brackley Central Cafe,NN13 7UG,52.0355,-1.1402
Virgin Active Northampton Collingtree,NN4 0EB,52.1983,-0.8997
Campanile Northampton,NN4 5EZ,52.1851,-0.8918
OG’s Eatery,NN4 5EZ,52.1851,-0.8918
subway,NN4 6DE,52.2144,-0.8897
The Sun Inn,NN4 7BT,52.2139,-0.8793
Delapre Golf Centre,NN4 7DU,52.2199,-0.8818
Robinsons Catering Services,NN4 7DU,52.2199,-0.8818
Northampton Marriott,NN4 7HW,52.2232,-0.8767
Wickes Brackmills,NN4 7JE,52.2249,-0.8708
Restaurant Hibiscus ,NN4 8AW,52.2249,-0.8896
The Orangery,NN4 8AW,52.2249,-0.8896
subway,NN4 8BU,52.2155,-0.9037
The Red Lion,NN7 1BP,52.2212,-0.7993
The White Hart,NN7 2AD,52.1871,-0.8196
The Old Crown,NN7 2JN,52.1424,-0.8863
The Cock at Roade ,NN7 2NW,52.1585,-0.8946
The Roade House Cafe,NN7 2NW,52.1585,-0.8946
BV Briary Barn cafe,NN7 3DB,52.1608,-0.9309
Taberna Ltd   T/A The Walnut tree Inn,NN7 3DS,52.1832,-0.9446
Bakers Arms ,NN7 3PG,52.2088,-1.0097
The Wharf Inn,NN7 3QB,52.2063,-1.0194
The Narrowboat at Weedon,NN7 4RZ,52.2227,-1.0613
The Barn ,NN7 4SH,52.2054,-1.0593
