name,id,postcode,lat,lon
diamondback terrapin and cycling lizard,793521,MK4 1DZ,52.009276335157900,-0.758248910485436
Prion and fer-de-lance,792831,MK4 2LP,52.006964522671800,-0.777922993755402
gopher snake and Shearwater,786465,MK5 8FP,52.024877000000000,-0.770191000000000
rock python and Francolin,2617113,NN13 6QQ,52.043462000000000,-1.140207000000000
Old World quail and Viscacha,1792874,MK12 5FU,52.064956970800000,-0.820892723100000
Mamo and bearded lizard,797170,MK14 7LE,52.051371557155600,-0.750461456203583
Cloud rat and Quetzal,1792935,MK14 6GR,52.069540802200000,-0.773166470200000
sea snake and Rabbit,797858,MK13 0PT,52.052895986373300,-0.791458612441381
Chickadee and sand lizard,684788,NN4 9UR,52.221167148187600,-0.924899039753825
sand viper and wall lizard,2643886,MK8 1DZ,52.027005000000000,-0.816319000000000
Pitohui and tortoise,785928,MK6 2RX,52.029408797598400,-0.760927363613965
king snake and Polecat,681968,NN7 4RZ,52.222718000000000,-1.061257000000000
frilled lizard and sidewinder,692456,NN13 5JR,52.018301442766300,-1.094525603006190
Boto and bull snake,1792918,MK14 6FL,52.069859402500000,-0.777870189900000
sand viper and Kestrel,798284,MK12 5AW,52.058443323635300,-0.813566972152183
Bunting and Recurvebill,786262,MK6 2LX,52.028569831128100,-0.758953609461539
cobra de capello and Pratincole,794252,MK19 6NZ,52.064611486570900,-0.864723557223210
hawksbill and Kite,684760,NN4 8BB,52.216500088621900,-0.899440052512385
thorn lizard and Capuchin,794768,MK18 5LG,52.041821527016000,-1.030087352327150
Quetzal and perentie,797888,MK13 8RB,52.041438884095200,-0.774679420804919
Macaw and boa,786612,MK5 7BJ,52.021169121643300,-0.777783717227933
Black cockatoo and Viscacha,797541,MK13 9ET,52.046629402611100,-0.785357365392120
diamondback turtle and Partridge,794348,MK19 7HE,52.092226028456400,-0.839193680000876
whip snake and cobra de capello,685498,NN4 0UA,52.210932311127000,-0.913730291354449
chameleon and Condor,794277,MK19 7BD,52.071108704502800,-0.856535000000000
diamondback turtle and cycling lizard,1793062,MK19 6FA,52.050652828400000,-0.886587704900000
tuatara and Grouse,2586737,NN13 6GR,52.043235000000000,-1.142648000000000
sidewinder and Dolphin,798495,MK12 5JE,52.061670050196400,-0.809003305854274
River dolphin and snake,794260,MK19 7AA,52.075985520094400,-0.805616559801017
python and Ibex,785257,MK77 1XY,52.042087858939300,-0.818869917662657
soft-shelled turtle and Vole,786693,MK5 7EN,52.016220817513800,-0.773153452795227
B and Pheasant,691979,NN13 6NP,52.036482988989700,-1.161627068240390
Hawaiian honeycreeper and galliwasp,786175,MK6 2ER,52.037001462608500,-0.750249790640343
Thicketbird and Old World vulture,793001,MK4 4BD,52.000960387769100,-0.802632210072854
blind snake and Mole,797544,MK13 9EX,52.046198099949800,-0.785383639153942
grass snake and pit viper,692817,NN12 8AN,52.145644813406500,-1.016069000000000
Cuscus and tuatara,796714,MK16 8TW,52.086401070585200,-0.750475855686550
Towhee and Hawk,784848,MK9 1AY,52.039652120883900,-0.771462398178256
brown snake and adder,798458,MK11 1DR,52.056402092951100,-0.845227112547455
wall lizard and flying lizard,692226,NN12 8UJ,52.092933870834700,-1.033256478033920
racer and Tit-tyrant,793194,MK4 2ET,52.007761338175500,-0.777595333768079
constrictor and rattlesnake,684757,NN4 8AY,52.215796936974100,-0.900203928594715
taipan and Bunting,682129,NN7 3RH,52.207114333164100,-1.005902572527340
rattlesnake and wall lizard,786266,MK6 2NB,52.031723273006500,-0.758720541457454
milk snake and perentie,797799,MK13 8EQ,52.043466919517300,-0.775163465380316
whip snake and dugite,792833,MK4 2LT,52.007185378682800,-0.776678593948496
copperhead and bearded lizard,786440,MK5 6ER,52.023946434037700,-0.784645566372804
cycling lizard and copperhead,797545,MK13 9EY,52.048045002992000,-0.787664000000000
B and blind snake,685120,NN4 7ED,52.219281567161400,-0.866757000000000
Myna and Schneider python,798353,MK12 5DN,52.057854285378300,-0.807762892896486
soft-shelled turtle and frill-necked lizard,692761,NN12 7SU,52.120752430789700,-0.905757837680698
Coati and sand viper,794623,MK19 6JG,52.055477756447900,-0.893205840952777
Komodo dragon and New World blackbird,798158,MK12 6HN,52.052823000000000,-0.805330000000000
mud turtle and Stilt,685248,NN4 5DL,52.187153124121800,-0.878325278345326
alligator and Jackal,682803,NN7 1DA,52.212740639575100,-0.776909820597746
Komodo dragon and Fulmarine petrel,797771,MK13 8DD,52.045536413797000,-0.771855175519465
Zebra and flying dragon,693928,NN11 3BE,52.213935398157200,-1.135751275910660
Flameback and blind snake,691984,NN13 6NU,52.037126200607200,-1.161046476421690
Wader and Argus,795349,MK18 1LA,52.001740000000000,-0.987267000000000
Old World warbler and Polecat,793596,MK3 7HE,52.003304000000000,-0.754481000000000
Magpie and Capuchin,786623,MK5 7BZ,52.015173544616200,-0.776198464693899
tiger snake and Piping shrike,784554,MK9 2LA,52.037991738202000,-0.758022091658954
Dorcopsis and Piping shrike,784748,MK8 9BU,52.033395187400000,-0.790672418032355
Grosbeak and Fish eagle,797133,MK14 7BH,52.049439916266400,-0.754846484462263
king snake and Parrotlet,692548,NN12 8JS,52.182679067532600,-1.022229127395530
Perching duck and gavial,798375,MK12 5ES,52.061614334822400,-0.807050143114957
horned viper and chuckwalla,786667,MK5 7DE,52.019919449967300,-0.771740676617454
chuckwalla and sand lizard,2663509,MK14 6GY,52.057866000000000,-0.766654000000000
boa constrictor and Hawaiian honeycreeper,692088,NN13 7DX,52.028207805887200,-1.136230669008440
sea snake and chameleon,691966,NN13 6LX,52.034924942240300,-1.153711288147400
caiman and Pheasant,793518,MK4 1DU,52.008609645852000,-0.758121664606097
fer-de-lance and swift,685457,NN4 0RS,52.207300606024500,-0.906004052174723
Armadillo and grass snake,2655230,MK5 6FU,52.016260000000000,-0.811006000000000
Ground sloth and taipan,684701,NN4 9QG,52.221612343155600,-0.938327007980313
Thrasher and bearded lizard,682387,NN7 3EG,52.194735000000000,-0.943751000000000
python and whip snake,692673,NN12 8RR,52.106247000000000,-1.084734436666590
hognose snake and amphisbaena,691958,NN13 6LN,52.036040932667800,-1.150118563884780
sand lizard and bandy-bandy,797764,MK13 8BU,52.044099509188400,-0.766849447146928
Towhee and anaconda,797365,MK14 6AX,52.066547751650000,-0.764028407789124
hawksbill and Warbler,1792846,MK11 9GE,52.047583885300000,-0.828772363100000
terrapin and pit viper,1792886,MK12 5PU,52.057448051400000,-0.823453263400000
Magpie and cobra de capello,795476,MK18 1RF,52.013951128959900,-0.977111837393106
death adder and Komodo dragon,786668,MK5 7DF,52.014823000000000,-0.777815606649701
moloch and Schneider python,797380,MK14 6BU,52.063569978540900,-0.761295195143639
Vole and grass snake,692550,NN12 8JU,52.182344106954400,-1.024123241846050
grass snake and Kestrel,685510,NN4 0WB,52.208654726761800,-0.900790043549794
Darwin's finches and frill-necked lizard,792733,MK4 4TF,52.008193093865400,-0.803007420757671
snapping turtle and Tree warbler,786534,MK5 6HB,52.020416003210700,-0.784945268479322
blue tongue and Maya,797429,MK13 9BL,52.051680136351600,-0.786882967803314
Jerboa and tuatara,785421,MK8 0LF,52.031222421169400,-0.805964011764966
River dolphin and Ground sloth,2594904,NN13 6GT,52.043356000000000,-1.142921000000000
worm lizard and cobra,794660,MK18 5BE,52.060060786617000,-0.960087224315658
Snipe and Jackal,693109,NN12 7LQ,52.105531000000000,-0.940107000000000
krait and mamba,692881,NN12 8BX,52.142125440633700,-1.022678913245670
puff adder and Parrotbill,786679,MK5 7DU,52.017957381466400,-0.776734564372648
River dolphin and swift,798586,MK11 1NX,52.053497758047900,-0.841539256146814
puff adder and diamondback terrapin,682511,NN7 3LS,52.219009307241200,-1.032995804384530
garter snake and gopher snake,785320,MK8 0EW,52.029476819522100,-0.804946420969028
tuatara and harlequin snake,794420,MK19 7PL,52.093984162524900,-0.832404046791916
Parrotbill and Argus,692780,NN12 7UE,52.097603556034100,-0.883988518082021
Jay and Schneider python,2643799,MK19 7FQ,52.119622000000000,-0.833280000000000
king cobra and sand viper,692446,NN12 8HH,52.168453754261300,-1.110620962150850
Partridge and tiger snake,793109,MK4 4EG,52.001303083935800,-0.805539000000000
elapid and pit viper,682128,NN7 3RG,52.210972328996000,-1.014597801052590
massasauga and thorny devil,784761,MK8 9DL,52.034034000000000,-0.801195000000000
Petrel and Polecat,797837,MK13 0LG,52.057013756249800,-0.800244611847090
Mouse and frilled lizard,693117,NN12 7NE,52.102469425692000,-0.954823527755383
Flameback and bearded dragon,786545,MK5 6HT,52.020480814847600,-0.783384143553373
flying dragon and Philippine hawk-owl,682137,NN7 3RZ,52.174029373090700,-0.942911104052837
smooth snake and viper,785076,MK8 8HN,52.041649694189200,-0.801297509762164
Vole and Black cockatoo,784670,MK9 3DZ,52.047259000000000,-0.755966991375363
glass snake and Parakeet,693018,NN12 6YE,52.133289000000000,-0.999223401677274
jew lizard and green turtle,685193,NN4 7LJ,52.200849939820700,-0.886320972277152
bushmaster and Lemming,798091,MK13 7LJ,52.054354018809300,-0.777651446564700
Gila monster and elapid,793187,MK4 2EJ,52.007281764441500,-0.779036186494005
fer-de-lance and tokay,798539,MK11 1HT,52.058441174092000,-0.851475611979753
Tree warbler and chameleon,797961,MK13 7BD,52.066215884877200,-0.776875000000000
Philippine hawk-owl and Solitaire,693997,NN11 3NL,52.139375734241600,-1.158133621135200
puff adder and bushmaster,682426,NN7 1HT,52.213975197548100,-0.773714364931850
jew lizard and Eagle,692864,NN12 8AY,52.142214521630000,-1.026929337476570
monitor and Cloud rat,795333,MK18 1JE,52.002439311557400,-0.988183263035847
Old World vulture and hawksbill,784993,MK8 8AZ,52.041045369669700,-0.803763148739491
Solitaire and sand lizard,793086,MK4 1LJ,52.010715422418000,-0.772021813134036
python and Nukupuʻu,793096,MK4 4DL,52.007574825925200,-0.798798809469137
loggerhead and iguana,2617144,NN12 6LL,52.120466000000000,-0.984737000000000
Prion and tokay,2617145,NN12 6LP,52.120651000000000,-0.985390000000000
Armadillo and Hawaiian honeycreeper,794133,MK19 6JU,52.043414000000000,-0.885718000000000
bandy-bandy and Darwin's finches,685307,NN4 6BP,52.204097574776500,-0.872323402995973
Old World warbler and indigo snake,798499,MK12 5JR,52.062005480381700,-0.813735167254228
Bunting and kabaragoya,691967,NN13 6LY,52.034894996351100,-1.158318443998410
dukite and copperhead,798538,MK11 1HR,52.055931309751800,-0.851467000000000
flying lizard and Puffleg,794524,MK19 6DQ,52.049658000000000,-0.865336000000000
White ibis and Puffleg,793245,MK3 7NR,52.007490166161100,-0.750037515499363
tortoise and Hawaiian honeycreeper,682255,NN7 2PF,52.161372408698200,-0.893139635363649
Dorcopsis and carpet snake,692649,NN12 7PW,52.080085969431900,-0.892116000000000
Rabbit and puff adder,692990,NN12 6RQ,52.130554113419100,-0.990631187487080
coral snake and Buzzard,692243,NN13 6AF,52.031196638435700,-1.153972000000000
bull snake and tuatara,786268,MK6 2NE,52.030740760515800,-0.756779861609836
leguaan and snapping turtle,692154,NN13 5SF,52.009958957498400,-1.150204679324310
lizard and Tattler,693114,NN12 7NA,52.103350307289400,-0.948729197755216
slowworm and mamba,692231,NN12 8UR,52.093391968721100,-1.022298824361570
massasauga and crocodile,786893,MK5 6BF,52.016665115352400,-0.811233271309280
sea snake and milk snake,794129,MK19 6JQ,52.054306814272300,-0.892024265677019
loggerhead and Bunting,692212,NN13 5YE,52.068851069302700,-1.079790146084970
Old World vulture and Quetzal,692196,NN13 5WY,52.029522492406400,-1.146379451761530
Hawk and alligator,794231,MK19 6LP,52.057982838804300,-0.893800292445574
Vole and fer-de-lance,693952,NN11 3DT,52.211843909567900,-1.130083930656390
viper and alligator,1793156,MK4 4HX,52.010305542700000,-0.801829264800000
Booted eagles and Vulture,692908,NN12 8EF,52.130563445351400,-1.055817037111120
Old World quail and Duck,797164,MK14 7EA,52.053176479620900,-0.757046930490768
cycling lizard and black snake,785111,MK8 8LN,52.045141772787700,-0.798112807199902
king cobra and Boto,797695,MK14 5HP,52.069586641745900,-0.751222412845545
crocodile and bull snake,682274,NN7 2QT,52.149281347782100,-0.858406200446419
king snake and kabaragoya,685476,NN4 0SS,52.204090785808200,-0.893454240118970
whip snake and Vulture,692074,NN13 7DE,52.034235960642800,-1.140502399227670
Duck and Kākāriki,1793559,MK5 6GP,52.017736000000000,-0.795306000000000
massasauga and Minke whale,797851,MK13 0PJ,52.053543891774300,-0.792389111535491
Peafowl and snake,792652,MK4 4GL,52.000608786867300,-0.799888415168499
Tree warbler and diamond python,797358,MK14 6AP,52.064083122114600,-0.771667483760462
bearded dragon and Marsh harrier,685374,NN4 0NG,52.195842780469000,-0.902715437569431
caiman and Philippine hawk-owl,691950,NN13 6LB,52.037273826517100,-1.149030953041000
asp and rock snake,784655,MK9 3BT,52.046467242388300,-0.754316650436912
mamba and Jay,682710,NN7 2JW,52.128774113079600,-0.881033335038163
bearded lizard and Shearwater,685482,NN4 0TA,52.210948332839300,-0.909617284895327
leathery turtle and diamond snake,793344,MK3 7SX,52.007334634214800,-0.754878859952014
Capuchin and deaf adder,784930,MK8 0NE,52.024794342246100,-0.807796722995886
Tit-tyrant and Fox,798342,MK12 5BX,52.060821994293800,-0.817646560145389
B and Duck,797558,MK13 9HT,52.045206129947100,-0.783354524692836
Snipe and tortoise,794763,MK18 5LA,52.036061727832600,-1.028082000000000
copperhead and Minke whale,693000,NN12 6TJ,52.124883714437700,-0.985719749448866
Tahr and Dolphin,797560,MK13 9HW,52.045783807764500,-0.783572147773492
alligator and snapping turtle,794397,MK19 7ND,52.115726000000000,-0.820678000000000
Schneider python and Flameback,794708,MK18 5HL,52.030843508404400,-0.973811162508958
Grosbeak and blind snake,692749,NN12 7SE,52.142461000000000,-0.914856000000000
Shearwater and Coati,794351,MK19 7HH,52.095695000000000,-0.851823117057807
diamondback and Greenbul,798503,MK12 5JW,52.062192096242200,-0.811731793693610
Parrotlet and dugite,798617,MK11 2BL,52.047298810202700,-0.832921051067897
Jerboa and chuckwalla,692522,NN13 5QB,52.093580000000000,-1.144658569749430
sand viper and Minke whale,692083,NN13 7DR,52.033420616736200,-1.143360613090380
Dolphin and Skunk,693291,NN12 6AD,52.132819450456000,-0.988490781749816
Tahr and cayman,1797444,NN4 9DU,52.216574072400000,-0.940642858100000
Duck and Pheasant,798713,MK11 3HL,52.045316000000000,-0.828686000000000
bandy-bandy and diamondback terrapin,797142,MK14 7BY,52.051266994446200,-0.759287449681725
Snipe and diamondback terrapin,685302,NN4 6BG,52.203365616520100,-0.870995674254257
coral snake and Grouse,692094,NN13 7EE,52.028999147000800,-1.141171237674380
glass snake and Rat,685164,NN4 5AH,52.190727977409400,-0.881746294659284
Nukupuʻu and Marmoset,692647,NN12 7PT,52.081889308258100,-0.891823081138374
python and Parakeet,692882,NN12 8BY,52.141252723282300,-1.028046243170250
Triller and goanna,793084,MK4 1LD,52.011340569254500,-0.769891966589356
Mink and leathery turtle,785091,MK8 8JG,52.039988897690500,-0.798017720511744
massasauga and Dorcopsis,797923,MK13 9BA,52.050065639084500,-0.787262098218404
cycling lizard and blue racer,692672,NN12 8RQ,52.141155291413900,-1.066203000000000
Eagle and gavial,1797456,NN4 9EX,52.218620912000000,-0.965639987200000
Shearwater and Pitohui,798090,MK13 7LH,52.054424383061200,-0.775768113356184
turtle and Vole,793588,MK3 7EX,52.003052450683900,-0.750248000000000
agamid and Bunting,797367,MK14 6AZ,52.066146508476800,-0.765206558509320
Kangaroo and Jay,794393,MK19 7LY,52.114489060880000,-0.826611007169207
Solitaire and rattlesnake,794245,MK19 6NH,52.059420914644500,-0.869114277361933
Perching duck and Ground sloth,685174,NN4 5AW,52.188945387046100,-0.879596743429831
bull snake and adder,692030,NN13 5QN,52.092563724144800,-1.138608688974100
horned toad and taipan,797179,MK14 7LR,52.053141050077100,-0.750295424211358
Peafowl and Piping shrike,684912,NN4 8LD,52.219164615676200,-0.912402333199904
skink and crocodile,793030,MK4 1EL,52.008153224590600,-0.758323702017144
Hawk and leathery turtle,2263950,NN12 8QF,52.088458000000000,-1.023075000000000
thorny devil and loggerhead,786487,MK5 8PG,52.024281000000000,-0.767463952859449
gavial and Darwin's finches,786217,MK6 2JS,52.033578832385000,-0.758188092482577
cycling lizard and Parrotlet,784893,MK9 1NG,52.040033341065800,-0.768361004831197
deaf adder and Masked owl,786432,MK5 6EF,52.028238346621900,-0.792621000000000
Moluccan boobook and Bronzewing pigeon,798389,MK12 5FN,52.065281000000000,-0.805917000000000
Thrasher and sand lizard,798483,MK11 1EY,52.051395612403900,-0.844466569940567
Fulmarine petrel and tokay,797878,MK13 8NJ,52.045305379138400,-0.776440140172908
Masked owl and Old World warbler,786900,MK5 6BQ,52.022383302608900,-0.781292148999311
grass snake and Condor,795589,MK18 1TY,52.005061503865900,-0.978436228504462
adder and boa,682377,NN7 3DT,52.185744115458700,-0.950941695232467
blind snake and garter snake,2643759,MK11 4BX,52.045724000000000,-0.839695000000000
Flameback and amethystine python,685514,NN4 0WG,52.213132871319400,-0.902801804336832
Argus and anaconda,692581,NN12 8NL,52.181228203172200,-1.000366163482600
bearded dragon and cycling lizard,797885,MK13 8PQ,52.042810272025000,-0.779468172848999
boa constrictor and thorn lizard,793102,MK4 4DT,52.006360305666200,-0.796966497997723
gavial and Lemming,786872,MK5 6AE,52.021539072867900,-0.793615447371090
Hawk and black snake,786402,MK5 8DY,52.027969611700300,-0.785046675498147
bushmaster and Solitaire,784785,MK8 9ER,52.033465761283300,-0.789664648900623
black snake and krait,692714,NN12 8TT,52.091454667601100,-1.025041491635290
worm lizard and lizard,798061,MK12 5RS,52.062566753673300,-0.819323000000000
Wallaby and python,784868,MK9 1EB,52.037350026669400,-0.768842954096921
Jay and sand lizard,786315,MK6 2QP,52.031570216473500,-0.751042601649480
hognose snake and Perching duck,785422,MK8 0LG,52.029829447376400,-0.805141093473156
diamond python and Duck,692102,NN13 7EQ,52.024379837557400,-1.152627732827230
Kite and Marsh harrier,684954,NN4 6JT,52.203372000000000,-0.890477027907298
Greenbul and black snake,797777,MK13 8DN,52.046279729319400,-0.771572326409556
Lemming and Mole,682064,NN7 3QU,52.209982000000000,-1.005663000000000
Logrunners and Prion,692397,NN13 5FF,52.029522492406400,-1.146379451761530
galliwasp and horned viper,682503,NN7 3LG,52.224535711543000,-1.044792716440060
Dorcopsis and Stilt,784646,MK9 3BE,52.043207222119900,-0.756375706837804
Tahr and box turtle,685029,NN4 6PF,52.213942991302700,-0.883724929061575
Thicketbird and black snake,685524,NN4 0XB,52.208898571688700,-0.897052105435758
Jerboa and Partridge,692723,NN12 8UF,52.093489201841900,-1.020048000000000
Kestrel and Peafowl,692606,NN12 8PS,52.116004920199600,-1.129117003273840
krait and bearded lizard,692736,NN12 7RN,52.151919663045100,-0.967127651203046
Vulture and Grackle,794513,MK19 6BZ,52.042912000000000,-0.906945000000000
Viscacha and Old World vulture,784638,MK9 3AU,52.044374098346700,-0.755337208894674
gaboon viper and python,794377,MK19 7LD,52.115922455906800,-0.831524334942704
Petrel and Asiatic leopard,798422,MK12 5HX,52.060732124911600,-0.810501496863392
adder and Condor,685309,NN4 6BS,52.205695550812500,-0.873014654072900
terrapin and Mole,682531,NN7 2AB,52.188370655093600,-0.825120770013476
thorny devil and Goose,1797588,NN7 2FE,52.186785122100000,-0.845495311000000
Marsh harrier and Dolphin,2628253,MK11 4BL,52.043292000000000,-0.835617000000000
coral snake and Myna,784781,MK8 9EL,52.033297535162300,-0.796943462476188
Capuchin and Black cockatoo,786614,MK5 7BN,52.016625311748600,-0.775736259067091
Logrunners and Macaw,793042,MK4 1GX,52.008641571140700,-0.768013622695599
water snake and Capuchin,797516,MK14 6UX,52.047581333862500,-0.828772319088846
death adder and frilled lizard,794675,MK18 5DF,52.029465000000000,-1.019787000000000
Mouse and blind snake,1792940,MK14 6LD,52.054620838000000,-0.770220676800000
fer-de-lance and Darwin's finches,786373,MK5 8BD,52.034225020508500,-0.780460001835356
Komodo dragon and Grosbeak,794302,MK19 7DS,52.079657486611200,-0.800659166335736
python and box turtle,684809,NN4 9XL,52.219561177180300,-0.929226881215562
Masked owl and sand viper,2628308,MK4 4ND,52.009890000000000,-0.803438000000000
Partridge and mamba,684782,NN4 9UE,52.217466438117000,-0.925281137632703
Macaw and black snake,793034,MK4 1ER,52.004893261935700,-0.763818825282515
monitor and moloch,793060,MK4 1HX,52.008086866757600,-0.768276535730682
Scimitar babbler and bull snake,794227,MK19 6LH,52.053659388356100,-0.896809312165444
Kākāriki and wall lizard,797753,MK13 8BB,52.047316170143400,-0.770946036548898
Chicken and thorny devil,797605,MK14 5DF,52.063331317572900,-0.756560852076482
taipan and Triller,685098,NN4 7BN,52.215675000000000,-0.853207000000000
Warbler and snapping turtle,1792837,MK11 9EQ,52.047583885300000,-0.828772363100000
American sparrow and agama,785272,MK8 0AZ,52.025355151910000,-0.801922622396522
harlequin snake and Fulmarine petrel,2643769,MK13 7FB,52.054410000000000,-0.771460000000000
Vulture and Peafowl,685083,NN4 7AP,52.220997236285600,-0.837713349165504
cobra de capello and galliwasp,792659,MK4 4GW,52.010130785742500,-0.807006227456808
cobra and Pitohui,692286,NN13 6DU,52.026895552634000,-1.151137252200450
thorn lizard and Kestrel,1797434,NN4 9BF,52.212328000000000,-0.944564000000000
Viscacha and Macaw,794305,MK19 7DW,52.086636949053000,-0.809769141622339
habu and Dorcopsis,797740,MK13 8AL,52.045677691587400,-0.769022442256394
Booted eagles and pit viper,2617147,NN11 3FE,52.213192000000000,-1.136467000000000
Tit-tyrant and Goose,785123,MK8 8PA,52.044276000000000,-0.805689000000000
diamondback and cobra de capello,692934,NN12 6HJ,52.129692478458400,-1.000307138866470
Siskin and boomslang,785279,MK8 0BH,52.026304520880800,-0.804214746722942
Boto and swift,793208,MK4 2HB,52.010883869583800,-0.777845376797923
puff adder and habu,792675,MK4 4HS,52.010715022707200,-0.805051000000000
whip snake and moloch,692676,NN12 8RU,52.139100966166100,-1.097850327164630
Dorcopsis and rat snake,797219,MK14 7QN,52.054227573003700,-0.750163019374220
loggerhead and Duck,798534,MK11 1HL,52.051708312120900,-0.850700294629487
king snake and puff adder,796602,MK16 8LR,52.159158882196600,-0.808055104697661
Chicken and racer,682701,NN7 2JG,52.146824132363500,-0.851643979091501
Tit-tyrant and krait,786470,MK5 8HD,52.027227000000000,-0.775680000000000
Buzzard and Vulture,785925,MK6 2RT,52.033686531249400,-0.751362663059935
ringhals and Gila monster,693314,NN12 6BH,52.121804345599800,-0.991486110237442
Vole and tortoise,786572,MK5 6LR,52.020078344462000,-0.802019867058166
Komodo dragon and Black cockatoo,1797022,NN12 8FR,52.141251169500000,-1.018825819100000
Armadillo and Parrotlet,786472,MK5 8HF,52.029808132225300,-0.787212493034331
Recurvebill and Booted eagles,685512,NN4 0WE,52.212503260387200,-0.901807418421340
diamondback turtle and gopher snake,692711,NN12 8TQ,52.093715000000000,-1.002702000000000
Jackal and Argus,794700,MK18 5HA,52.032328000000000,-0.968617000000000
Tahr and Shearwater,692542,NN12 8JJ,52.175786255118300,-1.062493733118920
diamond python and milk snake,682261,NN7 2PP,52.142209862734200,-0.882333355682000
Elephant and Buzzard,2608175,MK8 1BX,52.031260000000000,-0.819297000000000
Parakeet and carpet snake,786674,MK5 7DP,52.020233412627100,-0.772533619566178
amethystine python and Siskin,685401,NN4 6EA,52.200641142891900,-0.884204508894487
bandy-bandy and taipan,692677,NN12 8RW,52.146705762608500,-1.085990575189260
boa constrictor and pit viper,691925,NN13 6HW,52.033876672608900,-1.160509606083600
mountain devil and brown snake,786309,MK6 2QF,52.034092171662600,-0.753159037343449
Flameback and Minke whale,784777,MK8 9EF,52.033787763410700,-0.798286046336434
tiger snake and Argus,685242,NN4 5DD,52.183459746733700,-0.878520580671977
Masked owl and blind snake,684754,NN4 8AU,52.220071695264200,-0.897756166248668
Chickadee and Tahr,794589,MK19 6GH,52.053889360469200,-0.886842586556136
bearded lizard and Capuchin,692584,NN12 8NQ,52.179095348338900,-1.007580259612920
Grouse and Vole,797496,MK14 6LJ,52.054981241869500,-0.759374173543433
River dolphin and anaconda,692179,NN13 5TQ,52.050610875232300,-1.111285000000000
Condor and Scimitar babbler,685611,NN4 0XW,52.189545640854100,-0.895585391060690
Linsang and harlequin snake,785217,MK8 9AE,52.032550583575000,-0.796876043231735
Buzzard and Vole,794489,MK19 6AQ,52.064522145401900,-0.866536000000000
Old World quail and snapping turtle,692214,NN13 5YG,52.029522492406400,-1.146379451761530
pit viper and bull snake,792629,MK4 4FG,52.002378606627500,-0.797102371612634
tiger snake and Ground sloth,685170,NN4 5AR,52.189656187352800,-0.879652021806138
Black cockatoo and sand viper,794651,MK18 5AS,52.055210000000000,-0.977805778628328
boomslang and Gull,786685,MK5 7EB,52.018770050502200,-0.776202345149583
bull snake and frilled lizard,692448,NN12 8HL,52.167592268905400,-1.106076321182280
Stilt and giant tortoise,692380,NN12 9SX,52.127929167620800,-1.001237700535300
sand lizard and grass snake,797949,MK13 7AP,52.059866964337500,-0.783000043610677
boa and Meadowlark,798095,MK13 7LQ,52.053519444891800,-0.779541010518789
wall lizard and perentie,692116,NN13 7HD,52.028691301897400,-1.137183359895340
Shearwater and Mole,2617058,NN4 6FN,52.202100000000000,-0.863960000000000
cycling lizard and Badger,692332,NN12 8XE,52.086906230681100,-0.988857649834459
cobra and Tattler,682389,NN7 3EJ,52.174148581033900,-0.930200430579449
Kestrel and Greenbul,797398,MK14 6DY,52.058464788334300,-0.757191890283593
Capuchin and Darwin's finches,797839,MK13 0LJ,52.058529866405300,-0.799912281138479
Hawk and tiger snake,693647,NN11 3SD,52.152175780550300,-1.160274690712660
coral snake and Thicketbird,2579498,NN13 6GW,52.043977000000000,-1.145839937900000
slowworm and Towhee,682504,NN7 3LH,52.222091089916800,-1.036047022556760
giant tortoise and Old World quail,692969,NN12 6LQ,52.104700496985300,-0.939863976987939
Polecat and Prion,795441,MK18 1PN,52.007373192476300,-0.980627236879870
Scimitar babbler and River dolphin,2655119,MK18 8AY,52.000492000000000,-0.986242000000000
Old World vulture and boa,1793066,MK19 6UY,52.051016831800000,-0.878514063100000
Prion and Siskin,798455,MK11 1DN,52.057949020240500,-0.845274743624435
cerastes and Crow,685019,NN4 8PY,52.217248211220200,-0.901573310151327
Fish eagle and gaboon viper,798540,MK11 1HU,52.058425000000000,-0.854320000000000
Stilt and hognose snake,794241,MK19 6NB,52.054851174219900,-0.886818685738462
Diving bird and Kangaroo,798900,MK10 1TF,52.043551287996700,-0.760871712162347
Kestrel and Kite,794313,MK19 7EG,52.090790508577400,-0.834034618385002
worm lizard and blind snake,1793049,MK18 8AR,52.000482000000000,-0.986261000000000
glass snake and Asiatic leopard,798442,MK11 1BS,52.058248034130800,-0.850109504329731
Fox and green turtle,682590,NN7 2EB,52.182426791849400,-0.866392085953055
dukite and Linsang,798595,MK11 1RB,52.053714125771300,-0.843429617362350
Grackle and Pratincole,693008,NN12 6UX,52.130620762838900,-0.985823250231336
dukite and bearded dragon,682364,NN7 3BZ,52.172977718348200,-0.937934912283079
Marmoset and Greenbul,691951,NN13 6LD,52.036486525016900,-1.149570717903410
bandy-bandy and Schneider python,793070,MK4 1JL,52.012408433152000,-0.773141146425837
turtle and Grouse,793312,MK4 2JN,52.004224803373300,-0.773845648294944
Linsang and Chickadee,684885,NN4 8HS,52.224225081384400,-0.914211200900470
Marmoset and python,692756,NN12 7SP,52.117840758373700,-0.904938212882629
chuckwalla and gopher snake,793230,MK3 7LX,52.003903680094900,-0.754376762610846
Asiatic leopard and deaf adder,786386,MK5 8DA,52.029966476354200,-0.790371336412735
Badger and moloch,784632,MK9 3AJ,52.044431000000000,-0.753834000000000
Songlark and diamond snake,692257,NN13 6AY,52.028801101794400,-1.154818020329110
cobra and adder,794416,MK19 7PB,52.115414000000000,-0.826426000000000
gaboon viper and frilled lizard,682813,NN7 1DR,52.212686504702200,-0.774291393637686
chameleon and Grackle,1792941,MK14 6PH,52.058201335600000,-0.758409931600000
milk snake and garter snake,682256,NN7 2PG,52.160637938344700,-0.896315589791813
grass snake and Siskin,794353,MK19 7HL,52.114732000000000,-0.852048523524314
hawksbill and Booted eagles,797886,MK13 8PU,52.041419459847200,-0.778004274800846
Viscacha and Herring gull,685179,NN4 5BB,52.187231792083800,-0.881877876679859
wall lizard and tokay,794291,MK19 7BZ,52.124330626569000,-0.840799234881035
turtle and Crow,786578,MK5 6NA,52.016950309824400,-0.813659296843072
constrictor and puff adder,797586,MK14 5BE,52.069510018928600,-0.759292566981087
Old World quail and Jackal,682131,NN7 3RN,52.210929249827400,-1.007310263620600
worm lizard and Mouse,2663699,NN4 6FW,52.202268000000000,-0.863692000000000
kabaragoya and Kākāriki,797436,MK13 9BW,52.051225180974400,-0.788980733922400
Thicketbird and Songlark,793176,MK4 2DW,52.003086000000000,-0.779272530197980
Parrotlet and Tree warbler,2643884,MK8 1DS,52.032345000000000,-0.814501000000000
Kestrel and Treepie,682562,NN7 2BS,52.187931977538000,-0.816311528798846
