name,postcode,lat,lon
Prion and Egret,BB5 6RA,53.755381310000000,-2.359392241000000
Tree warbler and Black cockatoo,BB1 1SE,53.741752310000000,-2.464785572000000
Minke whale and Boto,BB6 8DJ,53.803633900000000,-2.448631043000000
Mamo and Peafowl,BB9 4SQ,53.836968960000000,-2.215516844000000
Jay and New World blackbird,BB18 6BL,53.920001000000000,-2.182569000000000
Vulture and Masked owl,BB10 1HP,53.808140580000000,-2.237190000000000
Thrasher and Bronzewing pigeon,BB2 4PZ,53.730717260000000,-2.504195044000000
Civet and Night heron,BB2 1TX,53.744460950000000,-2.497294000000000
Greenbul and Thicketbird,BB10 1EL,53.808702180000000,-2.234505622000000
Fulmarine petrel and Ground sloth,BB8 8NS,53.853171310000000,-2.145869685000000
River dolphin and Recurvebill,BB18 6FF,53.923014000000000,-2.180877000000000
River dolphin and Mole,BB2 4FX,53.723146850000000,-2.489601122000000
Booted eagles and Stint,BB10 2PZ,53.811907300000000,-2.227036417000000
Guillemot and Triller,BB5 5WW,53.775450130000000,-2.377423274000000
B and Grosbeak,BB10 2NN,53.807879390000000,-2.222944945000000
Stint and Wallaby,BB7 2BA,53.880025800000000,-2.380068779000000
New World blackbird and Bunting,BB9 8SH,53.847900920000000,-2.223872186000000
Thicketbird and Old World vulture,BB2 4DR,53.733882460000000,-2.503869127000000
White ibis and Stint,BB9 5SX,53.829794500000000,-2.231113888000000
Minke whale and Stilt,BB12 8RR,53.797757110000000,-2.308819861000000
Moluccan boobook and Greenbul,BB2 9SR,53.749928130000000,-2.483801282000000
Meadowlark and Egret,BB9 8PA,53.846325370000000,-2.220459128000000
River dolphin and Kākāriki,BB8 0DL,53.854537540000000,-2.178969751000000
Warbler and Parrotbill,BB18 6AJ,53.916805640000000,-2.184656358000000
Wallaby and Stint,BB7 2LE,53.868034090000000,-2.399987920000000
Old World vulture and Darwin's finches,BB18 5BE,53.912904920000000,-2.184669572000000
Fox and Asiatic leopard,BB2 2SA,53.736847000000000,-2.503902000000000
Kākāriki and Puffleg,BB2 3JS,53.729763180000000,-2.478219075000000
Fish eagle and Ibex,BB2 2DE,53.746862030000000,-2.484084472000000
Moluccan boobook and Bronzewing pigeon,BB1 7EL,53.752537170000000,-2.485408493000000
Masked owl and Pratincole,BB4 9RB,53.727954390000000,-2.229554068000000
Francolin and Stilt,BB11 5PY,53.782251000000000,-2.295821000000000
Ibex and Crow,BB8 7AR,53.864870000000000,-2.163336000000000
Scimitar babbler and Lemming,BB6 8BE,53.809319000000000,-2.447583000000000
Meadowlark and Petrel,BB3 0PR,53.722475590000000,-2.479803000000000
Bunting and Elephant,BB11 9HQ,53.790944000000000,-2.240889000000000
Pitohui and Kākāriki,BB10 4PH,53.784862530000000,-2.222215685000000
Crow and Ibex,BB4 5HN,53.710637090000000,-2.325316050000000
Cuscus and Egret,BB1 9RZ,53.773004040000000,-2.478467926000000
Rat and Hawk,BB5 4HU,53.754476000000000,-2.393357000000000
Triller and Nukupuʻu,BB4 8DW,53.728843000000000,-2.281259000000000
Crow and Mole,BB12 7AD,53.797988440000000,-2.313058000000000
Herring gull and Meadowlark,BB2 1AG,53.749680490000000,-2.485026761000000
Stilt and Gull,BB6 8BG,53.806508510000000,-2.446642145000000
Bunting and Fish eagle,BB12 8UY,53.798423500000000,-2.282818003000000
New World blackbird and Moluccan boobook,BB1 9SW,53.768229340000000,-2.474453923000000
Pheasant and Night heron,BB8 7LW,53.880957610000000,-2.175766545000000
Guillemot and Grouse,BB9 6PG,53.873043210000000,-2.226957135000000
Puffleg and Kangaroo,BB11 3PQ,53.780396110000000,-2.235986557000000
Kangaroo and Francolin,BB9 6NF,53.877413610000000,-2.215983588000000
Old World quail and Maya,BB1 1DA,53.746291520000000,-2.476177834000000
Zebra and Capuchin,BB5 5PX,53.777484530000000,-2.387714661000000
Mink and Civet,BB12 7BB,53.795210170000000,-2.313567919000000
Kite and Black jay,BB10 1SW,53.805732930000000,-2.231543218000000
Wallaby and Black jay,BB9 5HX,53.822095000000000,-2.234582334000000
Jerboa and Boto,BB5 6BG,53.761528000000000,-2.362900818000000
Gull and Fox,BB12 9HW,53.825449770000000,-2.290565654000000
Pheasant and Bunting,BB9 6HN,53.854757380000000,-2.214757005000000
White ibis and Cloud rat,BB1 5WQ,53.742938000000000,-2.484901000000000
Stint and Badger,BB6 7LY,53.781055140000000,-2.408644638000000
Scimitar babbler and Chicken,BB8 8RE,53.849664440000000,-2.139670873000000
Tattler and New World blackbird,BB2 3SH,53.736595370000000,-2.482404973000000
Maya and Wallaby,BB8 0BF,53.854780000000000,-2.179533000000000
Old World vulture and Kestrel,BB2 4AP,53.737139110000000,-2.492356167000000
Perching duck and Rabbit,BB11 2NP,53.774964230000000,-2.250795745000000
Dolphin and Stint,BB1 3JP,53.748609470000000,-2.453260746000000
Fox and New World blackbird,BB11 5EN,53.786257180000000,-2.269637835000000
Pheasant and Eagle,BB10 3EB,53.805528660000000,-2.225696000000000
Argus and Cuscus,BB5 4EL,53.756363250000000,-2.387504820000000
Darwin's finches and Perching duck,BB5 6DQ,53.760501000000000,-2.357858000000000
White ibis and River dolphin,BB1 4ES,53.764689820000000,-2.421061451000000
Fulmarine petrel and Grosbeak,BB10 4NU,53.785707480000000,-2.217272330000000
Asiatic leopard and Wallaby,BB9 8JY,53.843390230000000,-2.192083798000000
Mouse and Coati,BB10 1HT,53.808415040000000,-2.238999000000000
Crow and Tit-tyrant,BB18 5ER,53.920357300000000,-2.189468293000000
Marmoset and Goose,BB5 4JL,53.757040660000000,-2.392015692000000
Minke whale and Kestrel,BB1 3HT,53.758904000000000,-2.447957000000000
Kestrel and Zebra,BB11 2LJ,53.781454290000000,-2.246114792000000
Thicketbird and Francolin,BB9 9XG,53.839932000000000,-2.207508000000000
Kākāriki and Prion,BB12 8EJ,53.802103000000000,-2.310826000000000
Chicken and Maya,BB11 1EU,53.790297000000000,-2.245666000000000
Parakeet and Booted eagles,BB6 8EG,53.802945090000000,-2.450157240000000
Grouse and Grosbeak,BB12 8QU,53.798752490000000,-2.309707743000000
Old World quail and Skunk,BB9 8HJ,53.842725045086600,-2.200379113649780
Partridge and New World blackbird,BB7 4RS,53.913367690000000,-2.348523714000000
Old World quail and Greenbul,BB9 7BP,53.834042210000000,-2.223524679000000
Myna and Boto,BB4 8LA,53.714714160000000,-2.291816502000000
Pitohui and Peafowl,BB2 1AD,53.744924000000000,-2.500299000000000
Chickadee and Nukupuʻu,BB8 9RS,53.861945050000000,-2.177967472000000
Piping shrike and Puffleg,BB10 1DY,53.803237000000000,-2.235189326000000
Boto and Zebra,BB1 9NG,53.792715430000000,-2.473804374000000
Boto and Pratincole,BB11 3LW,53.782119060000000,-2.237377258000000
Argus and Coati,BB5 0JX,53.745348560000000,-2.383248767000000
Goose and Badger,BB11 5BZ,53.777947000000000,-2.268553000000000
Coati and Boto,BB12 7DW,53.789884510000000,-2.304967260000000
Tahr and Perching duck,BB10 3HR,53.804083540000000,-2.229256518000000
Chickadee and Hawk,BB1 2DX,53.743906410000000,-2.431982725000000
Prion and Boto,BB9 7TE,53.838106820000000,-2.222406626000000
Tahr and Thrasher,BB1 4AR,53.760986820000000,-2.426121019000000
Condor and Parakeet,BB9 8PX,53.848471840000000,-2.216427200000000
Mole and Stint,BB1 5SG,53.766218000000000,-2.455711000000000
Ground sloth and Parakeet,BB1 6NW,53.758803280000000,-2.471556743000000
Kangaroo and Ibex,BB5 2EN,53.752013540000000,-2.364428680000000
Rat and Philippine hawk-owl,BB1 9ER,53.802847150000000,-2.486718505000000
Marsh harrier and Ibex,BB4 8QR,53.736292220000000,-2.292784692000000
Black cockatoo and Treepie,BB6 7JH,53.784733810000000,-2.413142475000000
Tree warbler and Black cockatoo,BB2 2PS,53.740440540000000,-2.502507295000000
Jackal and Tattler,BB8 9LF,53.861072530000000,-2.165921701000000
River dolphin and Tahr,BB7 1PN,53.871400000000000,-2.376645000000000
Rat and Snipe,BB10 1BE,53.800300000000000,-2.238604458725980
Peafowl and Vole,BB12 9ET,53.828744170000000,-2.284815150000000
Parakeet and Stilt,BB11 5PJ,53.746812190000000,-2.275996211000000
Buzzard and Snipe,BB9 6LE,53.872363480000000,-2.256504034000000
Pitohui and Old World vulture,BB9 6PU,53.840815530000000,-2.230156422000000
Goose and Chipmunk,BB6 8BX,53.803838620000000,-2.449164670000000
Ground sloth and Vulture,BB9 6AD,53.858680880000000,-2.211934000000000
American sparrow and Recurvebill,BB9 0NW,53.835242700000000,-2.200312693000000
Polecat and Tattler,BB3 0QJ,53.722694890000000,-2.470046171000000
Fulmarine petrel and Pratincole,BB5 1EZ,53.753387000000000,-2.365228098000000
Armadillo and Flameback,BB7 2ND,53.872650730000000,-2.411545150000000
Chickadee and Rabbit,BB8 7LN,53.879081400000000,-2.180306801000000
Polecat and Linsang,BB12 8AR,53.797590500000000,-2.277741709000000
Old World quail and Parrotlet,BB10 1AG,53.797820230000000,-2.242293810000000
Skunk and Hawk,BB5 6HX,53.765823090000000,-2.351366000000000
Goose and Maya,BB6 7TR,53.790729150000000,-2.391631678000000
Peafowl and Meadowlark,BB11 3DJ,53.792488740000000,-2.234065943000000
Myna and Vulture,BB1 4DS,53.769297040000000,-2.419544910000000
Black cockatoo and Hawk,BB8 7BG,53.858519360000000,-2.145660262000000
Dolphin and Solitaire,BB2 6JH,53.754615170000000,-2.506695621000000
Argus and Thrasher,BB9 7HP,53.835880510000000,-2.220951242000000
Viscacha and White ibis,BB7 9ZU,53.835856000000000,-2.402097000000000
Prion and Skunk,BB2 1AX,53.750518000000000,-2.487023000000000
Marsh harrier and Skunk,BB7 2QQ,53.864647560000000,-2.404775901000000
Stilt and Egret,BB18 5NQ,53.919118150000000,-2.188731840000000
B and Night heron,BB9 5JT,53.820085970000000,-2.241268000000000
Kangaroo and Moluccan boobook,BB11 2LA,53.782981340000000,-2.250889127000000
Herring gull and Moluccan boobook,BB2 1JG,53.747591080000000,-2.483835073000000
Polecat and Cuscus,OL14 8PA,53.733119956768000,-2.145058892311770
Piping shrike and Parrotlet,BB9 0QA,53.827222740000000,-2.217350613000000
Mole and Stilt,BB5 4BZ,53.758873350000000,-2.375454398000000
Capuchin and Nukupuʻu,BB10 3NU,53.786767390000000,-2.191323851000000
Night heron and Hawaiian honeycreeper,BB5 1LF,53.753500810000000,-2.365988476000000
River dolphin and Herring gull,BB12 0HG,53.792322300000000,-2.266413115000000
Scimitar babbler and Boto,BB8 9HR,53.857386000000000,-2.167898216000000
Marmoset and Herring gull,BB12 7BZ,53.792433930000000,-2.309706697000000
Booted eagles and Crow,BB12 6EX,53.787223340000000,-2.283289008000000
Peafowl and Wallaby,BB4 8HZ,53.711178270000000,-2.289580029000000
Parrotlet and Fish eagle,BB1 9AN,53.767791090185600,-2.475162323957720
Old World vulture and Old World vulture,OL13 8RZ,53.724105374017800,-2.195297520144540
Moluccan boobook and Pheasant,BB5 1QZ,53.754617000000000,-2.371716000000000
Rat and Philippine hawk-owl,BB2 4BZ,53.734628440000000,-2.503878053000000
Minke whale and Tree warbler,BB10 4BQ,53.793212640000000,-2.231565263000000
Quetzal and Asiatic leopard,BB1 4EY,53.764270430000000,-2.425289609000000
Siskin and Buzzard,BB1 2PW,53.736826190000000,-2.455589789000000
Old World vulture and Triller,BB8 0BE,53.861588110000000,-2.156816063000000
Capuchin and Buzzard,BB12 9LA,53.860633570000000,-2.273111544000000
Polecat and Treepie,BB5 3PX,53.741168310000000,-2.405331187000000
B and Triller,BB18 5DR,53.915823700000000,-2.186128797000000
Old World vulture and Hawaiian honeycreeper,BB12 9PH,53.834664160000000,-2.262533763000000
Marsh harrier and Songlark,OL13 8RU,53.723087027501500,-2.173727500315030
Mockingbird and Pitohui,BB6 7SX,53.789963770000000,-2.394796953000000
Vole and River dolphin,BB1 2QE,53.724222000000000,-2.454302000000000
Crow and Boto,BB5 3PP,53.738095350000000,-2.402375664000000
Marmoset and Boto,BB1 3JR,53.748787970000000,-2.451215504000000
Wader and Boto,BB12 7QA,53.805672570000000,-2.352260562000000
Parrotlet and Songlark,BB11 2AE,53.788347000000000,-2.242558000000000
Tattler and Bronzewing pigeon,BB5 5TL,53.781041080000000,-2.388551781000000
Philippine hawk-owl and Coati,BB18 6UA,53.897277320000000,-2.150999738000000
Old World quail and Petrel,BB1 9TY,53.759575050000000,-2.476404010000000
Ice seal and Parrotbill,BB1 4ER,53.762124890000000,-2.432093951000000
Myna and Crow,BB11 1LA,53.786206070000000,-2.247508610000000
Condor and Wallaby,BB4 9NL,53.729240860000000,-2.223953000000000
Cloud rat and Civet,BB11 1NJ,53.789420330000000,-2.244810558000000
Pitohui and Darwin's finches,BB1 4PB,53.769438000000000,-2.407728000000000
Capuchin and Greenbul,BB10 1UN,53.806177000000000,-2.230422000000000
Dorcopsis and Rabbit,BB11 2RW,53.775195450000000,-2.234257909000000
Pratincole and Greenbul,BB1 2EJ,53.735455000000000,-2.442856000000000
Herring gull and Viscacha,BB9 8RF,53.848641880000000,-2.226551368000000
Piping shrike and Pheasant,BB9 5SQ,53.824812440000000,-2.232529631000000
Parrotbill and Marsh harrier,BB7 2DH,53.873723080000000,-2.389167588000000
American sparrow and Triller,BB7 1NS,53.874163000000000,-2.386799000000000
Diving bird and Cuscus,BB18 5PT,53.913888220000000,-2.188114497000000
Pheasant and Mockingbird,BB5 4RP,53.744669600000000,-2.411793875000000
Quetzal and Mole,BB7 9JB,53.830406650000000,-2.422100483000000
Tit-tyrant and Solitaire,BB2 4ER,53.730715433948400,-2.501542733652280
Grackle and Jackal,BB7 1NG,53.868654490000000,-2.388983640000000
Ice seal and Tree warbler,BB10 3PH,53.804695000000000,-2.176525000000000
Triller and Wallaby,BB8 0LY,53.858310300000000,-2.161501706000000
Fish eagle and Diving bird,BB11 3LY,53.782132000000000,-2.236102000000000
Logrunners and Ibex,BB18 6DD,53.918107710000000,-2.185408153000000
Diving bird and Minke whale,BB5 1AJ,53.755687020000000,-2.362337175000000
Stint and Philippine hawk-owl,BB9 9AA,53.833740680000000,-2.216411935000000
Hawk and Greenbul,BB11 4SD,53.787258080000000,-2.251628032000000
Peafowl and Meadowlark,BB1 9TZ,53.759848540000000,-2.475436344000000
Fish eagle and Elephant,BB10 1NQ,53.799344490000000,-2.239660884000000
White ibis and Egret,BB1 9AZ,53.772657710000000,-2.479662636000000
Booted eagles and Skunk,BB8 8PD,53.844252150000000,-2.141020692000000
Grackle and Polecat,BB10 4ET,53.786859420000000,-2.226187653000000
Thrasher and Old World warbler,BB9 9XW,53.839888050000000,-2.206428872000000
Mouse and Puffleg,BB11 1DZ,53.788709580000000,-2.245155520000000
Old World quail and Black jay,BB10 4DR,53.787320600000000,-2.224702696000000
Ground sloth and Polecat,BB9 9DX,53.832969190000000,-2.210542893000000
Asiatic leopard and Booted eagles,BB1 1AE,53.744306120366700,-2.456414010240450
Philippine hawk-owl and Bronzewing pigeon,BB7 1PU,53.862917120000000,-2.352163799000000
Mole and Old World quail,BB11 3QZ,53.758725190000000,-2.217421059000000
Kestrel and Gull,BB8 9SD,53.859782080000000,-2.175860106000000
Tit-tyrant and Kite,BB10 4RQ,53.769460820000000,-2.194218663000000
Fox and Coati,BB5 3LY,53.745473530000000,-2.397305956000000
Jackal and Rat,BB10 2JE,53.812321890000000,-2.201251154000000
Fox and Francolin,BB5 4AS,53.761324480000000,-2.381968459000000
Peafowl and Philippine hawk-owl,BB12 9AR,53.816509370000000,-2.311008274000000
Piping shrike and Perching duck,BB12 6TD,53.796177690000000,-2.278476244000000
Ibex and B,BB1 4AG,53.782237000000000,-2.464444000000000
Siskin and Tit-tyrant,BB7 9RY,53.826433080000000,-2.417214209000000
Vulture and Macaw,BB1 9LA,53.787156550000000,-2.474880056000000
Wader and Francolin,BB7 2JG,53.873952600000000,-2.393200207000000
Siskin and Boto,BB18 6QD,53.917867310000000,-2.144572966000000
Tattler and Towhee,BB5 3RE,53.747329020000000,-2.424209000000000
Wader and Grackle,BB11 2QY,53.776469860000000,-2.244204017000000
Bronzewing pigeon and Chipmunk,BB8 7DB,53.861233630000000,-2.152922338000000
Cloud rat and Dolphin,BB5 2QU,53.736058120000000,-2.343673581000000
Jerboa and Fox,BB10 1JR,53.805354730000000,-2.236506456000000
Dorcopsis and Thrasher,BB10 1WB,53.805289000000000,-2.229324000000000
River dolphin and Marmoset,BB5 4BA,53.760099380000000,-2.371400262000000
Hawaiian honeycreeper and Tit-tyrant,BB12 6NX,53.795823400000000,-2.295066785000000
Jerboa and Partridge,BB2 1WD,53.745089280000000,-2.501925000000000
Elephant and Jerboa,BB1 3EA,53.756209000000000,-2.457013000000000
Puffleg and Egret,BB5 3QJ,53.735464740000000,-2.398818395000000
Francolin and Logrunners,BB9 8PW,53.847954730000000,-2.219069310000000
Rat and Eagle,OL13 8GA,53.727463858835000,-2.197162183078910
Masked owl and Tattler,BB1 5JA,53.755352490000000,-2.466801273000000
Old World quail and Minke whale,BB2 3JJ,53.730516760000000,-2.480819584000000
Tree warbler and New World blackbird,BB8 8FL,53.849686000000000,-2.176017000000000
Zebra and River dolphin,BB4 9QW,53.727758930000000,-2.242087432000000
Maya and Condor,BB12 0RW,53.806084080000000,-2.273865044000000
Masked owl and Logrunners,BB1 5AN,53.762499000000000,-2.471507000000000
Chickadee and Badger,BB9 4SA,53.836968960000000,-2.215516844000000
Mamo and Petrel,BB1 2DZ,53.737914560000000,-2.438515954000000
Herring gull and Black jay,BB11 2AA,53.794913000000000,-2.240288000000000
Dolphin and Wader,BB1 9SN,53.767024570000000,-2.474546528000000
Guillemot and Skunk,BB18 6LX,53.911438610000000,-2.153928000000000
Piping shrike and Herring gull,BB12 8LB,53.800390420000000,-2.322534033000000
Greenbul and Ground sloth,BB4 9PW,53.722546380000000,-2.246224986000000
Dolphin and Buzzard,OL13 8PN,53.726218495687600,-2.194731399170770
Mole and New World blackbird,BB5 5EL,53.764266420000000,-2.375381183000000
Fish eagle and Shearwater,BB9 9HW,53.838319810000000,-2.203716192000000
White ibis and Magpie,BB12 6PY,53.787837070000000,-2.289986000000000
Night heron and Diving bird,BB18 6LL,53.892903000000000,-2.142082000000000
Piping shrike and Egret,BB9 0HN,53.821664870000000,-2.219175039000000
Kestrel and Black jay,BB9 0NT,53.833636650000000,-2.198633604000000
Eagle and Egret,BB1 9HS,53.789763870000000,-2.485762000000000
Flameback and Night heron,BB7 1HS,53.864268820000000,-2.394356218000000
Lemming and New World blackbird,BB7 9DQ,53.831100000000000,-2.341824000000000
Greenbul and Stint,BB4 5JH,53.715783500000000,-2.326704338000000
New World blackbird and Capuchin,BB1 1SL,53.744680080000000,-2.463074188000000
Grouse and Quetzal,BB6 7UN,53.798936690000000,-2.410002785000000
Shearwater and Vole,BB5 4RN,53.743815190000000,-2.409329214000000
Condor and Moluccan boobook,BB12 6AQ,53.792762480000000,-2.282218228000000
Polecat and Chickadee,BB10 4DT,53.787735040000000,-2.228924428000000
Ice seal and Jay,BB1 5HD,53.754733270000000,-2.471147139000000
Masked owl and Bunting,BB8 9ED,53.863282180000000,-2.166903605000000
Jay and Mole,BB4 8DT,53.723818860000000,-2.288212053000000
Masked owl and Parakeet,BB9 4SU,53.836968960000000,-2.215516844000000
Wader and Petrel,BB5 3RZ,53.726268480000000,-2.374193691000000
Petrel and Myna,BB7 3JJ,53.907176080000000,-2.423635642000000
Eagle and Capuchin,BB7 9DH,53.840221580000000,-2.392990295000000
Polecat and Nukupuʻu,BB5 2TH,53.738804750000000,-2.344969489000000
Thrasher and Black cockatoo,BB9 9BU,53.832801220000000,-2.214036760000000
Duck and Badger,BB1 4JR,53.767592800000000,-2.413368511000000
Scimitar babbler and Stilt,BB1 1DE,53.744080000000000,-2.476426000000000
Pitohui and Puffleg,BB1 8DL,53.759194860000000,-2.492629407000000
Fulmarine petrel and Black jay,BB8 9PT,53.859138760000000,-2.179354308000000
Pheasant and New World blackbird,BB18 6QY,53.917505440000000,-2.138862000000000
Crow and Tree warbler,BB11 5PX,53.783127600000000,-2.282107983000000
Dolphin and B,BB2 6JT,53.750497900000000,-2.502597042000000
Fish eagle and Cloud rat,BB9 0RD,53.830053670000000,-2.212488203000000
Shearwater and Triller,BB4 9NF,53.721661130000000,-2.252494000000000
Grackle and Duck,BB1 7NF,53.754361560000000,-2.481001007000000
Parrotlet and Partridge,BB1 3LZ,53.748594800000000,-2.432925529000000
Darwin's finches and Mole,BB9 7BW,53.834393330000000,-2.223207457000000
Old World quail and Night heron,BB11 3DF,53.782491000000000,-2.222021000000000
Vulture and Old World vulture,OL14 8AY,53.727797099963600,-2.122684710418640
Pitohui and Crow,BB5 3BE,53.739824040000000,-2.387852869000000
Coati and Perching duck,BB2 4UH,53.729244000000000,-2.491020983000000
Scimitar babbler and Perching duck,BB4 8RG,53.742650220000000,-2.283898576000000
Egret and Snipe,BB1 2DR,53.744690870000000,-2.433779973000000
Argus and Night heron,BB2 2QF,53.736159000000000,-2.501289000000000
Grosbeak and Coati,BB5 5WQ,53.776150000000000,-2.375108000000000
Mink and Booted eagles,BB12 0HS,53.797927580000000,-2.267860582000000
Stint and Darwin's finches,BB9 8DU,53.838531120000000,-2.195571914000000
Capuchin and Elephant,BB18 5AS,53.923715336340300,-2.194006000000000
Kangaroo and Meadowlark,BB9 8LN,53.842684320000000,-2.205834725000000
Moluccan boobook and Badger,BB1 4HU,53.766875540000000,-2.418034028000000
Marsh harrier and Diving bird,BB5 4NN,53.748295310000000,-2.408024000000000
Mouse and Warbler,BB7 2JB,53.876166000000000,-2.395639000000000
Black cockatoo and Dolphin,BB9 0BA,53.832166110000000,-2.217345847000000
Old World warbler and Old World warbler,BB6 7UW,53.792267930000000,-2.417709782000000
Argus and Buzzard,BB6 8DS,53.793551990000000,-2.447916176000000
Grosbeak and Flameback,BB11 4AB,53.789655880000000,-2.256803193000000
Herring gull and Masked owl,OL13 8GE,53.726271287339500,-2.195428817488130
Stint and Kangaroo,BB10 4EJ,53.786050720000000,-2.230782082000000
Tattler and Old World vulture,BB9 0NP,53.834460960000000,-2.200187398000000
New World blackbird and Mink,BB11 1UH,53.790029730000000,-2.241262237000000
Thicketbird and Flameback,BB9 9HE,53.837748430000000,-2.206722260000000
Capuchin and Chicken,BB1 3NN,53.748310030000000,-2.441990668000000
Skunk and Rabbit,BB2 4JQ,53.726866160000000,-2.490038416000000
New World blackbird and River dolphin,BB1 9AB,53.767597710000000,-2.479589757000000
Marsh harrier and Black jay,BB5 2AL,53.725277040389900,-2.330946068287070
Boto and Siskin,BB1 6LF,53.751700350000000,-2.478938447000000
Minke whale and Tree warbler,BB11 2JQ,53.782565570000000,-2.251994511000000
Flameback and Wader,BB1 8JS,53.763007160000000,-2.490110435000000
Partridge and River dolphin,BB7 0TD,53.873454570000000,-2.391583356000000
Bronzewing pigeon and Coati,BB11 4JH,53.784440670000000,-2.253599336000000
Tattler and Marmoset,BB2 4AS,53.736937200000000,-2.493369522000000
Stint and Skunk,BB12 8DT,53.801905530000000,-2.310383876000000
Minke whale and Perching duck,BB18 5AE,53.915921000000000,-2.187134050000000
Gull and New World blackbird,BB5 3QN,53.737609750000000,-2.405115005000000
Tit-tyrant and Parrotlet,OL13 8QB,53.723107630053800,-2.195338355590560
Piping shrike and Treepie,BB9 5JF,53.820495260000000,-2.234055077000000
Asiatic leopard and Macaw,BB1 5LB,53.755870980000000,-2.465214517000000
Stilt and Kestrel,BB1 4NY,53.770960900000000,-2.411459586000000
Greenbul and Marsh harrier,BB10 1DU,53.801871000000000,-2.235348000000000
Eagle and Chicken,BB7 1LZ,53.870549470000000,-2.386659179000000
Gull and American sparrow,BB10 3ER,53.800886030000000,-2.228100343000000
Hawk and Condor,BB12 0JW,53.795830280000000,-2.261122002000000
Kangaroo and Tattler,BB12 8AF,53.794632540000000,-2.270283646000000
Guillemot and Parrotbill,BB1 5QH,53.758721800000000,-2.459906000000000
Black cockatoo and Philippine hawk-owl,BB5 5LH,53.770147690000000,-2.380106608000000
Flameback and Civet,BB4 9ND,53.714405350000000,-2.253783551000000
Triller and Black jay,BB1 8HA,53.756004640000000,-2.485888331000000
Magpie and Mole,BB7 1AF,53.871531410000000,-2.391504546000000
Rabbit and Goose,BB9 8JF,53.844243390000000,-2.198030335000000
Lemming and Mockingbird,BB18 5AY,53.914671110000000,-2.187509057000000
Stint and White ibis,BB10 3BL,53.801973260000000,-2.232934525000000
Stint and Hawaiian honeycreeper,BB5 3AL,53.741139440000000,-2.384089804000000
Triller and Old World vulture,BB1 1YG,53.747628570000000,-2.469899996000000
New World blackbird and Condor,BB2 4NS,53.728407020000000,-2.495649227000000
Mamo and Egret,BB5 6EJ,53.758401000000000,-2.356718000000000
Peafowl and Darwin's finches,BB2 1TA,53.742518600000000,-2.497771247000000
Skunk and Prion,BB11 2JH,53.779783110000000,-2.250171970000000
Magpie and Booted eagles,BB7 4BU,53.887033920000000,-2.319230308000000
Viscacha and Thicketbird,BB6 7WJ,53.795062230000000,-2.407551220000000
Herring gull and Kākāriki,BB5 5BW,53.763048230000000,-2.368240755000000
Old World vulture and Cuscus,BB5 2QQ,53.736035340000000,-2.348448646000000
Buzzard and Polecat,BB18 6PH,53.912739830000000,-2.140749379000000
Shearwater and Black jay,BB7 9BS,53.832478140000000,-2.388952032000000
Black cockatoo and Piping shrike,BB5 3HF,53.743791330000000,-2.392286504000000
Viscacha and Goose,BB2 4AZ,53.735027370000000,-2.492240520000000
Goose and American sparrow,BB8 9NZ,53.853728770000000,-2.184803851000000
Nukupuʻu and Egret,BB9 8JA,53.843396000000000,-2.199941000000000
Rabbit and Ground sloth,BB5 2TP,53.740927330000000,-2.344486562000000
American sparrow and Tree warbler,BB5 3AX,53.741719030000000,-2.382730549000000
Pratincole and Solitaire,BB12 8NA,53.802162400000000,-2.315093000000000
Eagle and Ground sloth,BB12 0DG,53.796218320000000,-2.247689067000000
Wader and Fish eagle,BB12 6PE,53.789857720000000,-2.290425676000000
White ibis and Grouse,BB12 7AJ,53.796575400000000,-2.313927282000000
Shearwater and Mink,BB7 2RE,53.861814000000000,-2.407106000000000
Peafowl and Fox,BB5 4BN,53.743564000000000,-2.406142000000000
Masked owl and Jackal,BB5 1ED,53.753700020000000,-2.362547551000000
Meadowlark and Rat,BB18 5EY,53.921172960000000,-2.190872825000000
Polecat and Night heron,BB9 7JR,53.836484160000000,-2.215210438000000
Jackal and Scimitar babbler,BB1 6LQ,53.753732720000000,-2.478673424000000
Mamo and Polecat,BB9 5AZ,53.823626610000000,-2.232234427000000
Rabbit and Buzzard,BB5 6TH,53.751642600000000,-2.359284480000000
Old World quail and Fulmarine petrel,BB1 5HN,53.754286200000000,-2.468260562000000
Armadillo and Guillemot,BB5 4ED,53.757786000000000,-2.386942000000000
Egret and Puffleg,BB1 7ET,53.753269980000000,-2.486448221000000
Logrunners and Badger,BB1 1NG,53.748325470000000,-2.464054465000000
Snipe and Grackle,BB9 0DF,53.830649310000000,-2.216152883000000
Grosbeak and Lemming,BB9 8LT,53.844600180000000,-2.204993009000000
Fox and B,BB18 6AT,53.916932710000000,-2.183849999000000
Guillemot and Minke whale,BB5 5NG,53.772009170000000,-2.379804813000000
Jerboa and Snipe,BB9 0EU,53.821347870000000,-2.205806000000000
Mockingbird and Pheasant,BB9 0EX,53.821362500000000,-2.207264298000000
Fulmarine petrel and Eagle,BB10 1SU,53.804817510000000,-2.230839692000000
Vulture and Kite,BB11 5HJ,53.773832850000000,-2.258724527000000
Linsang and Hawk,BB18 6US,53.917466000000000,-2.142653000000000
Crow and Boto,BB7 4BY,53.885095840000000,-2.285852577000000
Cuscus and Chicken,BB1 6EH,53.756190790000000,-2.477594207000000
Lemming and Magpie,BB2 7BZ,53.762713300000000,-2.498161867000000
Towhee and Perching duck,BB5 3QQ,53.735913680000000,-2.398959083000000
Dorcopsis and New World blackbird,BB9 0RX,53.827208110000000,-2.210438008000000
Armadillo and Armadillo,BB5 1BR,53.756794200000000,-2.364758265000000
Minke whale and American sparrow,BB9 9LQ,53.837217430000000,-2.185171729000000
Guillemot and Minke whale,BB8 7EW,53.875137340000000,-2.121915000000000
Stint and Vole,BB5 5QL,53.775540450000000,-2.385754488000000
Tahr and Pratincole,BB1 2PN,53.718670670000000,-2.426147516000000
Wallaby and Tattler,BB6 7SJ,53.788806570000000,-2.396835188000000
Logrunners and Eagle,BB10 3AL,53.799529780000000,-2.236883568000000
Pitohui and Recurvebill,BB5 6NT,53.766370000000000,-2.355087000000000
Stilt and American sparrow,BB8 7LL,53.875529000000000,-2.188292000000000
Pitohui and Chicken,BB8 8AJ,53.852921300000000,-2.177913931000000
Zebra and Snipe,BB10 2PQ,53.810424000000000,-2.227879000000000
Diving bird and Pitohui,BB5 2HA,53.748653380000000,-2.363974986000000
Flameback and Grouse,BB4 5BS,53.713661320000000,-2.330142000000000
Pratincole and Crow,BB9 6EX,53.853985190000000,-2.219298465000000
Masked owl and Recurvebill,BB11 3EF,53.779389250000000,-2.231489072000000
Vulture and Guillemot,BB18 5NT,53.916744210000000,-2.189467138000000
Stint and Condor,BB5 2QT,53.736119300000000,-2.344888000000000
Zebra and Perching duck,BB5 4DD,53.758976150000000,-2.373893000000000
Tahr and B,BB9 8QR,53.848915260000000,-2.219712740000000
Dorcopsis and Guillemot,BB4 8RL,53.736529290000000,-2.283917929000000
Hawk and Tit-tyrant,BB6 8ES,53.800613160000000,-2.453609126000000
Pratincole and Solitaire,BB1 1XF,53.746291950000000,-2.452887033000000
Kangaroo and Mink,OL13 9UU,53.715304834035300,-2.178816764875070
Solitaire and White ibis,BB2 4NT,53.726225930000000,-2.501398032000000
Cloud rat and Parrotlet,BB5 3EG,53.744583270000000,-2.394719905000000
Pitohui and Puffleg,BB9 5AN,53.822922870000000,-2.233612896000000
Fox and Philippine hawk-owl,OL14 8LE,53.733050503835700,-2.135296653674770
Mouse and Chicken,BB1 9BE,53.778812380000000,-2.477851000000000
Nukupuʻu and Jerboa,BB9 8AS,53.849053010000000,-2.202749951000000
Chicken and Stilt,BB1 5LJ,53.753311370000000,-2.469311321000000
Mole and Kite,BB12 6RH,53.792604000000000,-2.269648000000000
Darwin's finches and Minke whale,BB11 2JB,53.782968080000000,-2.239810278000000
Warbler and Hawk,BB9 6ND,53.859487300000000,-2.237374495000000
Herring gull and Quetzal,BB9 7BY,53.833644610000000,-2.224662163000000
Armadillo and Darwin's finches,BB9 8TL,53.848272730000000,-2.222095772000000
Tahr and Stint,BB5 6QG,53.755582000000000,-2.355389981000000
Night heron and Lemming,BB2 2TH,53.738945970000000,-2.505248699000000
Polecat and Moluccan boobook,BB8 8JU,53.844893500000000,-2.190646806000000
Armadillo and Songlark,BB4 9PN,53.721090770000000,-2.246004317000000
Ibex and Parrotbill,BB5 2LE,53.743408770000000,-2.359532596000000
Petrel and Magpie,BB10 2RH,53.814722080000000,-2.221401763000000
Mouse and White ibis,BB1 2EU,53.739069260000000,-2.442257506000000
Zebra and Old World quail,BB12 6JD,53.792692090000000,-2.285375178000000
Booted eagles and Black cockatoo,BB7 1JB,53.870205260000000,-2.381880684000000
Nukupuʻu and Petrel,BB5 2AH,53.750789170000000,-2.353089937000000
Bronzewing pigeon and Grackle,BB5 6SX,53.754490290000000,-2.353757978000000
Black cockatoo and Thrasher,BB7 9RR,53.821736790000000,-2.410726761000000
Francolin and River dolphin,BB8 0JX,53.855790260000000,-2.164030840000000
Piping shrike and Kite,BB2 3TA,53.737333660000000,-2.486536972000000
Myna and Parrotlet,BB5 1BW,53.756796870000000,-2.363878602000000
Argus and Nukupuʻu,BB10 4EE,53.786311810000000,-2.230555853000000
Bunting and Hawaiian honeycreeper,BB9 0AA,53.832897360000000,-2.215556694000000
Petrel and Kangaroo,BB6 8HD,53.801442070000000,-2.457808633000000
Stint and Eagle,BB10 3FB,53.793169260000000,-2.226039477000000
Elephant and Tahr,BB12 8UD,53.800251000000000,-2.285565140000000
Grosbeak and Zebra,BB9 5BA,53.823931630000000,-2.232524748000000
Jay and Philippine hawk-owl,BB6 8EQ,53.802324540000000,-2.450256874000000
Coati and Quetzal,BB7 1LD,53.866934000000000,-2.384831000000000
River dolphin and Prion,BB10 2SD,53.815972990000000,-2.225372513000000
Linsang and Bronzewing pigeon,BB11 5LB,53.782214540000000,-2.268762030000000
River dolphin and Ground sloth,BB8 0SR,53.854217580000000,-2.170333568000000
Skunk and Macaw,BB12 0DJ,53.795481510000000,-2.247593636000000
Ground sloth and Myna,BB8 8JB,53.850674320000000,-2.189639451000000
Solitaire and Rabbit,BB9 0ET,53.822531000000000,-2.202485000000000
Hawk and Ice seal,BB8 9SQ,53.862236680000000,-2.181283412000000
Chicken and Wallaby,BB1 7LE,53.752809020000000,-2.482924000000000
Old World warbler and Scimitar babbler,BB7 4RY,53.907564810000000,-2.359602338000000
Chickadee and Puffleg,BB7 2NG,53.868298120000000,-2.404339740000000
Siskin and Darwin's finches,BB10 1DH,53.796291120000000,-2.242861873000000
Civet and Eagle,BB5 6LP,53.771602000000000,-2.339063000000000
Condor and Jackal,BB9 5JP,53.820940570000000,-2.236138606000000
Kākāriki and Ice seal,BB5 6UG,53.756271410000000,-2.350193587000000
Coati and Old World quail,BB7 1JX,53.869580420000000,-2.386148379000000
Duck and Ice seal,BB7 2DT,53.872254370000000,-2.395784967000000
Mouse and Buzzard,BB11 5DA,53.778810390000000,-2.275660015000000
Guillemot and Old World warbler,BB5 0DQ,53.751012000000000,-2.388775000000000
Ibex and Vole,BB8 7PD,53.875630500000000,-2.167622083000000
Fish eagle and Marsh harrier,BB18 6NX,53.915733290000000,-2.140302730000000
Logrunners and Warbler,BB9 5JQ,53.820179200000000,-2.234812805000000
Chipmunk and Snipe,BB10 2PS,53.814000910000000,-2.232029277000000
Puffleg and B,BB5 0DB,53.752520000000000,-2.386620000000000
Black jay and Macaw,BB7 9XH,53.825482000000000,-2.401375000000000
Egret and Maya,BB1 1XH,53.738190940000000,-2.453603388000000
Pitohui and Macaw,BB10 2SJ,53.816021460000000,-2.228258556000000
Dolphin and Meadowlark,BB9 5SD,53.826770460000000,-2.233224135000000
Petrel and Grouse,BB1 3NQ,53.748092270000000,-2.437500000000000
Parrotlet and Guillemot,BB6 7LF,53.781221660000000,-2.415111166000000
Bronzewing pigeon and Mockingbird,BB18 5HL,53.920729470000000,-2.192804539000000
Boto and Armadillo,BB2 3JG,53.732623000000000,-2.484206000000000
Black jay and Tit-tyrant,BB5 5XB,53.773637070000000,-2.379470538000000
Jerboa and Darwin's finches,BB7 2NW,53.870932000000000,-2.412395000000000
Moluccan boobook and Condor,BB9 0SR,53.826138530000000,-2.210447833000000
Puffleg and Grosbeak,BB9 7TD,53.837530760000000,-2.222859453000000
Towhee and Piping shrike,BB12 6HD,53.789361950000000,-2.283515931000000
Chicken and Scimitar babbler,BB5 2TB,53.735730455850700,-2.346748554136560
Pitohui and Recurvebill,BB9 9NE,53.835225010000000,-2.189068111000000
Argus and Wader,BB5 4PE,53.751510880000000,-2.395391491000000
Black jay and Darwin's finches,BB5 5RF,53.777179630000000,-2.381900065000000
Civet and Scimitar babbler,BB12 8EB,53.800499010000000,-2.315505251000000
Chickadee and American sparrow,BB5 3RY,53.736888970000000,-2.383808468000000
Snipe and Fox,BB9 7DN,53.832287590000000,-2.224260000000000
Pitohui and Puffleg,BB11 1RT,53.790424740000000,-2.250479000000000
Mamo and Chicken,BB9 7AQ,53.833840720000000,-2.220697377000000
Tit-tyrant and Civet,BB18 6QF,53.918399000000000,-2.144149483000000
Black jay and Booted eagles,BB7 2RN,53.869568000000000,-2.410587000000000
Chipmunk and Mole,BB12 6SZ,53.796017480000000,-2.273890484000000
Perching duck and Eagle,BB7 2AJ,53.874498750000000,-2.393844135000000
Herring gull and Hawk,BB12 7NY,53.805259340000000,-2.342888267000000
Chipmunk and Vulture,BB5 4QP,53.746023930000000,-2.404725932000000
Dorcopsis and Dorcopsis,BB18 5ED,53.920683070000000,-2.188068952000000
Booted eagles and Prion,BB12 0HA,53.792867690000000,-2.267706873000000
Chipmunk and Bronzewing pigeon,BB7 2FR,53.865446525173700,-2.413299000000000
Pitohui and Macaw,BB2 4LT,53.729976450000000,-2.494318685000000
Songlark and Magpie,BB2 6HD,53.752644140000000,-2.500908962000000
Armadillo and Stilt,BB9 5AD,53.822624550000000,-2.234492297000000
Buzzard and Philippine hawk-owl,BB11 9HE,53.790944000000000,-2.240889000000000
Mole and Quetzal,BB9 8AX,53.840091560000000,-2.197676385000000
Stint and Bronzewing pigeon,BB1 5LW,53.753001070000000,-2.468215930000000
Prion and Old World warbler,BB18 6HG,53.920984160000000,-2.173148447000000
Elephant and Grosbeak,BB2 2HP,53.743951480000000,-2.484430000000000
Black jay and Mink,BB12 7PA,53.806926150000000,-2.350813310000000
Maya and Flameback,BB11 5BF,53.787957749902800,-2.266871413254950
Parrotbill and Meadowlark,BB6 7NQ,53.787146760000000,-2.409310988000000
Bronzewing pigeon and Old World quail,BB6 7QE,53.789257510000000,-2.412352118000000
Francolin and Triller,BB10 1SY,53.804456860000000,-2.231429891000000
Siskin and Flameback,BB11 2HA,53.786537000000000,-2.244429000000000
Songlark and Thrasher,BB10 1TS,53.808736900000000,-2.225789225000000
Elephant and Francolin,BB1 1NH,53.746705110000000,-2.467008633000000
Moluccan boobook and New World blackbird,BB5 0RY,53.751034540000000,-2.375839399000000
Grosbeak and Mamo,BB12 0JU,53.797259650000000,-2.260994255000000
Marsh harrier and Vulture,BB5 4AQ,53.758574930000000,-2.381715978000000
Treepie and Marmoset,BB1 8DS,53.761057990000000,-2.487600073000000
Dorcopsis and Kangaroo,BB18 5QS,53.910709210000000,-2.192103749000000
Warbler and Masked owl,BB1 4JW,53.767229520000000,-2.411847861000000
Shearwater and Maya,BD23 3TG,53.926437100000000,-2.132968163000000
Myna and Booted eagles,BB5 2EU,53.750203750000000,-2.365474530000000
Fox and Shearwater,BB9 5BJ,53.823322510000000,-2.221963647000000
Ground sloth and Boto,BB1 1SS,53.744088770000000,-2.464902345000000
Gull and Pheasant,BB1 3HD,53.750300640000000,-2.459966603000000
Wader and Fox,BB10 4BG,53.793633070000000,-2.232599837000000
Parakeet and Moluccan boobook,BB8 9PZ,53.859144410000000,-2.181574106000000
Chickadee and Moluccan boobook,BB11 4JQ,53.784873950000000,-2.252721680000000
Crow and New World blackbird,BB5 6PH,53.754718120000000,-2.358749593000000
Dorcopsis and Mink,BB10 3HX,53.788820700000000,-2.215406301000000
Stilt and Masked owl,BB5 2NW,53.750615000000000,-2.363689656000000
New World blackbird and Chipmunk,BB1 6LX,53.757532500000000,-2.470147106000000
Thrasher and Old World quail,BB1 2HU,53.736172000000000,-2.455126138168380
Towhee and Jay,BB11 5LZ,53.782055470000000,-2.275484014000000
Mamo and Songlark,BB10 1QD,53.801932000000000,-2.240435000000000
Bronzewing pigeon and Mouse,BB9 8RW,53.844041100000000,-2.200765102000000
Gull and Scimitar babbler,BB18 5PD,53.914182640000000,-2.189501198000000
Jerboa and Wallaby,BB4 8QY,53.738051570000000,-2.286308353000000
Parrotlet and Mink,BB1 7ER,53.753005330000000,-2.485353000000000
Grackle and Boto,BB11 2JF,53.781991300000000,-2.238347803000000
Piping shrike and Black jay,BB12 7DH,53.792143880000000,-2.303632666000000
Warbler and Civet,BB2 9TD,53.749928130000000,-2.483801282000000
Tit-tyrant and Petrel,BB5 0PU,53.746916040000000,-2.367781150000000
Scimitar babbler and Snipe,BB3 0SY,53.722571000000000,-2.469772000000000
Tahr and Chicken,BB7 4LG,53.912601000000000,-2.334146000000000
Viscacha and Thicketbird,BB2 6BJ,53.750650330000000,-2.496214449000000
Civet and Macaw,BB5 5XR,53.784064720000000,-2.384633752000000
Armadillo and Boto,BB18 5TQ,53.905423400000000,-2.168867853000000
Tit-tyrant and Vulture,BB11 9FR,53.790933870641400,-2.240888219424130
Philippine hawk-owl and Black cockatoo,BB8 9JP,53.858475300000000,-2.165728966000000
Armadillo and Fulmarine petrel,BB10 1SL,53.806542190000000,-2.231365464000000
Parrotlet and Rat,BB2 4PU,53.730602250000000,-2.499464476000000
Logrunners and Boto,BB8 9RU,53.860458720000000,-2.174114442000000
Ground sloth and Quetzal,BB2 4NJ,53.724216230000000,-2.500525411000000
Parakeet and Goose,BB8 8SE,53.843692330000000,-2.135456222000000
Lemming and Cloud rat,BB6 7PW,53.792593070000000,-2.409439942000000
Wader and Mole,BB5 0JP,53.744286830000000,-2.383602999000000
Quetzal and Shearwater,BB9 5QH,53.824882390000000,-2.242586816000000
Warbler and Badger,BB6 7PQ,53.792775630000000,-2.411248143000000
Stilt and Parakeet,BB5 4JU,53.756345000000000,-2.393450000000000
Piping shrike and River dolphin,BB9 0WA,53.832716470000000,-2.195240902000000
New World blackbird and Vulture,BB7 9QD,53.838323000000000,-2.482236731000000
Asiatic leopard and Jackal,BB8 8HL,53.845423760000000,-2.166543674000000
Crow and Grackle,BB5 2XG,53.734544680000000,-2.351058814000000
Prion and Pitohui,BB5 6LQ,53.769552860000000,-2.338697918000000
Stint and B,BB12 7EF,53.796132710000000,-2.311358355000000
Kestrel and Cuscus,BB7 9SU,53.821464200000000,-2.408962010000000
Jackal and Thrasher,BB18 6RQ,53.917122690000000,-2.135709455000000
Thicketbird and Grosbeak,BB9 4SH,53.836968960000000,-2.215516844000000
Zebra and Marsh harrier,BB18 5EX,53.920875080000000,-2.191678461000000
Siskin and White ibis,BB2 1UQ,53.744161640000000,-2.504644145000000
Hawk and Darwin's finches,OL13 8SA,53.730672000000000,-2.203740000000000
Fox and Tree warbler,BB11 5JQ,53.778283540000000,-2.266187537000000
Cloud rat and Jerboa,BB9 8BT,53.839611410000000,-2.194497977000000
Marmoset and Jerboa,BB5 6BP,53.761022860000000,-2.363353924000000
Partridge and Macaw,BB7 2JW,53.872823000000000,-2.392748000000000
Jackal and American sparrow,BB6 8HA,53.803589690000000,-2.450832242000000
Macaw and Kākāriki,BB5 5SQ,53.785818650000000,-2.384240012000000
Myna and White ibis,BB5 3NQ,53.746895140000000,-2.394135049000000
Snipe and Kestrel,BB1 5FB,53.742938000000000,-2.484901000000000
Cuscus and Gull,BB3 0AZ,53.711037740000000,-2.478991368000000
Flameback and Prion,BB9 8LU,53.845458720000000,-2.207489841000000
White ibis and Darwin's finches,BB5 5DR,53.766267460000000,-2.370665870000000
Kangaroo and Thrasher,BB1 5BU,53.742930910000000,-2.484903506000000
Pitohui and Thrasher,BB2 2QB,53.737023650000000,-2.498540084000000
Ground sloth and Pheasant,BB10 1NN,53.798590570000000,-2.239125210000000
Kestrel and Magpie,BB12 7JB,53.807746540000000,-2.346735000000000
Coati and Skunk,BB1 5AF,53.748287000000000,-2.483236000000000
Black cockatoo and Parrotbill,BB4 8PY,53.732424800000000,-2.286406508000000
Mockingbird and Pitohui,BB7 2QY,53.873294850824700,-2.411217172748850
Mamo and Myna,BB7 9SF,53.825719930000000,-2.418103442000000
Wader and Wallaby,BB6 7LZ,53.786269240000000,-2.410971985000000
Kangaroo and Hawk,BB1 9LX,53.794148330000000,-2.468264452000000
Snipe and Peafowl,BB2 6ED,53.755121840000000,-2.503774589000000
Songlark and Shearwater,BB1 1RN,53.743007390000000,-2.470227463000000
Tit-tyrant and Partridge,BB12 8TB,53.794000680000000,-2.297953437000000
Thrasher and Coati,BB7 9JT,53.831024490000000,-2.422760034000000
Triller and Old World quail,BB7 2LQ,53.866825070000000,-2.401375405000000
Kestrel and Night heron,BB9 0QT,53.829160430000000,-2.214413198000000
Pitohui and Wallaby,BB2 4LH,53.719197880000000,-2.485963842000000
Diving bird and Mouse,BB9 0AQ,53.833224660000000,-2.218460536000000
Night heron and Jerboa,BB11 1SB,53.789995410000000,-2.253526618000000
Hawk and Macaw,BB5 1EF,53.755770060000000,-2.370452043000000
Songlark and Goose,BB12 8JP,53.800905380000000,-2.321551099000000
Booted eagles and Tree warbler,BB5 1SZ,53.753589440000000,-2.377970276000000
Stilt and Ground sloth,BB5 5NY,53.775579720000000,-2.384723030000000
Stilt and Partridge,BB7 4DS,53.907786250000000,-2.298519797000000
Wader and Coati,BB7 0SN,53.873454570000000,-2.391583356000000
Parakeet and Parrotbill,BB2 2QL,53.735893510000000,-2.506546115000000
Badger and Civet,BB11 3QS,53.766305060000000,-2.234891031000000
Bronzewing pigeon and New World blackbird,BB7 9PR,53.849746510000000,-2.468687503000000
Dorcopsis and Peafowl,BB9 6QX,53.859212650000000,-2.226015575000000
Scimitar babbler and Chicken,BB8 7QG,53.882046040000000,-2.162384352000000
Asiatic leopard and Nukupuʻu,BB7 9QU,53.850394010000000,-2.479958602000000
Kākāriki and Chipmunk,BB7 2PT,53.866101620000000,-2.408013735000000
Diving bird and Ice seal,BB11 3RE,53.762468400000000,-2.215104392000000
Ground sloth and Old World vulture,BB10 1EJ,53.808784230000000,-2.233913837000000
Elephant and Black cockatoo,BB18 5QA,53.917898290000000,-2.192821929000000
Nukupuʻu and Magpie,BB9 6LF,53.870331040000000,-2.273311646000000
Parakeet and Buzzard,BB5 6RZ,53.752156360000000,-2.358803576000000
Siskin and Tit-tyrant,BB2 3TY,53.729736470000000,-2.469063742000000
Tattler and Black cockatoo,BB12 0JJ,53.794413830000000,-2.263557261000000
Ibex and Minke whale,BB5 6HY,53.765254430000000,-2.348842401000000
Jay and Shearwater,BB1 9QS,53.774822630000000,-2.477714768000000
Quetzal and Pheasant,BB12 7SN,53.795959120000000,-2.329225241000000
Condor and Kākāriki,BB9 6BZ,53.839782840000000,-2.229679648000000
Ibex and Herring gull,BB10 4QH,53.791765570000000,-2.222070055000000
Egret and Ice seal,BB11 1HN,53.786515750000000,-2.245522159000000
Jackal and Marsh harrier,BB5 4NP,53.746849570000000,-2.407751399000000
Perching duck and Nukupuʻu,BB12 7AL,53.797752890000000,-2.313905719000000
Tit-tyrant and Siskin,BB5 4JG,53.755356570000000,-2.387510715000000
Logrunners and Hawaiian honeycreeper,BB5 5WL,53.777422690000000,-2.373222486000000
Ground sloth and Peafowl,BB1 1PH,53.742792000000000,-2.456367000000000
Parrotbill and Stint,BB7 2NZ,53.866989420000000,-2.405954246000000
Badger and B,BB18 5BJ,53.911830070000000,-2.182259580000000
Asiatic leopard and Dolphin,BB9 8PL,53.847592540000000,-2.225360114000000
Fox and Elephant,BB8 7NZ,53.875742180000000,-2.171272917000000
Tree warbler and Old World vulture,BB5 0DA,53.752044530000000,-2.377637927000000
Black cockatoo and Gull,BB12 8JY,53.800335510000000,-2.322897996000000
Ibex and Chickadee,BB9 7TW,53.839413490000000,-2.220559549000000
Marsh harrier and Masked owl,BB9 9BD,53.834858450000000,-2.209519111000000
Fox and Argus,BB6 7NJ,53.787836740000000,-2.409924838000000
Darwin's finches and Bunting,BB11 5QE,53.782276300000000,-2.292285473000000
Jay and Logrunners,BB9 6JS,53.852493410000000,-2.219184247000000
Pheasant and Treepie,BB8 0QQ,53.863372370000000,-2.160091920000000
Quetzal and Grosbeak,BB2 3PJ,53.735567810000000,-2.485349292000000
Chickadee and Minke whale,BB5 4AT,53.760100140000000,-2.379757951000000
Guillemot and Cuscus,BB12 0RP,53.801639180000000,-2.272044441000000
Lemming and Zebra,BB11 3RS,53.770725990000000,-2.248828443000000
Diving bird and Darwin's finches,BB1 6DJ,53.749897500000000,-2.482481610000000
Civet and Meadowlark,BB9 6AB,53.857361820000000,-2.210847907000000
Fish eagle and River dolphin,BB5 5TH,53.780259150000000,-2.388544553000000
Minke whale and Thicketbird,BB11 3AT,53.784852110000000,-2.237028451000000
Kākāriki and Grosbeak,BB1 1QZ,53.744347870000000,-2.457765000000000
Tahr and Dorcopsis,BB11 5PB,53.749371410000000,-2.269143574000000
Chipmunk and Zebra,BB11 3AL,53.781598000000000,-2.233110000000000
Cloud rat and Prion,BB11 5DQ,53.783733600000000,-2.280488146000000
Goose and Armadillo,BB8 8TF,53.846702990000000,-2.135709150000000
Pitohui and Marmoset,BB9 9QF,53.836908950000000,-2.208799956000000
Ground sloth and Vulture,BB8 7PL,53.876985740000000,-2.168996447000000
Dorcopsis and Tahr,BB1 6BH,53.751249000000000,-2.481921000000000
Vole and Chickadee,BB12 8BX,53.801714680000000,-2.314633759000000
Towhee and Black cockatoo,BB11 4DY,53.783237720000000,-2.265384214000000
Pheasant and Zebra,BB5 5YQ,53.780408320000000,-2.392415694000000
Viscacha and Pitohui,BB11 5RG,53.780385570000000,-2.318252758000000
Vulture and Kite,BB7 1BF,53.865478180000000,-2.398290828000000
Mamo and Darwin's finches,BB10 4BW,53.792717660000000,-2.231896491000000
Chipmunk and Chipmunk,BB9 8QH,53.849242450000000,-2.217723210000000
Mole and Grackle,BB9 9JD,53.838988770000000,-2.201439948000000
Siskin and Ground sloth,BB1 6NG,53.757031030000000,-2.474236635000000
Piping shrike and Bronzewing pigeon,BB5 5WE,53.776558820000000,-2.367130000000000
Triller and Lemming,BB10 2HQ,53.812350490000000,-2.205579585000000
Wader and Fish eagle,BB1 5RW,53.757877950000000,-2.457531641000000
Pheasant and Tit-tyrant,BB7 9YS,53.844814000000000,-2.397669000000000
Grackle and Kākāriki,BB12 9QL,53.833817280000000,-2.263455343000000
Nukupuʻu and Polecat,BB18 6JA,53.920279000000000,-2.182418000000000
Quetzal and Vole,BB7 2AZ,53.879427890000000,-2.381554066000000
Prion and Old World quail,BB10 4ER,53.786512880000000,-2.224060913000000
Linsang and Fish eagle,BB11 3LH,53.780546870000000,-2.237019339000000
Solitaire and Old World quail,BB3 0AS,53.713125460000000,-2.480621141000000
Perching duck and Cuscus,BB12 9DT,53.820160030000000,-2.273273000000000
Kestrel and Goose,BB7 2JD,53.877740330000000,-2.397494777000000
Prion and Dolphin,BB5 5JF,53.770120490000000,-2.383004180000000
Jackal and Quetzal,BB12 6SU,53.793932300000000,-2.269914811000000
Vole and Grackle,BB2 9SN,53.749928130000000,-2.483801282000000
Nukupuʻu and Zebra,BB11 3AQ,53.787786295315300,-2.237272950655750
American sparrow and Parakeet,BB9 7BT,53.841637000000000,-2.217229000000000
Stint and Ground sloth,BB9 6EA,53.850725580000000,-2.217654911000000
Boto and Bronzewing pigeon,BB2 1AN,53.750357840000000,-2.486444890000000
Polecat and Buzzard,BB10 1JF,53.804644060000000,-2.236821321000000
White ibis and Polecat,BB11 5HF,53.772761550000000,-2.259522087000000
Cloud rat and Coati,BB7 0SY,53.873454570000000,-2.391583356000000
Parrotlet and Flameback,BB1 4BH,53.764578470000000,-2.427128275000000
Ice seal and Recurvebill,BB5 3NP,53.741865080000000,-2.403943024000000
Darwin's finches and Darwin's finches,BB12 0PP,53.792113340000000,-2.263360669000000
Greenbul and Magpie,BB5 5WB,53.778666660000000,-2.369151483000000
Badger and Logrunners,BB8 8QD,53.844103720000000,-2.129059000000000
Partridge and Myna,BB5 3EU,53.742146650000000,-2.392240853000000
Greenbul and White ibis,BB1 9QX,53.775827620000000,-2.478135882000000
Fish eagle and Buzzard,BB5 4LS,53.754311890000000,-2.412358388000000
Hawk and Old World vulture,BB8 7JY,53.875332600000000,-2.168548688000000
B and Macaw,BB10 4AQ,53.787360750000000,-2.231927628000000
Grackle and Ground sloth,BB7 4BA,53.893681950000000,-2.349333634000000
Treepie and Hawk,BB9 0PS,53.826050860000000,-2.219243534000000
Puffleg and Boto,BB5 4JZ,53.755687220000000,-2.390865584000000
Chipmunk and River dolphin,BB7 4DX,53.908489320000000,-2.286636526000000
Partridge and Logrunners,BB9 0JY,53.831190380000000,-2.204897058000000
Philippine hawk-owl and Minke whale,BB1 8QE,53.767621840000000,-2.482533202000000
Partridge and Tattler,BB10 4JB,53.781527990000000,-2.201907913000000
Recurvebill and Mink,BB12 6LW,53.791499840000000,-2.287810977000000
Stilt and Solitaire,BB18 5AQ,53.915254460000000,-2.188059749000000
Dolphin and Warbler,BB1 1QE,53.740449620000000,-2.452899988000000
Partridge and Boto,BB11 2JX,53.780360940000000,-2.253210501000000
Linsang and Rat,BB2 6DQ,53.754679730000000,-2.499886716000000
Crow and Logrunners,BB9 5EZ,53.820463640000000,-2.222343459000000
Coati and Eagle,BB9 6BT,53.859672200000000,-2.205386050000000
Viscacha and Bronzewing pigeon,BB5 5NA,53.773899000000000,-2.382205537000000
Moluccan boobook and Asiatic leopard,BB7 2RJ,53.863012000000000,-2.409018000000000
Thrasher and Armadillo,BB5 5RQ,53.777273230000000,-2.380732486000000
Triller and Crow,BB2 6NT,53.746550490000000,-2.500836443000000
Chickadee and Elephant,BB8 0NU,53.860690370000000,-2.162772858000000
Jerboa and Stint,BB18 5XF,53.913096490000000,-2.225104100000000
Herring gull and Tahr,BB9 5DR,53.822157780000000,-2.229537568000000
Pratincole and Mouse,BB8 0EU,53.856088430000000,-2.169368197000000
Egret and Old World vulture,BB10 3WA,53.790929280000000,-2.240887922000000
American sparrow and Flameback,BB8 8DP,53.850541930000000,-2.182281659000000
Dorcopsis and Philippine hawk-owl,BB11 2PJ,53.778575680000000,-2.251621563000000
Thrasher and Ice seal,BB9 5SH,53.825129000000000,-2.231908000000000
Grackle and Marsh harrier,BB11 5QY,53.775068230000000,-2.316907572000000
Gull and Maya,BB7 9JX,53.832923500000000,-2.416898886000000
Pratincole and Condor,BB10 4BY,53.788185300000000,-2.228471534000000
Buzzard and Hawk,BB6 8AT,53.824001730000000,-2.450762837000000
Jerboa and Diving bird,BB1 2AL,53.747701440000000,-2.446139153000000
Black cockatoo and Snipe,BB9 9LH,53.836245450000000,-2.186003195000000
Civet and Skunk,BB10 3BU,53.800700950000000,-2.230877789000000
Kite and Magpie,BB10 1PU,53.803037000000000,-2.241140000000000
Piping shrike and Parrotbill,BB18 6WE,53.917786000000000,-2.142764000000000
Greenbul and Pheasant,BB18 6EH,53.922745220000000,-2.179627232000000
Maya and Hawaiian honeycreeper,BB11 4BF,53.785974000000000,-2.266297000000000
Partridge and Marsh harrier,BB5 5PS,53.774210120000000,-2.391326057000000
Elephant and Badger,BB1 1EY,53.746449040000000,-2.479500390000000
Francolin and Grouse,BB5 3QH,53.736360000000000,-2.397341000000000
Myna and Greenbul,BB2 3UR,53.727059780000000,-2.466305788000000
Thrasher and Black cockatoo,BB12 8HQ,53.802445640000000,-2.316931938000000
Diving bird and Kākāriki,BB11 2HY,53.779666870000000,-2.236604644000000
Grouse and Ground sloth,BB8 9AT,53.856282830000000,-2.177867398000000
Vulture and Asiatic leopard,BB8 0EQ,53.854624370000000,-2.168678173000000
Herring gull and Capuchin,BB9 5HS,53.823632110000000,-2.234027005000000
Wader and Parrotbill,BB5 2AT,53.750612720000000,-2.358138000000000
Fulmarine petrel and Bunting,BB5 0JD,53.747436150000000,-2.379689156000000
Puffleg and Fox,BB1 5HJ,53.754542630000000,-2.469340220000000
Elephant and Greenbul,BB6 7FN,53.788765200000000,-2.400721000000000
Jay and Thicketbird,BB9 5PG,53.824500860000000,-2.235596566000000
Warbler and Hawaiian honeycreeper,BB5 6RP,53.752350090000000,-2.360139784000000
Old World quail and Herring gull,BB10 2RL,53.815217820000000,-2.220644977000000
Chickadee and Puffleg,BB9 8HU,53.841324520000000,-2.196694364000000
Fish eagle and Kite,BB1 4PF,53.768557140000000,-2.407354994000000
Coati and Chicken,BB18 6NZ,53.912945110000000,-2.141967947000000
Thicketbird and Badger,BB12 9AW,53.811461500000000,-2.316589959000000
Greenbul and Meadowlark,BB1 1FB,53.746778000000000,-2.480702000000000
Snipe and Macaw,BB5 6NH,53.771813300000000,-2.346575438000000
Cuscus and Masked owl,BB5 2TA,53.725140750000000,-2.333157000000000
Dolphin and Pheasant,BB9 0RP,53.827384790000000,-2.212186024000000
Mouse and Wader,BB18 6JX,53.917750080000000,-2.129164657000000
Linsang and Logrunners,BB4 8NG,53.715215550000000,-2.288805000000000
Meadowlark and Snipe,BB5 5RN,53.778317790000000,-2.380119781000000
Treepie and Grouse,BB1 7NH,53.755497390000000,-2.482409319000000
Bronzewing pigeon and Recurvebill,BB8 9LD,53.860470830000000,-2.165569616000000
Myna and Dolphin,BB11 4JJ,53.783780660000000,-2.255431731000000
Tattler and Perching duck,OL13 8QL,53.723560102418200,-2.198932186446210
Tit-tyrant and Pheasant,BB7 1JT,53.867407530000000,-2.382661156000000
Goose and Parakeet,BB9 8AL,53.848723420000000,-2.216474100000000
Siskin and Vole,BB2 6JL,53.752940560000000,-2.505234716000000
Vulture and Wallaby,BB10 1NB,53.801207010000000,-2.238654256000000
Eagle and Grosbeak,BB12 0BJ,53.796551000000000,-2.252367000000000
Petrel and Wallaby,BB1 3NB,53.747919520000000,-2.433252187000000
Old World vulture and Kestrel,BB11 2HQ,53.790929280000000,-2.240887922000000
Duck and Dolphin,BB18 5PF,53.913401880000000,-2.188751701000000
Pitohui and Philippine hawk-owl,BB7 3JG,53.902441000000000,-2.402615000000000
Philippine hawk-owl and Fish eagle,BB1 6LD,53.757571960000000,-2.471542943000000
Pratincole and Solitaire,BB1 5BY,53.749211660000000,-2.474163686000000
Darwin's finches and Ice seal,BB12 9QF,53.839816480000000,-2.248843178000000
Marsh harrier and White ibis,BB5 0BJ,53.751388299507900,-2.384835738419740
Cuscus and Coati,BB2 4HT,53.732409000000000,-2.493241000000000
Peafowl and Pitohui,BB9 0RB,53.829504630000000,-2.212926024000000
Parrotbill and Masked owl,BB9 7HF,53.836075903939600,-2.219812871203740
Pheasant and Black jay,BB7 9AY,53.842029010000000,-2.401017000000000
Wallaby and Flameback,BB11 2NN,53.776309190000000,-2.252336345000000
Capuchin and Herring gull,BB11 4RA,53.777208190000000,-2.260642097000000
Wallaby and Grosbeak,BB1 6WX,53.742930910000000,-2.484903506000000
Philippine hawk-owl and Chickadee,BB6 7RP,53.789149180000000,-2.399221479000000
Dolphin and Peafowl,BB5 1NA,53.750143000000000,-2.368005542000000
White ibis and Duck,BB9 4TP,53.836973503019500,-2.215517134948150
Grosbeak and Fox,BB1 9JU,53.785818350000000,-2.474622096000000
Buzzard and Pitohui,BB11 4LH,53.785754130000000,-2.257249841000000
Triller and Guillemot,BB5 0AD,53.753758430000000,-2.369631000000000
Prion and Armadillo,BB12 9PF,53.835547660000000,-2.261308466000000
Nukupuʻu and Wallaby,BB7 1FT,53.863696000000000,-2.400738000000000
Petrel and Black jay,BB9 0TW,53.835734990000000,-2.201530682000000
Bunting and Cloud rat,BB4 8PX,53.732456100000000,-2.284587736000000
Tit-tyrant and Magpie,BB9 9SG,53.835381270000000,-2.213746025000000
Bronzewing pigeon and Marsh harrier,BB18 6EQ,53.922592770000000,-2.179398172000000
Viscacha and Parrotbill,BB2 2QZ,53.737210710000000,-2.503241912000000
Quetzal and Mole,BB4 9NX,53.711246500000000,-2.251431332000000
Petrel and Civet,BB12 9PA,53.829598820000000,-2.260770027000000
Goose and Maya,BB1 7JB,53.748827590000000,-2.482788000000000
Vole and Buzzard,BB9 6HD,53.854709490000000,-2.216398611000000
Diving bird and Wader,OL14 7HY,53.711072176229200,-2.137468263962550
Duck and Nukupuʻu,BB1 8EA,53.756203470000000,-2.487831986000000
Egret and Tattler,BB8 0PY,53.858307040000000,-2.150190201000000
Goose and Old World warbler,BB2 9HZ,53.742935892813900,-2.484903870222110
Kangaroo and Chicken,BB9 4GZ,53.834157000000000,-2.218269000000000
Dolphin and Scimitar babbler,BB8 9SE,53.860407790000000,-2.178052000000000
Kestrel and Stint,BB2 9TB,53.749928130000000,-2.483801282000000
Triller and Booted eagles,BB10 3BD,53.800412600000000,-2.235871308000000
Thrasher and Herring gull,BB3 0SP,53.711890500000000,-2.483925000000000
Tattler and Chicken,BB8 7AD,53.862663500000000,-2.145051269000000
Hawk and Black cockatoo,BB9 8JR,53.841177100000000,-2.198882101000000
Buzzard and Logrunners,BB12 9PD,53.834857280000000,-2.260529212000000
Kestrel and Nukupuʻu,BB11 5JG,53.777689940000000,-2.266365871000000
Recurvebill and Booted eagles,BB9 8AJ,53.840094000000000,-2.202264420000000
New World blackbird and Jay,BB12 8DG,53.800506960000000,-2.309007092000000
Badger and Kestrel,OL14 8JJ,53.731625649994000,-2.131487444550400
Booted eagles and Stilt,BB9 6JL,53.856292030000000,-2.210979349000000
New World blackbird and Argus,BB2 1DF,53.751216980000000,-2.489563661000000
Grouse and Piping shrike,BB5 1RE,53.753948000000000,-2.372802000000000
Grosbeak and Kestrel,BB1 6DZ,53.753940470000000,-2.478417965000000
Condor and Black jay,BB9 0QE,53.826945350000000,-2.216665523000000
Kestrel and Ice seal,BB2 3RX,53.735692170000000,-2.485714553000000
Philippine hawk-owl and Condor,BB18 5JZ,53.923127180000000,-2.194064230000000
Logrunners and Jay,BB9 6HY,53.854617670000000,-2.212567000000000
Civet and Argus,BB9 0JL,53.829549120000000,-2.202822761000000
Pheasant and Stilt,BB5 3PT,53.737263200000000,-2.401261031000000
Rat and Black jay,BB10 4DP,53.787931090000000,-2.225070239000000
Moluccan boobook and Shearwater,BB5 3BY,53.740339020000000,-2.395286552000000
American sparrow and Scimitar babbler,BB18 5PY,53.915793500000000,-2.193847485000000
American sparrow and Tattler,BB1 1SH,53.742091160000000,-2.460832091000000
Nukupuʻu and Rat,BB11 4LA,53.784903690000000,-2.255651039000000
Kākāriki and Asiatic leopard,BB5 5BB,53.762791220000000,-2.361139333000000
Booted eagles and Diving bird,BB8 8SB,53.843574720000000,-2.136139764000000
Cuscus and Fish eagle,BB1 9TJ,53.762500950000000,-2.472933076000000
Maya and River dolphin,BB1 3LE,53.752096380000000,-2.448612204000000
Herring gull and Gull,BB2 2BW,53.745683720000000,-2.482069395000000
Black cockatoo and Maya,BB9 6RD,53.863711740000000,-2.203048993000000
Mouse and Siskin,BB8 9QP,53.856699360000000,-2.187842000000000
Civet and Scimitar babbler,BB12 0DE,53.797059850000000,-2.244946182000000
Snipe and Recurvebill,BB1 7DP,53.748825000000000,-2.483576000000000
Tit-tyrant and Mink,BB12 9BN,53.826206990000000,-2.293335850000000
Flameback and Zebra,BB8 9BY,53.858133840000000,-2.172052295000000
Old World quail and Black jay,BB9 7XY,53.841540370000000,-2.212409650000000
B and Marmoset,BB7 4AN,53.895049960000000,-2.357851369000000
Kite and Piping shrike,BB8 9RY,53.860737230000000,-2.174191622000000
Myna and Night heron,BD23 3TD,53.930995000000000,-2.124149000000000
Prion and Thrasher,BB12 6NJ,53.793735150000000,-2.296296901000000
Thicketbird and Grouse,BB9 0EH,53.826599790000000,-2.213898766000000
Solitaire and Stilt,BB7 3JW,53.903768950000000,-2.400283766000000
Tattler and Old World vulture,BB9 8QJ,53.849562000000000,-2.220507117000000
Boto and White ibis,BB6 7NS,53.789761780000000,-2.409457891000000
Mamo and White ibis,BB11 5RF,53.780261800000000,-2.317477873000000
Goose and Tahr,BB6 7QD,53.788308460000000,-2.413891002000000
Capuchin and Logrunners,BB10 2EZ,53.810387390000000,-2.212859385000000
Siskin and Mink,BB2 4JA,53.730324330000000,-2.490594008000000
Partridge and Cloud rat,BB5 5DT,53.768584980000000,-2.376876174000000
Old World vulture and Snipe,BB9 8TP,53.849388670000000,-2.226129793000000
Crow and Pheasant,BB7 9TX,53.822797410000000,-2.405435530000000
Stilt and Songlark,BB1 3NA,53.747859160000000,-2.435025734000000
Thrasher and Grosbeak,BB7 2BU,53.876002820000000,-2.390360000000000
Guillemot and Night heron,BB2 2LN,53.743115000000000,-2.484193000000000
Pitohui and Fox,BB6 7RN,53.790750060000000,-2.398917924000000
Quetzal and Coati,BB11 9GL,53.790933870641400,-2.240888219424130
Cloud rat and Pitohui,BB1 1PE,53.748295150000000,-2.460263129000000
Meadowlark and Old World quail,BB11 3QG,53.772922180000000,-2.255259000000000
Grouse and Quetzal,BB6 7TF,53.790214200000000,-2.386906186000000
Jerboa and Ground sloth,BB7 2BW,53.877367010000000,-2.387984594000000
Snipe and Triller,BB12 8BQ,53.800669940000000,-2.312500000000000
Capuchin and Jay,BB10 1ER,53.809876420000000,-2.231520519000000
Old World quail and Snipe,BB1 8RF,53.765868730000000,-2.480404412000000
Kangaroo and Bunting,BB1 1PG,53.746799720000000,-2.463476595000000
Snipe and Chicken,BB1 6NH,53.756542210000000,-2.475110810000000
Lemming and Puffleg,BB1 5NP,53.760178010000000,-2.467082339000000
Kite and Minke whale,BB8 0HS,53.856974040000000,-2.165935869000000
Masked owl and Quetzal,BB7 4RE,53.906450200000000,-2.368527586000000
Mole and Zebra,BB9 8NY,53.845697870000000,-2.219559082000000
Shearwater and Ice seal,BB11 4FB,53.786967000000000,-2.264467000000000
Chickadee and Lemming,BB5 5AD,53.761426000000000,-2.369880000000000
Chicken and Fulmarine petrel,BB10 2ED,53.810716530000000,-2.214774542000000
Francolin and Thicketbird,BB2 3SL,53.738149820000000,-2.482528906000000
Perching duck and Partridge,BB11 5SX,53.787992180000000,-2.269497189000000
Chicken and Kangaroo,BB10 2UB,53.814718590000000,-2.218409737000000
Black jay and Bronzewing pigeon,BB12 7ED,53.793544750000000,-2.308288000000000
Tattler and Cloud rat,BB18 6AE,53.915461000000000,-2.182351536000000
Linsang and Civet,BB12 7QJ,53.813303990000000,-2.320264000000000
Tit-tyrant and Recurvebill,BB9 6LZ,53.871529890000000,-2.218979000000000
Ground sloth and Thrasher,BB18 5PU,53.914907870000000,-2.191255267000000
Grouse and Coati,BB7 9RZ,53.826848310000000,-2.416701798000000
Grackle and Treepie,BB4 5HX,53.710893030000000,-2.327045181000000
Crow and Mole,BB11 1BU,53.792930979009000,-2.244451792786130
Macaw and Minke whale,BB5 1AL,53.756179840000000,-2.362841923000000
Argus and Moluccan boobook,BB1 9DA,53.777048730000000,-2.478453257000000
Skunk and Viscacha,BB9 4SD,53.836968960000000,-2.215516844000000
Old World quail and Myna,BB1 4AQ,53.776366830000000,-2.462118136000000
Ibex and Goose,BB1 3ND,53.747577980000000,-2.433248671000000
Crow and Maya,BB5 2PQ,53.743518080000000,-2.352998611000000
Quetzal and Thrasher,BB12 6LS,53.791378060000000,-2.289859368000000
Marmoset and American sparrow,BB1 6LB,53.759077620000000,-2.470361555000000
Parrotbill and Fulmarine petrel,BB3 0PG,53.712102280000000,-2.484715393000000
Wader and Bunting,BB18 5SN,53.890377110000000,-2.181633566000000
Old World vulture and Goose,BB2 4GX,53.732882520000000,-2.495792850000000
Pheasant and New World blackbird,BB9 6BU,53.838329620000000,-2.228197636000000
Coati and Crow,BB1 8DW,53.758453070000000,-2.489254000000000
Black cockatoo and Vole,BB7 3NF,53.873054000000000,-2.416112000000000
Old World vulture and Tattler,BB9 0HD,53.823029690000000,-2.219911332000000
Civet and Linsang,BB9 5QN,53.825686000000000,-2.234906000000000
Grackle and Grouse,BB12 7RA,53.810570000000000,-2.353166431000000
Crow and Partridge,BB2 3ST,53.738934000000000,-2.480082000000000
Snipe and Peafowl,BB1 1HP,53.745365390000000,-2.469435005000000
Marsh harrier and Old World quail,BB8 7AG,53.860857590000000,-2.151780623000000
Booted eagles and Grackle,BB1 1BX,53.742198230000000,-2.474842779000000
Magpie and Mink,BB1 2LN,53.718956120000000,-2.451274798000000
Maya and Thicketbird,BB11 1AD,53.790271540000000,-2.241688639000000
Dolphin and New World blackbird,OL14 7HN,53.710897632334400,-2.140709883641090
Snipe and Moluccan boobook,BB7 2HL,53.875891310000000,-2.391271514000000
Condor and Ground sloth,BB6 7BP,53.785313530000000,-2.398547595000000
Vole and Quetzal,BB1 2AN,53.747498560000000,-2.445105870000000
Black jay and Fox,BB9 9HT,53.837420870000000,-2.203803000000000
Coati and Pratincole,BB1 9GD,53.768522650000000,-2.479797531000000
Duck and Kite,BB10 3EZ,53.804154520000000,-2.225005375000000
Vole and Stilt,BB5 4HQ,53.757049770000000,-2.394715524000000
Tree warbler and Ice seal,BB11 3RW,53.771708700000000,-2.251686660000000
American sparrow and Fox,BB18 5RP,53.902337110000000,-2.189249659000000
Condor and American sparrow,BB10 1EN,53.809118000000000,-2.233931000000000
Puffleg and Mockingbird,BB1 1PP,53.745339820000000,-2.452725160000000
Hawk and Rabbit,BB5 0AX,53.752474230000000,-2.378187740000000
Fox and Thrasher,BB8 8BU,53.856104230000000,-2.135785232000000
B and Mockingbird,BB7 3HQ,53.887500830000000,-2.402988512000000
Pratincole and Night heron,BB1 2JB,53.738048070000000,-2.446325000000000
Myna and Moluccan boobook,BB9 8NZ,53.846227730000000,-2.219789847000000
Polecat and Quetzal,BB9 9HL,53.839325650000000,-2.204192180000000
American sparrow and Pheasant,BB7 3JY,53.903246520000000,-2.403307554000000
Mole and Old World warbler,BB10 2HR,53.811182820000000,-2.205437000000000
Minke whale and Zebra,BB1 9HP,53.789482890000000,-2.484256525000000
Peafowl and Old World vulture,BB11 2QS,53.774929850000000,-2.245500000000000
Parrotlet and Minke whale,BB7 9DA,53.833744950000000,-2.383524035000000
Partridge and Hawk,BB9 6LS,53.868356790000000,-2.214340109000000
Stint and Capuchin,BB11 5TG,53.781076760000000,-2.297618988000000
Solitaire and Cuscus,BB1 2DG,53.746234000000000,-2.437238000000000
Jay and Egret,BB7 4AX,53.892261060000000,-2.349610880000000
Lemming and Marmoset,BB6 7JR,53.784112240000000,-2.416141389000000
Chicken and Tahr,BB12 9BA,53.821452740000000,-2.300442064000000
Nukupuʻu and Puffleg,BB18 6HW,53.925358330000000,-2.175130985000000
Grackle and Masked owl,BB5 5AL,53.760239260000000,-2.369763326000000
Badger and Bronzewing pigeon,BB6 7BG,53.785927660000000,-2.400359546000000
Hawk and Crow,BB11 2QJ,53.784348100000000,-2.250608928000000
B and Skunk,BB5 4EA,53.757483290000000,-2.382995291000000
Rat and Kangaroo,BB12 0NL,53.792771690000000,-2.262347741000000
Armadillo and Darwin's finches,BB2 1TN,53.742507790000000,-2.498210816000000
Zebra and Moluccan boobook,BB10 4BE,53.791494000000000,-2.233224772000000
Pratincole and Polecat,BB6 7RY,53.789082910000000,-2.402909267000000
Bronzewing pigeon and Cuscus,BB2 9SA,53.749928130000000,-2.483801282000000
Perching duck and Jay,BB18 5JH,53.919630320000000,-2.194443865000000
American sparrow and Thrasher,BB10 4JJ,53.782025820000000,-2.205142803000000
Logrunners and Partridge,BB12 0NG,53.793385180000000,-2.261288962000000
Egret and Mole,BB5 0FB,53.749023440000000,-2.389211444000000
Meadowlark and Thicketbird,BB2 7DU,53.764728090000000,-2.506392672000000
Tree warbler and Gull,BB1 7DJ,53.749064000000000,-2.484318780000000
Masked owl and Chicken,BB12 7LQ,53.783432600000000,-2.314815570000000
Pratincole and Quetzal,BB7 1DN,53.869599400000000,-2.399561838000000
Goose and Linsang,BB5 0HY,53.747768280000000,-2.376977839000000
Mouse and Bronzewing pigeon,BB1 5JT,53.754916750000000,-2.465492000000000
Mockingbird and Mamo,BB18 5LE,53.923247990000000,-2.191597982000000
Eagle and Viscacha,BB10 1XF,53.802963000000000,-2.232818000000000
Rabbit and Chicken,BB7 9UQ,53.839303726943900,-2.400215679927880
Booted eagles and Badger,BB7 0SQ,53.873454570000000,-2.391583356000000
Badger and Buzzard,BB8 8BS,53.853873630000000,-2.137191784000000
Mole and Hawk,BB11 2BT,53.787070940000000,-2.242125560000000
Bunting and Tit-tyrant,BB12 0LL,53.800013520000000,-2.271532885000000
Nukupuʻu and Francolin,BB9 0AY,53.831203640000000,-2.217766285000000
Fish eagle and Skunk,BB9 9QA,53.835536970000000,-2.206969677000000
Wader and Old World vulture,BB9 8QX,53.847769140000000,-2.227033044000000
Maya and Argus,BB9 5SE,53.826501600000000,-2.232827645000000
Booted eagles and Elephant,BB1 1SY,53.740967590000000,-2.470098550000000
Dorcopsis and Ice seal,BB1 6PQ,53.760019030000000,-2.473238876000000
Pheasant and Cuscus,BB6 7QA,53.789122730000000,-2.407083788000000
Kite and Viscacha,BB10 3JW,53.789252810000000,-2.199440574000000
Chicken and Coati,BB11 1TS,53.792015960000000,-2.241319185000000
Darwin's finches and Black jay,BB12 8QB,53.804319390000000,-2.311889764000000
Skunk and Treepie,BB18 6YP,53.926755540000000,-2.178441424000000
Logrunners and Cloud rat,BB5 0FD,53.750093630000000,-2.389024203000000
Pitohui and Towhee,BB5 4RB,53.748871640000000,-2.402509020000000
Old World quail and Fish eagle,BB2 3DJ,53.741332050000000,-2.480185021000000
Masked owl and Greenbul,BB11 3NB,53.783488000000000,-2.236655396000000
Macaw and Mamo,BB1 9PZ,53.782915410000000,-2.476835439000000
Kestrel and Stint,BB9 5JW,53.820967140000000,-2.236336227000000
Kite and Fox,BB5 3LX,53.745200030000000,-2.395756763000000
Wallaby and Old World warbler,BB7 9SQ,53.825898670000000,-2.405313572000000
Wader and Vulture,BB12 0NR,53.794042850000000,-2.260579575000000
Siskin and Mouse,BB5 0EZ,53.746313270000000,-2.385122631000000
Dolphin and Mouse,BB1 6DN,53.751289740000000,-2.482709883000000
Partridge and Diving bird,BB5 0EL,53.749314110000000,-2.391033852000000
Bunting and Crow,BB1 8NB,53.771339340000000,-2.487855826000000
Black cockatoo and Kangaroo,BB9 8ST,53.844631590000000,-2.212759687000000
Crow and Jay,BB8 7QH,53.882570200000000,-2.130486000000000
Philippine hawk-owl and Mamo,BB1 2RD,53.733447970000000,-2.459949250000000
Kite and Egret,BB5 5FP,53.762379094000000,-2.364837000000000
Kākāriki and Pitohui,BB10 3HW,53.803976960000000,-2.228587841000000
Jackal and Macaw,BB5 1RQ,53.754392000000000,-2.374580000000000
Buzzard and Jay,BB1 1DB,53.744218850000000,-2.477534180000000
Vulture and Chicken,BB12 7PT,53.807475660000000,-2.356482015000000
Partridge and Civet,BB10 3DL,53.802207970000000,-2.227986000000000
Grosbeak and Ground sloth,BB10 1UD,53.806609830000000,-2.228905878000000
Jerboa and Black cockatoo,BB12 8RE,53.796479950000000,-2.305652760000000
Asiatic leopard and Black cockatoo,BB18 6HR,53.922902380000000,-2.176689080000000
Tattler and Thicketbird,BB7 9LQ,53.814746700000000,-2.425451440000000
Ice seal and Flameback,BB5 6NN,53.771048310000000,-2.350013208000000
American sparrow and Old World vulture,BB5 0NF,53.742441070000000,-2.376111386000000
Tattler and Quetzal,BB2 3TG,53.733156620000000,-2.467873993000000
Songlark and Quetzal,BB5 5XW,53.781378640000000,-2.387006961000000
New World blackbird and Kangaroo,BB8 9AJ,53.857530920000000,-2.178693679000000
Marmoset and Triller,OL14 8QB,53.733534578331300,-2.144090174542850
Cloud rat and Old World vulture,BB6 7AZ,53.785659990000000,-2.405122712000000
Dorcopsis and Jackal,OL13 8PE,53.712164869092900,-2.203287262605790
Hawk and Minke whale,BB2 6LS,53.748865700000000,-2.501728354000000
Recurvebill and Chipmunk,BB1 9AF,53.768031060000000,-2.479109222000000
Tattler and Triller,BB1 2ET,53.737760800000000,-2.446079293000000
Shearwater and Logrunners,BB1 4AZ,53.756535000000000,-2.444352000000000
Rat and Mole,BB1 6ER,53.756130870000000,-2.479095044000000
Mole and Prion,BB11 1EL,53.791916000000000,-2.240651000000000
Condor and Night heron,BB12 7QS,53.814669330000000,-2.339881985000000
Greenbul and Moluccan boobook,BB10 2LN,53.819198690000000,-2.235232623000000
Francolin and Songlark,BB10 4LU,53.783488020000000,-2.221859353000000
Boto and Herring gull,BB8 8EH,53.851996740000000,-2.177104333000000
Snipe and Fox,BB6 8BD,53.817113430000000,-2.451691335000000
Boto and Magpie,BB8 8LG,53.846196450000000,-2.196398046000000
Cuscus and Kite,BB9 9JR,53.837032240000000,-2.199743799000000
Warbler and Armadillo,BB2 3DP,53.736201070000000,-2.477929000000000
Puffleg and Parrotlet,BB5 5YB,53.791794000000000,-2.343751170000000
Flameback and Myna,BB1 2AQ,53.747515700000000,-2.450140404000000
Warbler and Puffleg,BB2 1XB,53.741386200000000,-2.506324131000000
Myna and Darwin's finches,BB12 7EG,53.797421681597900,-2.311747732243800
River dolphin and Masked owl,BB5 4HD,53.753185000000000,-2.389189276000000
Boto and Recurvebill,BB10 1UB,53.806862420000000,-2.228421335000000
Darwin's finches and Puffleg,BB12 6PA,53.797061550000000,-2.295956011000000
Partridge and Siskin,BB18 5TJ,53.905564400000000,-2.170847123000000
Pheasant and Flameback,BB12 7QQ,53.809274650000000,-2.352974150000000
Zebra and Grouse,BB8 0NY,53.863178190000000,-2.164105399000000
Zebra and Jay,BB7 4PZ,53.884659860000000,-2.384051075000000
Fish eagle and Darwin's finches,BB1 6JW,53.757746540000000,-2.470574185000000
Parakeet and Cloud rat,BB8 7BP,53.857414920000000,-2.144774629000000
Vulture and Puffleg,BB18 5RR,53.922056180000000,-2.183568005000000
Black cockatoo and Jerboa,BB2 1LA,53.747755890000000,-2.484960000000000
New World blackbird and Stilt,BB5 3DD,53.747281000000000,-2.392031000000000
Nukupuʻu and Booted eagles,BB9 5RS,53.827240890000000,-2.226952295000000
Egret and Rat,BB9 0BH,53.831115190000000,-2.216975749000000
Badger and Thrasher,BB12 8EX,53.801686760000000,-2.315180000000000
Grackle and Piping shrike,BB11 5JS,53.780416970000000,-2.264713854000000
Maya and Maya,BB4 8AD,53.723573880000000,-2.289165143000000
Thrasher and Condor,BB10 3JT,53.788073280000000,-2.211152563000000
Fox and Old World warbler,BB2 4FH,53.723659710000000,-2.493850527000000
Mamo and Tree warbler,BB9 4SF,53.836968960000000,-2.215516844000000
Crow and Kite,BB12 8TW,53.799745910000000,-2.274582830000000
Kestrel and Tahr,BB5 2LF,53.744691710000000,-2.360316851000000
Wader and Chickadee,BB12 8HX,53.802935060000000,-2.318788035000000
Masked owl and Tree warbler,BB5 5PG,53.776379570000000,-2.387537555000000
Stilt and Kangaroo,BB11 2NZ,53.776621550000000,-2.249106135000000
Francolin and Kestrel,BB5 5TD,53.783313630000000,-2.383412752000000
Moluccan boobook and Magpie,BB8 9PU,53.858719280000000,-2.177376021000000
Lemming and Capuchin,BB9 8HP,53.842916910000000,-2.201185263000000
Towhee and Jackal,BB1 8DN,53.758389140000000,-2.491846422000000
Treepie and Logrunners,BB10 3AT,53.797979680000000,-2.235281000000000
Greenbul and Vulture,BB9 7YB,53.842077560000000,-2.213582599000000
Condor and River dolphin,BB5 2PY,53.737162780000000,-2.347093584000000
Bronzewing pigeon and Songlark,BB9 8TB,53.847713310000000,-2.223263192000000
Minke whale and Mouse,BB5 5PD,53.775596910000000,-2.384965969000000
Logrunners and Crow,BB18 5NY,53.916249620000000,-2.189632367000000
Thrasher and Coati,OL14 8JF,53.727377586715700,-2.128458052340170
Old World vulture and Thrasher,BB8 7ND,53.862431940000000,-2.118623986000000
Solitaire and Skunk,BB11 3PS,53.777533550000000,-2.233633618000000
Coati and Condor,BB10 3PZ,53.799892000000000,-2.226455000000000
Piping shrike and Nukupuʻu,BB8 0PJ,53.858482010000000,-2.153961342000000
Armadillo and Snipe,BB2 3UB,53.726016730000000,-2.466415489000000
Eagle and Pheasant,BB7 4DF,53.897751620000000,-2.314244472000000
Stint and Scimitar babbler,BB4 5AF,53.710955360000000,-2.323954962000000
Moluccan boobook and Puffleg,BB9 6BA,53.863495680000000,-2.208491519000000
Eagle and Moluccan boobook,BB5 0QQ,53.747088000000000,-2.373211192000000
Recurvebill and Jerboa,BB6 7EN,53.785501990000000,-2.401085000000000
Rabbit and Pheasant,BB2 6JX,53.751740720000000,-2.506281881000000
Marmoset and Darwin's finches,BB2 6LN,53.748308150000000,-2.499644235000000
Vole and Recurvebill,BB11 4JY,53.784851020000000,-2.255058812000000
Snipe and Vole,BB1 1BG,53.743917590000000,-2.478698270000000
Civet and Jay,OL14 8SF,53.736658043213500,-2.132321803945250
Tattler and Eagle,BB9 9HX,53.838168670000000,-2.202742892000000
Mink and Partridge,BB5 0PQ,53.750368980000000,-2.373103809000000
Ice seal and Goose,BB18 6QP,53.917079800000000,-2.141480000000000
Mole and Treepie,BB9 6JN,53.856444640000000,-2.211086538000000
Myna and Meadowlark,BB7 9EF,53.829802520000000,-2.340779433000000
Black jay and Elephant,BB5 3PJ,53.740471250000000,-2.404141906000000
Night heron and Night heron,BB2 1LU,53.748209640000000,-2.484236448000000
Stint and Mouse,BB1 4AT,53.766156000000000,-2.443543000000000
Kangaroo and Ground sloth,BB5 1RG,53.753826930000000,-2.373892770000000
Petrel and Boto,BB5 6RH,53.753864550000000,-2.358651319000000
Capuchin and Jerboa,BB11 5TT,53.783166560000000,-2.295767081000000
Mouse and Fish eagle,BB11 1HD,53.787992340000000,-2.244270998000000
White ibis and Moluccan boobook,BB9 0DE,53.830236740000000,-2.215664565000000
Kestrel and Parrotlet,BB9 0DL,53.832380380000000,-2.218137058000000
Rabbit and Grosbeak,BB12 8BU,53.800926740000000,-2.313489138000000
Viscacha and Parrotlet,BB1 1BZ,53.743052500000000,-2.477005437000000
Mouse and Hawk,BB18 5BY,53.911014720000000,-2.180581521000000
Vole and Grouse,BB5 3TF,53.738721100000000,-2.381444971000000
Lemming and Ground sloth,BB9 5DG,53.825638280000000,-2.228402037000000
Hawaiian honeycreeper and Kangaroo,BB4 8DJ,53.730084610000000,-2.284010883000000
Wader and Siskin,BB18 9AR,53.920014000000000,-2.182572000000000
Condor and Fish eagle,BB5 2TT,53.739802630000000,-2.344901862000000
Argus and Darwin's finches,BB2 3PB,53.734573920000000,-2.484413133000000
Buzzard and Kākāriki,BB6 7HG,53.785759760000000,-2.407506538000000
Goose and Cloud rat,BB5 1QW,53.753839000000000,-2.370405000000000
Mamo and Tit-tyrant,BB9 6RB,53.855599690000000,-2.230648097000000
Boto and Chipmunk,BB9 0RA,53.828855910000000,-2.213819115000000
Cuscus and Civet,BB12 9NT,53.832591230000000,-2.243968507000000
Snipe and Hawk,BB5 4QJ,53.744955200000000,-2.407126536000000
Pratincole and Grosbeak,BB9 8RJ,53.843776870000000,-2.202891608000000
Bronzewing pigeon and Logrunners,BB5 2LB,53.743205630000000,-2.358333054000000
White ibis and Stint,BB2 4GY,53.733754040000000,-2.491513173000000
Grackle and Civet,BB12 6JF,53.790966590000000,-2.281492735000000
Cloud rat and Condor,BB9 5SW,53.826720000000000,-2.231978000000000
Treepie and Night heron,BB9 8DN,53.838310110000000,-2.199249000000000
Crow and Thrasher,BB12 6DF,53.793965050000000,-2.279159871000000
Songlark and Capuchin,BB5 0LU,53.744334590000000,-2.377053221000000
Darwin's finches and Kākāriki,BB1 4JG,53.767390920000000,-2.414565025000000
Quetzal and Wallaby,BB9 8DQ,53.838334000000000,-2.190070000000000
Fulmarine petrel and Cuscus,BB8 8JL,53.847959130000000,-2.190174358000000
Kākāriki and Jerboa,BB7 1EH,53.867159640000000,-2.392619423000000
Greenbul and Eagle,BB5 4RH,53.748938640000000,-2.403965424000000
Dolphin and Old World quail,OL13 8QE,53.723875965167600,-2.198160769165890
Lemming and Francolin,BB11 5RJ,53.781095000000000,-2.315601082000000
Mole and Diving bird,BB10 3EL,53.803710360000000,-2.226992082000000
Badger and Masked owl,BB11 1LZ,53.788450410000000,-2.248796818000000
Francolin and Songlark,BB9 6QG,53.843177260000000,-2.235853501000000
Bronzewing pigeon and Kākāriki,BB12 8RL,53.795618090000000,-2.305266964000000
Quetzal and Chipmunk,BB5 5PB,53.775967940000000,-2.384180322000000
Recurvebill and Bunting,BB1 4HA,53.764765850000000,-2.422442674000000
Diving bird and Solitaire,BB9 5PY,53.823376013329400,-2.238598335704420
Zebra and Shearwater,BB11 4QF,53.785602900000000,-2.252058000000000
Nukupuʻu and Chickadee,BB8 7GN,53.865167000000000,-2.172965000000000
Towhee and Armadillo,BB5 2RE,53.733121820000000,-2.342694629000000
Hawaiian honeycreeper and Mouse,BB10 2QQ,53.811097300000000,-2.222825361000000
Magpie and Linsang,BB12 7PJ,53.807692810000000,-2.352960852000000
Fish eagle and Condor,BB5 3RP,53.724984150000000,-2.404311562000000
Stint and B,BB5 6DH,53.757898500000000,-2.359216570000000
Stilt and Snipe,BB8 0PR,53.857523280000000,-2.151631707000000
Booted eagles and Cloud rat,BB1 2AA,53.749009200000000,-2.456874144000000
Lemming and Macaw,BB11 1TQ,53.786598650000000,-2.249377000000000
Stilt and Condor,BB4 5AP,53.715424060000000,-2.320019473000000
Chipmunk and Pheasant,BB6 7RU,53.789115000000000,-2.401848599000000
Peafowl and Darwin's finches,BB9 5TD,53.817670090000000,-2.226232208000000
Tit-tyrant and New World blackbird,BB5 6QT,53.758614950000000,-2.354050515000000
Black cockatoo and Chicken,BB18 5XE,53.923010230000000,-2.204935858000000
Buzzard and Thrasher,OL13 8PX,53.713960845355700,-2.198917138878280
Gull and Petrel,BB2 7DN,53.766348890000000,-2.503560124000000
Gull and Armadillo,BB5 4DB,53.758848850000000,-2.374665456000000
Egret and Skunk,BB10 3DU,53.804947740000000,-2.228547575000000
Scimitar babbler and Piping shrike,BB5 3JJ,53.741900660000000,-2.401502000000000
Asiatic leopard and Pratincole,BB10 2LZ,53.821078920000000,-2.229698757000000
Ibex and Old World warbler,BB9 7BU,53.833636280000000,-2.224312640000000
Viscacha and Badger,BB11 5ET,53.786751680000000,-2.269565120000000
Maya and Nukupuʻu,BB5 2AB,53.751455760000000,-2.358645951000000
Flameback and Pratincole,BB5 4BP,53.758548190000000,-2.370310000000000
Greenbul and Shearwater,BB12 0DN,53.790929280000000,-2.240887922000000
Tit-tyrant and Grosbeak,BB6 7JX,53.783188400000000,-2.415585886000000
Lemming and Chickadee,BB6 8HE,53.801313000000000,-2.456532000000000
Mole and Old World quail,BB1 8ED,53.756090330000000,-2.486920664000000
Kangaroo and Ice seal,BB2 2BU,53.745219650000000,-2.481245283000000
Old World warbler and Francolin,BB5 2QE,53.738356740000000,-2.350681274000000
Puffleg and B,BB1 1NE,53.747323060000000,-2.462951630000000
Old World vulture and Flameback,BB8 0HD,53.854132340000000,-2.167034364000000
Chickadee and Pitohui,BB9 7DD,53.831901880000000,-2.224166616000000
Badger and Crow,BB12 7SA,53.820872000000000,-2.352418000000000
Logrunners and Old World quail,BB2 3SW,53.737069870000000,-2.485093726000000
Philippine hawk-owl and Mockingbird,BB9 6LG,53.864117000000000,-2.286759000000000
Capuchin and Egret,BB1 5QX,53.769150350000000,-2.461871949000000
Stint and Meadowlark,BB11 5HR,53.775921830000000,-2.261134857000000
Jay and Armadillo,BB5 2RY,53.726984940000000,-2.335642492000000
Kangaroo and Vulture,BB1 5BF,53.751799940000000,-2.474421000000000
Macaw and Meadowlark,BB9 5HZ,53.821295620000000,-2.233695000000000
Ground sloth and Shearwater,BB12 6PG,53.792050810000000,-2.297742271000000
Thrasher and Crow,BB9 0NR,53.833723160000000,-2.200654912000000
Moluccan boobook and Mockingbird,BB4 8PP,53.724023080000000,-2.281711879000000
Flameback and Parrotlet,BB8 9EZ,53.862061760000000,-2.171901179000000
Old World quail and Warbler,BB9 5AL,53.822591210000000,-2.233155328000000
Skunk and Jay,BB10 4DQ,53.787814000000000,-2.225965000000000
Masked owl and Chicken,BB9 5JU,53.819842370000000,-2.236983049000000
Gull and Cuscus,BB7 9SP,53.821347000000000,-2.406794072000000
Bunting and Dolphin,BB4 9PS,53.723898770000000,-2.244186954000000
Peafowl and Hawaiian honeycreeper,BB6 7FD,53.783075212434500,-2.400089844972190
White ibis and Marsh harrier,BB5 5HE,53.772487380000000,-2.382054689000000
River dolphin and Quetzal,BB10 3RT,53.789120780000000,-2.203128348000000
Elephant and Tahr,BB7 9AQ,53.834616000000000,-2.403134000000000
Ice seal and Vole,BB11 9SE,53.787596100000000,-2.244648146000000
Kangaroo and Rabbit,BB9 5EL,53.818578550000000,-2.221057572000000
Boto and Tahr,BB18 5SA,53.914612000000000,-2.202565000000000
Viscacha and Night heron,BB18 5BD,53.913999240000000,-2.186090225000000
Pitohui and Pheasant,BB1 3LY,53.748854520000000,-2.433185991000000
Puffleg and Moluccan boobook,BB1 1PA,53.745725880000000,-2.462251724000000
Asiatic leopard and Flameback,BB5 0NS,53.740731750000000,-2.379461907000000
Chickadee and Goose,BB9 6LQ,53.859629120000000,-2.291273940000000
Siskin and Boto,BB6 7SU,53.789359990000000,-2.395277001000000
Fox and Hawk,BB5 0SF,53.749844470000000,-2.376996438000000
Snipe and Thicketbird,BB7 9YA,53.825555000000000,-2.407650000000000
Night heron and Stilt,BB9 5GZ,53.824613770000000,-2.233014655000000
Pheasant and Night heron,BB18 6NY,53.914653240000000,-2.141593150000000
Warbler and Scimitar babbler,BB5 2ND,53.748637280000000,-2.360380962000000
Wader and Rabbit,BB11 1PJ,53.789992820000000,-2.246438000000000
Moluccan boobook and Mockingbird,BB8 8EX,53.852929720000000,-2.137355910000000
Pheasant and Jay,BB4 9PL,53.722575560000000,-2.245149177000000
Cuscus and Goose,BB12 7PP,53.806660030000000,-2.355715840000000
Treepie and Mole,BB11 5BQ,53.785894620000000,-2.266979453000000
Solitaire and Hawk,BB5 1HJ,53.752890000000000,-2.363253000000000
Bunting and Ground sloth,BB1 9EJ,53.799928080000000,-2.492818473000000
Crow and New World blackbird,BB3 0PL,53.717991900000000,-2.481904050000000
Tree warbler and Chipmunk,BB11 2EG,53.777051000000000,-2.254920000000000
Dorcopsis and Myna,BB11 2RS,53.793037000000000,-2.239032045000000
Wader and Fox,BB1 1BS,53.742808070000000,-2.475183222000000
Petrel and Linsang,BB2 6EU,53.752249010000000,-2.496506277000000
Buzzard and Night heron,BB1 6PG,53.759329190000000,-2.472669901000000
Tattler and Eagle,BB5 1SJ,53.753737070000000,-2.382430382000000
Bronzewing pigeon and Guillemot,BB11 1PX,53.790595410000000,-2.245955843000000
Quetzal and Jackal,BB7 3JT,53.901121010000000,-2.399238748000000
Viscacha and Gull,BB1 4EH,53.766254410000000,-2.428480295000000
Rabbit and Tit-tyrant,BB10 1LN,53.800681010000000,-2.236495310000000
Wader and Linsang,BB9 5RE,53.829490110000000,-2.230489289000000
Marmoset and Old World vulture,BB6 7HL,53.787143980000000,-2.412741185000000
Viscacha and Tattler,BB5 5NR,53.775222300000000,-2.384067292000000
Old World vulture and Old World vulture,BB7 4JL,53.914167070000000,-2.247397689000000
B and White ibis,BB2 2HT,53.743231000000000,-2.488319000000000
River dolphin and Myna,BB8 9SJ,53.860155430000000,-2.178659264000000
Petrel and Badger,BB7 2AU,53.877644940000000,-2.382602574000000
Logrunners and Skunk,BB1 1LX,53.746497960000000,-2.464807647000000
Hawaiian honeycreeper and Fox,BB9 4SE,53.836968960000000,-2.215516844000000
Fish eagle and Wader,BB5 2DJ,53.747707100000000,-2.337202817000000
Bronzewing pigeon and Marsh harrier,BB2 6DE,53.752728650000000,-2.493539474000000
Minke whale and Fox,BB18 5DL,53.916955130000000,-2.186788507000000
Hawk and Grosbeak,BB18 6AN,53.917614940000000,-2.184401106000000
Marmoset and Marsh harrier,BB2 1XD,53.741424270000000,-2.505824257000000
Chickadee and Tit-tyrant,BB7 2RR,53.874720000000000,-2.396569000000000
Coati and Prion,BB1 8DU,53.759458250000000,-2.487566364000000
Diving bird and Crow,BB1 9PE,53.779860920000000,-2.469638009000000
New World blackbird and Hawk,BB8 9EJ,53.862634980000000,-2.166961846000000
Armadillo and Mouse,BB9 0QY,53.827993340000000,-2.213662791000000
Siskin and Gull,BB8 8LN,53.845831220000000,-2.194390052000000
Lemming and Asiatic leopard,BB5 5QE,53.778409600000000,-2.385143474000000
