name,postcode,lat,lon
hoop snake and Quetzal,SA62 5AH,51.944553255485200,-5.136382277671650
Quetzal and Macaw,SA62 5AJ,51.947503076275500,-5.142118900997210
Wader and worm lizard,SA62 5BW,51.947184000000000,-5.178802000000000
rock snake and coral snake,SA62 5DB,51.870627953555600,-4.952102217154540
Bunting and bicycle lizard,SA62 5DN,51.923625000000000,-4.878968000000000
diamond python and Guillemot,SA62 5HG,51.944912000000000,-5.112103000000000
Linsang and Wallaby,SA62 5HY,51.921593640033300,-5.087360855055180
Gull and tokay,SA62 5PE,51.850975489358500,-4.965366557055640
black snake and Old World warbler,SA62 5PR,51.885483746052500,-5.032735834101510
soft-shelled turtle and giant tortoise,SA62 5PU,51.889890093872800,-5.058106210449540
Solitaire and terrapin,SA62 5QR,51.869797997107700,-4.947543969734980
Grouse and Black cockatoo,SA62 5QT,51.870430000000000,-4.939594000000000
tokay and grass snake,SA62 5RP,51.940095620069200,-4.891256368431220
Francolin and glass snake,SA62 5RQ,51.928965457700000,-4.983660866200000
leguaan and Black jay,SA62 5SP,51.928074427133800,-5.001698039819800
cobra and wall lizard,SA62 5XY,51.954020311639900,-4.943010422425950
Parrotbill and king cobra,SA62 6DD,51.920805450567400,-5.224632969546260
gavial and cerastes,SA62 6DE,51.914185770447700,-5.222005756995380
Mole and grass snake,SA62 6HR,51.852367000000000,-5.055385000000000
Petrel and Ice seal,SA62 6RD,51.881269860988300,-5.267187705253710
Booted eagles and Herring gull,SA62 6RE,51.880777269421200,-5.266788627784540
Grackle and Mouse,SA62 6SL,51.881131265685500,-5.266349250651480
goanna and Grackle,SA62 6TX,51.874601643671600,-5.201285095335710
Triller and jew lizard,SA62 6UU,51.875085000000000,-5.188169000000000
B and death adder,SA62 6XR,51.896925417215000,-5.185718125728580
gavial and Boto,SA64 0BA,52.000982507175400,-4.998679455392140
Parrotbill and Treepie,SA64 0DX,52.010289214571900,-4.991679779766550
Parrotlet and crocodile,SA64 0ER,52.002707043972900,-5.000179130872850
dukite and Mole,SA64 0EX,52.003229559253700,-5.002938000000000
Pheasant and Coati,SA64 0JA,52.007879857692800,-5.012796266187130
rattlesnake and Jay,SA64 0JD,52.009905172386100,-5.027798112890040
hoop snake and snapping turtle,SA64 0JU,51.995072334820300,-5.002611302288450
cobra and Jackal,SA65 9AA,51.995776149262300,-4.977744551230330
diamond python and puff adder,SA65 9DB,51.995085736051100,-4.981923790455890
Magpie and leguaan,SA65 9DF,51.996923751040000,-4.982148010308020
mud turtle and death adder,SA65 9DL,51.996550138329400,-4.985532484414560
tokay and Gila monster,SA65 9ED,51.998791545388000,-4.977289139260150
carpet snake and Coati,SA65 9LH,51.993153318350500,-4.973345492490380
Siskin and White ibis,SA65 9LN,51.991135867033600,-4.973459395205480
Hawaiian honeycreeper and Vole,SA65 9NX,51.997474711219400,-4.978148752609380
Macaw and sand lizard,SA65 9SD,51.970575088911200,-4.878032189818450
Guillemot and Civet,SA65 9TB,51.980056000000000,-4.932280000000000
