name,id,postcode,lat,lon
Capuchin and hoop snake,402207,SA62 6NH,51.886397000000000,-5.089946000000000
skink and viper,402030,SA62 5UG,51.931020111714100,-4.994809633087780
Tattler and New World blackbird,401571,SA65 9TA,51.982928839709000,-4.947557309023080
brown snake and Maya,406639,SA42 0SQ,52.019328000000000,-4.900083000000000
Elephant and Songlark,402410,SA62 5SZ,51.927617118796100,-4.996706830816350
frilled lizard and Coati,402104,SA62 6DJ,51.923510777908200,-5.208592792186870
iguana and caiman,402357,SA62 5QD,51.898690023233300,-5.044093327528570
chameleon and mud turtle,401973,SA63 4QL,51.862222394255900,-4.890803603383520
Old World warbler and sidewinder,402622,SA62 5DA,51.865327327336500,-4.959744812665770
Duck and crocodile,402394,SA62 5SD,51.928198000000000,-4.990912000000000
Diving bird and Quetzal,401554,SA65 9RS,51.958327924605800,-5.015118549404980
diamondback turtle and Moluccan boobook,401654,SA64 0AS,51.993981949626900,-5.001285360572760
monitor and grass snake,402046,SA62 5XJ,51.940650305356700,-4.994185496664030
frilled lizard and dukite,402201,SA62 6NA,51.900029615375700,-5.153312296935460
flying dragon and blind snake,401560,SA65 9SD,51.970575088911200,-4.878032189818450
Greenbul and Marmoset,401547,SA65 9RH,51.967078167914400,-4.991186844193850
amethystine python and amphisbaena,401924,SA65 9HH,51.993983590355500,-4.975367341928590
Fox and Flameback,402311,SA62 5LU,51.898066644571000,-4.971070976449160
horned viper and Diving bird,401811,SA65 9DJ,51.996821134545200,-4.980873610181210
Treepie and Argus,401869,SA62 6RY,51.885056021122100,-5.256183723148040
loggerhead and thorny devil,402027,SA62 5UB,51.922930254167300,-4.988046000000000
Dorcopsis and anaconda,401812,SA65 9DL,51.996550138329400,-4.985532484414560
Fulmarine petrel and Parakeet,402383,SA62 5RL,51.930701123911100,-4.901330350482610
Nukupu ªu and Condor,402359,SA62 5QF,51.919895463543600,-5.034081831655500
anaconda and Warbler,401851,SA62 6QY,51.879902860593200,-5.264269124853090
Moluccan boobook and blue racer,401887,SA62 6SW,51.882535095137900,-5.263733304057140
Snipe and Songlark,401867,SA62 6RU,51.875013029893800,-5.200050138285410
Marsh harrier and bearded dragon,402193,SA62 6LP,51.892925000000000,-5.145284000000000
Guillemot and harlequin snake,402598,SA62 5AN,51.957142810243100,-5.134772298412500
carpet snake and gopher snake,402225,SA62 5DE,51.878051699247500,-4.946209641088340
Schneider python and River dolphin,402183,SA62 6JZ,51.875608690927800,-5.104390671539690
glass snake and coral snake,401864,SA62 6RR,51.871274912915100,-5.283404657472080
snapping turtle and Old World warbler,401580,SA65 9TP,51.964358142729700,-4.893532035687100
smooth snake and Pitohui,401435,SA65 9JB,51.990810563963700,-4.975860000000000
dugite and Magpie,401929,SA62 6UE,51.881637621926000,-5.214705425851210
B and gavial,402288,SA62 5JQ,51.936409000000000,-5.104413000000000
Ibex and rat snake,401672,SA64 0BX,52.010786798694300,-4.985897809551670
Grosbeak and Old World warbler,406726,SA42 0XB,52.011494982732000,-4.900392764923830
