name,postcode,lat,lon
Civet and Dorcopsis,S70 4BL,53.534259046806300,-1.456138128368600
Eagle and Rat,S64 0JS,53.493606690726200,-1.275313435859170
Eagle and New World blackbird,S71 3SP,53.577284722060100,-1.465675022808750
Grouse and Elephant,S73 0LP,53.518361093625400,-1.411141342656460
Thrasher and Lemming,WF4 1FE,53.652741000000000,-1.426428000000000
Old World warbler and Tahr,WF2 9PP,53.684364580512600,-1.519192349892100
Egret and Old World quail,S36 1AD,53.480096425156600,-1.602901924879390
Greenbul and Kestrel,S73 8FN,53.525317866300000,-1.403155957500000
Myna and Wallaby,WF2 7NP,53.643095572053800,-1.513762349200000
Vole and Viscacha,S71 5BU,53.542108315631200,-1.423851000000000
Towhee and Francolin,S36 0BN,53.481494000000000,-1.593653000000000
Myna and Maya,S70 6RZ,53.543431243233300,-1.504794000000000
Moluccan boobook and Zebra,WF2 8SG,53.670759858821900,-1.531410685751380
Tattler and Siskin,S75 5FF,53.582716014435600,-1.551642911934270
Meadowlark and Wallaby,S36 2UU,53.471591268242600,-1.563631056495910
Stilt and Fox,WF4 5BU,53.658443112200200,-1.571464719546690
Herring gull and Chickadee,WF9 4LL,53.609558738494000,-1.355462158984810
Skunk and Eagle,S70 5DY,53.529515730338500,-1.466698581495250
Darwin's finches and Greenbul,S71 5FR,53.557609000000000,-1.441785000000000
Ice seal and Night heron,S63 7SW,53.494615874928500,-1.347543643148770
Argus and Logrunners,WF4 4NE,53.641100417230200,-1.585555883240360
Snipe and Jay,S63 6DG,53.506002027591200,-1.357063723471530
Wallaby and River dolphin,S63 8JQ,53.517034871359600,-1.306283389790050
Meadowlark and Towhee,S70 6BB,53.547012950167300,-1.488588542552840
River dolphin and Bronzewing pigeon,S72 8UB,53.580066332770000,-1.416522408435710
Pheasant and New World blackbird,WF2 8XX,53.674763156227700,-1.543975894153090
Shearwater and Parrotlet,S64 0HZ,53.495398788214000,-1.268816000000000
Zebra and Night heron,S74 9HW,53.503851419483400,-1.446440919358560
Diving bird and Old World quail,WF2 0EL,53.686944567648700,-1.519284111656790
Gull and Nukupuʻu,S63 6AY,53.503735931336000,-1.370395660901400
Cuscus and Old World quail,S73 8BW,53.524369000000000,-1.398976000000000
Parakeet and Cloud rat,WF8 4NG,53.676703039011700,-1.316758463754740
Vulture and Boto,WF2 6DD,53.644940194797400,-1.492578574410100
Petrel and Partridge,S70 3NN,53.544079000000000,-1.458985000000000
Zebra and Buzzard,S64 9RG,53.495005767772300,-1.303522600591650
Macaw and Magpie,S72 9DF,53.613593091891700,-1.409197908176930
Flameback and Grouse,S64 8RY,53.480780136466700,-1.316563846843530
Herring gull and Bronzewing pigeon,WF8 2QT,53.682794033874700,-1.302185460817630
Fox and Grosbeak,S73 9RN,53.540632656085900,-1.389238965514440
Bronzewing pigeon and Songlark,WF9 2EQ,53.590678000000000,-1.293853000000000
Tree warbler and Bronzewing pigeon,S64 8JD,53.483119000000000,-1.316617000000000
Perching duck and Coati,S63 6LR,53.502381475425500,-1.384753208415910
Fish eagle and Recurvebill,WF2 7ND,53.658119070923500,-1.486730895352350
Puffleg and Stilt,S70 6TU,53.534648000000000,-1.495467000000000
Petrel and Jerboa,WF2 8UD,53.676994671915400,-1.514840682775330
Francolin and Fulmarine petrel,WF4 3HZ,53.644603122531100,-1.522079882054150
Ibex and Francolin,S63 8HW,53.523514081275900,-1.316947395378010
Recurvebill and Towhee,S63 0PH,53.551775598323600,-1.314077521797190
Ibex and Parrotbill,S71 4DQ,53.601407554039600,-1.445469072229610
Armadillo and Tit-tyrant,WF9 2RD,53.595457524792400,-1.293622465503550
Pratincole and Fox,S70 1TP,53.548900425017300,-1.472009139106410
Grackle and Old World quail,S74 0JU,53.506190627796200,-1.429689481080020
Perching duck and Kākāriki,WF8 3SL,53.673545539437100,-1.258863761526770
Songlark and Chickadee,WF4 4QT,53.648404782821400,-1.605952639996010
Hawaiian honeycreeper and Bronzewing pigeon,S70 5XN,53.506124000000000,-1.479853000000000
Parakeet and Fox,WF4 2BU,53.622990580703900,-1.421192287458640
Old World vulture and Piping shrike,WF8 3HY,53.662849000000000,-1.262941000000000
Maya and Condor,S72 8NP,53.595855552901000,-1.410321636834260
Kākāriki and Chickadee,S71 3LG,53.584670830951700,-1.453210571789340
Guillemot and Chipmunk,S63 6NA,53.505407866055000,-1.361927604999580
Vulture and Chicken,S71 4TD,53.602942000000000,-1.448498466400000
Peafowl and Mockingbird,S73 9LH,53.533270134304800,-1.375132737927800
Rat and Shearwater,WF1 5ED,53.674697680990400,-1.488013000000000
Vulture and Darwin's finches,WF2 6PG,53.654178840614700,-1.467427140789990
Kākāriki and Viscacha,S74 9AX,53.499075095004700,-1.439613000000000
Masked owl and Cuscus,S75 3TR,53.542381163421900,-1.534141690773330
Philippine hawk-owl and B,WF2 9PR,53.684988744285200,-1.520184567388080
Fulmarine petrel and Coati,S75 6AL,53.586015102183100,-1.508239097578790
Guillemot and Argus,WF9 4HR,53.613766245048300,-1.348988964728550
Mole and Stint,WF9 2LG,53.585442335054000,-1.299393678062070
Hawk and Greenbul,S36 2NF,53.474982648357200,-1.569336575770480
Kestrel and Stint,DN12 4JL,53.486877505998600,-1.271419260868430
Masked owl and Hawk,WF4 3HE,53.637517688370100,-1.528209628976180
Pitohui and Mink,S71 5PD,53.559614526794100,-1.432700378542830
Egret and Guillemot,S63 9DQ,53.531579668698500,-1.304959554358510
Polecat and Buzzard,S63 6LB,53.494821850691100,-1.352364022996400
Dolphin and Gull,WF9 3AT,53.594661000000000,-1.306388000000000
Bronzewing pigeon and Solitaire,WF9 3SX,53.595519694165600,-1.324641072739480
Chicken and Marsh harrier,WF1 5FE,53.667985000000000,-1.483858000000000
Thrasher and Jerboa,WF2 8FB,53.670166466717600,-1.537411277899010
Puffleg and Fish eagle,WF4 1BX,53.659333000000000,-1.423602000000000
Quetzal and Boto,WF9 5BE,53.637406847802200,-1.374502926852290
Lemming and Grouse,WF2 9JY,53.681457615148200,-1.534168613341690
Ground sloth and Old World warbler,S70 1JL,53.548794617069100,-1.476568432078080
Solitaire and Boto,WF2 8YL,53.673401488623500,-1.545535000000000
Prion and Jay,S72 7PD,53.571617459733500,-1.384277613062310
Zebra and Ibex,S75 2HD,53.556189364272100,-1.507694205798580
Diving bird and Recurvebill,WF5 0RG,53.678465105598300,-1.575455119212800
Stint and Old World warbler,S70 3HF,53.545217419532800,-1.450549742863120
Marsh harrier and Wader,WF9 3NP,53.592009386439600,-1.326978358798200
Songlark and Goose,WF2 8AY,53.677445573934800,-1.540298550254330
Tahr and Flameback,WF8 3DJ,53.638345308363900,-1.282198096889440
Pratincole and Chipmunk,WF2 9JW,53.682000978953100,-1.530604677710590
Tahr and Philippine hawk-owl,WF7 5DL,53.672649504202200,-1.345781081783260
Scimitar babbler and Snipe,WF8 2AL,53.687146338228400,-1.297903993959690
Badger and Linsang,WF2 7LN,53.661173238140900,-1.486300357373450
Booted eagles and Myna,WF4 1PL,53.659133900166100,-1.428944447572370
Eagle and Ice seal,WF9 1EX,53.616712089490800,-1.263275668104950
Elephant and Thrasher,S73 0TB,53.507348148688700,-1.389234865261380
Songlark and Tahr,S63 0TF,53.545630433305300,-1.316168938927100
Partridge and B,S73 8HW,53.522840018600000,-1.400158995300000
Fulmarine petrel and Tahr,WF4 2JY,53.613012761217400,-1.520713331307610
Piping shrike and Marsh harrier,S71 3QF,53.576538012584900,-1.469565781364390
Piping shrike and Fox,WF4 6LU,53.660545809112500,-1.554071323817090
Perching duck and Kākāriki,WF4 3BG,53.650762297253100,-1.515913286976040
Old World quail and Diving bird,WF9 2DJ,53.599955499423800,-1.277680875654650
Logrunners and Perching duck,WF12 8LR,53.685424571369600,-1.610634287895110
Kestrel and Pratincole,S62 7SB,53.477172001432500,-1.396011420586250
Masked owl and Myna,WF2 6AH,53.664089531048100,-1.485160144548620
Pratincole and Cloud rat,WF2 9PD,53.682012312583000,-1.517614266380770
Crow and Siskin,WF5 0QL,53.678626580766500,-1.567823466154110
Bronzewing pigeon and Kite,S71 5LJ,53.570428965944700,-1.431090981489310
Goose and Condor,S74 9NA,53.498495830933400,-1.437149200315910
Bunting and Wallaby,S64 0EQ,53.493003053309200,-1.279544159336900
Old World quail and Mink,S75 6HH,53.587848270366200,-1.508127188814480
Greenbul and Night heron,S70 5AR,53.532468151823300,-1.467642150169590
Solitaire and Pheasant,WF9 1AR,53.631830661375000,-1.306943034190050
New World blackbird and Parakeet,S62 7TA,53.477636800859500,-1.417068000000000
Mamo and Fox,WF9 1PD,53.626996734078200,-1.296467981360360
Meadowlark and Mockingbird,S70 5NP,53.530987410897000,-1.458156333811990
Zebra and Magpie,S75 2TN,53.561203883827400,-1.490274424195610
Perching duck and Ice seal,S63 0NY,53.545694300827500,-1.319488075571180
Vulture and Songlark,S36 2NG,53.475383477281800,-1.568323063365640
Booted eagles and Chickadee,WF1 9QX,53.679490000000000,-1.500932000000000
Black cockatoo and Herring gull,WF5 9DU,53.685011847772900,-1.584095525875250
Asiatic leopard and Gull,WF9 5NQ,53.626076000000000,-1.369955000000000
Rat and Asiatic leopard,S70 3LA,53.545943000000000,-1.453664000000000
Towhee and B,S64 9BD,53.494437631514200,-1.286438583380520
Cuscus and Magpie,S64 8ST,53.481607168484300,-1.308759932714840
Macaw and Piping shrike,S63 6EA,53.506659187190800,-1.358923424594290
Eagle and Gull,S71 5AZ,53.547710153557100,-1.433825416366520
Bunting and White ibis,S73 0SN,53.512885837851200,-1.389381475236000
Myna and Pheasant,S71 4GP,53.599232000000000,-1.473122000000000
Grackle and Grouse,S63 7AY,53.496500964390600,-1.337279357868670
Puffleg and Ice seal,WF2 8TY,53.677339821490200,-1.515729891746420
Black cockatoo and Armadillo,S64 8RZ,53.480780136466700,-1.316563846843530
Myna and Night heron,S72 8HQ,53.569508000000000,-1.409676000000000
Diving bird and Mouse,WF8 4LX,53.680153719953700,-1.316611801380040
Ground sloth and Black cockatoo,S36 2SR,53.476065318345500,-1.572971775447610
Solitaire and Grackle,WF2 9EE,53.679987977889000,-1.521603925599540
Puffleg and Kākāriki,WF1 9SU,53.684136000000000,-1.502494000000000
Mamo and Thicketbird,WF5 9FB,53.685065000000000,-1.581570000000000
Eagle and Cloud rat,S63 8DX,53.518737097524700,-1.330537742121350
Buzzard and Asiatic leopard,WF9 3DL,53.598953233106100,-1.310442771511750
Fish eagle and Viscacha,WF9 5DL,53.634517684450400,-1.380670578496430
Mink and Petrel,S70 5QA,53.535347577825900,-1.472403990322130
Asiatic leopard and Magpie,S63 0PL,53.552703059778000,-1.314364411826970
Solitaire and Guillemot,S72 0DZ,53.551128931934400,-1.344637392237350
Prion and Asiatic leopard,WF4 3PU,53.640033809350000,-1.530344464852540
Black cockatoo and Tree warbler,S63 7DG,53.507315000000000,-1.337277000000000
Ice seal and Minke whale,WF7 5BG,53.675196315349700,-1.359668488164030
Fox and Nukupuʻu,WF1 4EA,53.681811732974700,-1.488744320074260
Linsang and Rat,S75 3LP,53.544515392746500,-1.519238465038260
Solitaire and Meadowlark,S74 9EB,53.499201472234300,-1.449712443837570
Treepie and Mamo,S63 8NG,53.515475420525900,-1.319595147914860
Polecat and American sparrow,S64 5UG,53.477056000000000,-1.311245000000000
Meadowlark and Pheasant,WF9 1NE,53.613442534013400,-1.293473573328620
Francolin and Wallaby,S72 0HJ,53.541665463943400,-1.353158570210090
Philippine hawk-owl and Buzzard,S71 3PR,53.578498405321700,-1.471806736982300
Linsang and Myna,S71 1UN,53.571310275975300,-1.468332516644630
Eagle and Stilt,WF2 6QB,53.638998801433100,-1.496809165479470
Guillemot and Moluccan boobook,S36 8YY,53.513162202749300,-1.594027696483640
Tit-tyrant and Mole,S70 5AF,53.530527689674700,-1.467877679954630
Parrotbill and Polecat,S75 3RF,53.542362471152100,-1.524816082466080
Jay and Grosbeak,WF4 1RL,53.665703803587500,-1.434515940331400
Guillemot and Hawk,WF1 1YA,53.680936000000000,-1.496071778594130
Guillemot and Moluccan boobook,S75 2LJ,53.557802841437600,-1.510996565424420
Mockingbird and Booted eagles,S63 9JZ,53.534572783389100,-1.303401785976780
Wader and Chickadee,WF5 8HE,53.680311876737700,-1.586942615827110
Rat and Thrasher,WF9 2HB,53.589626525968700,-1.297103718937890
Thrasher and Moluccan boobook,S70 2LD,53.558196877865300,-1.482853138622930
Thrasher and Moluccan boobook,S62 7EF,53.471467949760700,-1.353743911553850
Triller and Marsh harrier,WF8 2AZ,53.686139472907600,-1.300949107559220
Puffleg and Pitohui,S64 8EZ,53.481880512324000,-1.326732813423040
Francolin and Jackal,S64 9AS,53.493473411713500,-1.289047344667580
Chipmunk and Tattler,S71 3RY,53.574296139342600,-1.468717926801760
Pratincole and Old World vulture,S63 8LU,53.514533885028100,-1.313698634466270
Vole and Black cockatoo,S63 8EP,53.516736676287200,-1.326332000000000
Parrotlet and Tree warbler,WF1 9SW,53.684136000000000,-1.502494000000000
Shearwater and Logrunners,WF9 1JR,53.618906723929800,-1.267908873786840
Skunk and Tattler,S75 3RN,53.543295117190400,-1.526164000000000
Ice seal and White ibis,WF9 2ET,53.589427217108700,-1.295309261118460
Grackle and Vole,S75 6DX,53.580020934575500,-1.497675597285830
Lemming and Night heron,S73 8GE,53.526357000000000,-1.411771000000000
Hawaiian honeycreeper and Dolphin,S71 2DL,53.567383017828100,-1.462447738218300
Tit-tyrant and Linsang,S71 3HD,53.581206367351900,-1.446488579001440
Hawk and Fulmarine petrel,S62 7QE,53.471833262028700,-1.346537095171190
Fulmarine petrel and Elephant,WF2 6JW,53.652230382856500,-1.480160510225240
Buzzard and Pitohui,S74 8ED,53.495645168566800,-1.425534894124880
Asiatic leopard and Civet,WF5 0JD,53.669907995202500,-1.570319231057120
Booted eagles and Cloud rat,S75 3DX,53.496516789302800,-1.484658738453590
Masked owl and Parakeet,S73 9NF,53.534341475072900,-1.377183969394000
Thicketbird and River dolphin,S73 0HU,53.520228493244400,-1.394494503703870
Flameback and Kākāriki,S75 2ND,53.559203882427500,-1.501998106978240
Prion and Mockingbird,S75 4LY,53.541778000000000,-1.562231000000000
Grouse and Polecat,S75 6EJ,53.587250717107800,-1.507076681613330
Eagle and Marmoset,S63 8NP,53.515758007846800,-1.317132416002860
Greenbul and Nukupuʻu,S70 6DE,53.554576095727000,-1.491606901020840
Bronzewing pigeon and Crow,WF8 2BP,53.684814782489400,-1.295762403764830
Crow and Masked owl,WF7 6LX,53.681420397040500,-1.357091143030320
B and Snipe,WF9 4QF,53.616844000000000,-1.357800000000000
Bunting and Condor,S64 8JX,53.477734000000000,-1.319747000000000
Marmoset and Partridge,WF5 9DX,53.681816726595700,-1.582855217956600
Tattler and Chickadee,S75 3EE,53.543383204890300,-1.519326740173450
Peafowl and Meadowlark,S72 8JD,53.566084269911900,-1.406356974431250
Partridge and Old World quail,S70 4QW,53.534181581985600,-1.454917036686340
Puffleg and B,S72 8TB,53.563064348526000,-1.404587507829330
Mouse and Nukupuʻu,S73 9ET,53.534592649903200,-1.371929777917560
Pitohui and Piping shrike,WF4 2PL,53.620572055833500,-1.422918605733480
Pitohui and Grosbeak,S71 4LW,53.598078277847800,-1.466440296032960
Mouse and Thicketbird,S64 8NR,53.492150759514500,-1.310306838799730
B and Goose,S75 4GQ,53.568126015316700,-1.565764154772030
Asiatic leopard and River dolphin,WF4 4TZ,53.653543000000000,-1.586512000000000
Boto and Parakeet,WF1 5PY,53.668219726180500,-1.490437441627160
Recurvebill and Puffleg,WF4 3HG,53.639234501785500,-1.542120481388820
Maya and Boto,S63 9HJ,53.534702065382100,-1.301213000000000
Tahr and Old World quail,S75 4JF,53.549601775821000,-1.563523736368090
Tattler and Snipe,S63 9BG,53.527421344009100,-1.314893313127240
Ground sloth and Parakeet,WF7 5FP,53.673708000000000,-1.363630000000000
Mouse and Warbler,S36 1LE,53.483193652620100,-1.601757896062310
Chickadee and Masked owl,S63 8BD,53.521614232312400,-1.321110714832500
American sparrow and Old World vulture,S75 4LW,53.545641004524000,-1.564379399681970
Siskin and Tattler,S75 2QF,53.561353883029500,-1.495979323882030
Piping shrike and Masked owl,WF7 7LG,53.654626151532700,-1.334046411147670
Old World warbler and Herring gull,WF9 3LA,53.594688790665200,-1.316027013675510
Parrotlet and Marmoset,S75 3DE,53.495496000000000,-1.481099000000000
Towhee and Civet,S72 0DJ,53.549897939522200,-1.348007078873810
Petrel and Greenbul,S71 5SN,53.571957280600000,-1.430451507800000
Bunting and Crow,WF9 4NE,53.611166752575000,-1.353202000000000
Pratincole and Cloud rat,S75 1EF,53.565976000000000,-1.487680000000000
Piping shrike and Black jay,WF5 0QY,53.677369301237300,-1.570621811729180
Wader and Old World quail,WF4 2FA,53.621255194753800,-1.424103821905710
Minke whale and Rabbit,S63 6PL,53.508665723231500,-1.364366641121170
Tahr and Treepie,WF1 5JX,53.672085635783700,-1.490663278781120
Tahr and Greenbul,WF5 0PS,53.681467226603900,-1.572941992808430
Triller and Petrel,S71 3HW,53.582447858648200,-1.452589747650080
Lemming and Tree warbler,WF7 5EL,53.679163867694800,-1.357004378224670
Argus and Moluccan boobook,WF9 2RA,53.594210212000300,-1.293975660151180
Argus and Goose,S64 8UA,53.474597072231800,-1.313619740618400
Pheasant and Gull,WF4 2LE,53.621605442553600,-1.503033145397150
Warbler and Magpie,S36 2AW,53.482998000000000,-1.594377000000000
Elephant and Fish eagle,S73 0TW,53.512099000000000,-1.379442847601180
Scimitar babbler and Guillemot,WF12 8NX,53.684761934242500,-1.600465556602280
Chickadee and Quetzal,WF2 9BP,53.679487175120000,-1.515523602446180
Civet and Boto,WF5 8PD,53.673433528951700,-1.578517955068990
Zebra and Parrotbill,S74 0DD,53.496001214814000,-1.447688734225720
Partridge and Rabbit,S70 5RE,53.513139439422200,-1.479103804115390
Guillemot and Bunting,S73 9JE,53.533829808814200,-1.360278501111700
Capuchin and Egret,S70 5TZ,53.498913941411400,-1.477800750222860
Mole and Old World warbler,S63 0JQ,53.544240379923700,-1.310456698388760
Cloud rat and Siskin,S73 0ND,53.512748000000000,-1.421187000000000
Old World warbler and Diving bird,WF1 3NX,53.686497095552400,-1.490641067440190
Coati and Kestrel,S73 0BJ,53.524982964523600,-1.392814000000000
Crow and Pheasant,S72 9AL,53.608127269748700,-1.387555572559410
Myna and Magpie,S72 7FL,53.577628207879200,-1.378572009239310
Dolphin and Stint,S63 7GA,53.509336855600000,-1.354811942700000
Black cockatoo and Parrotbill,S64 0NS,53.509765666646400,-1.292906432067700
Grackle and Diving bird,WF4 2BP,53.623225486076000,-1.423305765617130
Scimitar babbler and Ibex,S64 5UN,53.479593823732800,-1.307225552304690
Scimitar babbler and Pheasant,WF7 6JG,53.682092758225200,-1.356762959887050
Kākāriki and Solitaire,WF2 6LY,53.650310047448400,-1.456567950046960
Recurvebill and Songlark,WF2 8HW,53.677488504606800,-1.528217509094690
Piping shrike and River dolphin,S71 2HT,53.560668820022300,-1.450606286088210
Tit-tyrant and Vole,S70 3HU,53.541354382646800,-1.449030381187130
Cloud rat and Francolin,DN5 7EX,53.522676693828000,-1.273972884760600
Myna and Parakeet,WF5 0LP,53.670881973063500,-1.563755363663070
Ice seal and Grouse,S75 6HZ,53.588649283258000,-1.504023946111260
Wader and Bronzewing pigeon,S62 7BF,53.476982000000000,-1.364118000000000
Goose and Tree warbler,S35 7BR,53.508589000000000,-1.576143000000000
Gull and B,S70 1XU,53.547556754594700,-1.471014676784200
Myna and Kangaroo,S70 6AF,53.550491554312100,-1.488606998572030
Eagle and Ice seal,S73 9PQ,53.535549080925000,-1.386490638510280
Dolphin and Kākāriki,S36 1JN,53.483398249747800,-1.603820480374730
Meadowlark and Magpie,S75 1PH,53.562123000000000,-1.534801000000000
Recurvebill and Thrasher,S75 3JN,53.545560399849400,-1.526591259693150
Dolphin and Piping shrike,WF4 2DQ,53.628769321798500,-1.413643371992090
Hawaiian honeycreeper and Peafowl,S72 7AH,53.584409285782000,-1.379303384929180
Towhee and Macaw,S71 3DQ,53.583208353586600,-1.480025531002800
River dolphin and Ibex,S75 4EU,53.565436832425600,-1.572797387030600
Pheasant and Grosbeak,WF4 6LX,53.661541830955500,-1.553621964342630
Vole and Herring gull,S64 8LN,53.478216532587900,-1.322556770973200
Grosbeak and Snipe,S63 7HX,53.493241439094600,-1.349343346314460
Grosbeak and Old World quail,S36 6HU,53.522724712583700,-1.609879373770930
Kite and Mink,S75 3DU,53.496857493790500,-1.482378408052940
Armadillo and New World blackbird,WF1 9RD,53.679490000000000,-1.500932000000000
Tree warbler and Fulmarine petrel,S64 9HA,53.497068909864200,-1.305885633783890
Mouse and Fox,S71 4RB,53.597622442794300,-1.455037952090350
Egret and Stint,S71 5RB,53.557342283420300,-1.446528236335930
Capuchin and Badger,S70 6QG,53.550728617260800,-1.506534994377410
Old World quail and Peafowl,WF9 2SR,53.596204733568500,-1.280237932335270
Mink and American sparrow,S36 1AJ,53.484219547222400,-1.599427571461020
Perching duck and Egret,S75 3LH,53.546726991507900,-1.519349243604280
Tahr and Argus,WF2 0HF,53.687082022184200,-1.522189813557320
River dolphin and White ibis,S72 8JZ,53.575857233374700,-1.416006447697910
Snipe and Parrotlet,S73 8LX,53.527190966162800,-1.413613550439840
Minke whale and Fox,S71 5NT,53.559212652065600,-1.435015000000000
Dolphin and Vulture,WF4 3LD,53.631838971852500,-1.519638154529920
Maya and Snipe,WF1 2SL,53.682967658176800,-1.500691366097470
Logrunners and Old World quail,S72 8AB,53.584274435078000,-1.413156415087390
Egret and Crow,S64 8PU,53.486514557699400,-1.310247529219400
Maya and Old World vulture,S35 4NL,53.472611430268900,-1.493596000000000
Flameback and Perching duck,WF1 3PD,53.687329363879000,-1.492705324515270
Prion and White ibis,S71 5EE,53.545829007145300,-1.431390576307010
Duck and Hawaiian honeycreeper,S73 8JY,53.524611366525000,-1.408158553892630
American sparrow and Boto,WF1 3PF,53.687254704017500,-1.492055111350080
Tattler and Black cockatoo,S75 3JW,53.544372068372300,-1.526121598818970
Tahr and Minke whale,S74 8JW,53.499009336575000,-1.420454394622740
Magpie and Chickadee,S75 1EJ,53.566129286892000,-1.496586927603150
Stint and Guillemot,S70 9FE,53.551714472929300,-1.482797000000000
Dorcopsis and Minke whale,S70 5RQ,53.515120925622500,-1.477963546233790
Elephant and Duck,WF9 3JP,53.593140769266700,-1.331583604431040
White ibis and Hawk,S75 4DP,53.568311216269100,-1.545438287662360
Jerboa and Booted eagles,WF4 1PJ,53.659565094285400,-1.428741000000000
Thicketbird and Solitaire,S70 6TF,53.535095000000000,-1.476089000000000
Rabbit and Grouse,S63 9HQ,53.534029391071500,-1.302701587319430
Jerboa and Pheasant,WF8 2TE,53.687143090771800,-1.289848000000000
Towhee and Hawaiian honeycreeper,S72 8TJ,53.580576723616100,-1.416122679221880
Triller and American sparrow,S63 9NB,53.534392760725100,-1.306452445880980
Boto and Dolphin,S71 2AH,53.570688139923600,-1.465878945033640
Kestrel and Eagle,WF5 9HN,53.683748911697500,-1.578005000000000
Grosbeak and Treepie,WF4 3JP,53.633396060149500,-1.517926725747160
Francolin and Songlark,WF4 2LS,53.613563000000000,-1.534538000000000
Kite and Fish eagle,S63 8EJ,53.517780046090600,-1.331382318118060
Badger and Bronzewing pigeon,WF8 2SN,53.685913751800400,-1.306964127023260
Chipmunk and Dolphin,S72 8QH,53.590428000000000,-1.408584000000000
Kite and Goose,S35 7AZ,53.518032658975800,-1.567995512060270
Fish eagle and Mockingbird,WF9 4SZ,53.608018102097400,-1.354790372385720
Masked owl and Capuchin,S73 0XH,53.512415735169100,-1.376660896998210
Partridge and Jay,WF1 1DZ,53.678884000000000,-1.501920000000000
B and Parrotbill,S70 2QT,53.552700928058300,-1.481923911395620
Mink and Herring gull,S63 0BW,53.543764234400000,-1.300670537300000
Snipe and Thicketbird,WF1 5RX,53.660587000000000,-1.465122000000000
Polecat and Myna,DN5 7JF,53.516924594026400,-1.271115216983420
Triller and Parakeet,S73 9AW,53.537380954739700,-1.374000941900600
Asiatic leopard and Tree warbler,S75 5GX,53.595811196400000,-1.531726407700000
Mink and Pratincole,WF8 2SE,53.683623085241300,-1.307198554786820
Parrotlet and Partridge,S71 5DP,53.547686175284100,-1.425026938862890
Tit-tyrant and Viscacha,WF9 4PD,53.609240639617400,-1.364898307902160
Philippine hawk-owl and Herring gull,S62 7NH,53.473121347447800,-1.365394847687890
Puffleg and Piping shrike,S72 8QY,53.587953277012600,-1.400974842960630
Pheasant and Mink,S75 2TD,53.559917791789000,-1.494335760815710
Hawk and Puffleg,S75 6BD,53.587070308439100,-1.500416922768810
Hawaiian honeycreeper and Old World vulture,S71 2JE,53.562137715371500,-1.447522488965760
Towhee and Capuchin,WF4 6AY,53.662107907244200,-1.555719000000000
Kite and Peafowl,WF4 3JL,53.633719000000000,-1.510951000000000
Parakeet and Diving bird,S74 0LF,53.504873133834000,-1.428606531499420
Triller and Bunting,S64 5WH,53.479218000000000,-1.302562000000000
Macaw and Herring gull,WF1 4EQ,53.679114148477800,-1.490593671961410
Bunting and Mink,S75 2PE,53.561952546866600,-1.499414396803790
Fulmarine petrel and Triller,WF9 4JN,53.614393990507100,-1.345427022058350
Armadillo and Thicketbird,S75 3TF,53.545439629602500,-1.516617182883290
Cloud rat and Meadowlark,WF4 2JQ,53.615244434643300,-1.516878762934820
Old World quail and Tattler,S70 4AR,53.536889983660400,-1.461506082220270
Hawaiian honeycreeper and Polecat,S64 8TB,53.480318000000000,-1.315722828726820
Viscacha and Duck,S75 3SW,53.542194471911600,-1.514315142174560
Rabbit and Kākāriki,S73 0LH,53.518652691134800,-1.408301890450810
Bronzewing pigeon and Kite,WF7 5PP,53.674902000000000,-1.349806000000000
Old World warbler and Parrotbill,WF5 9HG,53.682327384656500,-1.577248274602670
Asiatic leopard and Asiatic leopard,WF4 1JT,53.651601000000000,-1.415551000000000
Puffleg and Zebra,WF8 3BE,53.676764379559300,-1.264862691883430
Mockingbird and Marsh harrier,S64 8QF,53.489158048344100,-1.316655296363110
Towhee and Prion,WF2 6LL,53.647399779878800,-1.455016926576810
Polecat and Night heron,S70 1NE,53.546188016839200,-1.480705520748770
Cloud rat and Grosbeak,S75 2SN,53.558374218743300,-1.490670725055550
Thrasher and Francolin,S75 1FP,53.562870000000000,-1.484323000000000
Jackal and Mamo,S75 5JZ,53.584767081100300,-1.540246849631480
Hawaiian honeycreeper and Thicketbird,S73 8DD,53.524770637895000,-1.402228264325060
Lemming and Wallaby,S75 4DA,53.607609542351600,-1.543399481591130
Kestrel and Diving bird,S35 7DN,53.494763712784000,-1.558750738188410
Marsh harrier and Scimitar babbler,S64 9RZ,53.501374925249900,-1.299800029334520
Marsh harrier and Grouse,WF5 0NE,53.676173434617700,-1.567999940995060
Maya and Moluccan boobook,S63 6QL,53.504731000000000,-1.357822000000000
Crow and Marsh harrier,WF7 6DQ,53.675775609659400,-1.407632223713340
Mink and Parrotbill,S72 9LH,53.598244920559600,-1.383256019335660
Towhee and Elephant,S63 3GU,53.504385000000000,-1.329047000000000
American sparrow and Parakeet,WF90 8AB,53.674434000000000,-1.490892000000000
Badger and Marsh harrier,WF1 1ZE,53.679399505107400,-1.500929000000000
Prion and Lemming,WF2 8JS,53.666001316443100,-1.530449439567320
Lemming and Kestrel,S64 9QS,53.494504496972700,-1.299265012284110
Parakeet and Grouse,S71 3BS,53.579218030700000,-1.473202567100000
Black cockatoo and Kite,WF8 4JG,53.684879882323600,-1.319472742394170
Viscacha and Lemming,WF2 7FG,53.640472000000000,-1.514022000000000
Dolphin and Condor,S63 6ND,53.505756782718300,-1.361620818486340
Duck and Tahr,S74 8DY,53.500555167923000,-1.427880637747040
Scimitar babbler and Fox,WF4 3PB,53.641571845746300,-1.523777958650240
Parakeet and Linsang,S74 0JP,53.508877000000000,-1.431086000000000
Rat and Puffleg,WF2 9PW,53.684530184028200,-1.520144353805020
Night heron and Prion,S70 5RF,53.514232494086100,-1.478291147487050
Rabbit and Wader,WF5 0QZ,53.678071223835800,-1.571070000000000
Thicketbird and Siskin,S71 1XS,53.567985965271600,-1.464614420936810
Masked owl and Dolphin,S70 6PF,53.550392000000000,-1.509678000000000
Skunk and Scimitar babbler,S73 0LW,53.518860181272800,-1.410274748755770
Bunting and Flameback,WF9 5LD,53.625446051833700,-1.373303802187210
Pratincole and Mockingbird,S64 8NE,53.489562000000000,-1.310123000000000
Elephant and Old World quail,S74 8JE,53.497684000000000,-1.421227792560060
Kākāriki and Tahr,S71 5NJ,53.559880465458800,-1.433813971730820
Thicketbird and Black cockatoo,WF1 4PU,53.681041559815600,-1.489404656879350
Gull and Civet,WF1 3NA,53.687175640327200,-1.496750102498610
Darwin's finches and Kite,WF9 5EF,53.622230000000000,-1.369935000000000
Fulmarine petrel and Recurvebill,WF9 1HS,53.614824542472400,-1.282521398291620
Cloud rat and Marsh harrier,S63 7AU,53.497176219450300,-1.337479874393400
Chickadee and Viscacha,WF5 0TA,53.674717006403700,-1.570406565055580
Grackle and Ice seal,S73 9BH,53.541472269441000,-1.377743316940250
Meadowlark and Dolphin,WF8 4SF,53.686119000000000,-1.330249000000000
Civet and Coati,S70 3DG,53.540016744743200,-1.458161000000000
Nukupuʻu and Asiatic leopard,WF9 2SP,53.596892145773700,-1.280951529430740
Quetzal and Logrunners,WF2 0DH,53.685727141316100,-1.513831877103840
Grouse and Kangaroo,WF4 2BT,53.623278115996500,-1.421173236015480
Tit-tyrant and Masked owl,S75 4SB,53.533638940914400,-1.563582000000000
Ibex and Wallaby,WF7 5NU,53.670926728517600,-1.354617116796220
Night heron and Hawaiian honeycreeper,WF5 0QX,53.682044192918000,-1.570907376226950
Guillemot and Hawk,WF4 1ET,53.672604881205200,-1.409886670902470
Argus and Night heron,S70 6PY,53.552152451386000,-1.509612669463820
Masked owl and Ice seal,S71 5RD,53.557274914029500,-1.447510334106600
Old World quail and River dolphin,DN5 7EU,53.522793081406100,-1.272417288370390
New World blackbird and Chickadee,WF4 1BG,53.675835737828300,-1.423647444503310
Bronzewing pigeon and Triller,S75 2JZ,53.553867517702500,-1.511389086241880
Parrotlet and Polecat,WF7 6FG,53.684630637262800,-1.355089204814210
Asiatic leopard and Elephant,S64 8EE,53.486834908304800,-1.328628659958710
Vulture and Goose,WF5 0QN,53.678232914420500,-1.568327074091410
Lemming and Booted eagles,WF1 1QR,53.684977176744300,-1.496610000000000
Piping shrike and Tattler,S63 8HJ,53.522889101703300,-1.316112766356300
Hawk and Partridge,S70 9NY,53.551636000000000,-1.482799000000000
Philippine hawk-owl and Thicketbird,WF7 5BN,53.678026916913900,-1.359534742563130
B and Duck,S71 4EP,53.600531014726600,-1.456029000000000
Eagle and Minke whale,S73 3BD,53.522873952068600,-1.398619836506050
Cloud rat and Warbler,S72 8DT,53.571982178354100,-1.419487729780070
Shearwater and Snipe,WF5 8JU,53.674641204599200,-1.579444434164320
Guillemot and Grouse,WF7 7ND,53.646920577814700,-1.331974248472270
Coati and Parrotbill,S75 4JD,53.549490000000000,-1.564578630139600
Macaw and Jackal,WF9 5BA,53.638343616178200,-1.376606527270250
Black cockatoo and Warbler,WF4 3PF,53.640718000000000,-1.523561000000000
Maya and Snipe,S62 7QS,53.472991955233700,-1.346383710365180
Fulmarine petrel and Wallaby,WF9 3NJ,53.595537824860600,-1.318325047315310
Solitaire and Peafowl,S64 9LG,53.493115807263200,-1.286567000000000
Black cockatoo and Elephant,S63 0JX,53.546285758801500,-1.316310000000000
Buzzard and Minke whale,S70 4BA,53.536158656753100,-1.456807852683040
River dolphin and Recurvebill,WF9 4NS,53.611689056540800,-1.365571994045780
Armadillo and Ground sloth,S70 1AY,53.549807725538500,-1.484253364262710
Fish eagle and Old World quail,S74 9JD,53.502844946893200,-1.444554406925330
Minke whale and Mink,S75 1NB,53.569235102977000,-1.530962708289450
Dolphin and Thrasher,S75 2HJ,53.556964352708100,-1.505994515438310
Old World quail and Diving bird,WF8 4NS,53.680503524835700,-1.318059563251140
Rat and Cloud rat,S70 3HY,53.541147948020800,-1.447146818251270
Kite and Old World warbler,WF9 2BA,53.597701000000000,-1.305187641119360
Partridge and Black jay,S73 8AE,53.523066000000000,-1.399039000000000
Diving bird and Gull,WF7 7HB,53.652096591868900,-1.317398277786610
Viscacha and Parrotbill,S75 3NB,53.539046346183800,-1.520462256200350
Magpie and Francolin,WF8 2BH,53.685168672926200,-1.296331878755100
Tit-tyrant and Polecat,S72 9LS,53.596262236428600,-1.378767106170250
Stilt and Pratincole,WF5 9ET,53.686876642642600,-1.585318798052140
Civet and Condor,S63 9EY,53.533035962957900,-1.326993148080930
New World blackbird and Polecat,S71 1EH,53.552555654296200,-1.471314620715870
Kākāriki and Old World warbler,WF4 5DN,53.659462160891200,-1.545548253597620
Snipe and Marsh harrier,S73 0PL,53.508627145674500,-1.407627237849370
Old World vulture and Herring gull,WF2 7PX,53.640203886717900,-1.512177189154350
Rabbit and Coati,S63 8JE,53.517043521150800,-1.307776315929150
Thicketbird and Guillemot,S62 6WT,53.504365002490800,-1.329045347805970
Parrotlet and Greenbul,S72 9DS,53.609149000000000,-1.404544000000000
Zebra and White ibis,S70 3LD,53.543555000000000,-1.456243918834860
Boto and Pheasant,S70 3EN,53.547659374105500,-1.446020639253200
Capuchin and Parakeet,S70 5DQ,53.527345262869400,-1.469788091639700
Dolphin and Condor,S63 7DX,53.503023000000000,-1.328373000000000
Elephant and Chickadee,WF7 7DJ,53.639210728770300,-1.340597000000000
Zebra and Thrasher,S75 4AT,53.571016629749400,-1.590227544184710
Elephant and Bunting,S75 1QL,53.567192122525900,-1.528010767169320
Old World quail and Chicken,WF4 5NZ,53.654423576220100,-1.576014280165010
Piping shrike and American sparrow,WF1 3AP,53.684201212182100,-1.499056695937280
Thrasher and Hawaiian honeycreeper,S35 4DB,53.477806114043700,-1.487552297496860
Egret and Chickadee,WF5 8PR,53.678134393989400,-1.581090064566350
Guillemot and Egret,S75 6HE,53.588451380526500,-1.510537267807590
Parakeet and Old World quail,WF2 6TP,53.650595387400700,-1.484522623554510
New World blackbird and Skunk,S63 8AW,53.523468440389500,-1.319979965138790
Parrotlet and Parrotbill,S36 2NP,53.475870631947300,-1.566329319335610
Mamo and Thrasher,WF4 6AD,53.659858749252100,-1.560297918593810
Songlark and Flameback,S73 8HT,53.525029375154500,-1.403642541867940
Towhee and American sparrow,S72 0HL,53.541805742060000,-1.354167479164510
Prion and Grackle,S73 0YL,53.519726426099200,-1.380701290018200
Tree warbler and Pratincole,WF2 8RQ,53.672367919224500,-1.526624782008570
Black jay and Stint,WF2 7DZ,53.649015332089200,-1.493391994839050
Coati and Maya,WF2 8BL,53.671843453184100,-1.519062383955880
Black cockatoo and Hawaiian honeycreeper,S75 1LG,53.566730465073300,-1.531760452659710
Greenbul and Jay,S71 3HZ,53.584989352541900,-1.452103757852550
Thrasher and Parrotlet,WF9 5LL,53.628091456259300,-1.367004529359030
Wader and Jay,WF4 1DD,53.668453024034600,-1.410188000000000
Prion and River dolphin,WF8 4NB,53.680193294605600,-1.317247028609580
Ground sloth and Skunk,S71 4AQ,53.595606733643300,-1.440891321934760
Chickadee and Scimitar babbler,WF1 5RH,53.674416000000000,-1.490983000000000
Tahr and Pratincole,S63 7PU,53.502898096794800,-1.343300661992480
Fox and Old World quail,WF2 7PE,53.639581391848100,-1.516041242721190
Petrel and Piping shrike,S36 2AH,53.482038000000000,-1.584411000000000
Macaw and Guillemot,S70 5SJ,53.509718668250800,-1.477924349665370
Philippine hawk-owl and Zebra,WF5 8LB,53.673993278772200,-1.579223823856060
Quetzal and Badger,S73 8FL,53.522758945328800,-1.400778396327820
Pratincole and Buzzard,WF9 4EH,53.610099271915000,-1.362406638536320
Eagle and Darwin's finches,DN5 7DJ,53.564348789677500,-1.318494275721860
Quetzal and Egret,WF4 3EB,53.642706962674000,-1.524430727893530
Dolphin and Old World vulture,S70 3FE,53.547906000000000,-1.444614000000000
Pratincole and Petrel,S36 8YN,53.513856694078300,-1.594729829863550
Prion and Vole,S64 8BG,53.485939363939700,-1.308704600483010
Lemming and Vulture,S35 3HS,53.472729298326200,-1.483771690630080
Francolin and Tattler,S74 8AP,53.499417006588000,-1.421112143635530
Dolphin and Thicketbird,WF7 6NJ,53.680177292674000,-1.358260680858810
Kestrel and Guillemot,WF4 4QG,53.648425723038200,-1.601414011474120
Snipe and Stint,WF2 9DE,53.678421403191300,-1.532324871455930
Treepie and Chicken,S63 7AQ,53.499716459191300,-1.335224217582240
Hawaiian honeycreeper and Minke whale,WF4 3HX,53.643046407150000,-1.526166428222520
Nukupuʻu and Zebra,WF1 9RP,53.679490000000000,-1.500932000000000
Parakeet and Perching duck,WF8 3QU,53.679444084547600,-1.307297388499320
Kangaroo and Tattler,S64 5TZ,53.475131153827600,-1.309588338299970
Minke whale and Buzzard,WF9 1EZ,53.616756268707900,-1.260676000000000
Hawaiian honeycreeper and Boto,S70 5JW,53.529172812036300,-1.474517261006670
Pratincole and Triller,WF1 1EA,53.679390089386400,-1.502792596398650
Chickadee and Civet,S73 8EF,53.530104777517000,-1.385271891323710
Old World vulture and Piping shrike,S70 2SX,53.553008478101800,-1.482372980654020
White ibis and Guillemot,S70 3DF,53.539609818710900,-1.454741720765160
Scimitar babbler and Grosbeak,WF1 5TF,53.684400589309800,-1.446317932231200
Perching duck and Gull,S70 5UR,53.506651515235000,-1.481386000000000
Jackal and Dolphin,S73 0LQ,53.516851422522100,-1.411222590757080
Mockingbird and Mink,WF2 7SZ,53.640865985478500,-1.515860166004030
American sparrow and Diving bird,WF4 2DB,53.626294851705700,-1.416777323600560
Shearwater and Bronzewing pigeon,S75 5RQ,53.594719000000000,-1.531149000000000
Duck and Zebra,S71 2HZ,53.562123082592800,-1.448247354806370
Condor and Diving bird,WF9 3DD,53.597051384736900,-1.312649565433330
Philippine hawk-owl and Logrunners,S71 4LR,53.598431994614800,-1.465136352676250
Dolphin and Pitohui,WF9 1NU,53.619796059841200,-1.275210664488040
White ibis and Pratincole,S73 9QS,53.532147729718600,-1.385770354845680
Black cockatoo and Cloud rat,WF4 4HQ,53.647863000000000,-1.575838000000000
Parakeet and Meadowlark,WF9 1DL,53.614449954333000,-1.290660000000000
Kākāriki and Pratincole,WF4 3AS,53.648117544446100,-1.526608837163060
Dolphin and Scimitar babbler,WF2 9JP,53.687229181506600,-1.532151625388390
Francolin and Shearwater,WF2 7PR,53.637616589353000,-1.514717656845750
Bronzewing pigeon and Night heron,S72 9HA,53.588700000000000,-1.354412403573560
Cloud rat and Herring gull,S75 1LP,53.571394451300900,-1.526937155356180
Moluccan boobook and Viscacha,S71 5JJ,53.561129990052200,-1.435744815177130
B and Herring gull,S70 2LT,53.558163908120600,-1.485631198144430
Magpie and Hawk,S62 7EH,53.470321000993400,-1.354409117497770
Chipmunk and Civet,S71 3JS,53.586636869952800,-1.455013000000000
Mockingbird and Rat,S63 8JW,53.518470312959200,-1.319894069168410
Stint and Fulmarine petrel,WF4 1PQ,53.659802883712200,-1.431644090987080
Perching duck and Warbler,WF4 4HL,53.646411000000000,-1.577169000000000
Polecat and Mole,S75 1NQ,53.565746149796900,-1.532888617019130
Ground sloth and Argus,WF2 7RU,53.669733832474100,-1.499939607380780
White ibis and Condor,WF2 7JY,53.666948456076500,-1.493752160139630
Viscacha and Kākāriki,S71 4HJ,53.604197384838300,-1.459985786899390
B and Hawaiian honeycreeper,S75 4JW,53.546868851266800,-1.563400918336370
B and River dolphin,S73 8QA,53.522824365059600,-1.410325301697300
Rat and Cuscus,S70 4LE,53.543235880780300,-1.481873433492230
Boto and Mamo,WF9 1DQ,53.612596028904800,-1.288650728758760
Prion and Tahr,S63 8JY,53.515035271126800,-1.325996439016570
Old World vulture and Jackal,WF9 3FA,53.597711054620100,-1.320586981326750
Eagle and Petrel,S70 3JF,53.543005310620100,-1.448194000000000
Hawk and Tit-tyrant,WF8 3AL,53.674557183540200,-1.267550000000000
Tree warbler and Ice seal,S72 8DG,53.573630026663400,-1.420099433345840
Armadillo and Ice seal,WF5 8PJ,53.675635421505300,-1.583597452512710
Asiatic leopard and Fulmarine petrel,S71 2SW,53.564897000000000,-1.457046000000000
White ibis and Stilt,S36 1BJ,53.480978762649200,-1.592647123548550
Tit-tyrant and Fox,S72 8UL,53.575496933894400,-1.419545322603920
Myna and Coati,WF4 4LT,53.644841995814900,-1.583673749908080
Asiatic leopard and Zebra,WF2 8HT,53.676166362111800,-1.525719350214820
Partridge and Grosbeak,S70 5LZ,53.522994489043700,-1.467579000000000
Stilt and Parrotlet,WF9 1JE,53.618889410424500,-1.266548570588970
Vole and Petrel,S70 6HZ,53.550376509494600,-1.493257087132970
Night heron and Magpie,WF9 1JG,53.616314000000000,-1.283431436556800
Chipmunk and River dolphin,WF2 6GU,53.651537870680800,-1.484223676996370
Perching duck and American sparrow,S75 2RS,53.562892127684900,-1.513655475847790
Stint and Francolin,S73 0ZJ,53.522873952068600,-1.398619836506050
Grouse and Mamo,WF4 3BB,53.655107000000000,-1.516575000000000
Moluccan boobook and Badger,WF8 3HU,53.663263000000000,-1.266053214859770
Thicketbird and Armadillo,WF7 7BD,53.642567561334100,-1.356108796436690
Night heron and Thicketbird,S73 8DG,53.526920617813200,-1.398984918577660
Prion and Kite,S73 8SG,53.530322312880300,-1.419831051455560
Rat and Snipe,S73 0FA,53.508444000000000,-1.385134000000000
Ibex and Francolin,S74 9EE,53.500083127691200,-1.449881936987720
Moluccan boobook and Ground sloth,S63 0RP,53.542573000000000,-1.325376308408280
Chickadee and Jackal,WF9 3QU,53.589629828564700,-1.321033660704670
Magpie and Mouse,S71 2JD,53.561394366925400,-1.448105861460960
Lemming and Prion,S72 9AD,53.606875022734600,-1.401100000000000
Dolphin and Parrotlet,S71 5AF,53.550306000000000,-1.444554000000000
Eagle and Tattler,S70 3QZ,53.546366333922100,-1.462064995561110
Jackal and Logrunners,WF2 8NL,53.677375917040700,-1.531594657815290
Grackle and Fish eagle,S73 0JN,53.518906978118500,-1.396232694608530
Logrunners and Old World vulture,S72 8FZ,53.569128000000000,-1.416723000000000
Snipe and Black cockatoo,WF9 3JT,53.591189000000000,-1.334349000000000
Wallaby and Mamo,S71 2GF,53.570176502814600,-1.466036391525420
Puffleg and Kite,S70 6QX,53.549554693779300,-1.505220469292700
Polecat and Mamo,S71 5PW,53.557339053632600,-1.438119972320920
Stilt and Ground sloth,WF7 5AF,53.679894000000000,-1.335798000000000
Thicketbird and River dolphin,WF9 3BW,53.596863622252900,-1.315961679459810
Nukupuʻu and Logrunners,WF7 6DR,53.677886246310800,-1.401880157469720
Diving bird and Parakeet,S71 3JD,53.586180973126700,-1.449203000000000
Stint and Vole,S73 0JB,53.519866167883900,-1.395721343362890
Solitaire and Grosbeak,WF4 4PL,53.649371487227500,-1.596639635768230
Macaw and Mockingbird,S36 2UZ,53.479443000000000,-1.564605000000000
Night heron and Parrotlet,S75 3NX,53.539410297735500,-1.510453958263330
Jackal and Civet,S73 8RS,53.528845296283500,-1.419232719304150
Peafowl and Warbler,S73 0WH,53.512605000000000,-1.393895000000000
Dorcopsis and Rat,S70 1LH,53.548575997545900,-1.480027323905740
Old World vulture and Grosbeak,S70 3QS,53.547167225216500,-1.464273378989380
Parrotbill and Mole,S63 8FL,53.518073155346800,-1.314878172751210
Civet and Puffleg,WF1 5QR,53.675222595099900,-1.494924588747910
Ibex and Eagle,WF4 3JX,53.634638325134600,-1.520634753207750
Parrotlet and Parrotlet,WF1 4RN,53.685313126923000,-1.483614421165140
Triller and Mouse,WF4 1RA,53.649554307601800,-1.379875622478060
Night heron and Magpie,WF2 6NL,53.653808002761600,-1.468929694427420
Wallaby and Magpie,S75 2LL,53.555434553815900,-1.509937019689380
Vole and Gull,WF9 2HJ,53.590932755799700,-1.285556000000000
Warbler and Philippine hawk-owl,S63 8GY,53.518164279973000,-1.307290516110530
Argus and Tahr,S71 4AS,53.597178898615500,-1.440719474829050
Bronzewing pigeon and Chipmunk,S74 9NB,53.499848186206800,-1.436106178724040
Kākāriki and Piping shrike,WF5 0PW,53.681060297282200,-1.574778025071130
Black cockatoo and Herring gull,S70 5RY,53.511299176766100,-1.477588269441220
Hawaiian honeycreeper and Linsang,S35 3UQ,53.469771000000000,-1.487348000000000
Grackle and River dolphin,S63 8EQ,53.517528534442900,-1.328204050251750
Piping shrike and Flameback,WF4 4QQ,53.649995996941300,-1.600612521355790
Grouse and American sparrow,WF5 9JW,53.684558000000000,-1.577956000000000
Old World warbler and Tree warbler,S73 0PP,53.509034235254300,-1.406339886435460
Gull and Tattler,S75 6GP,53.590698000000000,-1.510179000000000
Parrotlet and Rat,S75 5LR,53.585562075209100,-1.520646138751550
Hawaiian honeycreeper and Rabbit,WF8 3EH,53.640944000000000,-1.268813000000000
Badger and Treepie,WF1 4EW,53.679181734851300,-1.489578530450680
Stilt and Ice seal,S71 4AD,53.597293643438500,-1.446066879378360
Viscacha and Chickadee,WF4 2HN,53.627454335684100,-1.398601332647360
Diving bird and Ibex,S70 6ES,53.551274923776400,-1.493035000000000
Flameback and Stilt,WF4 5BR,53.660051703172500,-1.573899844728380
Logrunners and Badger,S63 3FR,53.504368172400000,-1.329045454800000
Macaw and Duck,WF2 8QP,53.669472882460400,-1.521889468904440
Civet and Ground sloth,WF9 3DW,53.588546844690400,-1.329828133676690
Buzzard and Wader,S74 0BF,53.498857182100000,-1.468229059200000
Marsh harrier and Magpie,WF2 7QZ,53.672753035386700,-1.497587930135750
Peafowl and Greenbul,WF9 2FX,53.589385261569000,-1.292243340631010
Parrotbill and Peafowl,S74 0PP,53.500507101644000,-1.466082607453370
Rat and Badger,WF9 2AQ,53.592912356322000,-1.299239000000000
Capuchin and Tit-tyrant,WF5 0BN,53.669846745855400,-1.573619000000000
Duck and Old World warbler,WF8 3AU,53.676006761710200,-1.265905279450280
Egret and Fish eagle,S63 7SG,53.494348130932900,-1.347894439556280
Condor and Mole,S75 2AH,53.557821136729200,-1.491658593975460
American sparrow and Gull,WF9 2QW,53.594794739939800,-1.292500328368180
Chicken and Linsang,S74 0QT,53.511579014521200,-1.443957719844530
Magpie and Parakeet,WF1 5AS,53.666006570807900,-1.479506762700370
Fish eagle and Flameback,S72 8XJ,53.572100850924200,-1.421721049608300
Tree warbler and White ibis,S70 5HJ,53.534490863174800,-1.475854596274390
Songlark and Peafowl,WF9 5DU,53.629946511256900,-1.377955104360370
Grosbeak and Skunk,WF4 2LB,53.614955441043400,-1.518771584760100
Pitohui and Hawk,S36 1BT,53.480867223850900,-1.596867355673360
Thicketbird and Jay,S75 4PR,53.532367078879600,-1.574925403301940
Parrotbill and Recurvebill,WF5 8DT,53.687469567970800,-1.590461294105560
Treepie and Guillemot,S71 5FW,53.566633000000000,-1.435977000000000
Guillemot and Cuscus,WF4 6AB,53.660270859386500,-1.559930455034890
Wader and Solitaire,S73 9EY,53.536020319515900,-1.373357123613990
Black cockatoo and Gull,WF9 5LR,53.621635447868600,-1.341565591214480
Black cockatoo and Puffleg,S74 9DW,53.500429419121100,-1.445068380024230
Siskin and Thicketbird,WF7 5PJ,53.674257873322700,-1.360666653378560
Coati and Goose,S35 7AG,53.496377831912800,-1.562607999352580
Greenbul and Triller,WF2 9BQ,53.678117060004000,-1.521261782287920
Coati and Kākāriki,S73 9AE,53.536759356130200,-1.377178678106680
Ibex and Flameback,WF2 8DR,53.674786998642600,-1.500364201834700
Vulture and Prion,S74 0BP,53.496747071406200,-1.455487463955810
B and Herring gull,S64 8RF,53.487008577965800,-1.319598499709700
Thicketbird and Moluccan boobook,S64 9AD,53.495619000000000,-1.297334000000000
Fox and Kite,WF9 2UR,53.600438651937500,-1.289323372849900
Kestrel and Peafowl,WF3 1ZY,53.679399505107400,-1.500929000000000
Grouse and Tree warbler,S70 4JR,53.545183465603000,-1.479133218489180
Shearwater and Lemming,S71 5QH,53.554514213783700,-1.441432929155320
Logrunners and Ibex,S70 4ND,53.544030311057600,-1.478528639505510
Asiatic leopard and Dorcopsis,WF2 8DB,53.676769389376300,-1.519157690423000
Egret and Dolphin,S36 2SX,53.475283154857400,-1.575450525334340
Asiatic leopard and Masked owl,WF7 7HN,53.656703119815800,-1.334165001661110
Myna and Philippine hawk-owl,S71 4HL,53.604328041531400,-1.459062262212940
Night heron and Guillemot,S74 8EY,53.492398000000000,-1.424885000000000
Treepie and Myna,WF2 6QU,53.657905348760300,-1.478865068246520
Songlark and Jay,S71 3EY,53.585433175298400,-1.446857000000000
Condor and Greenbul,S72 8FA,53.586331000000000,-1.408944000000000
Mockingbird and Old World quail,WF5 9DP,53.686294907493500,-1.583567000000000
Black cockatoo and Grouse,WF9 2SJ,53.595814137515400,-1.284052176194450
Bunting and Mamo,WF4 1DE,53.669554182228200,-1.409142217296310
Eagle and Night heron,S35 7EJ,53.478036000000000,-1.512182634102130
Duck and River dolphin,S75 5LY,53.581723000000000,-1.543059000000000
Vole and Capuchin,S63 6ET,53.503552768621000,-1.385294091361010
Snipe and Dolphin,WF9 4JD,53.612225818379900,-1.345067544143400
River dolphin and Mink,WF5 0SW,53.670099000000000,-1.565673443721730
Songlark and Ground sloth,WF5 0DE,53.668947847974200,-1.573280411793000
Magpie and Shearwater,S72 8RF,53.593684887641000,-1.403975983479890
Flameback and Thicketbird,WF4 3NL,53.630633470187500,-1.526139088724590
Fulmarine petrel and Polecat,S75 3QA,53.538047264794200,-1.515660216835290
Kite and Shearwater,HD8 9LJ,53.587935659197200,-1.601756435989520
Greenbul and Diving bird,WF2 9BL,53.678762158649200,-1.516273730284430
Armadillo and Cloud rat,S63 7EH,53.507185198508900,-1.343355000000000
Goose and Asiatic leopard,S63 8JN,53.516476601812500,-1.312340100613010
Old World vulture and Argus,S70 6NQ,53.541773170972900,-1.490809553448320
Peafowl and Prion,S63 6DZ,53.507762081557400,-1.360097962649940
Thicketbird and Parrotlet,WF9 4RP,53.606772103177200,-1.357091479506230
Grackle and Snipe,S64 0HQ,53.495743679471300,-1.267559143710780
Quetzal and Recurvebill,S73 0WG,53.512883000000000,-1.393726000000000
Flameback and Ground sloth,WF7 7GD,53.642635000000000,-1.355112000000000
Snipe and Lemming,S63 8NR,53.518642772130200,-1.318609334457560
Partridge and Mink,WF4 3JA,53.643235485355600,-1.519478484556120
Kite and Greenbul,S36 2GQ,53.479492583457900,-1.589120378975950
Marmoset and Logrunners,WF9 4LD,53.613531000000000,-1.353497000000000
Mouse and Myna,S71 2PJ,53.567418937991200,-1.450564148777090
Snipe and Snipe,S71 4HT,53.602550933797800,-1.463633610480150
Songlark and Tahr,S72 8SN,53.577568725987000,-1.411255654871590
Jerboa and Kākāriki,S73 9NX,53.536296955618200,-1.393903254536940
Hawaiian honeycreeper and Grouse,S64 5UB,53.474952460754600,-1.308220180922460
Ice seal and Snipe,S70 3PU,53.546825776022800,-1.442650920558380
Bronzewing pigeon and Parrotlet,S64 8DP,53.488808186952200,-1.331084299649370
Quetzal and Thicketbird,S73 0LD,53.518194755418100,-1.415713435333080
Magpie and Songlark,WF7 7NL,53.643950086170700,-1.336044876779280
Pitohui and Kestrel,S63 6JX,53.494892267571900,-1.353749720397840
Flameback and Wader,S75 6HD,53.589352027538800,-1.513185708703930
Scimitar babbler and White ibis,S71 1PG,53.561825340692900,-1.478053266371420
Vole and Viscacha,WF1 4HN,53.685011826946700,-1.476319999332650
Magpie and Piping shrike,S63 6GF,53.506409000000000,-1.370793000000000
Meadowlark and Shearwater,WF4 3LF,53.630071023379700,-1.520323573355210
Recurvebill and Tit-tyrant,S73 8LB,53.524076119964300,-1.408980542035600
Stilt and Diving bird,S63 8ER,53.516903280250700,-1.325710421031800
Grosbeak and Ibex,WF4 4NW,53.653509480581500,-1.587083434536810
Fish eagle and Nukupuʻu,S72 9AT,53.605198085788000,-1.393053655322300
Kestrel and Diving bird,S73 9EE,53.537579005199300,-1.380969012031990
Kangaroo and Parrotlet,S64 8JA,53.483492899409700,-1.316249010625240
Old World quail and Grosbeak,S63 8EL,53.517511003118600,-1.331492123633650
Skunk and Recurvebill,WF9 2AD,53.594164476133600,-1.295232000000000
Tahr and Vole,S74 8AB,53.499719299440400,-1.418575386836420
Kestrel and Parrotbill,S64 8HN,53.487378990601900,-1.324686554951530
Chicken and Herring gull,WF4 6HQ,53.659525848079600,-1.562661990274450
Zebra and Argus,S75 5ND,53.584880366586300,-1.534671710306640
Mockingbird and Elephant,WF8 4NJ,53.678534675460100,-1.316410912138740
Diving bird and New World blackbird,WF4 1SF,53.653377353453400,-1.418083379413440
Polecat and Petrel,WF1 5LR,53.668655037502100,-1.489236493599620
Thicketbird and Gull,S73 0DU,53.523716842516200,-1.391005000000000
Kākāriki and Puffleg,S75 2PX,53.559957469818000,-1.499498323513140
Dorcopsis and Zebra,S75 4SE,53.533590284680200,-1.565136675105650
Partridge and Mink,S75 3FE,53.546157124100000,-1.521921000000000
Viscacha and Petrel,S70 6TA,53.537734650436800,-1.481804768066380
Kestrel and Greenbul,S73 9DG,53.536525261601100,-1.384047309736100
Cloud rat and Jerboa,S71 2PW,53.568357892642000,-1.447562259603380
Jerboa and New World blackbird,WF9 5DB,53.633700386371400,-1.375601215186350
Parrotbill and Vole,S70 6PT,53.551511828084600,-1.509016328638050
Dorcopsis and Egret,S70 6QL,53.549292403789400,-1.507004476571290
Cuscus and Myna,S72 8UX,53.575071000000000,-1.426121000000000
Guillemot and Vole,S62 7TJ,53.480104600266700,-1.423800934076490
Francolin and Guillemot,S36 2AE,53.482910000000000,-1.589253000000000
Goose and Ground sloth,WF9 5AZ,53.638088000000000,-1.379045000000000
Solitaire and Petrel,WF4 5BL,53.657091696453800,-1.560659584143390
White ibis and Stint,S63 0SS,53.542115112719100,-1.312890596559060
Wader and Black cockatoo,S62 7NL,53.472148589594100,-1.363330312217680
Argus and Wader,WF4 5EN,53.655826331561000,-1.541986205746040
Tahr and Thrasher,S70 4DH,53.542417777686400,-1.471561606756910
Siskin and Puffleg,S63 9NU,53.530092339624300,-1.299613236296290
Dorcopsis and Armadillo,S35 4GD,53.473518572672500,-1.489652886873500
Pratincole and Stint,WF9 2NN,53.603502602591000,-1.289135947707100
Darwin's finches and Macaw,WF4 6LS,53.660435149638200,-1.555737059493850
Towhee and Guillemot,S74 9AP,53.498991291020600,-1.443142479365500
Asiatic leopard and Grouse,WF1 9TQ,53.679490000000000,-1.500932000000000
Buzzard and Thicketbird,WF1 5BU,53.668726990915300,-1.476402000000000
Viscacha and Tattler,WF5 0PN,53.680322054789100,-1.574437246496620
Civet and American sparrow,WF2 6QR,53.652370869395000,-1.483547813329000
Boto and Ibex,WF4 5JG,53.661613252522300,-1.541590581648320
Kangaroo and Siskin,S63 6LS,53.502050846351000,-1.383386068452940
Songlark and Polecat,WF9 1DG,53.614206596016000,-1.287414377111550
Kākāriki and Towhee,S35 4GA,53.472840487475700,-1.490836139638230
Songlark and Capuchin,S63 0EP,53.546883000000000,-1.302581000000000
Parrotlet and Thrasher,S70 4AF,53.534638687432100,-1.462575677315680
Old World vulture and Greenbul,WF4 1PG,53.659466000000000,-1.426679920030390
Guillemot and Bronzewing pigeon,S71 2DA,53.562841000000000,-1.459514377196500
Peafowl and Gull,S75 6BU,53.586641470493100,-1.501041327598720
Thicketbird and Parrotlet,WF2 6NX,53.648701575709400,-1.466664069553010
Chicken and Shearwater,S70 4NT,53.545833201449900,-1.471519087391170
Vulture and Egret,S72 8LF,53.572800618473200,-1.414055183926270
Ibex and Egret,S63 9JF,53.536921473046000,-1.296181094846030
Piping shrike and Elephant,WF4 3EP,53.638235000000000,-1.541481000000000
Zebra and Diving bird,S75 4SY,53.547100485225200,-1.570280476806110
Magpie and Jerboa,S72 8QG,53.591634717028500,-1.402010572101960
Chipmunk and Greenbul,S63 7JB,53.494425691702800,-1.342361302244630
Parakeet and Darwin's finches,S72 0BT,53.554670726763700,-1.349639453489790
Lemming and Parakeet,WF4 5BG,53.658273157139200,-1.556864390730540
Jerboa and Parrotbill,WF9 5NL,53.635132164655900,-1.377833486112790
Mamo and Kākāriki,S63 9QA,53.504385000000000,-1.329047000000000
Grouse and Towhee,WF1 5EP,53.671888893153900,-1.478359602905530
Kākāriki and Old World quail,S35 4FP,53.474505884220900,-1.497806956071680
American sparrow and Cloud rat,S70 2PU,53.553241316153200,-1.482173915716710
Tree warbler and Kestrel,WF5 0PT,53.680962228888100,-1.569964560230960
Grouse and Francolin,S75 1GZ,53.567588000000000,-1.507550173854780
Triller and Moluccan boobook,S62 5PA,53.470052162405100,-1.330053426335850
Parrotbill and Old World warbler,WF9 4RS,53.606094148088100,-1.358053900439060
Masked owl and Chipmunk,WF2 6BD,53.654828000000000,-1.486289000000000
Kākāriki and Condor,S74 9DT,53.498149196952100,-1.445686052091390
Armadillo and Myna,WF4 5EB,53.654104470651100,-1.543003449668360
New World blackbird and Kangaroo,WF9 5HS,53.618662510398100,-1.355187486638620
Bronzewing pigeon and Asiatic leopard,S72 8WX,53.577074000000000,-1.418285000000000
Snipe and Asiatic leopard,WF7 6LU,53.686001413928800,-1.353190531308380
Gull and Ground sloth,WF5 0RQ,53.676977108409700,-1.574062204773310
Capuchin and White ibis,WF2 7QQ,53.641718637935100,-1.506744695311620
Greenbul and Old World vulture,S70 4RH,53.532885350521300,-1.450573533141600
Minke whale and Cloud rat,S71 4LS,53.598479703717200,-1.463745598200110
Meadowlark and Fulmarine petrel,S75 1AE,53.562537999090100,-1.493292994993010
Skunk and Jackal,WF9 5FR,53.629416000000000,-1.369240000000000
Lemming and Old World warbler,WF8 3HR,53.670919037248400,-1.264389229836730
Darwin's finches and Flameback,S75 6PF,53.584994474919900,-1.496242056142040
Puffleg and Scimitar babbler,S63 6NJ,53.506559842918100,-1.363885492294340
Diving bird and Kite,S75 4QF,53.537813022110200,-1.559721863935700
Night heron and Goose,S63 0HS,53.552260709253200,-1.300062439603310
Masked owl and Night heron,S71 4LU,53.601206342434700,-1.468486258701030
Rat and Linsang,S74 0NY,53.497781000000000,-1.465240270221980
Asiatic leopard and American sparrow,WF9 3LD,53.593424067777900,-1.320912000000000
Rat and Pitohui,WF4 2NZ,53.611682010720800,-1.461386730805000
Viscacha and Duck,WF8 3DU,53.661243452189500,-1.304327036499270
Parakeet and Badger,WF1 5LD,53.670920000000000,-1.486880874712340
Boto and Tahr,S75 3LL,53.544230381214700,-1.519890605097410
Argus and Ice seal,S75 6FJ,53.582707503840200,-1.497447401055750
Triller and Vole,S71 4TB,53.598830586235100,-1.469876008590600
Marmoset and Puffleg,S63 9AL,53.531642790998300,-1.312773418247090
Mink and Hawk,S36 1WA,53.481458469745000,-1.593621994021400
Jerboa and Badger,S97 3DA,53.508602369784500,-1.332929011543340
Kite and Solitaire,S75 1JT,53.567796016667300,-1.530721932943480
Booted eagles and Grouse,S75 2LT,53.551640587756400,-1.511927908819220
Night heron and Songlark,S62 7SW,53.477042304110600,-1.354156000000000
Diving bird and Chipmunk,S75 2RD,53.560576327061000,-1.503491678010560
New World blackbird and Chipmunk,S63 9JQ,53.536569060955600,-1.297394012100460
Kite and Marsh harrier,S71 2HH,53.563612433251300,-1.451564624785080
Scimitar babbler and Moluccan boobook,S63 9AS,53.533644213006200,-1.315381316556250
Scimitar babbler and Ground sloth,S70 5AG,53.530749703600200,-1.467271449214190
Marmoset and Mole,S63 9DR,53.531843926050700,-1.307127720617290
Grackle and Cloud rat,WF12 0JD,53.660936359194200,-1.609301206442350
Badger and Linsang,WF4 5QR,53.666653510028900,-1.543382343515870
Grosbeak and Dorcopsis,S70 1HP,53.549871256553800,-1.476117456081170
Siskin and Maya,WF4 4RN,53.642870746429200,-1.604052920211100
Moluccan boobook and Mouse,WF8 4FP,53.676453994738700,-1.315763000000000
Gull and Minke whale,WF4 3ET,53.634708082266700,-1.540732757654620
Buzzard and Treepie,S71 4FY,53.601668771700000,-1.453096000000000
Mink and Elephant,WF9 5JQ,53.627055752973900,-1.371737659127430
Tit-tyrant and Mouse,WF5 8EN,53.686165239075100,-1.587536463033530
Prion and Parrotbill,S63 9DN,53.532263376052900,-1.306607921762480
Eagle and Egret,S70 4JZ,53.543873700122900,-1.481790194176920
Francolin and Greenbul,S75 2BZ,53.556081714101800,-1.494804143116940
Jay and Treepie,WF9 5LU,53.628383791981500,-1.369600986608560
Cloud rat and Magpie,WF4 3PZ,53.650294917726900,-1.522635838441080
Old World warbler and Myna,S73 8JX,53.525210045593300,-1.407441249990260
Thrasher and Old World quail,WF1 1XF,53.682500671592600,-1.500787729102020
Greenbul and Black cockatoo,S62 7PQ,53.470399287821000,-1.353925853000930
Linsang and New World blackbird,S75 1JG,53.564066878667800,-1.502061802189320
Scimitar babbler and Tattler,WF4 3LE,53.631150478806100,-1.520538167014750
Songlark and Grosbeak,S70 4RB,53.534342782471800,-1.450856426229380
Snipe and Pheasant,S73 0SW,53.512970507761600,-1.386605543819580
Quetzal and Towhee,WF9 5LQ,53.626529784307100,-1.369144751839130
Partridge and B,S63 9DU,53.530903504281000,-1.310824149621140
Ground sloth and Magpie,WF4 1JE,53.654582619476300,-1.422651145219930
Condor and Ground sloth,WF9 1HT,53.615147469168800,-1.280913580759790
Solitaire and Capuchin,S70 3JS,53.544706470700000,-1.446225351400000
Partridge and Crow,WF8 3ER,53.640722354707400,-1.282991000000000
Lemming and Goose,S71 5SG,53.571401339933200,-1.433178000000000
Meadowlark and Flameback,WF9 4BS,53.608928598200200,-1.346992701093350
Polecat and Mockingbird,WF12 0HN,53.660357508401300,-1.610955985336730
Linsang and Solitaire,S71 2NT,53.566929032103300,-1.443745695985600
Rat and Maya,S63 0SU,53.542981662656800,-1.315094901855150
Petrel and Polecat,WF9 1LF,53.616380211107100,-1.259018473687360
Warbler and Coati,WF1 5FG,53.668133000000000,-1.489093000000000
Old World vulture and Parakeet,S70 1PH,53.548693472581100,-1.482244496487310
Badger and Perching duck,S72 8PR,53.594835798029700,-1.405863538649310
Marmoset and Ibex,WF4 5HL,53.663314456274800,-1.544583693801750
Guillemot and Tit-tyrant,S71 2FL,53.570965161000000,-1.460756544500000
Wader and Guillemot,S71 2JB,53.560544064605300,-1.448886862226720
Mole and B,S62 7EB,53.470626182161700,-1.354329163212400
Pheasant and Buzzard,WF9 3LU,53.593578819334500,-1.323161140395780
Viscacha and Asiatic leopard,S74 0SA,53.496903000000000,-1.463792000000000
Badger and Duck,WF4 3DA,53.647139318613400,-1.538510153573710
Thrasher and Vulture,S75 6DW,53.583477545516700,-1.490369142396530
Marmoset and Black jay,WF2 9HU,53.684905934513600,-1.524213075888760
Condor and Mole,WF4 3QB,53.644222067198100,-1.523445586719000
Cuscus and Partridge,WF4 1LX,53.661254210707000,-1.432532543937240
Thrasher and Thrasher,S70 4PF,53.544695194158900,-1.472317997096700
Hawk and Bunting,S71 1BH,53.555998923008600,-1.475558756189490
Kestrel and Darwin's finches,S72 9DE,53.614546000000000,-1.401687000000000
Logrunners and Solitaire,S71 2RR,53.572803240439400,-1.442838073764020
Mole and Wallaby,WF5 8EX,53.679872229363200,-1.581981195202970
River dolphin and Polecat,S73 0QL,53.507643531252000,-1.419673238505700
Grackle and Minke whale,S74 9HS,53.503670474869600,-1.448131857466270
Stint and Minke whale,S63 9HP,53.532945321098700,-1.300230011583260
Polecat and Darwin's finches,S70 6TX,53.533807000000000,-1.494060056204670
Thicketbird and Dorcopsis,S63 6PF,53.509337983666400,-1.367402484095200
Kestrel and Jackal,WF12 8LT,53.685614595792600,-1.611026213434710
Buzzard and American sparrow,WF5 0PR,53.681630949286500,-1.573485378495050
Ice seal and Snipe,S64 0JB,53.495096709546600,-1.269062588646980
Coati and Mamo,DN5 7HN,53.524152325651700,-1.272740937375560
Booted eagles and Pheasant,S72 0DE,53.551421412757400,-1.347168612358660
Egret and Perching duck,S75 6BN,53.586036953531100,-1.502649667710200
Hawk and Pitohui,S35 7AP,53.508125208768500,-1.543217282048460
Ground sloth and Magpie,S75 5QD,53.590875837340000,-1.514361705021960
Zebra and Guillemot,S71 4RE,53.598984749700000,-1.467396125200000
Black cockatoo and Kite,WF2 6PJ,53.649728359334900,-1.465123123745730
Maya and Fish eagle,S75 6JR,53.592743352757600,-1.498597482243200
Diving bird and Badger,WF4 4JD,53.641638924439300,-1.577609617716570
Mamo and Pheasant,S63 8DJ,53.518123363894900,-1.323700251659240
Armadillo and Triller,WF4 2NQ,53.613810956685600,-1.475266203426630
Guillemot and Siskin,S63 0DU,53.547971917952600,-1.299846421516570
Grosbeak and Wallaby,S70 5PG,53.529524000000000,-1.458281000000000
Chicken and Bunting,S63 7JY,53.503625689372200,-1.316182000000000
Stint and Meadowlark,S64 8AN,53.486588925305100,-1.302921971033490
Prion and Rat,S62 7UA,53.477031780332800,-1.446910410179820
Piping shrike and Thrasher,S74 8JA,53.497702097779500,-1.422899000000000
Pheasant and Peafowl,S63 9EE,53.529721903419000,-1.311673055299140
New World blackbird and Pheasant,S70 1TW,53.549474576819300,-1.473798049168770
Tahr and Bunting,WF2 8PF,53.667717000000000,-1.509816000000000
Scimitar babbler and Prion,WF1 5AJ,53.664659454565900,-1.479765497627710
Chicken and Parrotlet,S70 3BW,53.541733842411700,-1.451409699041240
Egret and Pheasant,S75 5DG,53.581406421716400,-1.538168706102880
Gull and Argus,S63 8NT,53.520676039315700,-1.312649191889180
Armadillo and Hawk,WF7 5EU,53.677127017909300,-1.357656066924790
Shearwater and Linsang,S64 8PD,53.493668982840600,-1.314849389955880
Peafowl and Treepie,WF9 4QJ,53.614730492724300,-1.359449691247200
Diving bird and Greenbul,WF1 2GE,53.684309000000000,-1.505614000000000
Marsh harrier and Piping shrike,S71 4EN,53.603800388892400,-1.457663561503270
Goose and Tit-tyrant,WF5 8LF,53.672459000000000,-1.577029000000000
Parrotbill and Meadowlark,WF2 6QL,53.644268063168500,-1.456040000000000
Old World vulture and New World blackbird,S75 1NF,53.569951233436300,-1.525654641601640
Linsang and Solitaire,S63 7FL,53.506960000000000,-1.344535000000000
Stint and Egret,WF9 4QN,53.614384498685800,-1.360301428464770
Black cockatoo and Black jay,S72 8TX,53.583214927598800,-1.411554855275070
Pitohui and Guillemot,S70 3LU,53.538956947150200,-1.459427742350180
Fox and Tit-tyrant,S64 8SR,53.480292405611000,-1.309896360603610
Hawk and Dorcopsis,S72 8DB,53.574907960661600,-1.418571757260720
Elephant and Jerboa,WF8 2BN,53.685194296204900,-1.294575035500940
Mockingbird and Greenbul,S35 7DH,53.486572106473600,-1.545920293962730
Jay and Mole,S75 4JQ,53.548324919160900,-1.563385941914490
Old World quail and Diving bird,WF4 3NP,53.633256200991000,-1.525671158524920
Wallaby and Viscacha,S64 9PE,53.496314480454600,-1.290673068934100
Macaw and Mole,S70 2AL,53.554849180600900,-1.481927872742170
Nukupuʻu and Grouse,S63 6DJ,53.509565231109000,-1.362800073076090
Jay and Solitaire,S63 8LX,53.514467941221900,-1.313171879720160
Logrunners and Siskin,S70 1QX,53.545127527860600,-1.484898792190830
Parakeet and Stint,WF5 9HR,53.685009250908900,-1.575661884419620
Duck and Wallaby,WF1 5PB,53.666169155358100,-1.485936940290630
Coati and Old World quail,S75 5EJ,53.585398098941300,-1.547807925861510
Ice seal and Civet,S62 7DN,53.473645016513400,-1.357417098936850
Petrel and Minke whale,WF2 6DE,53.643561336668200,-1.491717783214840
Mink and Ibex,WF8 2BE,53.684500417011400,-1.301945283791220
Towhee and Petrel,S71 2NA,53.564299299283300,-1.464298598461940
Maya and White ibis,S63 8FA,53.516641000000000,-1.309517000000000
Tahr and Petrel,S71 3TY,53.578818378163800,-1.479188278474450
Parrotbill and Old World warbler,S75 4BT,53.602113000000000,-1.558616000000000
Vulture and Eagle,S74 0AZ,53.498304343392400,-1.452211000000000
Bunting and Grouse,WF2 8LW,53.667920508066700,-1.533954602232500
Solitaire and Darwin's finches,WF2 7LF,53.664841726279700,-1.492929888831010
Parakeet and Gull,S71 2AD,53.565431776614700,-1.464284295640220
Bronzewing pigeon and Dolphin,S71 5LR,53.557773237065200,-1.434883707894360
Thicketbird and Philippine hawk-owl,S74 8AW,53.499838345422100,-1.420880277536050
Rat and Black cockatoo,S71 5AW,53.544968000000000,-1.435341000000000
Lemming and Gull,S63 8LH,53.517457810376100,-1.317106000000000
Triller and Kite,S75 4RJ,53.533298012655600,-1.556524950222310
Grouse and Stint,S63 7QZ,53.502195342583100,-1.346281526568680
Booted eagles and Recurvebill,S71 5LT,53.557911905840000,-1.433794955152380
Mole and Polecat,WF2 7LR,53.660647789510900,-1.485338259330390
Dorcopsis and Meadowlark,WF2 6DY,53.647290947514700,-1.489479430736670
Polecat and Greenbul,S64 9SF,53.497717865524800,-1.298488468250630
Tattler and Shearwater,S71 2NU,53.568018529828500,-1.444154192521220
Bunting and Polecat,S70 3BP,53.543780321684200,-1.452741429942660
Asiatic leopard and Duck,WF1 5TR,53.681572015243400,-1.433440513712200
Songlark and River dolphin,WF4 2QB,53.612285416836600,-1.467682126271990
Kite and Kangaroo,WF2 9LQ,53.683553796575400,-1.530057494354410
Jerboa and Booted eagles,WF9 2QJ,53.593471269557700,-1.293655582989820
Old World vulture and Piping shrike,S74 0AJ,53.495503461249500,-1.458744238026580
Zebra and Scimitar babbler,S71 5NX,53.559517774664900,-1.429365348831530
Hawaiian honeycreeper and Petrel,S74 9ND,53.505370000000000,-1.451924000000000
Hawk and Rabbit,WF2 8EG,53.677133817649600,-1.534049769031980
Dolphin and Kangaroo,WF4 6ED,53.662709938354000,-1.563279777021080
Crow and Shearwater,S75 1AT,53.560405992718000,-1.486555110824350
Dolphin and Old World quail,S63 6BA,53.504581028021300,-1.370428374560610
New World blackbird and Thicketbird,S75 4RF,53.526787000000000,-1.557815000000000
Shearwater and Vole,S73 9NR,53.537234522429000,-1.387386687875920
Badger and Chipmunk,WF5 0BG,53.666547000000000,-1.572851000000000
Treepie and Chickadee,WF2 7BZ,53.661636853870000,-1.494465000000000
Stilt and Magpie,WF2 7AD,53.668397815449800,-1.502876535535950
Dorcopsis and Minke whale,S72 8UQ,53.576930368825900,-1.418574227294590
White ibis and Scimitar babbler,WF4 5ER,53.655110785515600,-1.540556555719350
Civet and Tattler,S73 0NY,53.515988185468600,-1.384375228946740
Old World quail and American sparrow,WF4 3AL,53.644656961803100,-1.531033000000000
Kestrel and Myna,S70 5QE,53.534439468730700,-1.468281288407610
Viscacha and Grosbeak,WF9 2BU,53.598867318863900,-1.280570455118890
Thicketbird and Philippine hawk-owl,S71 1ET,53.552265128732600,-1.468631530231760
Black jay and Diving bird,S71 4QG,53.601736504925500,-1.448577739875030
Mamo and Cloud rat,WF4 1BP,53.675401868132200,-1.422457637462750
Bronzewing pigeon and Vulture,WF1 9PN,53.679402927103500,-1.500929000000000
Booted eagles and Shearwater,S70 4JG,53.544450724227000,-1.476003262759660
Capuchin and Booted eagles,S72 8QR,53.592943480058400,-1.395933623083270
Elephant and Vole,S62 7HP,53.471579264311700,-1.342834923861070
American sparrow and Armadillo,S70 2JW,53.555197000000000,-1.479086000000000
Meadowlark and Grouse,WF4 3DG,53.646237671790600,-1.537778750966020
Mouse and Songlark,S72 9AU,53.606015127504600,-1.392875701753480
Stilt and Condor,S71 3TT,53.578183566087500,-1.477897210051340
Thicketbird and Cuscus,S64 9NY,53.495855880700900,-1.295202914425720
White ibis and Diving bird,WF5 0NN,53.676747032455200,-1.562589710275160
Linsang and Mamo,S71 5JW,53.564209626123100,-1.435024431498120
Wallaby and Marmoset,S72 7DB,53.578411758500000,-1.385206119200000
Pitohui and Cloud rat,WF4 1JR,53.651330000000000,-1.417083000000000
Condor and Quetzal,WF4 4NR,53.651296437001600,-1.596863000000000
Night heron and Prion,S72 7NG,53.573343617892100,-1.375674922017840
Wallaby and Flameback,S75 3ND,53.538865678288400,-1.520237960524590
Capuchin and Ground sloth,S97 3FB,53.508602369784500,-1.332929011543340
Quetzal and Duck,S75 4NS,53.550548000000000,-1.563786000000000
Philippine hawk-owl and Jackal,S64 0NN,53.509485000000000,-1.292338000000000
Ibex and Francolin,S70 3NY,53.542705465368800,-1.459319000000000
Elephant and Old World warbler,WF5 9JP,53.683432253550400,-1.577055528408750
Scimitar babbler and Pheasant,S63 6HJ,53.502191255727300,-1.386218347735560
Eagle and Skunk,WF7 5BH,53.676400165521900,-1.359559408708520
Thrasher and Francolin,S36 1BD,53.477624000000000,-1.591578128964670
Mink and Bronzewing pigeon,WF4 4NY,53.649557628790600,-1.606668067692720
Thicketbird and Fish eagle,S64 0QN,53.502576727933900,-1.276698309170330
Nukupuʻu and Ice seal,S71 3LX,53.581687678913200,-1.481720766567350
Kestrel and Solitaire,WF1 2HQ,53.683770848879900,-1.501469194055710
Thicketbird and Grouse,S73 8JL,53.527362060637200,-1.410020943036550
Grouse and Capuchin,WF5 9EE,53.685642000000000,-1.586603000000000
Wader and Skunk,S71 2HG,53.562353703100100,-1.453452986179600
Jackal and Warbler,WF9 1NH,53.619918317825400,-1.285080730826700
Eagle and Pitohui,S75 1JE,53.564810123823100,-1.514509187937640
Thicketbird and Songlark,S72 8QF,53.591350200497800,-1.402634009333630
Thicketbird and Diving bird,S72 0HN,53.545850752994100,-1.360897185860710
Old World vulture and Philippine hawk-owl,S75 6DY,53.581519513644200,-1.499228684872690
Pheasant and Chicken,WF1 5SE,53.674877695456300,-1.461141441688880
Wader and Mouse,S63 8FS,53.519608000000000,-1.315685000000000
River dolphin and Goose,S63 6RF,53.503788086142900,-1.359901483356270
Herring gull and Stilt,WF5 8QA,53.682542440071600,-1.587375014552140
Greenbul and Kākāriki,S72 9AQ,53.608257745981100,-1.393765497218700
Lemming and B,S71 4AA,53.599423131628200,-1.445903038025320
Jerboa and Warbler,S75 5ED,53.582205089188600,-1.549624314211470
Badger and Pitohui,S64 0LQ,53.496279181596100,-1.277272746615030
Triller and Gull,S70 5HH,53.533751203753800,-1.475260234328540
Songlark and River dolphin,S70 5LX,53.520336821953200,-1.474445562985070
Darwin's finches and Scimitar babbler,WF5 0HS,53.674376366164500,-1.555862957974500
Grackle and Siskin,WF7 7EF,53.655796466089000,-1.335994996453730
Badger and Nukupuʻu,S72 9ES,53.594114905456800,-1.370337629479600
B and Tahr,WF4 6DU,53.660744055041600,-1.561514446366420
Herring gull and Eagle,WF1 9PU,53.679475649500000,-1.500929631500000
Puffleg and Kangaroo,S62 7NQ,53.473502275862600,-1.366037004822490
Minke whale and Petrel,S71 3HJ,53.588915858955700,-1.432504596960740
Scimitar babbler and Thicketbird,S74 0JT,53.506382823385600,-1.430410627164740
Crow and Kangaroo,S74 9BD,53.497887980773000,-1.437865751979780
Moluccan boobook and Old World quail,S73 9EH,53.537609096155100,-1.379836918392710
Goose and Grouse,WF9 4ES,53.611143277397700,-1.358084000000000
Towhee and Minke whale,WF8 2DA,53.684978483550900,-1.293034213763640
Black jay and Dorcopsis,S75 6HT,53.588564195460400,-1.500852516947550
Siskin and Chipmunk,S71 4HZ,53.602146967071300,-1.457760289634590
Capuchin and Snipe,WF4 5BD,53.657781306393700,-1.555114293520350
Thrasher and Logrunners,S75 2ER,53.556339099610200,-1.500446723367480
Magpie and Chickadee,S73 0BF,53.521625506000000,-1.396375218800000
Ground sloth and New World blackbird,S70 3DZ,53.542960621913300,-1.442626216861540
American sparrow and Pratincole,WF9 3JJ,53.590255731715600,-1.331629116215730
Macaw and Logrunners,WF5 9EF,53.684912000000000,-1.580811000000000
Peafowl and Mamo,S71 5JA,53.565289213471900,-1.437138945044680
Piping shrike and Moluccan boobook,S71 4SS,53.601396626483200,-1.462786877285770
Kangaroo and Asiatic leopard,S62 5PG,53.469834436306100,-1.324904716583230
Moluccan boobook and Pitohui,WF4 1QA,53.654359395725900,-1.397401612602200
Asiatic leopard and Jerboa,S73 0QQ,53.507722599326200,-1.410112651745190
Goose and Tattler,S72 8SY,53.578787000000000,-1.413927000000000
Wader and Pratincole,S64 8UE,53.475833667314300,-1.312951917754780
Booted eagles and Buzzard,S62 7RD,53.473459075320800,-1.344689144101470
Ground sloth and Grouse,S72 7NL,53.571313800842400,-1.375976621657410
Solitaire and Jackal,S36 2TP,53.473597973414800,-1.571715929572780
Nukupuʻu and Puffleg,S74 9DR,53.498279611388100,-1.444734644974290
Moluccan boobook and Piping shrike,S64 8NU,53.494339304654500,-1.311055159123750
Vole and Solitaire,WF9 4BG,53.610593539624800,-1.347375122608090
Mockingbird and Bronzewing pigeon,WF5 0TJ,53.668521306327500,-1.569621969579600
Guillemot and Mink,S63 9JE,53.534768003304700,-1.293772570148880
Wallaby and Chicken,S70 5NT,53.529824981078100,-1.459498723734600
Coati and Parrotbill,S71 3HH,53.585951446165800,-1.436683307955150
Wallaby and Kestrel,S72 0DS,53.549621000000000,-1.344949535817830
Black jay and Stint,WF8 3AR,53.676416392656200,-1.271166322249700
Nukupuʻu and Moluccan boobook,S71 3PQ,53.579953000000000,-1.451223729941700
Piping shrike and Marmoset,S70 4AG,53.535919000000000,-1.465185000000000
Thicketbird and Warbler,S36 2SW,53.478090713344700,-1.566306696271260
Philippine hawk-owl and Fulmarine petrel,S63 8JP,53.517375523758600,-1.321796793932540
New World blackbird and Viscacha,WF8 3SA,53.674482308132800,-1.288850244169090
Perching duck and Pheasant,WF9 3QT,53.590016792457800,-1.319531822682210
Cuscus and New World blackbird,S72 9EH,53.595931197508000,-1.372169104654650
Prion and Zebra,WF5 8DG,53.682620252621400,-1.586480972467770
Elephant and Snipe,S71 1QA,53.560627990139200,-1.479683360244200
Kestrel and Tahr,WF9 1BA,53.616435000000000,-1.324277000000000
Peafowl and Capuchin,S72 8PX,53.593167655368800,-1.404799118424380
Scimitar babbler and Pratincole,S70 4PG,53.544920625010000,-1.472481198585900
Warbler and Scimitar babbler,S36 2TB,53.482418049507100,-1.577007000000000
Kangaroo and Piping shrike,DN5 7GB,53.524183916858200,-1.271351000000000
Hawaiian honeycreeper and Lemming,S35 7AD,53.504239578310400,-1.564200643503600
Recurvebill and Logrunners,WF8 2BA,53.685667044527900,-1.298549401218280
New World blackbird and Parrotbill,WF5 9SJ,53.684791257698300,-1.557630949403760
Buzzard and Coati,S71 2ET,53.564065262525700,-1.454276426004610
Cloud rat and Mouse,S64 9RU,53.500045358404600,-1.299927456733710
Crow and Crow,S70 4DQ,53.543554894591600,-1.474641060365480
Chipmunk and Night heron,WF4 1RD,53.653657000000000,-1.347225000000000
Zebra and Tree warbler,S73 0QJ,53.506114750875600,-1.417673723967890
White ibis and Bunting,S73 8DR,53.529350019909000,-1.410325214110630
Jerboa and Solitaire,WF1 5LP,53.668259961593700,-1.489332080606500
Old World quail and Puffleg,S73 0JX,53.516878504601200,-1.398599129291690
Wader and Rabbit,S64 8NL,53.490854654759800,-1.311563778974420
Stilt and Marsh harrier,S75 1EU,53.563977825476200,-1.491569718775900
Thicketbird and Elephant,S36 2AS,53.491139117500000,-1.600568369500000
Badger and Fish eagle,WF8 2QP,53.682277328455900,-1.304525630870780
Warbler and Parrotlet,S70 5HR,53.532275453648000,-1.476938012979870
Pratincole and Mole,WF4 3NH,53.629894187660300,-1.525572748767110
Black cockatoo and Wallaby,S70 6NP,53.536275274935700,-1.485217418383360
Grouse and Booted eagles,S63 0RE,53.544174712091700,-1.325745071319810
Chickadee and Maya,S72 0DA,53.552400500397600,-1.347047890578210
Kākāriki and Marmoset,WF4 1PU,53.656821725339900,-1.408124832850150
Chickadee and Mink,S75 1ET,53.565957134300900,-1.498400818543360
Solitaire and Puffleg,S70 9PN,53.551636000000000,-1.482799000000000
Bronzewing pigeon and Guillemot,S71 1QH,53.563287633165700,-1.479469564393990
River dolphin and Myna,WF5 9JS,53.685495000000000,-1.572886000000000
Pitohui and Ibex,WF2 6EF,53.662038426936000,-1.484746270096920
Argus and American sparrow,S71 1RS,53.581077000000000,-1.485685000000000
Parrotlet and American sparrow,WF2 7DU,53.662934000000000,-1.496345131852620
Puffleg and Crow,S70 4TQ,53.528211000000000,-1.454254000000000
Quetzal and Marsh harrier,WF7 6BX,53.674981120557800,-1.396123528210340
Rat and Night heron,S71 1NH,53.570966524337700,-1.473939124511060
Chipmunk and Dolphin,S63 0DY,53.549739748425800,-1.299349366552220
Moluccan boobook and Parrotbill,S75 6JP,53.592218443803600,-1.497742531925500
Francolin and Puffleg,S75 2RU,53.564764272705100,-1.507685282241830
Linsang and Civet,WF2 8LZ,53.673802071616000,-1.537113961108490
Tattler and Fish eagle,S70 6FJ,53.545389267300000,-1.501315249800000
Ibex and Wallaby,WF2 7DS,53.659628639401000,-1.488725147522460
Skunk and Stilt,WF4 2LY,53.613703533883500,-1.515641000000000
Ice seal and Pratincole,WF1 4EU,53.681482838662600,-1.483313030889710
Masked owl and Badger,WF9 1FG,53.620279017839500,-1.263999882751710
Mouse and Ice seal,S73 0AG,53.523244990752500,-1.397332476602090
Flameback and Petrel,S63 9EH,53.528101000000000,-1.310930000000000
Meadowlark and Black cockatoo,S73 8EH,53.535981392256700,-1.419074763316970
Chipmunk and Argus,S71 1TJ,53.578127000000000,-1.481100000000000
Stint and Snipe,WF1 1AH,53.682498358188700,-1.493808038931740
Jerboa and Guillemot,S75 3AF,53.500607306749000,-1.495373072083820
Kākāriki and Kangaroo,S63 6SA,53.499095322409800,-1.351424571669210
Armadillo and Partridge,S74 9AL,53.501008246752600,-1.441970309938490
Jackal and Thrasher,S63 0AN,53.548108127835700,-1.308508000000000
Condor and Bronzewing pigeon,S75 2JX,53.552617014671000,-1.511116698601320
Darwin's finches and Philippine hawk-owl,WF4 1AU,53.669856000000000,-1.413679000000000
Bronzewing pigeon and Masked owl,WF1 5NP,53.667694575982500,-1.487431892448230
Polecat and Grackle,S71 5ND,53.558593172652100,-1.437212689945020
Herring gull and White ibis,S71 3BT,53.579234000000000,-1.473220000000000
Diving bird and Chicken,WF2 6PS,53.644102898980700,-1.471471829859690
Solitaire and Pratincole,S73 8FF,53.531378497600000,-1.385872163400000
Herring gull and Old World quail,S75 2LX,53.552373857893000,-1.515421256982850
Crow and Gull,S75 2DD,53.555104317660900,-1.495526000000000
Greenbul and Goose,S70 5RB,53.514312445780600,-1.482211064228510
Wallaby and Thicketbird,S70 5XA,53.507933011675100,-1.478624797329190
Boto and Badger,WF2 6RD,53.652569225146500,-1.481608792691390
Eagle and Perching duck,S73 8PR,53.522409789641700,-1.415595129453200
Polecat and Chickadee,S73 9AL,53.537503223677700,-1.376760370902200
Minke whale and Bronzewing pigeon,S35 4DT,53.476619546457200,-1.493864593463160
Petrel and Piping shrike,S64 9PQ,53.497250000000000,-1.289105000000000
Chicken and Gull,WF1 5ES,53.672997428135100,-1.481115985561460
Parakeet and Ibex,WF2 6DW,53.643091723880800,-1.495444489141270
Tit-tyrant and Parrotbill,WF9 2QS,53.592610867789900,-1.294077854288560
Rat and Maya,S71 5DY,53.547510790800000,-1.418494383443600
Jerboa and Greenbul,S63 7FQ,53.508677268200000,-1.345910573700000
River dolphin and Tahr,WF5 8JR,53.676001137099400,-1.580218073801620
Mink and Thicketbird,WF1 4PJ,53.680508053520300,-1.488654122311790
Tattler and Night heron,WF2 6HY,53.649684882428200,-1.483898320213540
Pratincole and White ibis,DN5 7HS,53.522844224528200,-1.285373203882270
Pheasant and Chickadee,S73 0RA,53.517396440884000,-1.389060265867280
Greenbul and Kangaroo,S70 3AJ,53.540948257745300,-1.448673495236090
Marsh harrier and Nukupuʻu,S72 9BY,53.611602724329000,-1.402968037716470
Fox and Badger,S71 3NU,53.586886100514400,-1.478303623387650
Kite and Scimitar babbler,S72 8BG,53.589202128143400,-1.420958963670480
Meadowlark and Mouse,S70 2BX,53.556353901373900,-1.489049587038540
Hawk and American sparrow,S63 0EB,53.548081454141800,-1.301670810139450
Viscacha and Warbler,HD8 9QH,53.592692707143800,-1.607875880726210
Ibex and Tattler,S35 7AA,53.507432382072400,-1.567198567575700
Chicken and Jay,WF5 0DG,53.669115000000000,-1.579575000000000
Kangaroo and American sparrow,S72 9LP,53.592854407872500,-1.382004947407050
Ibex and B,S62 7HN,53.471922828132600,-1.341564120332200
Mole and Pheasant,S36 1GJ,53.472469548543500,-1.601511725557470
Macaw and Pratincole,S70 4EL,53.542473813693100,-1.478185590058890
River dolphin and Argus,S71 3JR,53.587058886816700,-1.454554434385970
Masked owl and Boto,S63 9JG,53.535954087157500,-1.296755396067960
Grosbeak and Ground sloth,WF9 4BX,53.608150626140600,-1.347986000000000
Hawk and Condor,S73 9AP,53.538544485290100,-1.374768417031160
Kestrel and Bunting,S64 0NH,53.506023561204700,-1.311031000000000
Eagle and Grosbeak,S71 1NL,53.568488908378700,-1.474664440599500
Asiatic leopard and Hawaiian honeycreeper,S63 0AF,53.542371000000000,-1.314939000000000
Mamo and Tattler,S71 1JU,53.564676992070500,-1.482728843183880
Mamo and Coati,WF7 6LY,53.681106000000000,-1.355247219881810
Scimitar babbler and Eagle,S63 9GD,53.530528069850000,-1.314315172078450
Civet and Linsang,WF2 6LN,53.650389829142400,-1.458306749131900
Macaw and Rabbit,S72 7ND,53.576187843796800,-1.376418366658070
Nukupuʻu and Logrunners,WF1 1UT,53.682330274491900,-1.494445947138130
Polecat and Shearwater,S63 7AZ,53.495458752298400,-1.335743000465500
Scimitar babbler and Siskin,WF2 8YN,53.674453298053200,-1.545220511035320
Logrunners and Kangaroo,S70 1UP,53.548046611106900,-1.465952625549990
Kestrel and Coati,S71 3PF,53.586252229538200,-1.481468000000000
Mamo and Dorcopsis,WF9 4RZ,53.608152569910000,-1.358068037360210
Puffleg and Tahr,S74 0HA,53.504988924170100,-1.447511657366000
Old World warbler and Grackle,S70 3FB,53.540309769129100,-1.446659775275980
Myna and Tree warbler,S71 4LX,53.594711582289100,-1.459305915143140
Ground sloth and Buzzard,S63 0NS,53.548630445222800,-1.318942933376710
Pratincole and Mamo,S35 4HP,53.470242421118600,-1.497119086162900
Parrotlet and Recurvebill,S63 6HU,53.500618017196900,-1.350436501827040
Dolphin and Guillemot,S73 9AB,53.535547045891600,-1.375672573183980
Vulture and Tattler,WF2 8AA,53.670291000000000,-1.535366000000000
Songlark and Kestrel,WF5 0NX,53.676503371647400,-1.559867358053870
Lemming and Masked owl,S63 0QP,53.545833036667900,-1.318595440120840
Peafowl and Capuchin,WF8 2AN,53.687037972966600,-1.296285582790400
Boto and Greenbul,S63 7RE,53.502882179204800,-1.348607810030130
Petrel and Argus,WF4 4TY,53.619788000000000,-1.564890000000000
Tattler and Vulture,S74 8HG,53.494799000000000,-1.417693000000000
Tahr and Meadowlark,WF9 3PU,53.590752389507400,-1.327362000000000
Boto and Condor,S70 6QU,53.547628639957200,-1.504609048823910
American sparrow and Magpie,WF4 5EH,53.655987708539100,-1.541878541549190
Fish eagle and Booted eagles,WF1 1QF,53.683549556422800,-1.495839443031240
Marsh harrier and B,S64 8RQ,53.487115287071300,-1.317818431303700
Hawk and Wader,WF9 4HE,53.611726749739100,-1.359147486284770
Viscacha and Old World vulture,S35 4LA,53.476362581232000,-1.488398360779010
Flameback and Stilt,WF8 3SH,53.675156780355900,-1.311999898124580
Recurvebill and American sparrow,WF9 2LA,53.586537718638100,-1.297653458616420
Grackle and Prion,DN5 7EP,53.524196215519300,-1.269617784701070
Elephant and Argus,WF4 2EU,53.622986359184800,-1.407464166529860
Bunting and Jerboa,S71 4EY,53.599365886038200,-1.456949690310140
Shearwater and Scimitar babbler,WF2 7SH,53.671638992309100,-1.497707132444610
Fulmarine petrel and Elephant,WF4 1AB,53.650889000000000,-1.388071000000000
Capuchin and Old World quail,WF1 3NH,53.687230145501800,-1.494750697913870
Philippine hawk-owl and Francolin,WF4 4PN,53.653111166945000,-1.583667989451080
Elephant and Mockingbird,S71 1EU,53.551909227317200,-1.469451049111860
Ice seal and Logrunners,S75 5RD,53.585932209912800,-1.539373180409940
Ice seal and Stilt,WF1 4LX,53.686647921440900,-1.486762752308340
Argus and Myna,S75 6HR,53.588556727037000,-1.505550814147600
Polecat and Armadillo,WF8 2BS,53.683869669254800,-1.297065154916840
Shearwater and Scimitar babbler,WF9 4RL,53.605659902252000,-1.357395000000000
Kestrel and Old World quail,S63 9NR,53.531134469821500,-1.299520615086450
Perching duck and Vole,S73 9PH,53.534764042886100,-1.385898472934450
Black cockatoo and Moluccan boobook,S75 1AQ,53.565581737967000,-1.494630608168500
Recurvebill and Puffleg,WF9 2DW,53.599099000000000,-1.280083000000000
Old World quail and Puffleg,S75 6GS,53.585682444315900,-1.499542041207000
Minke whale and Civet,S74 9BT,53.493531783987400,-1.438556403206740
Peafowl and Tahr,S70 2NL,53.553585000000000,-1.488600000000000
Egret and Herring gull,S73 8QG,53.523586762904500,-1.415488434998530
Night heron and Recurvebill,WF4 1DW,53.670554452810500,-1.410823645596210
Fish eagle and Rat,WF2 8PP,53.669359867783900,-1.508980000000000
Snipe and Guillemot,S75 6GX,53.581484000000000,-1.501301000000000
Diving bird and Mink,S74 8EG,53.499970982053100,-1.426019158330430
Chickadee and Triller,WF4 4HX,53.637090000000000,-1.584703000000000
Guillemot and Tattler,WF2 8HJ,53.674427432152700,-1.531309000000000
Maya and Egret,WF1 3LW,53.687018497965300,-1.500007506454260
Puffleg and Wader,S75 3QZ,53.541062409996800,-1.514433721758650
Jackal and Gull,WF4 3JY,53.634704807755200,-1.521526271833450
New World blackbird and Old World warbler,S75 3TQ,53.542273430196100,-1.518282985082130
Hawk and River dolphin,WF4 3NU,53.638295427567200,-1.531709846728660
Jay and Condor,S71 3JL,53.588321284284500,-1.453465608902060
Pheasant and Egret,S72 0HB,53.539996766181300,-1.352655000000000
Ibex and Parakeet,WF5 9LZ,53.687135130643600,-1.582106157315490
Chicken and Chipmunk,WF2 6HX,53.650466757132800,-1.483873648235840
Mouse and Egret,S70 5EN,53.531318150873500,-1.463734094152090
Cloud rat and Treepie,S75 2SD,53.560110094500000,-1.494363837200000
Armadillo and Masked owl,S64 0XB,53.504365002490800,-1.329045347805970
Grosbeak and Minke whale,S72 9HW,53.594115000000000,-1.380508666089640
Night heron and Dorcopsis,WF5 0TF,53.674627995438300,-1.570649670327600
Chicken and Cloud rat,S75 1JA,53.565129715049100,-1.511319762171340
Cuscus and Crow,S70 1QS,53.543825320321300,-1.483073508258820
Marmoset and Bronzewing pigeon,WF1 5AR,53.669183768401200,-1.488866847827880
Shearwater and Marsh harrier,S75 5JG,53.595893395395200,-1.526089520216990
Rat and Maya,S70 1QE,53.547082655482200,-1.485976783256110
Towhee and Cuscus,WF9 4AP,53.608820448739000,-1.350243907732810
Fulmarine petrel and Ibex,S64 5UR,53.477280557724300,-1.306675590477020
Grackle and Old World quail,WF7 7QL,53.641154964020900,-1.340974358869460
Mole and Kite,WF5 9JD,53.686474715388500,-1.573239620319300
Eagle and Black jay,S73 8LS,53.526385567023000,-1.412508400548470
Hawaiian honeycreeper and Treepie,WF9 3RY,53.597546000000000,-1.315709000000000
Rabbit and Hawaiian honeycreeper,S70 1RQ,53.551799000000000,-1.478838632005550
Cloud rat and Thrasher,S63 6RX,53.500867314628600,-1.351653824963700
Egret and Condor,WF4 5QP,53.666505778118700,-1.542354785366090
Stint and Meadowlark,S71 2SJ,53.577473000000000,-1.445664771716050
Old World vulture and Bunting,S75 5JB,53.588041260776900,-1.513563322612550
Siskin and Fox,S63 6LH,53.494746762936000,-1.351777298767480
Vulture and Elephant,S70 6QZ,53.548248436912000,-1.504511260332120
Quetzal and Fox,WF4 6AF,53.660210165558400,-1.560536381089620
Gull and Lemming,S75 5BS,53.596941112271300,-1.516120468782710
Quetzal and Moluccan boobook,WF4 1HQ,53.658977952716200,-1.426404377399420
Grosbeak and Triller,S75 6LQ,53.589811049814200,-1.495958195418390
Cloud rat and Prion,S71 2EG,53.568207322477200,-1.451958194865480
Marmoset and Herring gull,WF7 7DP,53.640280000000000,-1.337027124531620
Argus and Booted eagles,S75 4QU,53.533323074693200,-1.558440747911880
Parrotlet and Petrel,WF8 4ER,53.686477778406800,-1.325473486257560
New World blackbird and Nukupuʻu,S71 4ER,53.599265948039300,-1.470762087526930
Kestrel and Gull,S73 9LT,53.531971611818400,-1.384731918359760
B and Flameback,S74 9LH,53.508274000000000,-1.464130000000000
Snipe and Crow,WF6 1LU,53.685484044778300,-1.417020057235810
Magpie and Gull,WF8 4NF,53.676571505255500,-1.317335850876470
Partridge and Bunting,S72 7JZ,53.571519333836000,-1.370597709443880
Kite and B,S71 2HB,53.559923036238900,-1.452623793967900
Towhee and Flameback,S74 0EZ,53.505755754407200,-1.446174882589240
Flameback and Tit-tyrant,S72 8JR,53.577332255054500,-1.414355022312510
Parakeet and Herring gull,S70 4ET,53.541186379137200,-1.479770766943250
Gull and Badger,S75 4HZ,53.569482442927500,-1.565538868781960
Pratincole and Eagle,WF5 9JX,53.685370106122000,-1.568238000000000
Darwin's finches and Vole,DN5 7BL,53.568368661190200,-1.267120697218310
Old World vulture and Kestrel,S70 2NW,53.554128362997300,-1.489891489354950
Argus and Shearwater,DN6 7HA,53.586436000000000,-1.265585000000000
Egret and Night heron,S72 8UE,53.580246015527300,-1.416504831358790
Goose and Parrotbill,WF4 2PQ,53.623822790856200,-1.409387744950650
Cloud rat and Zebra,S73 9NQ,53.532580000000000,-1.373649000000000
Siskin and Lemming,WF9 2RY,53.595870253936400,-1.290457684667740
Bronzewing pigeon and White ibis,S63 7HB,53.501743973424800,-1.345926643124820
Philippine hawk-owl and Kestrel,S72 7BF,53.571139668801100,-1.382261061864450
Towhee and Scimitar babbler,S71 3SA,53.574714814406200,-1.467866976087700
Solitaire and Perching duck,WF4 4UA,53.648641484510800,-1.598734288377180
Mamo and Viscacha,S35 4LY,53.477379279984900,-1.490736632213230
Tahr and Treepie,WF2 6UB,53.647484000000000,-1.457922000000000
Jerboa and Hawaiian honeycreeper,DN5 7JJ,53.522241422542900,-1.274824993136630
Logrunners and Diving bird,WF4 6LG,53.660878000000000,-1.555990000000000
Siskin and Vole,S70 6ND,53.543661654846800,-1.493141066442410
Mockingbird and Towhee,DN5 7BA,53.541787703620200,-1.274656000000000
Marsh harrier and Black cockatoo,S71 3EH,53.584541632177200,-1.446611183905950
Mamo and New World blackbird,S70 3WY,53.551714472929300,-1.482797000000000
Quetzal and Thrasher,S71 5HJ,53.546761743798000,-1.419727094526710
Stint and Kākāriki,WF2 6TN,53.646944739338400,-1.461724350531180
Stilt and Buzzard,WF8 3PG,53.682351115304300,-1.312639716598320
American sparrow and Dorcopsis,WF8 4RQ,53.676885000000000,-1.313671000000000
Stint and Thrasher,S75 4HP,53.568082044819000,-1.571019211275080
Bunting and Buzzard,S75 2NB,53.559875529406500,-1.501401457206450
Fulmarine petrel and Diving bird,S71 5PG,53.553761695047600,-1.441971140028590
Linsang and Fox,S71 3HU,53.574460533979000,-1.453327146593440
American sparrow and Pitohui,S75 3RR,53.540946569333200,-1.528166777948750
Gull and Perching duck,S63 7DP,53.502677482781500,-1.332675235718650
Logrunners and Asiatic leopard,S70 5JR,53.529557524529100,-1.472068601866260
Guillemot and Hawaiian honeycreeper,WF9 2AW,53.594610392383700,-1.299044000000000
Snipe and Songlark,S35 7ER,53.509672221800000,-1.540110000000000
Partridge and Black cockatoo,WF5 0HN,53.669605990936800,-1.554081673151650
Tattler and Herring gull,S63 9FA,53.525661124400000,-1.327276099600000
Wader and Songlark,S75 3PQ,53.536479530477600,-1.512524658485080
Puffleg and Booted eagles,WF8 3JN,53.651338879294700,-1.265289762932420
Thrasher and Flameback,WF4 5NH,53.657583000000000,-1.566858000000000
Wader and Badger,S64 9DA,53.497401688140100,-1.286072271572090
Nukupuʻu and Macaw,S71 1SG,53.577365418299300,-1.484069230503320
Parrotlet and Argus,S63 0QQ,53.540543152527200,-1.322528263459630
Black jay and Mockingbird,S62 7HD,53.472492363812000,-1.355355444728180
Fox and Grouse,S71 5HU,53.561558960646800,-1.437128052501670
Cuscus and Fish eagle,WF1 9RQ,53.679490000000000,-1.500932000000000
Marsh harrier and Fish eagle,S63 7AX,53.496468353006100,-1.337882832512980
Hawaiian honeycreeper and Jay,S75 3AT,53.501456283477300,-1.502780290426100
Marmoset and Gull,S73 8FW,53.528033000000000,-1.407223000000000
Myna and Shearwater,S75 1PA,53.563607546903600,-1.530753169944210
Philippine hawk-owl and Bronzewing pigeon,WF1 1DY,53.679529681538500,-1.501898000000000
Dolphin and Jackal,WF9 4BU,53.607245020006800,-1.346489688070360
Pitohui and Recurvebill,WF4 4FD,53.648452818537800,-1.597692424826140
Dolphin and Parrotlet,WF2 9PE,53.682277463417600,-1.518731619703490
Hawk and Parrotbill,S64 8JZ,53.476471530907300,-1.322464000000000
Fulmarine petrel and Maya,S72 8FG,53.587131000000000,-1.412543000000000
Perching duck and Rat,S70 1LS,53.547340047837800,-1.481053636959690
Macaw and Tahr,WF2 7NR,53.647879630153600,-1.499169000000000
Argus and Marsh harrier,WF2 6JU,53.645846774274100,-1.463417453380330
Bronzewing pigeon and Egret,WF1 1QY,53.683697000000000,-1.496915000000000
Grouse and Bronzewing pigeon,WF4 6HT,53.661797576290200,-1.562033170423120
Old World vulture and Flameback,WF12 8NQ,53.686260019885800,-1.602283527530080
Parakeet and Vulture,WF2 7ER,53.642800467282000,-1.503177432389640
Wallaby and Shearwater,WF7 7BP,53.643832000000000,-1.355318000000000
Piping shrike and Parakeet,S64 8HY,53.487529775634800,-1.322740001645920
Pitohui and Recurvebill,S71 4HH,53.603664305773900,-1.459372983005290
Jay and Stilt,S72 7BB,53.575347583072600,-1.382411000000000
Mouse and Peafowl,WF1 5LN,53.667136718019700,-1.485198695807600
Grosbeak and Armadillo,WF2 7QU,53.674085956825000,-1.498042000000000
Fulmarine petrel and Stilt,S63 7RT,53.503213000000000,-1.343158041596310
Eagle and Pitohui,S73 9PN,53.535059929136600,-1.387508590298210
Mole and Prion,S71 3JN,53.587807113316700,-1.453064362759910
Shearwater and Fulmarine petrel,S63 7FB,53.510598000000000,-1.355773000000000
Vulture and Cuscus,WF9 2BJ,53.593594000000000,-1.300558000000000
Tattler and Stilt,S75 2RJ,53.560728435858900,-1.512064915785930
Meadowlark and Black jay,S72 0AZ,53.558821199334500,-1.354210390237360
Buzzard and Tree warbler,S75 3PW,53.537411559364100,-1.509647131290490
Rabbit and Mink,S63 6NW,53.505321100725000,-1.365894231192390
Tahr and Old World quail,S71 5JR,53.564202989154100,-1.435522758900650
Parrotbill and White ibis,WF5 8RJ,53.680277318125100,-1.582158861128340
Meadowlark and Thicketbird,WF1 9BX,53.679402927103500,-1.500929000000000
Moluccan boobook and Grouse,S70 6PW,53.550786235002000,-1.511816987424830
Myna and Kestrel,WF4 5JU,53.658697731647900,-1.545435416578470
Greenbul and Myna,S75 6DS,53.582539307121300,-1.495923826348080
Argus and Zebra,S70 1UJ,53.547990555675200,-1.467492751330240
Bronzewing pigeon and Ice seal,DN12 4LB,53.487708000000000,-1.276258000000000
Quetzal and Hawaiian honeycreeper,S74 0HU,53.506632115583100,-1.429909722876720
Puffleg and Tree warbler,S73 9EZ,53.537351000000000,-1.373204489498500
Vulture and Old World vulture,S70 6HY,53.550838855242700,-1.494187354429220
Booted eagles and Flameback,WF1 5BW,53.667924888200600,-1.478637000000000
Peafowl and Grosbeak,S75 1LA,53.567102341495300,-1.530321931344310
Capuchin and White ibis,WF2 0EE,53.685735823401400,-1.519797000000000
Badger and Goose,S70 2RN,53.552603372847700,-1.484309952342670
Recurvebill and Prion,WF5 8HQ,53.681868000000000,-1.587033000000000
Kākāriki and Prion,S35 4NQ,53.473978241375300,-1.492057945541530
Philippine hawk-owl and Marsh harrier,S71 4HX,53.603082891394600,-1.459999995774610
Greenbul and Wader,S71 1EX,53.550770634008900,-1.470114297160270
Wader and Tattler,WF2 8EQ,53.676763000000000,-1.535628000000000
Buzzard and Chicken,WF7 7BZ,53.639983387149400,-1.330692295379060
Chicken and White ibis,S75 2TX,53.559824092082900,-1.489204050131680
Vulture and Piping shrike,WF1 1TG,53.682452664886000,-1.495761694348130
Argus and Minke whale,WF4 2JD,53.624571272988400,-1.406247519498330
Snipe and Logrunners,WF6 1LB,53.687002354834100,-1.415030627005580
Grouse and Mink,S72 7EX,53.581028000000000,-1.377117000000000
Booted eagles and Towhee,S63 6DS,53.506815387340900,-1.357880699621890
Puffleg and Magpie,WF2 0AT,53.687125203381400,-1.524006368277670
Mole and Rat,S75 6LX,53.590091092611600,-1.507088967268150
Tree warbler and Condor,S75 2AT,53.556971187531000,-1.492589604650220
Flameback and Recurvebill,WF4 1NU,53.658619591635900,-1.438030519747630
Ice seal and Condor,S70 3RX,53.546894000000000,-1.447389000000000
B and Greenbul,S72 9DD,53.613600050245600,-1.401549219822230
Viscacha and Badger,S63 6FG,53.508093000000000,-1.353006000000000
Chicken and Civet,S62 7UG,53.480095788874700,-1.446674693716130
Kangaroo and Masked owl,S71 1PT,53.558027222372600,-1.476907414068510
Francolin and Diving bird,WF9 3HQ,53.592273251759700,-1.329149754864410
Booted eagles and Badger,S72 0AW,53.555284535890800,-1.351773541008230
Kestrel and Tree warbler,WF9 2AX,53.596582721654900,-1.304648974777050
Guillemot and Condor,S72 9BP,53.608899609216400,-1.401645878994900
Shearwater and Prion,S75 3LW,53.543830544031500,-1.518808586457600
Capuchin and Night heron,S74 9EQ,53.499544272527000,-1.451939130491270
Chipmunk and Skunk,S71 3ST,53.576910413636800,-1.464380911611900
Crow and Myna,S73 0FB,53.519753000000000,-1.397896000000000
Philippine hawk-owl and Meadowlark,S63 6LA,53.493496717797100,-1.351660696629120
Pheasant and Viscacha,WF9 1PH,53.618259000000000,-1.273533654706420
Fox and Minke whale,S63 8AZ,53.520173024960500,-1.320575691262840
Eagle and Jerboa,S72 0DX,53.549590422289500,-1.337839104188780
Philippine hawk-owl and Crow,WF7 7RL,53.642482051526300,-1.351920151459160
Grosbeak and Quetzal,S75 3BP,53.499234950848600,-1.487595574268550
Asiatic leopard and Zebra,WF6 1NF,53.687031154862000,-1.419103445080170
Ibex and Kākāriki,WF2 8ST,53.678691262633300,-1.509885880324470
River dolphin and Herring gull,WF1 4DL,53.681216773767600,-1.490447193969790
Booted eagles and Logrunners,S71 5AD,53.550471804816900,-1.440022090331570
Diving bird and Stilt,WF12 8QS,53.686913119244900,-1.601368863235920
Jay and Zebra,WF1 9TT,53.679490000000000,-1.500932000000000
Quetzal and American sparrow,WF4 3DS,53.650254133408200,-1.539777239128610
Prion and Chipmunk,S70 6EN,53.550642438797700,-1.492500000000000
Hawk and Ground sloth,S70 6HD,53.553431590335500,-1.493024380293840
Petrel and Stilt,WF2 8PD,53.672617105142800,-1.535174293346150
Gull and Badger,S71 1ED,53.550877907030400,-1.472014723840330
Petrel and Marsh harrier,WF1 5JQ,53.667838051167500,-1.489458260291470
Jay and Pheasant,S63 7PZ,53.503046913838000,-1.342574691556780
Grouse and Parakeet,S73 9PW,53.535477383658300,-1.388287142709430
Argus and Perching duck,S70 1JN,53.547765628855700,-1.475585032142270
Hawk and Bunting,S36 8AP,53.514417000000000,-1.592841000000000
Hawk and Snipe,S63 7FU,53.509457000000000,-1.350530000000000
Quetzal and Chickadee,WF4 5EL,53.655914000000000,-1.541260835314740
Fish eagle and Puffleg,WF1 1ZJ,53.679399505107400,-1.500929000000000
White ibis and Goose,WF9 2JH,53.589584038626500,-1.283870409381630
Minke whale and Fox,S64 8QN,53.491858342957500,-1.317305242307150
Dolphin and Thicketbird,S64 9LT,53.495438429204600,-1.296053968752170
Jackal and Scimitar babbler,WF4 3LJ,53.629714673329100,-1.518875951601160
Night heron and Jerboa,WF2 8JY,53.666894787194300,-1.531377868291680
Old World vulture and Lemming,WF7 7FE,53.643856096464300,-1.354304000000000
Chickadee and Nukupuʻu,WF1 9AF,53.679399505107400,-1.500929000000000
Tahr and Rat,S73 8RU,53.529137000000000,-1.418087522589320
Stilt and Grosbeak,WF9 4SG,53.606766860353300,-1.354295000000000
Tahr and Ice seal,S75 2JN,53.554469089150800,-1.513435029433950
Logrunners and Grackle,S74 8JJ,53.498439197958400,-1.417809002942490
Prion and Kite,S63 7GR,53.508989000000000,-1.349042000000000
Black cockatoo and Maya,S75 1AF,53.563459344044900,-1.492240238320690
Kestrel and Fox,S73 0JG,53.519632207372500,-1.399238853882380
Dorcopsis and Boto,WF1 4QN,53.684593972788200,-1.485682410416170
Jackal and Armadillo,WF7 5JT,53.673581018267800,-1.370334488290470
Tree warbler and Thicketbird,S73 8AB,53.530984185954100,-1.386737625833180
