name,postcode,lat,lon
cobra and Argus,LL35 0DY,52.546226607833500,-4.047852125073670
Prion and puff adder,LL35 0EL,52.544487000000000,-4.045092309788530
New World blackbird and Fox,LL35 0LB,52.546478103076300,-4.045268051338000
bearded lizard and tokay,LL35 0LR,52.545037874577100,-4.039004000000000
terrapin and Prion,LL35 0LS,52.545124318661100,-4.038789574244670
Warbler and wall lizard,LL35 0NA,52.546155000000000,-4.036463000000000
carpet snake and milk snake,LL35 0PF,52.550578877536700,-4.046786310077210
thorny devil and black snake,LL35 0PW,52.546787250118500,-4.048187959610810
sand viper and moloch,LL35 0RF,52.556187000000000,-3.988453000000000
snake and Fox,LL35 0RN,52.555342000000000,-3.992205000000000
massasauga and Cuscus,LL35 0SG,52.554094000000000,-4.044295000000000
king cobra and River dolphin,LL35 0TB,52.547587000000000,-4.043986000000000
frilled lizard and galliwasp,SY18 6SY,52.429568872720400,-3.702918199742610
flying lizard and taipan,SY19 7AR,52.586788895387200,-3.639555258216120
Moluccan boobook and Black jay,SY19 7BZ,52.516709900703000,-3.647010411549540
goanna and dugite,SY19 7DR,52.597918246064500,-3.649996452248560
Quetzal and Puffleg,SY20 8BG,52.592251759452000,-3.853696988350770
anaconda and Prion,SY20 8EQ,52.590234319265500,-3.845285469743190
jew lizard and Hawk,SY20 8HB,52.591886517771400,-3.841959285619910
blind snake and thorny devil,SY20 8HT,52.591996598860000,-3.848164620331800
Treepie and rock snake,SY20 8JA,52.593646000000000,-3.843952000000000
Masked owl and Francolin,SY20 8NL,52.591797339225600,-3.806906996733490
rat snake and harlequin snake,SY20 8NX,52.595255304600600,-3.718373533478510
Night heron and Coati,SY20 8QB,52.511930505077500,-3.978289074865710
Dolphin and skink,SY20 8TX,52.563531221663100,-3.870470663384650
leathery turtle and boa constrictor,SY20 8UR,52.574582000000000,-3.777731000000000
milk snake and copperhead,SY20 9DR,52.586035387194800,-3.921028401843100
Guillemot and Siskin,SY20 9JT,52.585519794683600,-3.922880571474580
python and saltwater crocodile,SY23 3JB,52.403870408773700,-4.040265782734110
Grosbeak and diamondback,SY23 3TB,52.437371886129500,-3.997676909091990
dukite and Mamo,SY23 3WB,52.403471383025700,-4.043584490279200
Fulmarine petrel and Ground sloth,SY23 4NA,52.376268382010500,-3.998061213697590
mamba and whip snake,SY23 4QU,52.377574000000000,-3.875749000000000
agamid and Mockingbird,SY23 9BG,52.403479000000000,-4.043595000000000
Peafowl and Treepie,SY23 9FQ,52.403479092700000,-4.043585449200000
constrictor and snake,SY24 5AL,52.442680272122000,-4.032289005637730
Capuchin and River dolphin,SY24 5AZ,52.444317883280300,-4.027508597301370
bull snake and Moluccan boobook,SY24 5BA,52.445462951361500,-4.025751258978580
Schneider python and sidewinder,SY24 5BL,52.445759166298300,-4.027354078589230
gaboon viper and sand lizard,SY24 5DT,52.441760413389300,-4.030878280860810
bandy-bandy and Chickadee,SY24 5EB,52.482313976351700,-3.984676637587170
Skunk and Vole,SY24 5ES,52.485049332616500,-3.982413861427060
Macaw and Boto,SY24 5LS,52.478166000000000,-4.048208000000000
