name,postcode,lat,lon
Seabreeze,LL35 0EA,52.5440,-4.0478
Coast Deli & Dining,LL35 0EE,52.5441,-4.0444
The Britannia Inn,LL35 0EF,52.5444,-4.0434
Wynnstay Hotel,SY20 8AE,52.5904,-3.8530
The White Lion Hotel,SY20 8DN,52.5898,-3.8535
Number Twenty One,SY20 8EB,52.5908,-3.8516
Cwmni Cymunedol Cletwr,SY20 8PN,52.5120,-3.9761
the wildfowler inn,SY20 8PN,52.5120,-3.9761
Black Lion Inn,SY20 8TN,52.5749,-3.8867
Silver Mountain Experience,SY23 3AB,52.4111,-3.8711
The George Borrow Hotel,SY23 3AD,52.4091,-3.8523
PENRHYNCOCH FOOTBALL CLUB,SY23 3EH,52.4382,-3.9950
Poppy's at Newmans Garden Centre,SY23 3HS,52.4212,-4.0208
Hafod,SY23 3JL,52.3755,-3.8542
PDs Diner ltd,SY23 4LY,52.3772,-4.0135
Pennau Crafts ,SY24 5AA,52.4539,-4.0189
the rhydypennau inn,SY24 5AA,52.4539,-4.0189
