name,postcode,lat,lon
Seabreeze,LL35 0EA,52.54402410000000,-4.04778750000000
Coast Deli & Dining,LL35 0EE,52.54407400000000,-4.04438310000000
The Britannia Inn,LL35 0EF,52.54439926147460,-4.04335117340088
The White Lion Hotel,SY20 8DN,52.58979100000000,-3.85350400000000
Number Twenty One,SY20 8EB,52.59075600000000,-3.85159600000000
Cwmni Cymunedol Cletwr,SY20 8PN,52.51197814941410,-3.97607898712158
the wildfowler inn,SY20 8PN,52.51197600000000,-3.97607900000000
Black Lion Inn,SY20 8TN,52.57489013671875,-3.88667035102844
Silver Mountain Experience,SY23 3AB,52.41107600000000,-3.87108200000000
The George Borrow Hotel,SY23 3AD,52.40909700000000,-3.85231100000000
PENRHYNCOCH FOOTBALL CLUB,SY23 3EH,52.43818000000000,-3.99504900000000
Poppy's at Newmans Garden Centre,SY23 3HS,52.42123400000000,-4.02082900000000
Hafod,SY23 3JL,52.37553800000000,-3.85424100000000
PDs Diner ltd,SY23 4LY,52.37722900000000,-4.01345600000000
Pennau Crafts ,SY24 5AA,52.45391600000000,-4.01885200000000
the rhydypennau inn,SY24 5AA,52.45391600000000,-4.01885200000000
