name,postcode,lat,lon
horned toad and cycling lizard,LL35 0HE,52.544681411948600,-4.046216866217550
Kite and gecko,LL35 0LA,52.546768835902700,-4.044573627144220
Peafowl and Wallaby,LL35 0NF,52.545051376987800,-4.041455632446580
bicycle lizard and iguana,LL35 0RN,52.555342000000000,-3.992205000000000
sand lizard and Jerboa,SY20 8BA,52.591292641043300,-3.854084634068310
iguana and caiman,SY20 8DY,52.590614966200200,-3.849125122732060
hognose snake and garter snake,SY20 8HR,52.592115931328000,-3.841083091394560
Ground sloth and Mockingbird,SY20 8JB,52.593151851794100,-3.839221976568640
Minke whale and Capuchin,SY20 8JD,52.591416941464000,-3.849587036581940
pit viper and Greenbul,SY20 8ND,52.538131548848500,-3.941349315126690
Condor and black snake,SY20 8NQ,52.592350122096600,-3.822461120770850
Badger and Grouse,SY20 8PA,52.588695415914800,-3.841914000702730
Lemming and thorny devil,SY20 8SY,52.542889678863300,-3.937400578203150
Crow and Thrasher,SY20 9JZ,52.582694816994600,-3.937325670722900
blind snake and blindworm,SY23 3EA,52.430225992308200,-4.024493279353360
Booted eagles and Hawaiian honeycreeper,SY23 3ER,52.441578078500100,-3.975311370059110
brown snake and blind snake,SY23 3EY,52.438253291079000,-3.962774767320950
blind snake and leguaan,SY23 3NB,52.389934000000000,-3.890029000000000
cycling lizard and krait,SY23 3NU,52.412456423936400,-3.930603855261730
thorny devil and chuckwalla,SY23 3XH,52.437854000000000,-3.996304363748310
Myna and bandy-bandy,SY23 4LX,52.386264837444100,-4.045993001196930
dugite and Mink,SY23 9FT,52.403479000000000,-4.043595000000000
Prion and Bronzewing pigeon,SY24 5AW,52.451713577250900,-4.020931386151180
sea snake and Mink,SY24 5DN,52.479462148132700,-3.921623520297610
snake and Cloud rat,SY24 5HJ,52.490824000000000,-3.973747000000000
