name,postcode,lat,lon
Seabreeze,LL35 0EA,52.544060926983500,-4.047780778006570
Coast Deli & Dining,LL35 0EE,52.543859577449700,-4.044866066443950
The Britannia Inn,LL35 0EF,52.544327115717000,-4.043342000000000
The White Lion Hotel,SY20 8DN,52.589782479634800,-3.853489403135190
Number Twenty One,SY20 8EB,52.590747403463200,-3.851581391686850
Cwmni Cymunedol Cletwr,SY20 8PN,52.511967672368200,-3.976065450116700
the wildfowler inn,SY20 8PN,52.511967672368200,-3.976065450116700
Black Lion Inn,SY20 8TN,52.575100000000000,-3.886656319371680
The George Borrow Hotel,SY23 3AD,52.409088156271600,-3.852298123682000
PENRHYNCOCH FOOTBALL CLUB,SY23 3EH,52.438171776787000,-3.995035437989060
Poppy's at Newmans Garden Centre,SY23 3HS,52.421225518607400,-4.020815863938760
Hafod,SY23 3JL,52.375534664445600,-3.854243000000000
PDs Diner ltd,SY23 4LY,52.377221086868600,-4.013679000000000
Pennau Crafts ,SY24 5AA,52.453726000000000,-4.019508000000000
the rhydypennau inn,SY24 5AA,52.453726000000000,-4.019508000000000
