name,postcode,lat,lon
The Rumburgh Buck,IP19 0NT,52.3806,1.4445
PuraVida,IP20 0EN,52.4183,1.3494
The Black Swan,IP20 0ET,52.4202,1.3587
Sir Alfred Munnings Hotel,IP20 0NH,52.3976,1.3362
Onward Enterprises at The Parlour,IP20 9AB,52.4014,1.2994
JD Young Hotel,IP20 9AD,52.4018,1.2986
The Swan Hotel (Harleston) Ltd,IP20 9AS,52.4030,1.3001
MARK'S CAFE,IP20 9BB,52.4019,1.2999
Momiji Japanese Restaurant,IP20 9BZ,52.3988,1.2956
mrs clarkes general store,IP20 9EN,52.4038,1.3008
Waterfall Elior @ Harleston Primary,IP20 9HG,52.4044,1.3064
The Broken Egg (Norfolk) Limited,IP20 9QN,52.4101,1.3145
The Pennoyer Centre,IP21 4QT,52.4201,1.2463
The Falcon Inn,IP21 4SU,52.4296,1.2309
Watering Can,IP21 4XP,52.4419,1.2144
Goodies Food Hall,IP21 4XU,52.4594,1.2328
Bressingham Garden Centre,IP22 2AB,52.3846,1.0570
strenneth,IP22 2FF,52.4171,1.0479
Aimes Ltd t/a Costa Coffee Diss,IP22 4AD,52.3751,1.1092
Costa Coffee,IP22 4AD,52.3757,1.1091
Katie's Kitchen,IP22 4AF,52.3765,1.1085
Spice Cottage,IP22 4JT,52.3770,1.1089
Weavers Wine Bar and Eating House,IP22 4JZ,52.3771,1.1082
Amandines cafe restaurant,IP22 4LB,52.3775,1.1076
Number 11 Diss Limited,IP22 4LB,52.3775,1.1076
The Corn Hall Cafe,IP22 4LB,52.3775,1.1076
The Park Hotel,IP22 4LE,52.3759,1.1055
Saracens Head,IP22 4QQ,52.3789,1.1103
The White Hart,IP22 5RU,52.3813,1.0801
The Burston Crown,IP22 5TW,52.4056,1.1402
The Playbarn,NR14 7LP,52.5593,1.3361
The dove,NR14 7NB,52.5583,1.3624
THE GULL INN,NR14 7PL,52.5837,1.3754
HIGHWAY RESTAURANT AND CAFE,NR14 7PW,52.5853,1.3706
The Old Feathers,NR14 7QB,52.5934,1.3523
Zaks Poringland,NR14 7RP,52.5668,1.3486
The Worlds End ,NR14 8JT,52.5665,1.2348
The Bistro,NR14 8NG,52.5702,1.3247
Stoke Mill Restaurant Ltd,NR14 8PA,52.5689,1.2945
Dunston Hall Hotel,NR14 8PQ,52.5725,1.2779
Sugarbeat Eating House,NR14 8PU,52.5591,1.2750
The Wildebeest,NR14 8QJ,52.5712,1.2959
Green Pastures (Berghapton) Limited,NR15 1BQ,52.5662,1.3958
GC'S Cafe,NR15 1HJ,52.5550,1.3659
Jahin Caterers Ltd,NR15 1UB,52.5303,1.2604
The Old Ram Coaching Inn,NR15 2DE,52.4255,1.2032
The Three Horse Shoes PH,NR15 2NS,52.4878,1.3115
Cafe Savannah,NR15 2XJ,52.4876,1.2346
Bird in Hand,NR16 1BJ,52.5408,1.1935
The kings head,NR16 1EL,52.5309,1.1803
The jolly farmers,NR16 1LG,52.5015,1.1501
Route 11,NR17 2PU,52.5331,1.0530
Number 24 Restaurant ,NR18 0AD,52.5714,1.1105
TUMRUP THAI,NR18 0AD,52.5714,1.1105
Tumrp-thai  Restaurant,NR18 0AD,52.5714,1.1105
The White Hart,NR18 0AJ,52.5706,1.1116
The Hideout,NR18 0AW,52.5694,1.1141
The Lemon Tree Cafe Bar,NR18 0BQ,52.5698,1.1104
wymondham garden centre,NR18 0EP,52.5820,1.1258
Robert Kett Public House Ltd,NR18 0HH,52.5797,1.1260
Station Bistro,NR18 0JZ,52.5653,1.1175
Green Dragon ,NR18 0PH,52.5708,1.1098
Town Green Garden Cafe,NR18 0PN,52.5732,1.1094
INDIA VILLAGE,NR18 0PS,52.5742,1.1106
Centre Paws Norfolk,NR18 0RR,52.5941,1.1048
Waterfall Elior At Spooner Row Primary School,NR18 9JR,52.5356,1.0849
The Boars,NR18 9LL,52.5335,1.0901
The Cherry Tree,NR18 9QA,52.5795,1.0619
The Orangery Tea Room Norfolk Ltd,NR18 9RS,52.5775,1.1908
Earsham Street Cafe,NR35 1AE,52.4564,1.4363
The Old Bank,NR35 1AR,52.4560,1.4370
Buttercross Garden cafe,NR35 1AU,52.4559,1.4376
FARMHOUSE BAKERY,NR35 1AW,52.4559,1.4368
The Fleece Inn,NR35 1AX,52.4548,1.4376
BUNGAY GOLF CLUB,NR35 1DS,52.4582,1.4290
Bungay Golf Club ,NR35 1DS,52.4582,1.4290
Waterfall Elior At Bungay Cp Primary School,NR35 1HA,52.4534,1.4419
BUGS PLAY CAFE,NR35 1PD,52.4434,1.4306
Smokey Joe's,NR35 2JL,52.4672,1.4401
Old Hall Farm,NR35 2LP,52.5046,1.3787
The kings Head,NR35 2LR,52.4953,1.3784
Costa Coffee,NR4 6DZ,52.5953,1.2770
Kin Cafe,NR9 3DB,52.5991,1.1825
Queens Head Public House,NR9 3DD,52.5974,1.1808
Park Farm Hotel,NR9 3DL,52.5886,1.1690
Janey's village cafe,NR9 3DP,52.5993,1.1704
