name,postcode,lat,lon
boomslang and crocodile,IP19 0HX,52.380186942780100,1.398785801087820
New World blackbird and anole,IP20 0AA,52.432702401543600,1.360155416891270
Marmoset and Kākāriki,IP20 0BW,52.432716503936800,1.340629968532040
White ibis and Fish eagle,IP20 0BY,52.435175221092300,1.346231416787080
rock python and Bronzewing pigeon,IP20 0NR,52.398298000000000,1.350143000000000
diamondback terrapin and Parrotbill,IP20 0PH,52.405772000000000,1.379504000000000
python and bearded dragon,IP20 0PS,52.394825333863200,1.412026209908290
Boto and Hawk,IP20 9AD,52.401760700757200,1.298766000000000
monitor and Flameback,IP20 9BW,52.400745432658600,1.297335237412150
Treepie and Mole,IP20 9DD,52.400168423055300,1.294807252344460
Tattler and horned viper,IP20 9DT,52.400022695826600,1.304530227641310
turtle and Recurvebill,IP20 9EG,52.402193021529300,1.299604809589330
bushmaster and lizard,IP20 9EJ,52.399698985665100,1.297448299789380
Schneider python and Fulmarine petrel,IP20 9EU,52.403230000000000,1.300212000000000
horned toad and mamba,IP20 9HA,52.401443781431400,1.298093149016880
Recurvebill and Chickadee,IP20 9NR,52.411823875518300,1.274777148659210
Masked owl and Bunting,IP20 9PH,52.437531824243500,1.283395098234640
sand viper and Grouse,IP20 9QD,52.404272040237000,1.296010272139780
Boto and swift,IP21 4EZ,52.380019000000000,1.135490333135930
Linsang and smooth snake,IP21 4HZ,52.385241789599500,1.227271736982860
cobra and boa constrictor,IP21 4JS,52.377063592698000,1.248042656557200
Solitaire and cerastes,IP21 4NG,52.386275000000000,1.177268000000000
Flameback and brown snake,IP21 4PJ,52.390187442781600,1.187898490619130
asp and Mink,IP21 4PQ,52.404441476648300,1.199573044970010
carpet snake and Fulmarine petrel,IP21 4QF,52.401858000000000,1.230411000000000
indigo snake and gopher snake,IP21 4QU,52.421664140467800,1.246717951120500
mamba and king cobra,IP21 4RL,52.406727082336700,1.259722949010730
Peafowl and carpet snake,IP21 4TN,52.433188106111700,1.226582678586890
fer-de-lance and gopher snake,IP21 4UD,52.395916551334300,1.229933000476430
Snipe and Buzzard,IP21 4UU,52.404146000000000,1.174907000000000
Grosbeak and Mink,IP21 4XD,52.432995105352700,1.227392577034700
bushmaster and monitor,IP21 5TT,52.375718000000000,1.293750000000000
Chicken and turtle,IP22 2BY,52.415759000000000,1.054498000000000
soft-shelled turtle and flying lizard,IP22 2DG,52.411035763645800,1.096911871788000
swift and Triller,IP22 2DR,52.416418212938700,1.086434457765660
kabaragoya and iguana,IP22 2EB,52.433204000000000,1.096231874864280
bearded lizard and iguana,IP22 2EE,52.433419971447600,1.089712487278540
tokay and Jackal,IP22 2EN,52.436494629770000,1.098683199384600
snake and Maya,IP22 2FD,52.416633049489400,1.091288550267690
boa and Partridge,IP22 4DN,52.382703133246700,1.107993173796360
slowworm and bearded lizard,IP22 4DP,52.381804670651300,1.109326238271100
python and Marmoset,IP22 4EF,52.381196580606900,1.104066153019860
worm lizard and Fish eagle,IP22 4LT,52.379750178904400,1.099555774126700
Mamo and blue racer,IP22 4LW,52.378391194402000,1.099407000000000
swift and bearded lizard,IP22 4PS,52.375546328854600,1.117130116675490
Minke whale and thorn lizard,IP22 4QW,52.378376438623500,1.105631721576210
blindworm and massasauga,IP22 4WP,52.376389978027800,1.108666392406360
Viscacha and Ground sloth,IP22 4XQ,52.376646603836000,1.097530783791290
horned toad and tokay,IP22 4XW,52.377616611990000,1.122169640498250
coral snake and Parakeet,IP22 4YL,52.377411143860700,1.100611581664620
Tattler and Herring gull,IP22 5PF,52.402687175695000,1.131807258907740
puff adder and dukite,IP22 5RN,52.383278773228000,1.081563683897550
Wallaby and Tattler,IP22 5RZ,52.387733889913800,1.076259234557810
whip snake and Rat,IP22 5SH,52.380922112385300,1.085367540327750
Argus and Tahr,IP22 5TF,52.416527000000000,1.134274000000000
Hawaiian honeycreeper and viper,IP22 5TH,52.414660000000000,1.142260000000000
Linsang and Pitohui,IP22 5UP,52.429642000000000,1.148039212370360
bicycle lizard and Black cockatoo,IP22 5XA,52.421823000000000,1.166027000000000
king snake and Eagle,IP22 5XP,52.394682134954200,1.078815607216580
dukite and Herring gull,IP23 9AQ,52.376684000000000,1.109243000000000
Masked owl and blue racer,NR14 7AZ,52.570266944980200,1.446041662126440
puff adder and galliwasp,NR14 7BN,52.561896610209600,1.431703893341950
Vulture and Philippine hawk-owl,NR14 7HF,52.587580958743900,1.388421664851460
snake and Booted eagles,NR14 7HP,52.589403472400000,1.433765975669970
boa constrictor and swift,NR14 7JZ,52.567250000000000,1.345333000000000
brown snake and Capuchin,NR14 7LA,52.566772195180700,1.347245051352960
blue tongue and snapping turtle,NR14 7PP,52.566030000000000,1.384232179400000
puff adder and viper,NR14 7QT,52.581657261529200,1.334176298771010
massasauga and massasauga,NR14 7RD,52.571681366265800,1.346025006088130
Ground sloth and Diving bird,NR14 7TA,52.571297299431500,1.351649297747140
wall lizard and monitor,NR14 7TB,52.571674432066900,1.351353331613900
harlequin snake and American sparrow,NR14 7TL,52.573569273931300,1.350067000000000
Recurvebill and anole,NR14 7UH,52.571718637752600,1.355374000000000
flying lizard and flying lizard,NR14 7UR,52.578106000000000,1.339576000000000
flying lizard and Polecat,NR14 7WE,52.568991998984900,1.343487953247140
agama and Partridge,NR14 7WQ,52.567551864806900,1.343325000000000
Kite and massasauga,NR14 7XF,52.565041000000000,1.342266000000000
garter snake and chameleon,NR14 7XH,52.564198000000000,1.341877000000000
elapid and elapid,NR14 8BE,52.557158445623900,1.228477388891940
sidewinder and Kite,NR14 8ET,52.549332252973200,1.205064325278510
Rabbit and Moluccan boobook,NR14 8FD,52.553849000000000,1.232144000000000
Badger and blue tongue,NR14 8GJ,52.554959965828500,1.236195194812300
New World blackbird and Grosbeak,NR14 8GT,52.553897000000000,1.232369000000000
king snake and Argus,NR14 8HA,52.566059712975400,1.197104642433930
krait and agamid,NR14 8HR,52.570612046280600,1.297306351738830
Minke whale and Treepie,NR14 8HY,52.572590973496200,1.208326184134260
Perching duck and anole,NR14 8NJ,52.556804621174000,1.315718770679490
blind snake and agamid,NR14 8PF,52.575642000000000,1.283040000000000
Myna and swift,NR14 8PQ,52.570706000000000,1.282966000000000
Dorcopsis and harlequin snake,NR14 8XX,52.573990000000000,1.323741000000000
flying lizard and Jerboa,NR15 1AZ,52.526538888110600,1.284195544593650
Macaw and snake,NR15 1BD,52.564642338213200,1.419815783928190
Piping shrike and Logrunners,NR15 1EG,52.520548394786600,1.391896634939780
cobra de capello and racer,NR15 1EP,52.524591231859800,1.382948078153190
rat snake and snapping turtle,NR15 1JE,52.535771000000000,1.353306000000000
tortoise and massasauga,NR15 1LA,52.546876332890500,1.381756714570970
flying lizard and Dolphin,NR15 1NB,52.516578626970600,1.239357250764880
whip snake and New World blackbird,NR15 1NE,52.514618566169400,1.246878700260070
Diving bird and anaconda,NR15 1NS,52.517516560099600,1.254655582755360
Marsh harrier and bull snake,NR15 1RQ,52.527592421263100,1.245712831212980
puff adder and taipan,NR15 1TH,52.520625000000000,1.309910000000000
Flameback and crocodile,NR15 1UA,52.533267119873900,1.260761726898360
Dolphin and puff adder,NR15 1UE,52.530450039566800,1.263643000000000
monitor and blind snake,NR15 1YS,52.547646000000000,1.323865000000000
anole and adder,NR15 2BF,52.464268708300000,1.188834785500000
Duck and Grosbeak,NR15 2DT,52.458565411546300,1.175554672562480
harlequin snake and Partridge,NR15 2DY,52.454758000000000,1.176723000000000
Kangaroo and Minke whale,NR15 2EQ,52.487630311600000,1.235491000000000
Quetzal and diamondback terrapin,NR15 2ES,52.469078026306300,1.173911529779800
death adder and Cuscus,NR15 2GP,52.484987000000000,1.220072000000000
Warbler and jew lizard,NR15 2JT,52.474752251925800,1.171256679965100
Mink and cerastes,NR15 2JW,52.474011083666600,1.172436000000000
cayman and Diving bird,NR15 2LA,52.471272612209400,1.185939534654170
ringhals and Mink,NR15 2LS,52.503093765794400,1.296861000000000
Nukupuʻu and water snake,NR15 2QB,52.496617096450300,1.244446076077210
Marsh harrier and Old World quail,NR15 2QE,52.490208906653700,1.249528606584740
cayman and Fish eagle,NR15 2RL,52.483693602803600,1.234257690077880
indigo snake and Marmoset,NR15 2RT,52.481862339388400,1.248235372090340
Thrasher and Booted eagles,NR15 2RW,52.482899323051800,1.234361425576440
milk snake and garter snake,NR15 2SX,52.485155525678200,1.224200031521620
Fox and Triller,NR15 2SY,52.486229454629300,1.225383544990580
smooth snake and Magpie,NR15 2TF,52.481296597672800,1.232785446610600
wall lizard and Kangaroo,NR15 2UR,52.473895000000000,1.219959000000000
Piping shrike and Linsang,NR15 2UX,52.462211000000000,1.228574000000000
glass snake and boa constrictor,NR15 2WQ,52.488807326014700,1.239318275558000
blue racer and Elephant,NR15 2XE,52.491807220983000,1.230919449855110
bearded dragon and horned toad,NR15 2YB,52.494380662708400,1.219335028498150
bicycle lizard and Mole,NR15 2YU,52.496904071391900,1.217161780326820
Stint and racer,NR15 2ZT,52.484946000000000,1.220045000000000
pit viper and frill-necked lizard,NR16 1AP,52.463405386844700,1.144555156194760
snake and Cuscus,NR16 1AT,52.543518544638000,1.176539256111840
Shearwater and blind snake,NR16 1DD,52.504829509609200,1.153997817124830
thorn lizard and jew lizard,NR16 1DF,52.503515973833600,1.152754000000000
puff adder and Dolphin,NR16 1DW,52.516375056040600,1.142589336153580
indigo snake and cobra de capello,NR16 1HP,52.500930971896300,1.156857513368900
flying lizard and Stint,NR16 1JF,52.496734638179500,1.186558222436920
coral snake and blue racer,NR16 1JT,52.501894000000000,1.183041000000000
indigo snake and gaboon viper,NR16 1NA,52.503137254457800,1.111285141371560
amphisbaena and Scimitar babbler,NR16 1PE,52.448617917757700,1.114754278574470
brown snake and American sparrow,NR16 1QB,52.465450570050100,1.141711857729540
Chipmunk and Booted eagles,NR16 1QD,52.465095000000000,1.139905000000000
Darwin's finches and tokay,NR16 1QT,52.500274000000000,1.121000000000000
New World blackbird and Argus,NR16 1RN,52.491302000000000,1.114073000000000
Mockingbird and Badger,NR16 1SE,52.480413331500000,1.118680385400000
hoop snake and Fish eagle,NR16 1TA,52.480568378348100,1.169009095201020
kabaragoya and worm lizard,NR16 1TG,52.482358000000000,1.143801000000000
mud turtle and Argus,NR16 2BB,52.472086111704500,1.071627558632760
Siskin and Prion,NR16 2DL,52.430083681375800,1.056638000000000
Bunting and krait,NR17 1RJ,52.484288090627700,1.041330000000000
horned toad and Parrotlet,NR17 1SA,52.478114643704500,1.041249640404300
hoop snake and cayman,NR17 1SF,52.478764524634400,1.039677000000000
mamba and glass snake,NR17 2LS,52.526785338966000,1.069119556248410
puff adder and Stilt,NR18 0BE,52.568947690068800,1.111044373128070
anaconda and Condor,NR18 0DD,52.576359348920500,1.110314654961830
Dolphin and Snipe,NR18 0EJ,52.578069761323900,1.122070000000000
Recurvebill and River dolphin,NR18 0HQ,52.579395546156100,1.127507279809490
Minke whale and Asiatic leopard,NR18 0LJ,52.578080481207700,1.114629152298810
saltwater crocodile and sidewinder,NR18 0LZ,52.579143836894300,1.118985849911670
alligator and chuckwalla,NR18 0PW,52.573017287851900,1.109841789967990
chuckwalla and Greenbul,NR18 0SL,52.581596370833100,1.138810785631640
chameleon and adder,NR18 0SP,52.583601076917200,1.145952533424740
Black cockatoo and Kestrel,NR18 0TS,52.580312027026100,1.108084878608180
Bunting and bull snake,NR18 0WN,52.571663000000000,1.110638000000000
Treepie and sidewinder,NR18 0XD,52.585517147100000,1.138795790600000
fer-de-lance and harlequin snake,NR18 0YE,52.572423376247500,1.130789000000000
Snipe and alligator,NR18 0YU,52.581025000000000,1.140636000000000
turtle and Pheasant,NR18 8BW,52.571621521100000,1.110569516300000
Mamo and Philippine hawk-owl,NR18 8DP,52.571621521100000,1.110569516300000
Grosbeak and Ice seal,NR18 8EL,52.571663000000000,1.110638000000000
Crow and alligator,NR18 8EU,52.571663000000000,1.110638000000000
Parakeet and Schneider python,NR18 8EY,52.571663000000000,1.110638000000000
indigo snake and snake,NR18 9AQ,52.563880541830000,1.117001900220830
Eagle and flying dragon,NR18 9BT,52.556093831537200,1.081243709910490
Warbler and Treepie,NR18 9DA,52.555848769429000,1.044162053933240
rock snake and boa,NR18 9EE,52.563247000000000,1.102383000000000
flying lizard and Grouse,NR18 9JS,52.534422384269200,1.079430258618530
Bunting and Bunting,NR18 9NR,52.554301764356400,1.143544889629930
adder and bearded lizard,NR18 9PU,52.571063634018900,1.064079774681920
Eagle and sea snake,NR18 9QF,52.567433627984800,1.139422184077330
Ground sloth and Francolin,NR18 9SX,52.543539844110500,1.059742132418560
copperhead and leguaan,NR35 1AP,52.455770000000000,1.437570336400970
constrictor and alligator,NR35 1BS,52.452483864057800,1.440349223090260
Black cockatoo and mountain devil,NR35 1DP,52.450606000000000,1.441881000000000
constrictor and Piping shrike,NR35 1DW,52.448875129447300,1.439493631036700
Shearwater and habu,NR35 1EL,52.454007284094300,1.439923348628040
jew lizard and frill-necked lizard,NR35 1HZ,52.453211225223900,1.447178087138490
Minke whale and Goose,NR35 1PE,52.444794189074800,1.436629016511470
kabaragoya and Songlark,NR35 1PW,52.446333828416300,1.439663463840530
Peafowl and Kite,NR35 2BE,52.472532132741500,1.318300237911440
Skunk and Cloud rat,NR35 2DA,52.490538110584300,1.363475847590660
Wader and Magpie,NR35 2JJ,52.464748015116300,1.441409389188170
Myna and Jay,NR35 2LA,52.482570415736600,1.403968632938020
Quetzal and Grosbeak,NR35 2LN,52.499989032855400,1.379303617554560
Jay and Triller,NR35 2RB,52.467484000000000,1.446399806632810
deaf adder and Fish eagle,NR35 2TF,52.450214000000000,1.421223383726980
Maya and frilled lizard,NR35 2TR,52.450350000000000,1.414436000000000
horned viper and flying dragon,NR35 2TT,52.450801033862300,1.414647346534040
dugite and Tree warbler,NR4 6AJ,52.599894297862200,1.278576790374720
alligator and tree snake,NR4 6DX,52.598717000000000,1.277617000000000
Cloud rat and glass snake,NR4 6RX,52.589319793788200,1.256790000000000
Parrotlet and leguaan,NR9 3BT,52.598248674838600,1.137579686640100
snapping turtle and iguana,NR9 3DJ,52.590227123296600,1.165172000000000
gaboon viper and Kākāriki,NR9 3HR,52.599500288872400,1.166559284797320
constrictor and boomslang,NR9 3HZ,52.595384135053100,1.177191064823270
puff adder and king cobra,NR9 3LY,52.597602821540700,1.171591640742660
