name,postcode,lat,lon
The Rumburgh Buck,IP19 0NT,52.38057300000000,1.44451000000000
PuraVida,IP20 0EN,52.41831970214840,1.34937798976898
The Black Swan,IP20 0ET,52.4202,1.3588
Sir Alfred Munnings Hotel,IP20 0NH,52.39757800000000,1.33623800000000
Onward Enterprises at The Parlour,IP20 9AB,52.40140100000000,1.29939900000000
JD Young Hotel,IP20 9AD,52.40177300000000,1.29864700000000
The Swan Hotel (Harleston) Ltd,IP20 9AS,52.40297300000000,1.30011900000000
MARK'S CAFE,IP20 9BB,52.40186500000000,1.29986000000000
Momiji Japanese Restaurant,IP20 9BZ,52.39879900000000,1.29561700000000
mrs clarkes general store,IP20 9EN,52.40380180000000,1.30079550000000
Waterfall Elior @ Harleston Primary,IP20 9HG,52.40444400000000,1.30636100000000
The Broken Egg (Norfolk) Limited,IP20 9QN,52.41006088256840,1.31447398662567
The Pennoyer Centre,IP21 4QT,52.42005157470700,1.24630498886108
The Falcon Inn,IP21 4SU,52.42955398559570,1.23092305660248
Watering Can,IP21 4XP,52.44192200000000,1.21444700000000
Goodies Food Hall,IP21 4XU,52.45943500000000,1.23278800000000
Bressingham Garden Centre,IP22 2AB,52.38463973999020,1.05703997612000
strenneth,IP22 2FF,52.41713430000000,1.04791510000000
Aimes Ltd t/a Costa Coffee Diss,IP22 4AD,52.3750,1.1092
Costa Coffee,IP22 4AD,52.37510200000000,1.10916400000000
Katie's Kitchen,IP22 4AF,52.37653100000000,1.10850000000000
Spice Cottage,IP22 4JT,52.37704400000000,1.10887400000000
Weavers Wine Bar and Eating House,IP22 4JZ,52.37712400000000,1.10821900000000
Amandines cafe restaurant,IP22 4LB,52.37748200000000,1.10758300000000
Number 11 Diss Limited,IP22 4LB,52.3775,1.1076
The Corn Hall Cafe,IP22 4LB,52.3775,1.1076
The Park Hotel,IP22 4LE,52.37592700000000,1.10549000000000
Saracens Head,IP22 4QQ,52.37890300000000,1.11032800000000
The White Hart,IP22 5RU,52.38126900000000,1.08011600000000
The Playbarn,NR14 7LP,52.55930100000000,1.33609500000000
THE GULL INN,NR14 7PL,52.58373600000000,1.37544100000000
HIGHWAY RESTAURANT AND CAFE,NR14 7PW,52.58529600000000,1.37057000000000
The Old Feathers,NR14 7QB,52.59342400000000,1.35229100000000
Zaks Poringland,NR14 7RP,52.56680800000000,1.34862000000000
The Worlds End ,NR14 8JT,52.56654900000000,1.23477600000000
The Bistro,NR14 8NG,52.57020568847660,1.32469499111176
Stoke Mill Restaurant Ltd,NR14 8PA,52.5689,1.2946
Dunston Hall Hotel,NR14 8PQ,52.57252000000000,1.27793500000000
Sugarbeat Eating House,NR14 8PU,52.55907850000000,1.27498360000000
The Wildebeest,NR14 8QJ,52.57118300000000,1.29593200000000
Green Pastures (Berghapton) Limited,NR15 1BQ,52.56615447998050,1.39577198028564
GC'S Cafe,NR15 1HJ,52.55496800000000,1.36585300000000
Jahin Caterers Ltd,NR15 1UB,52.53026600000000,1.26043600000000
The Old Ram Coaching Inn,NR15 2DE,52.42546400000000,1.20317100000000
The Three Horse Shoes PH,NR15 2NS,52.48776300000000,1.31150700000000
Cafe Savannah,NR15 2XJ,52.48760000000000,1.23457400000000
Bird in Hand,NR16 1BJ,52.54077900000000,1.19354000000000
The kings head,NR16 1EL,52.53089200000000,1.18028800000000
The jolly farmers,NR16 1LG,52.50149000000000,1.15014800000000
Route 11,NR17 2PU,52.53305800000000,1.05304000000000
Starbucks,NR17 2PU,52.53191375732420,1.05179595947266
Number 24 Restaurant ,NR18 0AD,52.57141900000000,1.11054100000000
TUMRUP THAI,NR18 0AD,52.57141900000000,1.11054100000000
Tumrp-thai  Restaurant,NR18 0AD,52.57141900000000,1.11054100000000
The White Hart,NR18 0AJ,52.57063400000000,1.11163600000000
The Hideout,NR18 0AW,52.56940000000000,1.11410200000000
The Lemon Tree Cafe Bar,NR18 0BQ,52.56981300000000,1.11036700000000
wymondham garden centre,NR18 0EP,52.58199800000000,1.12577300000000
Robert Kett Public House Ltd,NR18 0HH,52.57973400000000,1.12604000000000
Station Bistro,NR18 0JZ,52.56532800000000,1.11745900000000
Green Dragon ,NR18 0PH,52.57081600000000,1.10984800000000
Town Green Garden Cafe,NR18 0PN,52.5732,1.1094
INDIA VILLAGE,NR18 0PS,52.57424100000000,1.11060800000000
Centre Paws Norfolk,NR18 0RR,52.59406640000000,1.10479710000000
Waterfall Elior At Spooner Row Primary School,NR18 9JR,52.53556800000000,1.08489300000000
The Boars,NR18 9LL,52.53352600000000,1.09008900000000
The Cherry Tree,NR18 9QA,52.57951400000000,1.06186500000000
The Orangery Tea Room Norfolk Ltd,NR18 9RS,52.57749938964840,1.19082200527191
Earsham Street Cafe,NR35 1AE,52.45641700000000,1.43632800000000
Buttercross Garden cafe,NR35 1AU,52.45586800000000,1.43759500000000
FARMHOUSE BAKERY,NR35 1AW,52.45589800000000,1.43684700000000
The Fleece Inn,NR35 1AX,52.45480700000000,1.43755700000000
BUNGAY GOLF CLUB,NR35 1DS,52.45817700000000,1.42900000000000
Bungay Golf Club ,NR35 1DS,52.45817700000000,1.42900000000000
Waterfall Elior At Bungay Cp Primary School,NR35 1HA,52.45343000000000,1.44194000000000
BUGS PLAY CAFE,NR35 1PD,52.44336300000000,1.43055600000000
Smokey Joe's,NR35 2JL,52.46717300000000,1.44008200000000
Old Hall Farm,NR35 2LP,52.50455856323240,1.37871098518372
The kings Head,NR35 2LR,52.49530400000000,1.37841400000000
Elior UK @ Tesco Norwich Harford,NR4 6DZ,52.59515762329100,1.27758800983429
Kin Cafe,NR9 3DB,52.59905270000000,1.18252870000000
Queens Head Public House,NR9 3DD,52.59744700000000,1.18084100000000
Park Farm Hotel,NR9 3DL,52.58855400000000,1.16904800000000
Janey's village cafe,NR9 3DP,52.59934500000000,1.17043200000000
