name,postcode,lat,lon
The Rumburgh Buck,IP19 0NT,52.380563000000000,1.444524000000000
The Black Swan,IP20 0ET,52.420204363639300,1.358762926763860
Sir Alfred Munnings Hotel,IP20 0NH,52.397565916791100,1.336251913575130
JD Young Hotel,IP20 9AD,52.401760700757200,1.298766000000000
The Swan Hotel (Harleston) Ltd,IP20 9AS,52.402960741088600,1.300132690416470
Momiji Japanese Restaurant,IP20 9BZ,52.398787375850400,1.295630588665750
The Broken Egg (Norfolk) Limited,IP20 9QN,52.410050720598700,1.314486987773450
The Falcon Inn,IP21 4SU,52.429543602151200,1.230936253244040
Watering Can,IP21 4XP,52.441909613376900,1.214460443447840
Goodies Food Hall,IP21 4XU,52.459423581658700,1.232801209891150
Bressingham Garden Centre,IP22 2AB,52.384626208025900,1.057053598664670
strenneth,IP22 2FF,52.417122236862700,1.048212009163940
Aimes Ltd t/a Costa Coffee Diss,IP22 4AD,52.375035819472900,1.109203096897260
Katie's Kitchen,IP22 4AF,52.376519901427700,1.108363000000000
Weavers Wine Bar and Eating House,IP22 4JZ,52.377111892243900,1.107920000000000
The Corn Hall Cafe,IP22 4LB,52.377470384729400,1.107596078526570
The Park Hotel,IP22 4LE,52.375871882726000,1.105455874297790
Saracens Head,IP22 4QQ,52.379226000000000,1.110659000000000
The White Hart,IP22 5RU,52.381256692844100,1.080129482983000
The Playbarn,NR14 7LP,52.559289165071700,1.336108761291510
THE GULL INN,NR14 7PL,52.583724491963700,1.375455100356130
HIGHWAY RESTAURANT AND CAFE,NR14 7PW,52.585284399724900,1.370584140062000
Zaks Poringland,NR14 7RP,52.566795832762800,1.348634266739010
The Worlds End ,NR14 8JT,52.566537157316100,1.234789922930250
The Bistro,NR14 8NG,52.570169963148300,1.324669044846780
Dunston Hall Hotel,NR14 8PQ,52.570706000000000,1.282966000000000
Sugarbeat Eating House,NR14 8PU,52.558352000000000,1.274428000000000
The Wildebeest,NR14 8QJ,52.571171588649000,1.295946068777930
Green Pastures (Berghapton) Limited,NR15 1BQ,52.566144121779300,1.395785780206770
GC'S Cafe,NR15 1HJ,52.554903000000000,1.364638000000000
Jahin Caterers Ltd,NR15 1UB,52.530253848950000,1.260449841416820
The Old Ram Coaching Inn,NR15 2DE,52.425451698729800,1.203184475134860
The Three Horse Shoes PH,NR15 2NS,52.487750997741200,1.311520221551490
Cafe Savannah,NR15 2XJ,52.487587814087300,1.234587795759950
Bird in Hand,NR16 1BJ,52.540768000000000,1.193569000000000
The kings head,NR16 1EL,52.530880549664200,1.180301251966040
The jolly farmers,NR16 1LG,52.501478291906100,1.150161923559750
Route 11,NR17 2PU,52.531900745837200,1.051809674514990
Number 24 Restaurant ,NR18 0AD,52.571406746828100,1.110554334848780
The Hideout,NR18 0AW,52.569285000000000,1.114330000000000
wymondham garden centre,NR18 0EP,52.581986102391800,1.125934000000000
Robert Kett Public House Ltd,NR18 0HH,52.579721731700400,1.126054190821770
Station Bistro,NR18 0JZ,52.565452353371100,1.117478000000000
Green Dragon ,NR18 0PH,52.570804404824500,1.109862229499020
Town Green Garden Cafe,NR18 0PN,52.573168974212300,1.109411000000000
Centre Paws Norfolk,NR18 0RR,52.595197433768300,1.106997635513950
The Boars,NR18 9LL,52.533514493808500,1.090102902751000
The Cherry Tree,NR18 9QA,52.579502253503400,1.061878409243400
The Orangery Tea Room Norfolk Ltd,NR18 9RS,52.577191000000000,1.191834685999890
Earsham Street Cafe,NR35 1AE,52.456405026983900,1.436341299287570
Buttercross Garden cafe,NR35 1AU,52.455855490350500,1.437608808434390
FARMHOUSE BAKERY,NR35 1AW,52.455886257826400,1.436860340658980
The Fleece Inn,NR35 1AX,52.454795298961900,1.437570327859080
Bungay Golf Club ,NR35 1DS,52.458164901120000,1.429013582899890
Smokey Joe's,NR35 2JL,52.467160725867500,1.440095643611720
Old Hall Farm,NR35 2LP,52.504547527990000,1.378725001260030
The kings Head,NR35 2LR,52.495812000000000,1.380751000000000
Kin Cafe,NR9 3DB,52.599127204202100,1.182144189892100
Queens Head Public House,NR9 3DD,52.597435137698700,1.180854691561970
Park Farm Hotel,NR9 3DL,52.588664000000000,1.168937000000000
Janey's village cafe,NR9 3DP,52.599333256464300,1.170446507566400
