name,id,postcode,lat,lon
gavial and sidewinder,648695,NR34 8DN,52.384188206316500,1.579319692985120
Herring gull and smooth snake,649577,NR33 7PT,52.421232794501700,1.720602149831770
bicycle lizard and anaconda,648008,NR35 1JT,52.450969358960500,1.452493891594560
leguaan and Pitohui,650560,NR32 3HR,52.491917907236000,1.713059487429270
Flameback and Triller,662403,NR14 7LX,52.560621147285100,1.347219094757200
Black jay and iguana,652205,NR31 0LN,52.593658995497700,1.723039042498740
Old World quail and frilled lizard,2285555,NR15 1BW,52.555251000000000,1.400271000000000
Grosbeak and Towhee,662417,NR14 7NQ,52.565540203635800,1.383592047942090
Macaw and mountain devil,647948,NR35 1DP,52.450606000000000,1.441881000000000
moloch and Black jay,647904,NR35 2QU,52.469112728485100,1.440395272946150
Greenbul and gaboon viper,648163,NR34 9PP,52.457788906432600,1.561218245513420
Quetzal and Nukupuʻu,650599,NR32 3LS,52.475797627635700,1.713394698276740
thorn lizard and puff adder,648853,NR33 9HX,52.462315921337300,1.716205378878510
Logrunners and Bronzewing pigeon,1798249,NR13 3UD,52.581275366100000,1.516301939900000
Greenbul and Grosbeak,647825,NR35 1AW,52.455886257826400,1.436860340658980
gaboon viper and Vulture,648553,NR34 7RU,52.448010249814600,1.599262119402920
Gull and chameleon,649719,NR33 7TP,52.417161432474900,1.715639740628420
Armadillo and Jerboa,661698,NR15 1EX,52.529594000000000,1.358225205546480
cayman and Schneider python,1016441,IP20 0BP,52.424303613092600,1.335344383012230
Crow and Tahr,1016613,IP20 0PX,52.400168000000000,1.394363435209490
Thrasher and chameleon,647835,NR35 2LD,52.485640976974500,1.401657155668970
Jackal and Maya,651290,NR31 8RX,52.572289131294600,1.700056216056650
deaf adder and rock snake,648908,NR34 7LU,52.384616466971900,1.665039709882920
Philippine hawk-owl and Songlark,648199,NR34 9RQ,52.455366988658200,1.571726411363610
perentie and rat snake,661505,NR15 1XZ,52.526783039208700,1.328216167170590
Parakeet and Cuscus,648166,NR34 9PT,52.443743402615800,1.571815504466950
anaconda and Rat,648262,NR34 9UE,52.453513210283500,1.566099440713000
Schneider python and water snake,651816,NR31 7LD,52.572863504533300,1.710719404872720
Thicketbird and Boto,648806,NR34 7ES,52.447760140966800,1.587376752812790
Grosbeak and mamba,651153,NR31 9PZ,52.578372293986900,1.651728000000000
galliwasp and Flameback,649588,NR33 7QG,52.419354959408800,1.706806035400120
Goose and White ibis,651428,NR31 7PU,52.568192543398100,1.721395931275710
rock python and Tattler,648772,NR34 7BU,52.447719796774000,1.583075014871830
black snake and sea snake,651032,NR31 9HD,52.537403181178000,1.627057000000000
iguana and sidewinder,662267,NR14 7BW,52.562093152041800,1.434848046051130
king cobra and box turtle,649013,NR33 9RT,52.465119928718600,1.714851286166600
viper and Ibex,651679,NR31 7AJ,52.575656479896400,1.723165536739790
Diving bird and elapid,1016611,IP20 0PR,52.400679365639000,1.408640421952270
amphisbaena and Moluccan boobook,2584711,NR14 7FG,52.570730000000000,1.340594000000000
Partridge and iguana,650596,NR32 3LP,52.477256734730500,1.715049734961130
Mink and Kite,662119,NR14 7WZ,52.570135000000000,1.344395000000000
thorn lizard and gopher snake,1016519,IP20 0NU,52.409719088152200,1.375423001713410
bushmaster and Partridge,648569,NR34 7SQ,52.449129718241200,1.596468115159270
Tree warbler and thorny devil,662510,NR14 6NP,52.512951000000000,1.520732000000000
Black jay and Greenbul,1798769,NR35 1LW,52.453480904500000,1.454292000000000
monitor and diamondback turtle,650570,NR32 3JD,52.482884619773500,1.708555698113500
diamondback and galliwasp,648632,NR34 0EZ,52.503663829827500,1.557824408458250
goanna and gavial,651054,NR31 9JG,52.564238096270700,1.660484598821370
Kākāriki and frill-necked lizard,662323,NR14 7HL,52.589914523792400,1.427737000000000
carpet snake and Cuscus,649046,NR33 8PX,52.463657783941000,1.702976221924250
habu and perentie,662105,NR14 7UX,52.576303000000000,1.336155000000000
dugite and Rabbit,648019,NR35 1LG,52.450109735521200,1.457284532415590
Booted eagles and Dorcopsis,648830,NR33 9EZ,52.458564667436900,1.711353859200960
Petrel and Old World quail,650218,NR32 5BA,52.513869604100200,1.699151212910210
Herring gull and Jackal,648341,NR34 8JZ,52.440297811145500,1.533858126404530
sand viper and Buzzard,650086,NR32 4RH,52.491073126279200,1.721328718465140
blindworm and smooth snake,1798289,NR14 6QH,52.534643025900000,1.473912895500000
blind snake and Scimitar babbler,1798776,NR35 9AR,52.456615343600000,1.434325868100000
hoop snake and Buzzard,648473,NR34 9DL,52.461091379416200,1.566535745039590
Quetzal and saltwater crocodile,648466,NR34 9DB,52.463023036075200,1.566309164481870
pit viper and blue tongue,1017462,IP19 8RH,52.384982721586900,1.529022931842890
Macaw and Lemming,647870,NR35 2NY,52.493253090937600,1.371094960895150
Solitaire and Snipe,648059,NR35 1NU,52.430856000000000,1.398036000000000
garter snake and agamid,648489,NR34 9EF,52.461029485945600,1.564115819500630
Fish eagle and Parrotbill,648315,NR35 1AB,52.455089298334800,1.437048510267830
lizard and elapid,651665,NR31 6TU,52.556603598070600,1.724369133581150
Towhee and Grackle,662478,NR14 6JW,52.530125891309800,1.482891512501480
Francolin and Kākāriki,2287348,NR33 7NP,52.447122000000000,1.718276000000000
blind snake and copperhead,649121,NR34 0EL,52.491744568452100,1.591510000000000
python and deaf adder,647734,NR35 2AQ,52.444053476121900,1.391742000000000
Cloud rat and Ice seal,648442,NR34 7PS,52.449265837281300,1.639678000000000
whip snake and king cobra,649285,NR33 9BT,52.463876111807500,1.723788649129680
cayman and dugite,649125,NR33 8RQ,52.456305759578100,1.699060464397270
racer and Rabbit,648162,NR34 9PL,52.458146000000000,1.560853354443120
Greenbul and Bronzewing pigeon,650501,NR32 3DB,52.483624153348700,1.721082349253980
Marsh harrier and Kestrel,662816,NR14 6BD,52.551709555152100,1.477165433213070
Quetzal and Tree warbler,663141,NR13 3TD,52.563969912108400,1.559062105567010
Recurvebill and Moluccan boobook,649512,NR33 8NE,52.454502725478100,1.709230369888490
anaconda and Rabbit,647991,NR35 1HX,52.454610626195900,1.457769903475020
elapid and Elephant,650621,NR32 3NW,52.478887601508200,1.704934013541550
rattlesnake and boa,650225,NR32 3PA,52.479951000000000,1.704346000000000
box turtle and Old World warbler,651495,NR31 8BN,52.584287329421900,1.723868256848880
Flameback and Thrasher,651707,NR31 7DA,52.572446451279100,1.713976333905450
Chicken and Prion,662602,NR14 6RF,52.528557428110000,1.557920873382340
giant tortoise and Goose,650096,NR32 4RW,52.489931676088400,1.721585899156950
monitor and massasauga,647788,NR35 2EX,52.473073224529000,1.480221599365590
Maya and death adder,2287760,NR32 3QR,52.485733000000000,1.706689000000000
Stint and crocodile,651507,NR31 8DE,52.581632003907300,1.711623200177090
Warbler and Quetzal,649722,NR33 7TS,52.419424494768900,1.713182089464890
elapid and frill-necked lizard,648022,NR35 1LL,52.448447759233700,1.455373082197850
deaf adder and bearded lizard,662094,NR14 7TR,52.562862689560100,1.334727210896580
python and boa constrictor,648246,NR34 9TH,52.454662923638100,1.565853795975580
Kangaroo and Mockingbird,647975,NR35 1FD,52.457074209497100,1.435598394225440
Diving bird and dukite,649222,NR33 9BH,52.466543318469800,1.722497076493640
Solitaire and mamba,651620,NR31 8JX,52.585107633399800,1.706630452139250
tiger snake and Tattler,662565,NR14 6PH,52.513067492004600,1.601633153362700
Greenbul and turtle,648729,NR34 0LS,52.474174926711300,1.514112194724790
Hawaiian honeycreeper and Gull,647766,NR35 2DS,52.494781249530800,1.371123532782360
Meadowlark and tuatara,648237,NR34 8HR,52.437083000000000,1.503256158759100
Warbler and swift,651242,NR31 8PG,52.584380292558600,1.700558793893120
Warbler and cobra de capello,649885,NR32 5LS,52.532253955322700,1.692275863503950
Marmoset and bull snake,649169,NR33 8UG,52.451190774911100,1.708716200220570
glass snake and agama,651328,NR31 7LY,52.570856078937400,1.716499066110640
Bunting and Boto,651295,NR31 8SF,52.584460807915900,1.708613684733180
bearded lizard and diamondback turtle,648613,NR34 7XF,52.427195000000000,1.619679000000000
Tattler and bearded lizard,649574,NR33 7PQ,52.432653986613300,1.720961777365940
harlequin snake and glass snake,651145,NR31 8ND,52.577541371764700,1.699790241359380
Perching duck and Philippine hawk-owl,648308,NR34 9YR,52.450239333051300,1.564009232211340
taipan and cobra de capello,1798717,NR32 2AP,52.480236860900000,1.718735000000000
sidewinder and Black cockatoo,648778,NR34 7DG,52.452119000000000,1.582181000000000
Vole and leguaan,649314,NR33 9EE,52.462392822241900,1.720335202290700
Francolin and amphisbaena,649143,NR33 8SY,52.452118157269200,1.706394399054160
Dolphin and galliwasp,647804,NR35 2HT,52.501252289329900,1.457055000000000
Bronzewing pigeon and Thrasher,651057,NR31 9JL,52.568513294387300,1.669683202071010
turtle and Shearwater,649382,NR33 8GT,52.455295313574600,1.688801585745900
saltwater crocodile and Chickadee,662512,NR14 6NR,52.513249000000000,1.534259000000000
agama and Tree warbler,648336,NR34 8JS,52.444872572676000,1.527350584224960
perentie and saltwater crocodile,647820,NR35 2JT,52.486681411783200,1.422319613109350
bull snake and Puffleg,650558,NR32 3HP,52.484912134594400,1.708151815017100
alligator and turtle,649367,NR33 8FW,52.457812464080500,1.693164535236370
diamondback turtle and loggerhead,647996,NR35 1JD,52.452825962618000,1.444659974260070
crocodile and rock python,648703,NR34 8DX,52.390333000000000,1.542812000000000
mud turtle and Argus,662239,NR14 7AH,52.587667493577900,1.418808000000000
Chipmunk and Elephant,647928,NR35 1BJ,52.451150648975500,1.437639552810170
Kite and Hawaiian honeycreeper,651981,NR31 6JQ,52.565160730974500,1.721699896188000
Maya and chameleon,648463,NR34 9BY,52.457589061862500,1.584186251018510
blindworm and Solitaire,649105,NR34 0DB,52.487353432555600,1.603066039556560
glass snake and Mockingbird,649699,NR33 7SN,52.421112741784700,1.723269692805330
Towhee and amethystine python,651697,NR31 7BN,52.578446730119400,1.717673327126100
adder and Argus,650531,NR32 3EF,52.484789588613400,1.722919400300740
Stilt and Zebra,647896,NR35 2QJ,52.471277677333300,1.445733820686490
soft-shelled turtle and Pratincole,661501,NR15 1XR,52.521585733934600,1.347610072069190
Badger and Kākāriki,649581,NR33 7PY,52.420219434611400,1.722502875490610
Grouse and leguaan,652023,NR31 6NT,52.585149003943400,1.724783128739830
bicycle lizard and rat snake,650472,NR32 3AL,52.486834384500500,1.714863000000000
Condor and frilled lizard,649942,NR32 5PR,52.511822000000000,1.677469000000000
saltwater crocodile and Scimitar babbler,648470,NR34 9DG,52.462268915525600,1.565070111164280
gecko and Chipmunk,661723,NR15 1JH,52.540387839427300,1.373705081234910
Duck and dukite,650800,NR32 2PS,52.479600912832900,1.718591597340240
rat snake and hoop snake,648642,NR34 0HL,52.501123286314100,1.510736179615790
Lemming and Duck,648077,NR35 1QT,52.414227284151000,1.468786614650330
rat snake and Black jay,648547,NR34 7RN,52.449913375717200,1.592292228728410
Petrel and Egret,650610,NR32 3NG,52.491320000000000,1.712361000000000
racer and Jerboa,662321,NR14 7HH,52.590787000000000,1.425125878597030
gopher snake and Songlark,651461,NR31 7RP,52.559598671016900,1.717228918805440
Tahr and blue racer,647773,NR35 2EB,52.493674000000000,1.438314904024340
Mockingbird and racer,652011,NR31 6NB,52.573251110619500,1.724998886281040
glass snake and Viscacha,651044,NR31 9HT,52.554014521712400,1.637350130490390
Thrasher and iguana,649235,NR33 7UL,52.420675064666100,1.708020304107350
garter snake and galliwasp,651425,NR31 7PQ,52.573487788262600,1.721195212452720
Jerboa and Polecat,649001,NR33 9RD,52.467949244890800,1.715266529812030
harlequin snake and Stilt,651346,NR31 7NW,52.569942254988800,1.716096939458050
Scimitar babbler and chameleon,648801,NR34 7EL,52.450858931828000,1.583963104535160
sand lizard and Piping shrike,648946,NR33 9LT,52.471554107017600,1.712757197135630
Schneider python and caiman,652221,NR31 0NH,52.591305000000000,1.710183148244360
Rabbit and Gila monster,651521,NR31 8DY,52.581032017498300,1.717552706021650
Old World vulture and Dolphin,651802,NR31 7JL,52.568776000000000,1.708307000000000
king snake and Tattler,651349,NR31 7NZ,52.566793012561500,1.714413329687500
sand viper and diamond python,651335,NR31 7NG,52.567801824043000,1.714941517994440
boa constrictor and puff adder,648645,NR34 0HQ,52.478938846391200,1.521165275698110
Chicken and Eagle,648230,NR34 8HG,52.447262607412500,1.537360208485990
Treepie and horned viper,649308,NR33 9DX,52.461766324066700,1.718235406871530
lizard and rattlesnake,648317,NR35 1AF,52.456210997582800,1.434662482701310
lizard and taipan,652005,NR31 6LU,52.579798000000000,1.723579332499060
krait and Herring gull,648299,NR34 9YD,52.449407313529000,1.565649655088820
monitor and Grouse,652097,NR31 0ES,52.599514918064800,1.719311254435890
Coati and Scimitar babbler,662298,NR14 7EL,52.589183000000000,1.376496161342490
Tree warbler and Thrasher,661715,NR15 1HY,52.536159439176900,1.360799311664360
Parakeet and Vulture,661743,NR15 1JW,52.542189148407200,1.373931830977780
mamba and White ibis,649162,NR33 8TY,52.452597842754500,1.712029422289610
snake and king snake,1016512,IP20 0NJ,52.397920000000000,1.337455000000000
black snake and hognose snake,648348,NR34 8LL,52.445429985624700,1.554067422582000
Mockingbird and Boto,648297,NR34 9YA,52.449790766675700,1.567844697363460
gaboon viper and diamondback terrapin,649257,NR33 8AT,52.451815533475900,1.693368910007940
tortoise and Diving bird,662513,NR14 6NS,52.513247324940500,1.534288845081820
Viscacha and Dorcopsis,651036,NR31 9HH,52.535791965004300,1.625915160192770
sidewinder and sea snake,651410,NR31 9DX,52.572273000000000,1.683609000000000
moloch and Mouse,648369,NR34 8NN,52.424698321479100,1.492840588541150
Pheasant and frill-necked lizard,649495,NR33 8LH,52.457623505588500,1.706091572736950
Marmoset and Hawaiian honeycreeper,662095,NR14 7UA,52.571895295270000,1.342911884379850
diamond snake and bicycle lizard,647569,NR35 9AJ,52.456617700000000,1.434326000000056
iguana and Dorcopsis,1017585,IP19 0NY,52.389782684186800,1.444757784603940
adder and diamond snake,661700,NR15 1HA,52.533125213329600,1.352042817580280
diamond snake and Peafowl,647968,NR35 1ES,52.458127136697800,1.435577371355990
flying lizard and habu,647847,NR35 2LT,52.497776642145200,1.376466480175490
carpet snake and thorn lizard,649933,NR32 5PE,52.500253888265200,1.709119910518080
Polecat and Nukupuʻu,648025,NR34 9JN,52.447349000000000,1.575255055700060
Fish eagle and Linsang,1016396,IP20 9QP,52.413594051039400,1.325695856393430
Puffleg and chameleon,661971,NR14 8RD,52.583376000000000,1.314964000000000
chuckwalla and Rat,1016477,IP20 0HQ,52.415105116807700,1.339400612101440
tiger snake and blue racer,652194,NR31 0JU,52.596947885508000,1.723997692503210
Tit-tyrant and Skunk,661682,NR15 1DY,52.531567116938200,1.373308563769740
Mouse and mud turtle,648053,NR35 1NN,52.432503795675500,1.388834174416330
Peafowl and Pratincole,663135,NR13 3SW,52.579341151285900,1.512426345400650
Tree warbler and frill-necked lizard,662255,NR14 7BD,52.567272229489300,1.452507844155590
Gull and Stilt,662519,NR14 6NZ,52.518367000000000,1.559131000000000
amethystine python and frilled lizard,1798768,NR35 1LR,52.450697185200000,1.452840582000000
Armadillo and cayman,651797,NR31 7HL,52.563483752981900,1.713528252462980
Piping shrike and turtle,648837,NR33 9HB,52.459544596908400,1.713659874094060
Badger and adder,2644684,NR14 6GB,52.535693000000000,1.470642000000000
Condor and Tahr,649441,NR33 7DZ,52.448252395305700,1.723205269338080
ringhals and Shearwater,648218,NR34 9SS,52.453920000000000,1.569840599338500
Stint and Egret,648335,NR34 8JR,52.433995600471400,1.518093005165150
chameleon and Old World quail,651132,NR31 8LN,52.580829528956100,1.715409251735520
carpet snake and Diving bird,649963,NR32 5QS,52.519665631438300,1.652763545417530
Perching duck and kabaragoya,662075,NR14 7SR,52.570459730322600,1.349784535570110
diamondback turtle and Skunk,651388,NR31 9BS,52.554109815882100,1.697787011818830
flying lizard and Ground sloth,649155,NR33 8TQ,52.451688375320600,1.711202004498880
Old World vulture and milk snake,648528,NR34 7QL,52.448852891251700,1.637238128519390
garter snake and horned toad,651050,NR31 9JA,52.528257496079600,1.624644956691780
Towhee and White ibis,649164,NR33 8UA,52.449886746768500,1.715864470720470
box turtle and Chicken,2285480,NR14 7RX,52.565967000000000,1.381538000000000
Parrotlet and glass snake,648311,NR34 9YU,52.443703681449400,1.561214377000290
Greenbul and fer-de-lance,648523,NR34 9JH,52.447666175211400,1.572074302168220
Pheasant and Marsh harrier,648300,NR34 9YE,52.447758020834400,1.565163018985150
Parrotbill and Lemming,652190,NR31 0JL,52.591716000000000,1.717359337981870
agamid and Fulmarine petrel,1016481,IP20 0JD,52.380194324992000,1.334808847593970
Magpie and black snake,663162,NR13 3UF,52.561556991528800,1.570481792972310
frill-necked lizard and green turtle,647551,NR35 2TQ,52.447131881518700,1.424164000000000
bearded dragon and Asiatic leopard,1016456,IP20 0DP,52.441770036363400,1.327362989827090
elapid and racer,651808,NR31 7JT,52.570726837013500,1.710302609396060
Peafowl and Ice seal,1016608,IP20 0PL,52.412849000000000,1.403064000000000
dukite and Songlark,650620,NR32 3NU,52.480981754456100,1.705846777929530
Tahr and Komodo dragon,651824,NR31 7LQ,52.572538649821700,1.712758790123040
diamondback and bull snake,648137,NR34 9ND,52.455502620155200,1.559782108898170
water snake and tokay,648301,NR34 9YF,52.448114046179000,1.564691291708920
Gull and chameleon,648976,NR33 9PG,52.467134494825200,1.710853145926910
Jerboa and jew lizard,651114,NR31 9PH,52.567292210195500,1.661196789062220
Night heron and tree snake,648638,NR34 0HF,52.474963000000000,1.545579000000000
Dorcopsis and Vole,649953,NR32 5QE,52.517422644538500,1.666525504354170
Tattler and Solitaire,647952,NR35 1DU,52.453274451323800,1.436980672540660
Snipe and chuckwalla,651196,NR31 9SP,52.564731878375200,1.662547922136520
flying lizard and sand viper,651045,NR31 9HU,52.582089289701700,1.637845499726390
Boto and Shearwater,651302,NR31 8SQ,52.581643000000000,1.700387000000000
Gull and White ibis,662260,NR14 7BL,52.568332450001900,1.433387627558240
Eagle and Greenbul,651706,NR31 7BZ,52.571446424130100,1.714600349115740
Philippine hawk-owl and copperhead,649822,NR33 7AH,52.419356000000000,1.719694000000000
tuatara and Recurvebill,648155,NR34 9PA,52.448210706801000,1.558501644454990
blue tongue and cycling lizard,648433,NR34 7PF,52.459152145783200,1.602881049545390
python and Macaw,648436,NR34 7PJ,52.440892650650500,1.626705531798980
galliwasp and Wader,1798772,NR35 2SB,52.469938801700000,1.441328651800000
chameleon and bearded dragon,652207,NR31 0LQ,52.590346326936400,1.724264376867510
boa and gaboon viper,651753,NR31 0QF,52.588791660714700,1.721075286673870
blind snake and Old World quail,661498,NR15 1XN,52.534066000000000,1.330224471745420
Crow and Asiatic leopard,649286,NR33 9BU,52.464180451222800,1.721266621759150
