name,postcode,lat,lon
Civet and grass snake,IP19 0HH,52.381737000000000,1.413985000000000
Rabbit and python,IP19 0HJ,52.379595224458600,1.412129550938000
Mink and diamond snake,IP20 0AQ,52.442968174934800,1.353062967685460
garter snake and Goose,IP20 0EU,52.419636668907200,1.359116926586500
Prion and deaf adder,IP20 0EX,52.422873470956600,1.363894342407790
king snake and brown snake,IP20 0HE,52.414385387363200,1.342905680930350
Black cockatoo and anaconda,IP20 0PE,52.387643000000000,1.345925000000000
Wader and Guillemot,IP20 9AH,52.402195524036400,1.299193272978980
agama and rattlesnake,IP20 9BE,52.401625037626300,1.300297606673760
bearded dragon and Civet,IP20 9BW,52.400745432658600,1.297335237412150
amphisbaena and leathery turtle,IP20 9DG,52.399013763466100,1.299440934478480
saltwater crocodile and Hawaiian honeycreeper,IP20 9HU,52.402290349204500,1.305773244020080
Cuscus and Logrunners,IP20 9HY,52.401453000000000,1.306490000000000
Armadillo and puff adder,IP20 9JP,52.402190540084300,1.291958338932240
Flameback and Kangaroo,IP20 9PN,52.432969946835100,1.282496569217630
Boto and puff adder,IP21 4NP,52.396047438441000,1.178029782538630
moloch and skink,IP21 4NU,52.394336000000000,1.192296000000000
Solitaire and ringhals,IP21 4NZ,52.395995381217200,1.193962923600620
cobra de capello and Goose,IP21 4QF,52.401858000000000,1.230411000000000
taipan and Night heron,IP21 4QH,52.405101000000000,1.238119000000000
Rabbit and hoop snake,IP21 4RT,52.398028286442900,1.245745806067200
monitor and Chickadee,IP21 4SL,52.430212625209500,1.230808658615410
alligator and Scimitar babbler,IP21 4SS,52.430082946820000,1.227326793985600
monitor and Minke whale,IP21 4TE,52.426222993806900,1.225411575111480
terrapin and diamondback turtle,IP21 4XP,52.441909613376900,1.214460443447840
Armadillo and Minke whale,IP21 4XS,52.447338636006800,1.229089458207900
bearded dragon and anaconda,IP21 4XW,52.453435815033900,1.258595681127190
Partridge and horned viper,IP21 4YB,52.443884497743500,1.245850762607000
death adder and sand lizard,IP21 4YL,52.435500000000000,1.244013000000000
death adder and Black cockatoo,IP21 5UD,52.386519119262500,1.298913000000000
Petrel and Perching duck,IP21 5UE,52.387593992488800,1.289680666746360
racer and Tree warbler,IP22 2AP,52.393766036797800,1.051040895912270
lizard and crocodile,IP22 2AS,52.398231041460800,1.055745057376030
Gila monster and brown snake,IP22 2BE,52.401535912379200,1.077749212205000
Scimitar babbler and death adder,IP22 2DQ,52.411097000000000,1.098725000000000
king snake and Night heron,IP22 2DT,52.402124000000000,1.097949000000000
tortoise and Maya,IP22 2EA,52.429360705807900,1.101507535941390
iguana and Moluccan boobook,IP22 2EJ,52.432492749484900,1.097990289401380
American sparrow and puff adder,IP22 2EP,52.437616254150900,1.103235457479770
Towhee and coral snake,IP22 2EU,52.451895427414700,1.088562822147320
B and taipan,IP22 2FD,52.416633049489400,1.091288550267690
mountain devil and rat snake,IP22 2HA,52.435860201518200,1.074771160759710
Mink and sea snake,IP22 4AF,52.376519901427700,1.108363000000000
Puffleg and Tattler,IP22 4EQ,52.382351684137000,1.103574043700580
Cuscus and Peafowl,IP22 4PH,52.376441841340500,1.120000002163660
sidewinder and Macaw,IP22 4QG,52.379289404059300,1.109898906938490
diamondback and Marmoset,IP22 4UH,52.380224000000000,1.125378000000000
Duck and Pratincole,IP22 4XS,52.376225191730500,1.098853215806580
thorn lizard and coral snake,IP22 4XW,52.377616611990000,1.122169640498250
Ice seal and skink,IP22 4XY,52.397440113796300,1.092357170509840
Skunk and black snake,IP22 4YX,52.377204710325200,1.098539760828210
amethystine python and kabaragoya,IP22 5QS,52.381542790721400,1.089834565896560
Siskin and elapid,IP22 5RP,52.398199000000000,1.133209000000000
giant tortoise and Quetzal,IP22 5UF,52.419691000000000,1.153606000000000
soft-shelled turtle and horned viper,IP22 9AA,52.376664500000000,1.109214699999939
Tahr and gavial,IP22 9BA,52.376665000000000,1.109215000000000
diamond python and iguana,IP23 8WL,52.376663336816600,1.109214631728600
Nukupuʻu and whip snake,IP23 9AN,52.376684000000000,1.109243000000000
alligator and Argus,IP23 9AQ,52.376684000000000,1.109243000000000
frilled lizard and Fox,IP98 1RT,52.376663336816600,1.109214631728600
jew lizard and Crow,NR14 7AH,52.587667493577900,1.418808000000000
Condor and Cuscus,NR14 7BB,52.566778941165100,1.444439560243110
Greenbul and Quetzal,NR14 7FH,52.570832000000000,1.340714000000000
snapping turtle and gaboon viper,NR14 7GR,52.571416540200000,1.340720266000000
Triller and Flameback,NR14 7GT,52.572376000000000,1.341451000000000
Macaw and snake,NR14 7HS,52.587559903775700,1.437165822112820
Jerboa and Ice seal,NR14 7JD,52.573728810579000,1.334031874618270
bandy-bandy and Snipe,NR14 7JX,52.569094000000000,1.345416049294630
Skunk and saltwater crocodile,NR14 7JY,52.567982000000000,1.345522000000000
Bronzewing pigeon and Bronzewing pigeon,NR14 7LG,52.564135393464500,1.347619710679020
constrictor and bandy-bandy,NR14 7NT,52.566541346308700,1.384436682878830
racer and diamondback turtle,NR14 7PN,52.582897672474400,1.370386101051310
Greenbul and Piping shrike,NR14 7PY,52.580584901171300,1.347308934287240
swift and Pheasant,NR14 7RB,52.572881185951900,1.345260248171050
elapid and pit viper,NR14 7TW,52.572875000000000,1.349969000000000
Shearwater and Moluccan boobook,NR14 7UB,52.564509916700000,1.345508206342730
pit viper and constrictor,NR14 7UF,52.572833000000000,1.351442000000000
constrictor and agamid,NR14 7UT,52.576706000000000,1.336540000000000
Buzzard and Badger,NR14 7UX,52.576303000000000,1.336155000000000
hognose snake and Mink,NR14 7WP,52.567208473917500,1.344857684417600
taipan and Tree warbler,NR14 7WS,52.567072727000000,1.343577972900000
sand viper and Maya,NR14 7WZ,52.570135000000000,1.344395000000000
gavial and bearded lizard,NR14 8AF,52.559226658476200,1.236470000000000
diamondback terrapin and anaconda,NR14 8BD,52.557367830836500,1.227725456827900
Civet and anole,NR14 8BN,52.556197639131100,1.239606385352390
New World blackbird and Francolin,NR14 8BY,52.557721084675300,1.233889992453180
milk snake and diamondback terrapin,NR14 8DQ,52.573216520917900,1.247534000000000
loggerhead and Thicketbird,NR14 8EN,52.552369235762700,1.214912000000000
Flameback and Crow,NR14 8EW,52.551827164945100,1.219498789934550
Logrunners and Fox,NR14 8EY,52.558941759723200,1.181579361886840
Schneider python and milk snake,NR14 8GJ,52.554959965828500,1.236195194812300
White ibis and Mockingbird,NR14 8HG,52.555167624865500,1.208765580355700
frill-necked lizard and king snake,NR14 8LE,52.585262544901000,1.234320000000000
diamond snake and black snake,NR14 8NX,52.567393085185400,1.295987232871590
bull snake and Gull,NR14 8PU,52.558352000000000,1.274428000000000
Masked owl and Jerboa,NR14 8QU,52.593604000000000,1.304956000000000
Siskin and python,NR14 8RD,52.583376000000000,1.314964000000000
Skunk and Polecat,NR14 8RG,52.574292369873600,1.324553063308050
cayman and bushmaster,NR14 8WA,52.554304895961500,1.243037585934650
tiger snake and diamondback,NR14 8YD,52.555929000000000,1.273828000000000
agama and worm lizard,NR15 1EB,52.521350575548300,1.380531419201890
galliwasp and B,NR15 1EW,52.523764356443000,1.381985018055010
rat snake and Duck,NR15 1EX,52.529594000000000,1.358225205546480
Greenbul and diamondback turtle,NR15 1HS,52.541590613623900,1.364002503182750
mountain devil and Old World vulture,NR15 1LG,52.545743499731300,1.379854964022370
anole and Masked owl,NR15 1LX,52.524321933805700,1.233778723256140
Piping shrike and habu,NR15 1NG,52.514133310171700,1.246209008228920
Magpie and Cuscus,NR15 1PE,52.536505488644700,1.260411894771990
Ice seal and asp,NR15 1PJ,52.538688517307600,1.260500020549240
Armadillo and Boto,NR15 1RE,52.535394480682900,1.259606827188590
Treepie and green turtle,NR15 1SD,52.525862308301100,1.208264319849430
water snake and Marsh harrier,NR15 1SW,52.524177470868900,1.207050330603220
frill-necked lizard and frilled lizard,NR15 1UE,52.530450039566800,1.263643000000000
Fulmarine petrel and galliwasp,NR15 1XG,52.536700390206200,1.295883741859840
gavial and monitor,NR15 1XL,52.537927618546600,1.324015232105600
dugite and terrapin,NR15 2AA,52.466862000000000,1.187800000000000
boomslang and habu,NR15 2AQ,52.464522212600000,1.303369588300000
bearded dragon and Ibex,NR15 2BE,52.432393000000000,1.180322000000000
sand lizard and goanna,NR15 2ET,52.468271336333000,1.175149338468900
Mole and boa,NR15 2GN,52.484987000000000,1.220072000000000
Boto and ringhals,NR15 2LY,52.505862318221300,1.295829419189410
mountain devil and anaconda,NR15 2PF,52.486614666573600,1.219777000000000
boa and pit viper,NR15 2QR,52.485798166764600,1.276708267870130
Kangaroo and Peafowl,NR15 2TJ,52.476552000000000,1.230361000000000
Dorcopsis and tiger snake,NR15 2TZ,52.484408185073000,1.228844718487040
goanna and Badger,NR15 2UH,52.477272307328200,1.205197044847740
habu and jew lizard,NR15 2WH,52.490998389888100,1.240098236425350
garter snake and Booted eagles,NR15 2WZ,52.486926623400000,1.221884042900000
pit viper and amphisbaena,NR15 2XB,52.473352199260000,1.229934601185300
bandy-bandy and puff adder,NR15 2YQ,52.504362502004300,1.224324265852890
tree snake and dugite,NR15 2YU,52.496904071391900,1.217161780326820
Viscacha and Thrasher,NR15 2YX,52.488487790267100,1.222381314672600
snapping turtle and fer-de-lance,NR16 1BZ,52.506383241651600,1.153740663431550
brown snake and Condor,NR16 1EX,52.534622833721600,1.169879394986150
Tit-tyrant and Triller,NR16 1PW,52.456586631566900,1.114050938003220
Civet and habu,NR16 1SQ,52.493332686228400,1.138911677909260
blue tongue and tree snake,NR16 1ST,52.480563995503000,1.145941512194720
Tit-tyrant and python,NR16 1SU,52.477239308626100,1.153427000000000
dugite and mamba,NR18 0AL,52.570497403369900,1.112644905755750
Grouse and Eagle,NR18 0AX,52.569904625072900,1.112957135192540
crocodile and Flameback,NR18 0DB,52.577395070762800,1.109915619670580
slowworm and Grackle,NR18 0EB,52.580272412539600,1.107196273662250
swift and leathery turtle,NR18 0FP,52.581826668196500,1.137926647393110
Hawk and Wallaby,NR18 0FU,52.586359000000000,1.141623000000000
gopher snake and Gila monster,NR18 0GH,52.587225000000000,1.141863000000000
diamond snake and Nukupuʻu,NR18 0GJ,52.587015000000000,1.143339000000000
Hawk and dukite,NR18 0LF,52.575429020202600,1.110809708386650
Prion and Elephant,NR18 0LQ,52.576718085705800,1.112746296675890
Duck and horned toad,NR18 0NY,52.572587844191500,1.115568084875030
Old World vulture and thorny devil,NR18 0PD,52.573858911053100,1.115112091336710
frill-necked lizard and turtle,NR18 0PH,52.570804404824500,1.109862229499020
racer and python,NR18 0PU,52.574414928714200,1.111989000000000
sidewinder and Maya,NR18 0QE,52.570612000000000,1.115502000000000
terrapin and Jackal,NR18 0QY,52.576258461203200,1.121999033314020
Dolphin and taipan,NR18 0RA,52.573394000000000,1.109090000000000
Guillemot and Partridge,NR18 0SW,52.584592000000000,1.147279000000000
monitor and moloch,NR18 0TZ,52.577222309296900,1.106906633143270
diamondback and dukite,NR18 0UA,52.578223506599300,1.107479403319870
Darwin's finches and cycling lizard,NR18 0UJ,52.584776556800000,1.142640793500000
Viscacha and crocodile,NR18 0WD,52.572535398760300,1.124037055454680
Herring gull and Booted eagles,NR18 0WF,52.578346102525600,1.141527000000000
Parrotlet and Parrotlet,NR18 0XB,52.573112908624900,1.128388348641180
perentie and Cloud rat,NR18 0XF,52.571606699949000,1.126170310500670
deaf adder and Hawk,NR18 0YR,52.579879000000000,1.138074000000000
mamba and alligator,NR18 9EP,52.589958051585800,1.081405457633920
pit viper and Marsh harrier,NR18 9HQ,52.590801570763200,1.051281458719220
deaf adder and Logrunners,NR18 9LQ,52.528661459911000,1.087564843009650
indigo snake and swift,NR18 9PB,52.563181000000000,1.125710000000000
diamondback terrapin and Eagle,NR18 9PD,52.574692847258600,1.067359046414580
turtle and bushmaster,NR18 9PZ,52.577756033382900,1.059852308816330
rock python and Eagle,NR18 9SR,52.539911540296700,1.072041587248350
hoop snake and Cuscus,NR18 9TL,52.560139725306700,1.047956570906430
Mink and Asiatic leopard,NR18 9TR,52.557720589002100,1.046209936905590
River dolphin and Viscacha,NR35 1DD,52.455456362232000,1.435869857489380
Armadillo and Black cockatoo,NR35 1DJ,52.451225000000000,1.441620000000000
Shearwater and Thicketbird,NR35 1EA,52.456912000000000,1.433156000000000
Old World quail and cobra de capello,NR35 1EY,52.455184117201200,1.440589334692070
Night heron and giant tortoise,NR35 1NZ,52.435311228288000,1.401308043811960
Moluccan boobook and diamondback turtle,NR35 1PN,52.445143000000000,1.439512000000000
Meadowlark and harlequin snake,NR35 1RF,52.446805184200100,1.437992718300850
Jackal and slowworm,NR35 1RS,52.445295835061300,1.440715914856830
Masked owl and Dorcopsis,NR35 1RW,52.445384199728800,1.443239820829670
dugite and Egret,NR35 1SD,52.446824953310900,1.446266820380860
Fox and glass snake,NR35 2AU,52.468320890965100,1.361338451320460
blue racer and American sparrow,NR35 2DD,52.482921923054000,1.376034969361360
Dorcopsis and diamond snake,NR35 2DQ,52.476784148412300,1.393755817218250
dukite and agamid,NR35 2DY,52.475012389697400,1.438867422602160
Mouse and whip snake,NR35 2EQ,52.502791831823400,1.425355308246830
Bunting and Parrotbill,NR35 2JQ,52.458556127496200,1.440616878577930
asp and Minke whale,NR35 2NL,52.495921053255900,1.373730651956670
death adder and boa,NR35 2QW,52.465834443522700,1.445794266301050
Gull and snake,NR35 2RZ,52.467140156082400,1.441728696249220
galliwasp and diamondback terrapin,NR35 2TA,52.452809961314300,1.423238464598970
smooth snake and Flameback,NR35 2TQ,52.447131881518700,1.424164000000000
rock python and Perching duck,NR4 6DY,52.596205183425800,1.275066635402780
sand viper and Jay,NR4 6TZ,52.595633138755800,1.255056097702330
River dolphin and Puffleg,NR9 3EY,52.596158171813400,1.176833579370110
