name,postcode,lat,lon
boomslang and crocodile,IP19 0HX,52.380186942780100,1.398785801087820
New World blackbird and anole,IP20 0AA,52.432702401543600,1.360155416891270
Marmoset and Kākāriki,IP20 0BW,52.432716503936800,1.340629968532040
White ibis and Fish eagle,IP20 0BY,52.435175221092300,1.346231416787080
rock python and Bronzewing pigeon,IP20 0NR,52.398298000000000,1.350143000000000
diamondback terrapin and Parrotbill,IP20 0PH,52.405772000000000,1.379504000000000
python and bearded dragon,IP20 0PS,52.394825333863200,1.412026209908290
monitor and cobra,NR13 3JG,52.593084000000000,1.512478000000000
goanna and Parrotlet,NR13 3NP,52.594983495606000,1.556334274848550
ringhals and iguana,NR13 3NU,52.592683565045400,1.557742925961960
Dorcopsis and goanna,NR13 3RN,52.581368331914300,1.511097269014950
Logrunners and Night heron,NR13 3SD,52.589436524083200,1.512599361273770
Diving bird and leathery turtle,NR13 3TA,52.559873504047200,1.563674203331170
chameleon and deaf adder,NR13 4HJ,52.597442563512000,1.492812553229000
bushmaster and Towhee,NR14 6BX,52.554375524394700,1.509013554089000
gaboon viper and indigo snake,NR14 6DG,52.574241162124100,1.479569630294440
kabaragoya and sea snake,NR14 6ET,52.533853646784800,1.482139593733390
racer and copperhead,NR14 6FQ,52.508057032100000,1.490372325200000
horned toad and New World blackbird,NR14 6GH,52.542988744040000,1.478880129266080
Linsang and diamondback terrapin,NR14 6LP,52.536188000000000,1.479490123322090
chameleon and Shearwater,NR14 6NB,52.535650714746500,1.479449960456350
Towhee and Stint,NR14 6QF,52.534831493128000,1.480697836262160
box turtle and sand lizard,NR14 6QX,52.526361404205300,1.555575406305910
amphisbaena and dukite,NR14 6RG,52.527360181015600,1.557057151064710
krait and Buzzard,NR14 6RH,52.528934803893800,1.557037039713380
flying dragon and grass snake,NR14 6SD,52.544302509932500,1.545180013601370
Magpie and grass snake,NR14 6SH,52.529406770500000,1.563121867400000
Argus and bicycle lizard,NR14 6SQ,52.535528912363300,1.529383275625980
Masked owl and gecko,NR14 6UP,52.536126820348300,1.475800156591160
Kestrel and Armadillo,NR14 7AU,52.577974000000000,1.455992000000000
Masked owl and blue racer,NR14 7AZ,52.570266944980200,1.446041662126440
puff adder and galliwasp,NR14 7BN,52.561896610209600,1.431703893341950
Vulture and Philippine hawk-owl,NR14 7HF,52.587580958743900,1.388421664851460
snake and Booted eagles,NR14 7HP,52.589403472400000,1.433765975669970
boa constrictor and swift,NR14 7JZ,52.567250000000000,1.345333000000000
brown snake and Capuchin,NR14 7LA,52.566772195180700,1.347245051352960
blue tongue and snapping turtle,NR14 7PP,52.566030000000000,1.384232179400000
puff adder and viper,NR14 7QT,52.581657261529200,1.334176298771010
massasauga and massasauga,NR14 7RD,52.571681366265800,1.346025006088130
Ground sloth and Diving bird,NR14 7TA,52.571297299431500,1.351649297747140
wall lizard and monitor,NR14 7TB,52.571674432066900,1.351353331613900
harlequin snake and American sparrow,NR14 7TL,52.573569273931300,1.350067000000000
Recurvebill and anole,NR14 7UH,52.571718637752600,1.355374000000000
flying lizard and flying lizard,NR14 7UR,52.578106000000000,1.339576000000000
flying lizard and Polecat,NR14 7WE,52.568991998984900,1.343487953247140
agama and Partridge,NR14 7WQ,52.567551864806900,1.343325000000000
Kite and massasauga,NR14 7XF,52.565041000000000,1.342266000000000
garter snake and chameleon,NR14 7XH,52.564198000000000,1.341877000000000
Perching duck and anole,NR14 8NJ,52.556804621174000,1.315718770679490
Dorcopsis and harlequin snake,NR14 8XX,52.573990000000000,1.323741000000000
Macaw and snake,NR15 1BD,52.564642338213200,1.419815783928190
Piping shrike and Logrunners,NR15 1EG,52.520548394786600,1.391896634939780
cobra de capello and racer,NR15 1EP,52.524591231859800,1.382948078153190
rat snake and snapping turtle,NR15 1JE,52.535771000000000,1.353306000000000
tortoise and massasauga,NR15 1LA,52.546876332890500,1.381756714570970
monitor and blind snake,NR15 1YS,52.547646000000000,1.323865000000000
Jay and Grouse,NR31 0JX,52.595804895014900,1.724875541444970
Elephant and B,NR31 0LG,52.590536089040900,1.723194000000000
Songlark and Rabbit,NR31 0LY,52.593923986117300,1.714812000000000
Diving bird and king cobra,NR31 0NT,52.592411618697900,1.704899155401520
Elephant and hoop snake,NR31 0PY,52.586555230089600,1.723543851301610
Jay and cycling lizard,NR31 0QH,52.589091807460100,1.724113577968580
Eagle and agama,NR31 6JJ,52.559925454211400,1.721138181844500
Dolphin and tuatara,NR31 6SR,52.569784506996300,1.724542374671390
copperhead and black snake,NR31 6SY,52.564167000000000,1.723313000000000
skink and carpet snake,NR31 7BU,52.573682297367300,1.715867282461710
chuckwalla and tuatara,NR31 7DE,52.575839400302600,1.713628541857370
snapping turtle and Masked owl,NR31 7DX,52.563751747927900,1.719883055151020
Black cockatoo and Civet,NR31 7DZ,52.565994807872400,1.720633991719290
asp and Partridge,NR31 7HH,52.566574653561900,1.713346815032570
Rat and hoop snake,NR31 7PL,52.572177024660300,1.722545651963500
elapid and Logrunners,NR31 7QA,52.573131002156100,1.719098091587270
Pheasant and sand viper,NR31 7RL,52.559458490824100,1.715106548348470
thorn lizard and Grosbeak,NR31 7RU,52.556533660033000,1.712291314432660
Cuscus and Rat,NR31 8DY,52.581032017498300,1.717552706021650
Duck and Ground sloth,NR31 8EB,52.581909244836800,1.716829633198330
Civet and Stint,NR31 8ED,52.581503241235500,1.716869078479110
sand viper and rock python,NR31 8EN,52.579785204098100,1.715808000000000
chameleon and gavial,NR31 8GX,52.574814023366800,1.702439326075700
Macaw and boa,NR31 8HZ,52.580088770829400,1.697716304710220
Hawk and Hawk,NR31 8NE,52.577301527651000,1.697392904996530
Boto and diamondback terrapin,NR31 8NH,52.578980886930400,1.699778697934930
Ground sloth and king cobra,NR31 8NQ,52.578145414701200,1.700033103120710
blue tongue and Macaw,NR31 8PA,52.577870130162100,1.691283842855230
Pitohui and anole,NR31 8PT,52.572822167907100,1.698255740470910
Black cockatoo and caiman,NR31 8QG,52.573715626768400,1.693267129485120
Lemming and Fulmarine petrel,NR31 8QZ,52.583374391159700,1.703958929016180
dugite and bearded lizard,NR31 8RT,52.585480000000000,1.700238000000000
anaconda and Masked owl,NR31 8UU,52.570198170295500,1.700190006364050
blind snake and Snipe,NR31 9AR,52.554449000000000,1.701638000000000
harlequin snake and pit viper,NR31 9DH,52.568273572576500,1.691835089482760
mamba and diamondback turtle,NR31 9EH,52.586207244426800,1.707993367712450
Coati and massasauga,NR31 9HQ,52.534821000000000,1.624400034923390
python and Mouse,NR31 9JG,52.564238096270700,1.660484598821370
sand lizard and giant tortoise,NR31 9LF,52.569490518071800,1.666886295915450
Mockingbird and Duck,NR31 9NH,52.567589634451400,1.653324310080880
leathery turtle and Grackle,NR31 9NN,52.569864710973500,1.654797904808830
cycling lizard and crocodile,NR31 9NT,52.570405855916200,1.656496318093480
cobra and sand viper,NR31 9NX,52.570415594531200,1.660199000000000
Armadillo and Duck,NR31 9NZ,52.569573672652000,1.660427500735500
diamond python and Partridge,NR31 9QP,52.584561580710100,1.677153425027350
indigo snake and rattlesnake,NR32 3BW,52.489973625212300,1.713676508483940
Kestrel and Bunting,NR32 3HE,52.484860047045800,1.717252864407160
Pratincole and constrictor,NR32 3LQ,52.475604479574200,1.714674712164940
Warbler and Fox,NR32 3PR,52.476733372776400,1.690994152202610
Chipmunk and Meadowlark,NR32 4RJ,52.490623037597600,1.719625546501930
diamondback terrapin and saltwater crocodile,NR32 4RZ,52.490279178736400,1.723118298967490
elapid and Grosbeak,NR32 5AN,52.517419134494100,1.709018943145310
leguaan and Duck,NR32 5QB,52.515281000000000,1.657014000000000
asp and sidewinder,NR33 7DZ,52.448252395305700,1.723205269338080
cycling lizard and Gull,NR33 7EP,52.452722681347900,1.718356083833960
Piping shrike and garter snake,NR33 7EU,52.450823791525100,1.719815411186200
Pratincole and Pratincole,NR33 7JA,52.453243340534800,1.723243913767490
Francolin and Perching duck,NR33 7JS,52.457491201775700,1.724883713781880
hoop snake and boa,NR33 7PR,52.419844220253700,1.722706626805260
Songlark and giant tortoise,NR33 7QA,52.420771050766100,1.717841454879920
tuatara and Kite,NR33 7TQ,52.418654076416100,1.710792860725220
leathery turtle and Moluccan boobook,NR33 7UE,52.418111020977900,1.719191555086370
Chicken and Condor,NR33 8EN,52.421390418218900,1.688336328508500
pit viper and habu,NR33 8FW,52.457812464080500,1.693164535236370
hoop snake and puff adder,NR33 8GN,52.453971176453900,1.699792162795460
rattlesnake and skink,NR33 8GW,52.456312499200500,1.691080579457160
Triller and Jay,NR33 8HG,52.449434969820800,1.664388583481720
black snake and tree snake,NR33 8HQ,52.449980583096800,1.699692883978910
Shearwater and Philippine hawk-owl,NR33 8JP,52.448753477398500,1.695791770286170
mountain devil and Nukupuʻu,NR33 8NL,52.460854288276900,1.695127558101730
grass snake and brown snake,NR33 8PF,52.464692489344600,1.699808510009460
Armadillo and Grouse,NR33 8QS,52.468756011533400,1.707337075478780
cerastes and dugite,NR33 8QX,52.468819000000000,1.706503000000000
Rabbit and whip snake,NR33 8SA,52.455093692552700,1.704156234737240
Mockingbird and boa constrictor,NR33 8SD,52.455603484362300,1.701666560346740
Dolphin and Grackle,NR33 8WB,52.449829097014500,1.706820317400640
terrapin and diamondback turtle,NR33 8WD,52.449933180280900,1.708949034778950
water snake and Moluccan boobook,NR33 9AD,52.464862124960300,1.716184442220470
Chipmunk and Towhee,NR33 9GL,52.471917827777700,1.712345964493460
Logrunners and soft-shelled turtle,NR33 9JE,52.461517881427100,1.716697679463790
Cloud rat and agama,NR33 9JJ,52.457687284175600,1.719231290159610
harlequin snake and gaboon viper,NR33 9LA,52.470092877567800,1.722605463721150
bushmaster and Rat,NR33 9NN,52.460351569260900,1.708014367799800
gavial and Tree warbler,NR33 9PN,52.467330273140700,1.707482231754480
Condor and Stilt,NR34 0AN,52.483957069386800,1.604305000000000
Asiatic leopard and dugite,NR34 0BG,52.485828379514800,1.631730789927050
gavial and diamond python,NR34 0BY,52.497337078910000,1.612504489371890
Cloud rat and dugite,NR34 0EY,52.503938503999300,1.561546215853580
elapid and Capuchin,NR34 0RA,52.479284139748400,1.631898355153440
Towhee and Boto,NR34 7BL,52.389756108300000,1.688268348200000
Meadowlark and kabaragoya,NR34 7BU,52.447719796774000,1.583075014871830
horned viper and lizard,NR34 7DP,52.452439341017500,1.591158270458860
Cuscus and Dolphin,NR34 7ED,52.448571181496400,1.592653974449840
viper and death adder,NR34 7ET,52.446865592454800,1.589880074439250
harlequin snake and Wallaby,NR34 7HR,52.378169841063000,1.647529291917800
indigo snake and Cuscus,NR34 7JJ,52.384276439935000,1.681460744128980
Mouse and box turtle,NR34 7NL,52.403874183677100,1.654886958736810
chuckwalla and Pratincole,NR34 7PD,52.447935198914800,1.613505826684220
Flameback and taipan,NR34 7QH,52.447141725011800,1.644604602191770
Cuscus and Kangaroo,NR34 7QL,52.448852891251700,1.637238128519390
boomslang and Tahr,NR34 7QN,52.451481385640800,1.649129672882950
whip snake and frill-necked lizard,NR34 7QW,52.456425476195900,1.659403922812300
Vole and Tit-tyrant,NR34 7QX,52.447927387648100,1.635454159279190
wall lizard and Ground sloth,NR34 7RA,52.455013864532400,1.594047579034740
B and Old World quail,NR34 7SE,52.450643744063000,1.601390889293800
Zebra and krait,NR34 7TE,52.442347508446300,1.592181000000000
Partridge and bicycle lizard,NR34 7TS,52.419698000000000,1.602441000000000
cycling lizard and Wallaby,NR34 7TY,52.404596000000000,1.604224000000000
Thrasher and frill-necked lizard,NR34 7UX,52.434632105339500,1.663438680078160
Jackal and blue tongue,NR34 7XH,52.437870854700900,1.574165801826640
agamid and Tree warbler,NR34 8BT,52.375297511399400,1.600453841169620
Piping shrike and Stilt,NR34 8HT,52.454346000000000,1.494213000000000
Petrel and boomslang,NR34 8JP,52.431529843930500,1.506036122495060
Capuchin and Elephant,NR34 8NF,52.402889320532400,1.526659166959780
Herring gull and Chipmunk,NR34 8NQ,52.405302000000000,1.483277000000000
Nukupuʻu and Mink,NR34 9AQ,52.458002953602500,1.563899000000000
monitor and hawksbill,NR34 9AU,52.462359000000000,1.563310000000000
Snipe and monitor,NR34 9BJ,52.463001612656400,1.567912540939090
Jerboa and Old World vulture,NR34 9BT,52.464142751702000,1.563778503895110
leathery turtle and Masked owl,NR34 9HH,52.457050086363700,1.563646885575840
cobra de capello and Prion,NR34 9HP,52.457175038894400,1.564275385448310
indigo snake and rattlesnake,NR34 9JT,52.448495291000000,1.575541960000000
Old World vulture and swift,NR34 9LQ,52.447227286131400,1.570228132570530
skink and Gull,NR34 9NJ,52.452869813955700,1.561189025059900
ringhals and Black jay,NR34 9NS,52.452199680515500,1.559250473219750
sea snake and swift,NR34 9NU,52.450897122911600,1.559793098084110
boa constrictor and Booted eagles,NR34 9RB,52.455129918235800,1.567069413998300
taipan and Viscacha,NR34 9RL,52.455713192039600,1.572770368183470
sand viper and Peafowl,NR34 9SG,52.453940520876300,1.570712774737670
blindworm and diamondback,NR34 9TH,52.454662923638100,1.565853795975580
Lemming and rock snake,NR34 9XF,52.447414692461700,1.561337365013770
leathery turtle and boomslang,NR34 9XQ,52.445864025924200,1.565333767644550
snake and Hawaiian honeycreeper,NR34 9XX,52.447360974350800,1.567589254844590
copperhead and leguaan,NR35 1AP,52.455770000000000,1.437570336400970
constrictor and alligator,NR35 1BS,52.452483864057800,1.440349223090260
Black cockatoo and mountain devil,NR35 1DP,52.450606000000000,1.441881000000000
constrictor and Piping shrike,NR35 1DW,52.448875129447300,1.439493631036700
Shearwater and habu,NR35 1EL,52.454007284094300,1.439923348628040
jew lizard and frill-necked lizard,NR35 1HZ,52.453211225223900,1.447178087138490
Piping shrike and Linsang,NR35 1LJ,52.448379155608700,1.454028148640460
diamondback and Lemming,NR35 1LL,52.448447759233700,1.455373082197850
Minke whale and Goose,NR35 1PE,52.444794189074800,1.436629016511470
kabaragoya and Songlark,NR35 1PW,52.446333828416300,1.439663463840530
Francolin and Jerboa,NR35 1QT,52.414227284151000,1.468786614650330
boomslang and coral snake,NR35 1TL,52.456982735079900,1.477464370684200
Peafowl and Kite,NR35 2BE,52.472532132741500,1.318300237911440
Skunk and Cloud rat,NR35 2DA,52.490538110584300,1.363475847590660
Crow and mud turtle,NR35 2HD,52.481083529666300,1.487969684172690
habu and green turtle,NR35 2HL,52.489144499128400,1.495813103793570
Old World vulture and Peafowl,NR35 2HR,52.494611000000000,1.479772000000000
Wader and Magpie,NR35 2JJ,52.464748015116300,1.441409389188170
Myna and Jay,NR35 2LA,52.482570415736600,1.403968632938020
Quetzal and Grosbeak,NR35 2LN,52.499989032855400,1.379303617554560
Jay and Triller,NR35 2RB,52.467484000000000,1.446399806632810
deaf adder and Fish eagle,NR35 2TF,52.450214000000000,1.421223383726980
Maya and frilled lizard,NR35 2TR,52.450350000000000,1.414436000000000
horned viper and flying dragon,NR35 2TT,52.450801033862300,1.414647346534040
