name,postcode,lat,lon
Civet and grass snake,IP19 0HH,52.381737000000000,1.413985000000000
Rabbit and python,IP19 0HJ,52.379595224458600,1.412129550938000
boomslang and snake,IP19 8QX,52.375417688772400,1.535315000000000
mamba and milk snake,IP19 8RD,52.380458466165000,1.541640218100640
Mink and diamond snake,IP20 0AQ,52.442968174934800,1.353062967685460
garter snake and Goose,IP20 0EU,52.419636668907200,1.359116926586500
Prion and deaf adder,IP20 0EX,52.422873470956600,1.363894342407790
king snake and brown snake,IP20 0HE,52.414385387363200,1.342905680930350
Black cockatoo and anaconda,IP20 0PE,52.387643000000000,1.345925000000000
Vole and Hawaiian honeycreeper,NR13 3HJ,52.564467674472400,1.562246281754580
sand lizard and green turtle,NR13 3HT,52.573140000000000,1.542149000000000
Fulmarine petrel and Tattler,NR13 3LQ,52.576700000000000,1.540967000000000
Viscacha and whip snake,NR13 3LR,52.592896769583400,1.538338545850710
Condor and Komodo dragon,NR13 3NS,52.597197369542700,1.557488629855580
cycling lizard and green turtle,NR13 3SQ,52.579209000000000,1.514793000000000
mountain devil and White ibis,NR13 3TJ,52.560115797304700,1.571146836968040
Tree warbler and galliwasp,NR13 3TW,52.560090072220600,1.569019540018320
Schneider python and Goose,NR14 6BZ,52.553501881105600,1.503897266863090
garter snake and Mole,NR14 6EY,52.535671446401100,1.482106563285180
Kite and Egret,NR14 6FU,52.534863000000000,1.473187000000000
Philippine hawk-owl and anole,NR14 6JB,52.542225819214000,1.478214916711720
Francolin and blind snake,NR14 6LL,52.529629514953800,1.479283241493310
Hawk and dukite,NR14 6NZ,52.518367000000000,1.559131000000000
soft-shelled turtle and tree snake,NR14 6PL,52.514818429761400,1.602616855705540
Treepie and goanna,NR14 6QL,52.513895224172300,1.506492040977330
indigo snake and bicycle lizard,NR14 6RL,52.530605297427800,1.561301724066450
chameleon and Flameback,NR14 6SF,52.555470929161600,1.546464856400650
racer and Meadowlark,NR14 6SL,52.524923000000000,1.509539000000000
habu and caiman,NR14 6UG,52.527006588400000,1.489501760000000
jew lizard and Crow,NR14 7AH,52.587667493577900,1.418808000000000
sand lizard and agama,NR14 7AU,52.577974000000000,1.455992000000000
Condor and Cuscus,NR14 7BB,52.566778941165100,1.444439560243110
Greenbul and Quetzal,NR14 7FH,52.570832000000000,1.340714000000000
snapping turtle and gaboon viper,NR14 7GR,52.571416540200000,1.340720266000000
Triller and Flameback,NR14 7GT,52.572376000000000,1.341451000000000
Macaw and snake,NR14 7HS,52.587559903775700,1.437165822112820
Jerboa and Ice seal,NR14 7JD,52.573728810579000,1.334031874618270
bandy-bandy and Snipe,NR14 7JX,52.569094000000000,1.345416049294630
Skunk and saltwater crocodile,NR14 7JY,52.567982000000000,1.345522000000000
Bronzewing pigeon and Bronzewing pigeon,NR14 7LG,52.564135393464500,1.347619710679020
constrictor and bandy-bandy,NR14 7NT,52.566541346308700,1.384436682878830
racer and diamondback turtle,NR14 7PN,52.582897672474400,1.370386101051310
Greenbul and Piping shrike,NR14 7PY,52.580584901171300,1.347308934287240
swift and Pheasant,NR14 7RB,52.572881185951900,1.345260248171050
elapid and pit viper,NR14 7TW,52.572875000000000,1.349969000000000
Shearwater and Moluccan boobook,NR14 7UB,52.564509916700000,1.345508206342730
pit viper and constrictor,NR14 7UF,52.572833000000000,1.351442000000000
constrictor and agamid,NR14 7UT,52.576706000000000,1.336540000000000
Buzzard and Badger,NR14 7UX,52.576303000000000,1.336155000000000
hognose snake and Mink,NR14 7WP,52.567208473917500,1.344857684417600
taipan and Tree warbler,NR14 7WS,52.567072727000000,1.343577972900000
sand viper and Maya,NR14 7WZ,52.570135000000000,1.344395000000000
Siskin and python,NR14 8RD,52.583376000000000,1.314964000000000
Skunk and Polecat,NR14 8RG,52.574292369873600,1.324553063308050
agama and worm lizard,NR15 1EB,52.521350575548300,1.380531419201890
galliwasp and B,NR15 1EW,52.523764356443000,1.381985018055010
rat snake and Duck,NR15 1EX,52.529594000000000,1.358225205546480
Greenbul and diamondback turtle,NR15 1HS,52.541590613623900,1.364002503182750
mountain devil and Old World vulture,NR15 1LG,52.545743499731300,1.379854964022370
gavial and monitor,NR15 1XL,52.537927618546600,1.324015232105600
king snake and garter snake,NR31 6DE,52.565613396653500,1.724749483369900
bicycle lizard and tiger snake,NR31 6SU,52.566708000000000,1.724577000000000
blue tongue and White ibis,NR31 6SZ,52.563190648519500,1.724278306670110
Peafowl and box turtle,NR31 6TB,52.559878621719400,1.721768848824490
iguana and Logrunners,NR31 6TU,52.556603598070600,1.724369133581150
chameleon and Logrunners,NR31 7AR,52.574169039631400,1.723556109774000
pit viper and Kite,NR31 7BU,52.573682297367300,1.715867282461710
Condor and Jay,NR31 7BX,52.573512131785600,1.715557608183560
python and frill-necked lizard,NR31 7DD,52.575252305770700,1.712560150722750
Kestrel and amphisbaena,NR31 7DQ,52.574932053232600,1.709215000000000
Parrotbill and rock python,NR31 7DU,52.559536699300000,1.705682261700000
puff adder and bearded lizard,NR31 7EQ,52.566524900418700,1.713785442140140
dugite and hawksbill,NR31 7JY,52.572004943138800,1.709702004119120
Pratincole and whip snake,NR31 7LA,52.573697488826900,1.709653107028720
Tahr and Diving bird,NR31 7LF,52.574499209641100,1.712481694193930
moloch and asp,NR31 7PP,52.570538605521100,1.722303391107100
glass snake and Buzzard,NR31 8AZ,52.586111272015400,1.714778419750020
fer-de-lance and iguana,NR31 8BD,52.586124517277500,1.717792166173230
grass snake and puff adder,NR31 8BN,52.584287329421900,1.723868256848880
Parrotlet and puff adder,NR31 8BY,52.583787000000000,1.719742000000000
Pheasant and gavial,NR31 8DU,52.580068492468500,1.718445628478040
Night heron and rock snake,NR31 8EN,52.579785204098100,1.715808000000000
Quetzal and Myna,NR31 8HY,52.579327162567200,1.697046757921900
hoop snake and Dolphin,NR31 8JJ,52.581030334504700,1.707290168643420
Darwin's finches and krait,NR31 8LA,52.579204411210400,1.712451481737560
iguana and brown snake,NR31 8LE,52.580553939172500,1.714160352399130
alligator and diamondback terrapin,NR31 8LQ,52.579165568146700,1.715120735949460
Capuchin and River dolphin,NR31 8LY,52.584297877312700,1.707211805787650
Pheasant and diamondback terrapin,NR31 8NE,52.577301527651000,1.697392904996530
Grosbeak and Scimitar babbler,NR31 8NN,52.577844647122800,1.695844047547900
Jackal and Warbler,NR31 8NT,52.576161983862100,1.696440586563810
fer-de-lance and fer-de-lance,NR31 8NZ,52.576299000000000,1.691506000000000
lizard and jew lizard,NR31 8PY,52.574146006767100,1.697053302833830
dugite and horned viper,NR31 8QF,52.573191822278100,1.691894364369690
Flameback and black snake,NR31 8QN,52.575332961224400,1.696488887946310
Guillemot and chameleon,NR31 8SA,52.581660339416600,1.702396706440500
python and Greenbul,NR31 8SN,52.571957754110200,1.696559001896650
Booted eagles and flying lizard,NR31 8SP,52.570161468736500,1.695610597143830
caiman and milk snake,NR31 8SX,52.584415861313700,1.695969220685890
terrapin and Elephant,NR31 9DT,52.566151797962500,1.682283519494250
constrictor and Siskin,NR31 9EH,52.586207244426800,1.707993367712450
Grouse and Vole,NR31 9FL,52.577455813346600,1.657718444652610
puff adder and tokay,NR31 9FN,52.576560000000000,1.653274000000000
Tit-tyrant and Mockingbird,NR31 9GR,52.575117448698600,1.665555120801570
Masked owl and Songlark,NR31 9GW,52.588000639679000,1.709031029780530
box turtle and dugite,NR31 9HA,52.544640000000000,1.655252000000000
Elephant and Grackle,NR31 9HZ,52.528078454970000,1.613746311449750
Vole and green turtle,NR31 9JY,52.569519286548400,1.665087740023760
cayman and cayman,NR31 9LG,52.568559428859700,1.668196131734970
Grosbeak and diamond python,NR31 9LX,52.560713000000000,1.656427000000000
puff adder and viper,NR31 9PL,52.565750600311000,1.659857883003600
cobra and Grosbeak,NR31 9PY,52.577420000000000,1.657760000000000
monitor and Perching duck,NR31 9QB,52.579142907073900,1.657844272220090
Argus and mountain devil,NR31 9QD,52.580795094241700,1.659680027205250
green turtle and Minke whale,NR31 9RR,52.542794567746100,1.724718341599600
terrapin and Parrotlet,NR31 9US,52.537175064855200,1.723645000000000
Gila monster and sea snake,NR32 2QX,52.479101487048000,1.720169935453370
Logrunners and Asiatic leopard,NR32 3DY,52.487289472606400,1.722084589656760
Dolphin and monitor,NR32 3HE,52.484860047045800,1.717252864407160
tuatara and Triller,NR32 3HS,52.484041374145200,1.706089488412090
anole and king snake,NR32 3JU,52.480602126679000,1.698154073222340
Minke whale and Magpie,NR32 3JW,52.496915000000000,1.716075000000000
Chipmunk and Goose,NR32 3LB,52.481342715935400,1.704948999968000
gaboon viper and Skunk,NR32 3LW,52.475904542023200,1.711709678274870
Egret and alligator,NR32 3PJ,52.476771177617200,1.702148636599510
Jay and tiger snake,NR32 3QW,52.492207998173700,1.714704931771860
snapping turtle and Argus,NR32 3RF,52.475985000000000,1.715481000000000
Capuchin and harlequin snake,NR32 5BF,52.509324000000000,1.701872000000000
Quetzal and pit viper,NR32 5PB,52.500151929110200,1.702331465581730
Elephant and Moluccan boobook,NR32 5QA,52.516493169624800,1.659075980093690
Goose and death adder,NR32 5QY,52.514314642770100,1.657390965782280
Tit-tyrant and skink,NR33 7EP,52.452722681347900,1.718356083833960
Black cockatoo and Grouse,NR33 7HH,52.456718394123400,1.722006067667010
Polecat and Zebra,NR33 7SA,52.414795137886300,1.724796358243230
Logrunners and elapid,NR33 7SL,52.418402673611100,1.705048969342210
garter snake and Jackal,NR33 7SY,52.419387816699500,1.707765060722640
leathery turtle and rat snake,NR33 7TT,52.420113526605900,1.712151355812070
snapping turtle and sidewinder,NR33 7TZ,52.418742726054800,1.717126301632540
Tit-tyrant and amethystine python,NR33 7UL,52.420675064666100,1.708020304107350
Maya and coral snake,NR33 8AG,52.453301943315100,1.696747219137000
hoop snake and Ibex,NR33 8BE,52.451299244244800,1.695784305793050
Vulture and mountain devil,NR33 8BS,52.461611931825000,1.675163971889690
black snake and Warbler,NR33 8DH,52.456299456690900,1.705862472353940
king snake and Chickadee,NR33 8DR,52.433974424308000,1.713302715994150
monitor and Nukupu ªu,NR33 8DW,52.454740531926200,1.705952289172260
Linsang and Eagle,NR33 8EN,52.421390418218900,1.688336328508500
brown snake and Francolin,NR33 8GA,52.453792217545200,1.690339000000000
Chipmunk and cycling lizard,NR33 8GH,52.453660292001300,1.689312611241550
Masked owl and puff adder,NR33 8GX,52.455411741436100,1.691697183395320
crocodile and anaconda,NR33 8JX,52.448690301225800,1.693210208547480
rock snake and Viscacha,NR33 8NL,52.460854288276900,1.695127558101730
krait and Parakeet,NR33 8NR,52.459870733723100,1.696664889439600
Dolphin and Dolphin,NR33 8NU,52.458547474132400,1.694109601775350
Piping shrike and snapping turtle,NR33 8PX,52.463657783941000,1.702976221924250
Peafowl and racer,NR33 8UB,52.450206667261700,1.716274205287620
iguana and Argus,NR33 8UG,52.451190774911100,1.708716200220570
black snake and crocodile,NR33 8WE,52.449976104737600,1.706435181003030
Shearwater and tortoise,NR33 9AS,52.466335082558800,1.718827056345480
tortoise and flying dragon,NR33 9AY,52.464588129271700,1.720888689393830
Black cockatoo and racer,NR33 9BB,52.468341635125100,1.723945071800310
Minke whale and Flameback,NR33 9BD,52.466738114318900,1.721453137731240
horned toad and Badger,NR33 9BQ,52.467446612010400,1.722661747044270
Marsh harrier and Macaw,NR33 9BY,52.463511000000000,1.719708000000000
Cloud rat and tree snake,NR33 9EB,52.462640961264800,1.719310579837010
boomslang and Snipe,NR33 9EG,52.462322961288000,1.722552962167590
Condor and flying lizard,NR33 9NS,52.470440757272000,1.718127805563430
Old World warbler and gavial,NR33 9PF,52.468739862510200,1.711003063138700
bicycle lizard and Parrotbill,NR33 9RU,52.469770801549400,1.718837165873240
Snipe and anaconda,NR34 0DN,52.496603421191600,1.574510882418230
gavial and Old World vulture,NR34 0EX,52.504015000000000,1.565901000000000
Tahr and Old World vulture,NR34 7AQ,52.448556711146000,1.584247085156970
lizard and rattlesnake,NR34 7AZ,52.449215186836600,1.576468911699280
Tahr and rock python,NR34 7BD,52.452173333600000,1.573484632300000
Mamo and Parrotbill,NR34 7BT,52.447207606051300,1.583651667744370
Chickadee and Vole,NR34 7EX,52.447870845805400,1.589155000000000
mamba and cobra de capello,NR34 7HL,52.379409431373600,1.657758639906060
Black cockatoo and Tahr,NR34 7JJ,52.384276439935000,1.681460744128980
jew lizard and Dorcopsis,NR34 7LB,52.421956374404800,1.660606403686090
leguaan and B,NR34 7LF,52.414446947564000,1.667235812798620
Tahr and Goose,NR34 7LX,52.388565288319000,1.655752510240770
tokay and sand lizard,NR34 7NG,52.407941858229800,1.639677515186770
sand lizard and bearded dragon,NR34 7PU,52.446535496084800,1.632748608953140
Shearwater and tokay,NR34 7QQ,52.454935410778500,1.633661512888960
indigo snake and boa constrictor,NR34 7QT,52.451803000000000,1.644283000000000
amethystine python and Skunk,NR34 7SF,52.451466445671100,1.600663087261930
Solitaire and puff adder,NR34 7TZ,52.402711000000000,1.598776000000000
elapid and sand lizard,NR34 8ED,52.398900531259700,1.539427543863460
taipan and Thrasher,NR34 8HN,52.446643379501200,1.516525707299120
amethystine python and Prion,NR34 8HX,52.430012197628800,1.497763736688620
Polecat and Francolin,NR34 8HY,52.431634739777500,1.504926112887830
Boto and monitor,NR34 8JF,52.421417266851000,1.469277939511020
Jerboa and Komodo dragon,NR34 8NR,52.422214000000000,1.506620000000000
Armadillo and crocodile,NR34 9BD,52.463893955412000,1.564273800743500
water snake and Solitaire,NR34 9BH,52.463826000000000,1.565670996306780
snapping turtle and deaf adder,NR34 9BX,52.461933000000000,1.578016000000000
Songlark and galliwasp,NR34 9DA,52.462257707977200,1.566335599695020
Grosbeak and worm lizard,NR34 9DH,52.461437125349900,1.564914490137310
Elephant and bearded dragon,NR34 9DN,52.460840042939400,1.566220909768070
bushmaster and thorn lizard,NR34 9DS,52.459820822530500,1.566315156682400
loggerhead and Rat,NR34 9ET,52.452890292721500,1.567962975722710
Armadillo and Armadillo,NR34 9HR,52.446997504834900,1.574257654816630
Old World vulture and gopher snake,NR34 9JB,52.450882217842100,1.570420973179700
Mole and black snake,NR34 9JP,52.444320673802900,1.574438171426310
anaconda and Shearwater,NR34 9LS,52.447175652688800,1.579365393237610
frilled lizard and Scimitar babbler,NR34 9LU,52.447811205948000,1.580980000000000
ringhals and Capuchin,NR34 9NE,52.455064564865300,1.561484068134620
Songlark and Lemming,NR34 9PS,52.444471785852500,1.572713503320990
Piping shrike and Solitaire,NR34 9PW,52.456792264994800,1.560563521394010
Kite and Armadillo,NR34 9PZ,52.456744454759500,1.565727667704630
blue racer and rock python,NR34 9QF,52.456755762601400,1.564756819336450
leathery turtle and Jay,NR34 9SB,52.452350955323500,1.570333781274560
amphisbaena and Buzzard,NR34 9SS,52.453920000000000,1.569840599338500
king snake and bandy-bandy,NR34 9XF,52.447414692461700,1.561337365013770
River dolphin and Viscacha,NR35 1DD,52.455456362232000,1.435869857489380
Armadillo and Black cockatoo,NR35 1DJ,52.451225000000000,1.441620000000000
Shearwater and Thicketbird,NR35 1EA,52.456912000000000,1.433156000000000
Old World quail and cobra de capello,NR35 1EY,52.455184117201200,1.440589334692070
Maya and Warbler,NR35 1JL,52.452231200943500,1.455787288011720
Masked owl and turtle,NR35 1JS,52.451339218791000,1.453994986906230
moloch and diamond python,NR35 1LL,52.448447759233700,1.455373082197850
Night heron and giant tortoise,NR35 1NZ,52.435311228288000,1.401308043811960
Moluccan boobook and diamondback turtle,NR35 1PN,52.445143000000000,1.439512000000000
Argus and harlequin snake,NR35 1QU,52.416363899366500,1.458495804022370
Meadowlark and harlequin snake,NR35 1RF,52.446805184200100,1.437992718300850
Jackal and slowworm,NR35 1RS,52.445295835061300,1.440715914856830
Masked owl and Dorcopsis,NR35 1RW,52.445384199728800,1.443239820829670
dugite and Egret,NR35 1SD,52.446824953310900,1.446266820380860
Fox and glass snake,NR35 2AU,52.468320890965100,1.361338451320460
blue racer and American sparrow,NR35 2DD,52.482921923054000,1.376034969361360
Dorcopsis and diamond snake,NR35 2DQ,52.476784148412300,1.393755817218250
dukite and agamid,NR35 2DY,52.475012389697400,1.438867422602160
Mouse and whip snake,NR35 2EQ,52.502791831823400,1.425355308246830
boa constrictor and Solitaire,NR35 2ES,52.473424002365000,1.494241794534490
Bunting and Parrotbill,NR35 2JQ,52.458556127496200,1.440616878577930
asp and Minke whale,NR35 2NL,52.495921053255900,1.373730651956670
giant tortoise and Eagle,NR35 2PD,52.468659531764100,1.455926533318850
blue racer and Dorcopsis,NR35 2PQ,52.482246328525500,1.478548000000000
death adder and boa,NR35 2QW,52.465834443522700,1.445794266301050
Gull and snake,NR35 2RZ,52.467140156082400,1.441728696249220
galliwasp and diamondback terrapin,NR35 2TA,52.452809961314300,1.423238464598970
smooth snake and Flameback,NR35 2TQ,52.447131881518700,1.424164000000000
