name,postcode,lat,lon
Moluccan boobook and goanna,IP19 0HX,52.380186942780100,1.398785801087820
blind snake and Goose,IP19 0NU,52.384029118684600,1.445588268226370
Hawk and Condor,IP20 0AN,52.445478000000000,1.353092000000000
alligator and New World blackbird,IP20 0ET,52.420204363639300,1.358762926763860
boa and Diving bird,IP20 0HH,52.413333843128200,1.342561341091430
blue tongue and gecko,IP20 0PB,52.390967274005400,1.369095425358580
thorny devil and Condor,IP20 9AB,52.401388946175900,1.299412428651250
horned toad and Kestrel,IP20 9AJ,52.402251097410300,1.298491609980500
Chickadee and tortoise,IP20 9BE,52.401625037626300,1.300297606673760
krait and Grouse,IP20 9DN,52.399167000000000,1.302378000000000
habu and Francolin,IP20 9DU,52.400550143363700,1.302393497868950
tuatara and Tahr,IP20 9DX,52.401420156980800,1.300870470459030
chuckwalla and Mockingbird,IP20 9ER,52.404037521287000,1.301677000000000
Schneider python and king snake,IP20 9FD,52.398185065125500,1.303025426376030
Capuchin and Capuchin,IP20 9HA,52.401443781431400,1.298093149016880
Moluccan boobook and Greenbul,IP20 9LX,52.401627132484700,1.299619000000000
Black cockatoo and thorn lizard,IP20 9NF,52.401777269011700,1.270900539361710
bushmaster and Perching duck,IP20 9PH,52.437531824243500,1.283395098234640
Skunk and Snipe,IP20 9PR,52.421680555478200,1.297750940951950
green turtle and Cloud rat,IP20 9QG,52.405714607334300,1.299426647079440
dukite and Crow,IP20 9QN,52.410050720598700,1.314486987773450
mud turtle and wall lizard,IP21 4EL,52.382844820688700,1.174685156831510
box turtle and rock snake,IP21 4FF,52.397452000000000,1.219970000000000
asp and copperhead,IP21 4HY,52.381839423415800,1.222761189534040
garter snake and Fox,IP21 4JR,52.375676171370900,1.237977309703350
gavial and Scimitar babbler,IP21 4JU,52.378190589447000,1.257736767432030
saltwater crocodile and Thrasher,IP21 4QT,52.420038245162800,1.246318914694230
indigo snake and Partridge,IP21 4RB,52.422772753080600,1.248594219463610
Zebra and Francolin,IP21 4SX,52.429777164759100,1.228643352393970
cycling lizard and cayman,IP21 4TF,52.424799935111400,1.224327000000000
agama and flying lizard,IP21 4UE,52.402867622474700,1.161831053946390
Stint and Armadillo,IP21 4UH,52.402813725339400,1.167870589567690
Mamo and coral snake,IP21 4UJ,52.402540891620000,1.169659627318030
Duck and moloch,IP21 4XG,52.433401000000000,1.229102492331560
dukite and Wader,IP21 4XT,52.450848060274400,1.238222762175630
green turtle and Boto,IP21 4YD,52.437118405103300,1.243660772889480
Herring gull and agamid,IP22 2AW,52.396422049654900,1.047093079807030
glass snake and Marmoset,IP22 2BD,52.400242779382600,1.070072443734490
Asiatic leopard and Buzzard,IP22 2DF,52.409387060532600,1.098737501684980
Pitohui and Diving bird,IP22 2DH,52.410181086839500,1.100352066721510
flying dragon and Goose,IP22 2DP,52.413990971435500,1.095677709755340
Viscacha and hognose snake,IP22 2EE,52.433419971447600,1.089712487278540
Puffleg and snake,IP22 2EF,52.432485694069600,1.081407407438740
black snake and frill-necked lizard,IP22 2EJ,52.432492749484900,1.097990289401380
Kestrel and deaf adder,IP22 2EW,52.431241901831100,1.096789000000000
leguaan and amethystine python,IP22 2HG,52.406578000000000,1.065469000000000
soft-shelled turtle and caiman,IP22 4DF,52.379879877855100,1.112747418020980
frill-necked lizard and carpet snake,IP22 4DZ,52.382758988556100,1.105527964660040
death adder and alligator,IP22 4NP,52.378584772826400,1.119225326159860
Jay and Magpie,IP22 4PE,52.379852324329200,1.122988801699280
dugite and American sparrow,IP22 4PR,52.375004637745900,1.115504918721010
milk snake and Macaw,IP22 4QZ,52.381801719879200,1.104652412614330
frilled lizard and Greenbul,IP22 4SY,52.385372371904000,1.112502029519500
giant tortoise and Solitaire,IP22 4UB,52.378431411702800,1.125680651806000
anaconda and Armadillo,IP22 5QX,52.380664342668600,1.090067123077310
Eagle and Snipe,IP22 5SX,52.390055271115800,1.120784237285460
Fulmarine petrel and Old World warbler,IP22 5UW,52.426937897874300,1.149578048727780
American sparrow and diamond snake,IP22 5XJ,52.379099092035100,1.095233615605950
Gila monster and Kākāriki,NR14 6AL,52.555463746770800,1.431467041499390
carpet snake and blind snake,NR14 6AQ,52.556945000000000,1.449542000000000
cayman and hognose snake,NR14 7BW,52.562093152041800,1.434848046051130
Komodo dragon and boa,NR14 7BZ,52.571113015668100,1.431169381614970
Vulture and Vole,NR14 7DP,52.594466577217500,1.379117119354480
Darwin's finches and pit viper,NR14 7ET,52.585710517415200,1.413128947061930
snapping turtle and green turtle,NR14 7GS,52.572418000000000,1.340613000000000
Viscacha and Elephant,NR14 7HP,52.589403472400000,1.433765975669970
black snake and Ground sloth,NR14 7HS,52.587559903775700,1.437165822112820
Jerboa and Magpie,NR14 7JE,52.566854377653000,1.346247652302720
Snipe and saltwater crocodile,NR14 7LE,52.565326000000000,1.349452000000000
Thicketbird and elapid,NR14 7LY,52.565093382447500,1.348091219290760
sea snake and dukite,NR14 7PQ,52.565973128135700,1.394436000000000
frill-necked lizard and tree snake,NR14 7QR,52.580150137040200,1.336911318502170
Elephant and Stint,NR14 7RA,52.572850849673000,1.344106520739400
tiger snake and diamond python,NR14 7RB,52.572881185951900,1.345260248171050
mountain devil and black snake,NR14 7RG,52.569536527920000,1.347131004069150
Quetzal and Mockingbird,NR14 7RN,52.568964132419600,1.349877105677680
Chipmunk and Kite,NR14 7UB,52.564509916700000,1.345508206342730
Viscacha and leathery turtle,NR14 7UP,52.578912000000000,1.343779000000000
asp and thorn lizard,NR14 7WB,52.570076249015500,1.343629543448750
Francolin and cayman,NR14 7WR,52.567882000000000,1.343994000000000
Masked owl and agamid,NR14 7XG,52.567311000000000,1.344467000000000
black snake and green turtle,NR14 7XQ,52.563118000000000,1.345086000000000
black snake and Marsh harrier,NR14 8AT,52.558364252908200,1.239308679639480
Solitaire and Mouse,NR14 8DY,52.578585630597700,1.248887000000000
pit viper and grass snake,NR14 8FL,52.558574000000000,1.197821000000000
Rat and Macaw,NR14 8GY,52.566563000000000,1.302826000000000
harlequin snake and horned viper,NR14 8HG,52.555167624865500,1.208765580355700
Greenbul and Parrotlet,NR14 8LD,52.583848231008600,1.228919149942930
monitor and Dolphin,NR14 8LX,52.559955717513400,1.238009343126380
Jerboa and terrapin,NR14 8NE,52.571397405955300,1.323876299886600
Night heron and Bunting,NR14 8PZ,52.550723600807400,1.270215688408500
Petrel and Kākāriki,NR14 8QU,52.593604000000000,1.304956000000000
saltwater crocodile and slowworm,NR15 1AG,52.552568000000000,1.328914000000000
snapping turtle and cobra de capello,NR15 1AR,52.520789220375800,1.235686411692160
New World blackbird and Hawaiian honeycreeper,NR15 1DL,52.529586706970800,1.417531593162790
gecko and Parakeet,NR15 1HR,52.540074185844300,1.365774570455320
Lemming and viper,NR15 1NJ,52.514419183980800,1.250534683400720
Treepie and Eagle,NR15 1PA,52.535062393903800,1.259582211280040
loggerhead and worm lizard,NR15 1QP,52.527954845777200,1.230506705098280
bushmaster and Rabbit,NR15 1RJ,52.527460876485900,1.232785557486150
Capuchin and Lemming,NR15 1TH,52.520625000000000,1.309910000000000
Treepie and hoop snake,NR15 1TR,52.531814000000000,1.287318000000000
chuckwalla and amphisbaena,NR15 1XZ,52.526783039208700,1.328216167170590
Vole and diamondback,NR15 1YG,52.546723936817400,1.309248930596810
bicycle lizard and Kangaroo,NR15 2HB,52.466004552446000,1.190859933265310
dugite and gopher snake,NR15 2LN,52.501574980196400,1.280535077265040
Francolin and blindworm,NR15 2ND,52.504690278199000,1.295609022446200
rattlesnake and Darwin's finches,NR15 2NX,52.482797106738700,1.295046481838660
whip snake and Chickadee,NR15 2PD,52.485395731293200,1.220667219764840
king cobra and whip snake,NR15 2PJ,52.490792787693300,1.234469542561370
Logrunners and agamid,NR15 2QL,52.485473785335100,1.265355136724330
American sparrow and blue tongue,NR15 2RL,52.483693602803600,1.234257690077880
frill-necked lizard and moloch,NR15 2RY,52.480857736486200,1.231073978552600
Old World warbler and hognose snake,NR15 2RZ,52.480197000000000,1.262033000000000
bearded lizard and Boto,NR15 2SW,52.464270933980500,1.273974226815850
smooth snake and Linsang,NR15 2TL,52.481216000000000,1.230511000000000
Tit-tyrant and White ibis,NR15 2TY,52.485922222978000,1.224447661013610
Boto and Solitaire,NR15 2UP,52.470005000000000,1.214182000000000
soft-shelled turtle and Ice seal,NR15 2WH,52.490998389888100,1.240098236425350
Snipe and swift,NR15 2WZ,52.486926623400000,1.221884042900000
Jackal and chuckwalla,NR15 2XP,52.492419304194600,1.230242369949220
Old World vulture and Stint,NR15 2XS,52.487372704028300,1.229297725588330
carpet snake and deaf adder,NR15 2XW,52.485710599027000,1.233183005755910
Chickadee and death adder,NR16 1AB,52.501582423436500,1.117733215201480
Nukupuʻu and Stint,NR16 1DN,52.512519749524000,1.149932000000000
smooth snake and Meadowlark,NR16 1DQ,52.502031398612700,1.152692086246180
massasauga and diamondback turtle,NR16 1HB,52.533979055830700,1.152917062227350
hognose snake and water snake,NR16 1HX,52.491226419221500,1.184376934798450
caiman and flying lizard,NR16 1HZ,52.495251377287000,1.193199572351580
blue racer and iguana,NR16 1JU,52.502136488397200,1.179329935618270
cerastes and Mouse,NR16 1JW,52.513087151893800,1.205107063745130
Francolin and box turtle,NR16 1PW,52.456586631566900,1.114050938003220
garter snake and Mole,NR16 1QG,52.467727000000000,1.122701000000000
Civet and frill-necked lizard,NR16 1SJ,52.493802753320800,1.130001394541940
Kākāriki and Buzzard,NR16 2AX,52.472908942627200,1.071110536328440
saltwater crocodile and thorny devil,NR16 2AZ,52.471851000000000,1.071761739009010
Greenbul and diamond python,NR17 1RG,52.483987043923200,1.039857789047860
Towhee and agamid,NR18 0BE,52.568947690068800,1.111044373128070
skink and indigo snake,NR18 0FP,52.581826668196500,1.137926647393110
habu and carpet snake,NR18 0FQ,52.583474068800000,1.138516833700000
Chipmunk and slowworm,NR18 0HZ,52.578290609635000,1.126439474830860
Duck and Tattler,NR18 0JA,52.580208320429800,1.117496550064590
sidewinder and rattlesnake,NR18 0LT,52.580231801389800,1.117970645071310
Rat and sand viper,NR18 0NP,52.577613691002700,1.131631975826520
Polecat and Scimitar babbler,NR18 0QE,52.570612000000000,1.115502000000000
asp and Bronzewing pigeon,NR18 0QF,52.569571502635500,1.116387312306400
Mouse and Schneider python,NR18 0QT,52.576444498734500,1.117672201889160
galliwasp and Gila monster,NR18 0SJ,52.578084327716700,1.130159746522530
Kestrel and glass snake,NR18 0WY,52.576464656373500,1.138340626744640
Grackle and diamondback,NR18 0XB,52.573112908624900,1.128388348641180
gaboon viper and White ibis,NR18 0XU,52.570912175888400,1.129309094537850
Mink and Grosbeak,NR18 0YU,52.581025000000000,1.140636000000000
Komodo dragon and Komodo dragon,NR18 8BZ,52.571621521100000,1.110569516300000
Dorcopsis and wall lizard,NR18 8DN,52.571621521100000,1.110569516300000
diamondback turtle and gaboon viper,NR18 8DR,52.571621521100000,1.110569516300000
Linsang and Mamo,NR18 8EW,52.571663000000000,1.110638000000000
caiman and frill-necked lizard,NR18 8EZ,52.571663000000000,1.110638000000000
Flameback and carpet snake,NR18 9AY,52.560430827792300,1.119590458746110
Eagle and Solitaire,NR18 9BU,52.558248000000000,1.073840000000000
ringhals and Tattler,NR18 9EN,52.581540000000000,1.088034000000000
Mink and sidewinder,NR18 9FN,52.556176000000000,1.123648000000000
rock snake and Thrasher,NR18 9HT,52.581029030934500,1.052211496724010
Fulmarine petrel and Jay,NR18 9JH,52.550725778730300,1.092581539563540
rattlesnake and Marmoset,NR18 9JR,52.535556690985700,1.084907530406820
Logrunners and Night heron,NR18 9NH,52.552913000000000,1.127437000000000
Snipe and king snake,NR18 9NP,52.556979735908200,1.137863718446170
blind snake and loggerhead,NR18 9PD,52.574692847258600,1.067359046414580
hoop snake and bearded lizard,NR18 9QX,52.567220419300000,1.056181382700000
American sparrow and Francolin,NR18 9QY,52.562384791312300,1.143282029290400
Mink and Quetzal,NR18 9RQ,52.572067846540300,1.164640057098000
Hawk and frill-necked lizard,NR18 9SH,52.554579650778000,1.091023147460460
Armadillo and Parrotlet,NR18 9SY,52.545843474245100,1.062469235165360
boa constrictor and Peafowl,NR35 1AA,52.456616521060500,1.434325992650760
Wallaby and Jay,NR35 1BX,52.453435961100800,1.439466565270490
box turtle and saltwater crocodile,NR35 1DJ,52.451225000000000,1.441620000000000
tiger snake and goanna,NR35 1DL,52.450644595253600,1.442355033070930
Tahr and Badger,NR35 1DZ,52.457330916841100,1.431716711241910
snapping turtle and Polecat,NR35 1PN,52.445143000000000,1.439512000000000
Solitaire and Bunting,NR35 2AL,52.454754647740000,1.399494988208580
monitor and Mamo,NR35 2AP,52.458621059146200,1.380092905759430
thorn lizard and grass snake,NR35 2DD,52.482921923054000,1.376034969361360
Puffleg and Kite,NR35 2DN,52.474002532355400,1.417882000000000
cycling lizard and moloch,NR35 2LA,52.482570415736600,1.403968632938020
Tree warbler and alligator,NR35 2NA,52.505732808114400,1.372492813046940
loggerhead and rock python,NR35 2NG,52.495920836656200,1.350020451949050
Vole and dukite,NR4 6XT,52.599912643054200,1.238062600565920
massasauga and Dorcopsis,NR9 3DS,52.596902665723800,1.167848738290100
boa and massasauga,NR9 3FA,52.597706000132800,1.180815249623180
