name,postcode,lat,lon
Fox and Meadowlark,HA7 3QT,51.610036148417200,-0.324038992373573
Ice seal and Towhee,EN6 1EP,51.704104868428600,-0.188489739297545
Flameback and Parakeet,HA8 7NE,51.612861333003100,-0.278641000000000
Fulmarine petrel and Minke whale,AL2 3RS,51.711953730000000,-0.374033834000000
Minke whale and Flameback,WD19 5DH,51.630938225683800,-0.378781655087546
Goose and Chickadee,N12 7HS,51.614563519771700,-0.189298253230798
Meadowlark and Mouse,HA8 9BN,51.609361886596800,-0.267681484018909
Black cockatoo and White ibis,HP2 4HJ,51.752969952448500,-0.441363812383315
Dolphin and Wader,N20 9BN,51.635474000000000,-0.174347000000000
Ice seal and Stilt,WD4 8PA,51.720125850793700,-0.422065971071575
Stint and Prion,WD4 8DR,51.709700158567800,-0.446050213161750
River dolphin and Rat,AL10 0QX,51.772589700000000,-0.227463740000000
Pratincole and Viscacha,HA8 7FT,51.609133000000000,-0.276910000000000
Rat and Chickadee,EN4 0HU,51.670457793922400,-0.168313194163582
B and Skunk,WD6 3WZ,51.655281258567800,-0.279043537785237
Tit-tyrant and Songlark,EN4 8FN,51.644294748000000,-0.147297309200000
Rabbit and Duck,AL3 5LF,51.759863060000000,-0.342507322000000
Diving bird and Asiatic leopard,AL1 9NF,51.747650000000000,-0.301973000000000
Linsang and Snipe,HA6 2BJ,51.611351000000000,-0.439575000000000
Partridge and River dolphin,HA6 1DY,51.607215197598100,-0.419528249333632
Meadowlark and Fish eagle,WD4 8LW,51.701397339109700,-0.437666378642891
Fish eagle and Jackal,WD6 5LZ,51.668978629147100,-0.270021308593441
Macaw and Gull,AL10 8RE,51.749631460000000,-0.230347368000000
Badger and Jackal,WD17 4TD,51.674919270244900,-0.417085868837957
Parakeet and Marsh harrier,NW7 1RT,51.612552485915300,-0.214755293097274
Marmoset and Elephant,HA5 3AT,51.598219928130600,-0.375817560804475
Chicken and Treepie,WD6 4NB,51.660520573770400,-0.286826134517583
Towhee and Dolphin,AL9 7ST,51.722399980000000,-0.204046764000000
Scimitar babbler and Diving bird,HA7 4LQ,51.626684485092100,-0.316765206666456
Mamo and Warbler,EN5 5TW,51.655123081284100,-0.198351407170201
Mamo and Parrotlet,HP3 8NN,51.747440335169500,-0.440713949418905
Lemming and Thrasher,AL10 8RB,51.750011000000000,-0.232211682000000
Hawaiian honeycreeper and River dolphin,HA6 3NE,51.616279722016300,-0.418231201494675
Fish eagle and Ibex,N3 1UX,51.602192230223700,-0.192938363430145
Kangaroo and Thicketbird,AL1 1HE,51.748713000000000,-0.340525000000000
Parrotlet and Crow,WD25 9LA,51.688077123290500,-0.388835732704154
Kite and Dolphin,N20 9BD,51.635093000000000,-0.173539000000000
Viscacha and Old World warbler,EN4 0PW,51.672668885890800,-0.174023479387686
Perching duck and Piping shrike,HA6 3FJ,51.617613231326800,-0.418778000000000
Tree warbler and Petrel,AL1 2DD,51.736584000000000,-0.335066000000000
Night heron and Partridge,HA6 2RG,51.615869000000000,-0.442540000000000
Grosbeak and Fulmarine petrel,EN5 9PS,51.643012000000000,-0.171144786961926
Meadowlark and Night heron,AL10 8HG,51.757804810000000,-0.232708431000000
Thrasher and Kite,WD23 1NH,51.634219572953500,-0.339476289969537
Goose and Armadillo,WD19 7QX,51.629043764522900,-0.403931423772247
Tit-tyrant and Gull,HA3 6DN,51.613052180129500,-0.331871732634384
Chipmunk and Elephant,HA6 2BB,51.626314992609900,-0.435016809650311
Minke whale and Condor,HA6 3AL,51.615154959081000,-0.422184580269368
Tree warbler and Marsh harrier,WD18 7QG,51.648659000000000,-0.414084000000000
Warbler and Goose,AL10 8EZ,51.757716630000000,-0.231031078000000
Booted eagles and Boto,N12 0HT,51.607056060903900,-0.179487801408353
Elephant and Lemming,WD19 4GE,51.641232538101600,-0.382576775575425
Vulture and Peafowl,NW9 5UW,51.602324000000000,-0.250245288900000
Argus and Crow,WD6 2HD,51.647277724212700,-0.268000014784656
Perching duck and Linsang,AL1 9TU,51.747828000000000,-0.301865000000000
Asiatic leopard and Cloud rat,HA5 2BP,51.595886337913300,-0.399044546006081
Black jay and Stint,N12 0DL,51.609528847115800,-0.177742437026675
Old World vulture and Cloud rat,AL4 9XH,51.766851560000000,-0.300440821000000
Jerboa and Towhee,N11 3FH,51.611497069161900,-0.148936268651704
Fox and Capuchin,AL1 4LH,51.752145870000000,-0.312032531000000
Puffleg and Duck,N12 9DT,51.615099804592600,-0.174572693008916
Night heron and Prion,WD18 6PJ,51.645910937571200,-0.421753096513089
Moluccan boobook and Grouse,N12 7EE,51.618141000000000,-0.185681407873019
Warbler and Chickadee,WD19 5EL,51.623199883115200,-0.375807017537929
B and Condor,WD25 9SD,51.681473805153000,-0.377498125010857
Philippine hawk-owl and Towhee,NW7 2RE,51.611633426658100,-0.227688993898563
Badger and Mole,EN5 2DS,51.646568791343400,-0.195250452274634
Dolphin and Wallaby,WD17 4LU,51.671298646933000,-0.414652360348139
Polecat and Myna,HA6 2DP,51.616920359389400,-0.431801096392341
Philippine hawk-owl and Partridge,HA3 6JB,51.606234050654400,-0.346981555063276
Moluccan boobook and Francolin,AL10 9SQ,51.759536810000000,-0.245681977000000
Tattler and Hawaiian honeycreeper,HA6 3EA,51.621585090075500,-0.420907019458088
Kākāriki and Nukupuʻu,HA8 8QE,51.627492615933000,-0.277624682498900
Linsang and Warbler,EN5 1JB,51.648582411034100,-0.175425141743525
Viscacha and Chickadee,NW7 3WR,51.615469131180800,-0.241174947996936
Old World vulture and Condor,EN4 9QG,51.652000000000000,-0.162691069897433
Condor and New World blackbird,NW7 1AH,51.618209661197900,-0.216005000000000
Herring gull and Grosbeak,WD24 4ER,51.672199862778600,-0.394938108616567
Peafowl and Egret,WD23 1EQ,51.635552984594000,-0.340294618717784
Booted eagles and B,HA3 7HN,51.603471808617500,-0.327818563211280
Mink and Kākāriki,WD19 6RL,51.625873591168800,-0.387139000000000
Pheasant and Pitohui,WD6 5PG,51.678069000000000,-0.246243000000000
Dorcopsis and Masked owl,HA5 4RQ,51.606548286541700,-0.378538588505180
Jerboa and Polecat,AL3 4QL,51.753033010000000,-0.347248635000000
Moluccan boobook and Diving bird,HA3 6JH,51.606725113966000,-0.346924000000000
Parrotlet and Nukupuʻu,AL3 5LU,51.758430440000000,-0.335938006000000
Old World quail and Petrel,N12 0AB,51.608924801543700,-0.174748190634762
Old World quail and Dolphin,HP2 4LY,51.747680113688300,-0.424307469216845
Towhee and Quetzal,HA8 5BQ,51.601490500603100,-0.273569228355982
Peafowl and Masked owl,AL2 2AQ,51.713447080000000,-0.354062364000000
Condor and Herring gull,N20 8DU,51.630340493152500,-0.182023518371574
Chipmunk and Duck,WD6 1PQ,51.660300965671200,-0.279185913773071
River dolphin and Greenbul,HP2 4SR,51.758667000000000,-0.432874064134698
Cuscus and Jackal,HP2 4UU,51.753457530761500,-0.434074099399036
Duck and Petrel,HA8 0PT,51.609877167539800,-0.256931151668347
Tit-tyrant and Meadowlark,AL2 1RD,51.719348190000000,-0.291856794000000
Snipe and Kākāriki,AL3 4TG,51.754159780000000,-0.349366254000000
Puffleg and Flameback,HA8 7TL,51.615432819556600,-0.286141087726935
Perching duck and White ibis,HA7 2JE,51.598250135294500,-0.311680266531733
Boto and Black jay,N12 8AZ,51.620466648069900,-0.181145000000000
Darwin's finches and Piping shrike,WD6 1UT,51.658750011060700,-0.280733831773338
Vulture and Pitohui,EN5 9FU,51.643012000000000,-0.171144781374464
Goose and Masked owl,WD3 3JP,51.655911469668400,-0.450218075609901
Treepie and New World blackbird,EN4 0EN,51.667641529003400,-0.172822924118508
Rat and Pheasant,HA3 6AT,51.605693880704700,-0.329152144083697
Chicken and Zebra,AL10 8RF,51.750183190000000,-0.230443000000000
Argus and Hawaiian honeycreeper,NW7 0JY,51.615437000000000,-0.241094000000000
Rabbit and Grouse,WD18 8YH,51.643176660801900,-0.432441883001517
Kākāriki and Dolphin,HA8 7LU,51.612682625092300,-0.277636482298683
River dolphin and Myna,WD25 9AN,51.683677758268800,-0.377563999257190
Parrotlet and Pitohui,HA5 4SY,51.602117386008200,-0.376747050169291
Pratincole and Ice seal,N12 0BB,51.608202663201300,-0.176885692530330
Armadillo and Fulmarine petrel,HA3 5NS,51.602497170530800,-0.355579053028756
Fulmarine petrel and Boto,WD18 0WB,51.652871388150500,-0.396575027537420
Coati and Maya,WD7 8EZ,51.693941497419000,-0.325296617562960
Capuchin and Kangaroo,AL1 1PU,51.746814110000000,-0.332221918000000
Marmoset and Kite,HA7 4QY,51.617608057699300,-0.294726040441400
Myna and Treepie,HA5 3HN,51.599408595229600,-0.386373304784633
Rabbit and Grackle,WD5 0AL,51.704880585887300,-0.418603000000000
Egret and Kākāriki,HA3 6QU,51.608487897142000,-0.349167000000000
Gull and Chicken,N3 2DS,51.606677249739500,-0.182896718252731
Mink and Kangaroo,WD18 0AL,51.650839461998700,-0.397253842816447
Hawaiian honeycreeper and Triller,AL10 9NW,51.757981440000000,-0.245698789000000
Stilt and Greenbul,AL2 3AF,51.731972850000000,-0.360659018000000
Parakeet and Vulture,HA8 0DT,51.600587678799300,-0.257503464958593
Chicken and Old World warbler,AL2 2AZ,51.715322000000000,-0.348522000000000
Ibex and Shearwater,WD19 5RA,51.637763498364600,-0.382714643822580
Cuscus and Piping shrike,EN6 2LX,51.691120181600500,-0.189659277097310
Greenbul and Minke whale,EN5 5LF,51.653105922919500,-0.185897792403070
Cloud rat and Night heron,HA8 8PA,51.619708335585100,-0.271707849354052
Kākāriki and Eagle,HA7 2SA,51.610533734319100,-0.306704066030996
Jerboa and Nukupuʻu,WD18 9AF,51.639135000000000,-0.436389000000000
River dolphin and Greenbul,N11 1PT,51.616778000000000,-0.142084610359394
Scimitar babbler and Old World warbler,HA7 4LR,51.626712764998300,-0.300004841782605
Siskin and Philippine hawk-owl,WD24 5EZ,51.669670003367700,-0.401303691089413
Black jay and Marsh harrier,WD18 6NY,51.646150650150800,-0.419936000000000
Pratincole and Dorcopsis,AL3 5EL,51.753770880000000,-0.340267381000000
Wallaby and Perching duck,AL1 5JX,51.749281930000000,-0.307344171000000
Hawaiian honeycreeper and Booted eagles,WD19 7UX,51.626823519534300,-0.392783572751890
Myna and Herring gull,WD7 9EE,51.690841364570700,-0.278172625059155
Rat and Buzzard,WD17 4JY,51.664515416057700,-0.409090852603584
Badger and Ibex,N12 8AN,51.618554220147800,-0.181613408074982
Marsh harrier and Gull,HA6 1EX,51.607044979300500,-0.422103000000000
Lemming and Warbler,WD6 2PA,51.651820273117600,-0.253530127422203
Minke whale and Marsh harrier,WD6 1EP,51.655460933966200,-0.272907010938695
Maya and Lemming,EN6 3HF,51.695678236399700,-0.206595221078170
Magpie and Jackal,AL10 8DE,51.760918100000000,-0.233441816000000
Vulture and Songlark,NW7 4SL,51.615121000000000,-0.240640000000000
Stint and Eagle,HA8 9UF,51.619270939796800,-0.266437453445372
Peafowl and Quetzal,EN6 2NB,51.690128284185000,-0.187731190954727
Boto and Tattler,N20 0SA,51.622698698680100,-0.155039228895123
Argus and Macaw,HA8 5QZ,51.597474618313200,-0.282399027670113
Parrotlet and Maya,AL9 7QN,51.721096050000000,-0.199928780000000
Herring gull and Tree warbler,AL2 3FF,51.709304402875500,-0.357976030862175
Armadillo and Partridge,HP1 9QH,51.764175000000000,-0.439340000000000
Parakeet and Ground sloth,HP2 4BH,51.752883284819100,-0.450450588573056
Philippine hawk-owl and Treepie,EN6 5HL,51.699306252120100,-0.167091000000000
Night heron and Gull,HA7 4ES,51.614359532398600,-0.308237170943960
Bronzewing pigeon and Diving bird,EN4 9QU,51.648744544381300,-0.160457763597756
Night heron and Kangaroo,AL2 2RZ,51.716547170000000,-0.351344090000000
Magpie and American sparrow,WD25 7BA,51.692965143881400,-0.411016209896782
Old World quail and Vole,AL1 4SF,51.762828590000000,-0.318952147000000
Boto and Polecat,AL10 0PN,51.769613200000000,-0.229841326000000
Treepie and Solitaire,WD23 9HN,51.640500000000000,-0.357881000000000
Meadowlark and Stint,N12 0LH,51.612141000000000,-0.159535663913142
Philippine hawk-owl and Rat,AL1 3AA,51.752843890000000,-0.337664571000000
Goose and Partridge,WD6 4LH,51.667921082195900,-0.291145514347547
Grackle and Snipe,WD4 4EF,51.641755000000000,-0.427873000000000
Kangaroo and Badger,WD25 0JL,51.703485068321300,-0.395090311355314
Zebra and Triller,WD6 4EW,51.669845227889500,-0.279431635331707
Marmoset and Tree warbler,WD25 9BE,51.682379524063800,-0.388285862522186
Warbler and Condor,HA5 2DF,51.596320870274500,-0.403880396394391
Armadillo and Grosbeak,HA5 4DP,51.609953252692800,-0.365996933914128
Old World quail and Mamo,AL3 5QY,51.760964530000000,-0.337728603000000
Fish eagle and Guillemot,HP2 7JW,51.777895416598100,-0.444766888450245
Rat and Black jay,N20 0BA,51.630205723093000,-0.156656383340289
Quetzal and Towhee,WD4 8HD,51.715607613556900,-0.443994844060100
Hawk and Bunting,AL10 9EB,51.744522400000000,-0.236225295000000
Partridge and Piping shrike,WD25 0NP,51.691808150185100,-0.393246377200971
Mole and Buzzard,AL2 3LY,51.704197940000000,-0.363978691000000
Treepie and Thicketbird,N12 7BG,51.614106573000300,-0.194660676565324
Magpie and Rabbit,WD23 1LW,51.636534409145400,-0.342932181713140
Rabbit and American sparrow,NW7 3LX,51.617490699047400,-0.254920527917214
Flameback and Goose,AL10 8XT,51.748785050000000,-0.224904450000000
Snipe and Herring gull,HA8 9LH,51.613791714088800,-0.267455061711509
Triller and Armadillo,WD25 0NE,51.691037816887900,-0.389005504763529
Quetzal and American sparrow,HA6 1BA,51.609364048021400,-0.422183163723124
Fox and Fish eagle,WD24 5DT,51.667530334229500,-0.399513000000000
Mole and Tit-tyrant,WD7 8QZ,51.677790000000000,-0.328236000000000
Recurvebill and Condor,WD23 2DN,51.663445896976000,-0.376276930465721
Partridge and Gull,WD18 9XG,51.639610000000000,-0.433283759345677
Philippine hawk-owl and Mole,HA7 4HX,51.615673600516900,-0.307697208681067
Perching duck and Mamo,WD3 3GD,51.655619000000000,-0.428177603847205
Eagle and Jay,AL1 9FP,51.747650000000000,-0.301973000000000
Scimitar babbler and Thrasher,AL2 2DY,51.709029950000000,-0.316474847000000
Piping shrike and Perching duck,EN5 1RU,51.646095593779800,-0.180901903063111
Thicketbird and Hawaiian honeycreeper,AL2 1HX,51.729869040000000,-0.298686030000000
Duck and American sparrow,HA3 6EB,51.605292483368900,-0.337614771608411
Pratincole and Hawaiian honeycreeper,NW7 2HD,51.613242516079600,-0.215190413869270
Black cockatoo and Mink,EN6 2AZ,51.694645907971800,-0.204710000000000
Wallaby and Viscacha,AL4 9EJ,51.780303990000000,-0.300471756000000
Solitaire and Cuscus,WD25 8ES,51.666904041200800,-0.336806559787154
Coati and Mamo,WD25 7EJ,51.699760863184500,-0.399592257863948
Tree warbler and Cloud rat,WD6 3FQ,51.652155332272800,-0.279769151024445
Shearwater and Kestrel,WD24 5EW,51.672339376176500,-0.403856266503929
River dolphin and Wallaby,EN6 2JL,51.693781727118900,-0.202531989786272
Bunting and Scimitar babbler,WD4 8LN,51.701592185454700,-0.437442597798216
Old World warbler and Booted eagles,WD19 7GN,51.627537407722400,-0.393480000000000
Tree warbler and Fish eagle,HA8 0EX,51.602726191254400,-0.257392722034063
Linsang and Petrel,HA8 0TG,51.607126924974400,-0.266741205535284
Badger and Tattler,EN4 8XD,51.636225776117400,-0.157496122768205
Chicken and Minke whale,HA5 3LY,51.597284088143600,-0.390130343533729
Grackle and Armadillo,WD7 9AS,51.687497819966600,-0.277662936198439
Capuchin and Macaw,WD23 2BQ,51.663712361050800,-0.367606251991172
Hawaiian honeycreeper and Armadillo,EN5 1NH,51.645002000000000,-0.172890684213626
Chickadee and Mink,EN5 5LP,51.654456794520700,-0.188359324190110
Fulmarine petrel and Recurvebill,EN5 1LJ,51.644926626864300,-0.171640499913277
Mole and Quetzal,N20 9JR,51.632400374667000,-0.163575544223705
Nukupuʻu and Duck,EN5 1AH,51.645287025388200,-0.186181002363910
Cuscus and Grackle,WD24 4UF,51.661403986569700,-0.389941003753048
Civet and Coati,AL4 9TN,51.772456970000000,-0.299433076000000
Chickadee and Old World quail,HP2 6ES,51.777922201278100,-0.451564462952808
Vulture and Mink,AL10 9GF,51.766457030000000,-0.248272000000000
Prion and Capuchin,WD23 3AW,51.647547176809300,-0.366495796215756
Prion and Shearwater,AL9 5NE,51.761392220000000,-0.211281343000000
Gull and Ibex,AL9 7RZ,51.719506860000000,-0.198326985000000
Condor and Jay,WD19 7RH,51.627408141858600,-0.403338674165475
Boto and Jackal,EN6 1LH,51.705062993609900,-0.187062072435778
Mouse and Mouse,WD6 5PP,51.680717909820000,-0.265451422833888
Badger and Duck,AL9 7LD,51.737682650000000,-0.215592344000000
Stint and Coati,HA7 1AR,51.606231483506900,-0.300827713260415
Kangaroo and Egret,AL9 7PQ,51.732045000000000,-0.212585000000000
Linsang and Lemming,WD6 2FY,51.649639301522900,-0.265221438998606
Buzzard and Piping shrike,NW9 5GF,51.600053637009800,-0.247604095439911
Siskin and Badger,HP3 8QN,51.747705969426700,-0.434316448852792
Grackle and Philippine hawk-owl,AL9 6AE,51.771242720000000,-0.153973799000000
Chickadee and Ibex,EN6 2EG,51.691410762941800,-0.195102306349359
Cuscus and Jay,N11 3QH,51.610814186001300,-0.151823746008798
Petrel and Ibex,AL3 5TH,51.762958130000000,-0.345190758000000
Vulture and Mockingbird,WD19 4EF,51.644356590915700,-0.383506239222423
Jay and Black cockatoo,N20 9DG,51.637336707751100,-0.171613392241185
Grackle and Stint,WD18 0WN,51.653839208973500,-0.402930499954191
Magpie and Thicketbird,HA5 4JE,51.609827683714400,-0.369900843113485
Logrunners and Flameback,EN6 5EA,51.690354994092900,-0.176234401836182
Mouse and Grackle,HA5 4TS,51.605868605773400,-0.387949414368048
Ibex and Nukupuʻu,WD19 7JR,51.629822228041700,-0.399685134708663
Macaw and Egret,EN6 4BP,51.709438703954700,-0.160804460833552
Argus and Rat,WD18 1RE,51.641750000000000,-0.427895000000000
Pitohui and Jackal,HA6 2BZ,51.613402838057600,-0.430333562585747
Prion and Warbler,AL9 7PA,51.733510660000000,-0.209703234000000
Ice seal and Boto,WD3 3SL,51.656370557606500,-0.434661246070682
Vole and Grosbeak,NW4 1PX,51.605165000000000,-0.226800000000000
Goose and Old World quail,WD17 2QG,51.659681898691900,-0.393544257545114
Cloud rat and Jackal,HA8 8HA,51.619195005444800,-0.282070224248621
Boto and Booted eagles,NW7 2LH,51.610734388658400,-0.238454967130106
Prion and Guillemot,N20 0EG,51.628151384992000,-0.176548409530976
Warbler and Solitaire,NW7 4RR,51.617473048079200,-0.247698779559459
Stint and Bunting,WD17 4AQ,51.668844000000000,-0.405295000000000
Rabbit and Pitohui,N12 8EX,51.611706601072300,-0.185974475787842
Duck and Shearwater,WD18 8YW,51.649322650806000,-0.426722667396796
Egret and Thrasher,WD6 5DE,51.664360438885500,-0.263574660182351
Pratincole and Jay,WD25 0LL,51.694488134299700,-0.385540626723363
Dolphin and Cloud rat,HA6 3HR,51.619038000000000,-0.409309000000000
Piping shrike and Kestrel,NW7 4AQ,51.619312000000000,-0.235238523100000
Lemming and Old World warbler,WD6 5NH,51.665332553481400,-0.259387456581275
Mole and Capuchin,HA8 0EU,51.602585598638500,-0.257008221291774
Elephant and Kangaroo,HA6 2HR,51.630026096873000,-0.438197819777198
Fish eagle and Marsh harrier,NW7 2SD,51.605783602907200,-0.237520177341693
Wallaby and Mamo,AL1 4TN,51.756627750000000,-0.307924373000000
Puffleg and Tit-tyrant,HA7 1PE,51.600873352399300,-0.300912201073191
Snipe and Fulmarine petrel,AL10 0EJ,51.764553110000000,-0.221068825000000
Civet and Dorcopsis,N20 0HG,51.626151225819400,-0.180356122669506
Linsang and Chipmunk,N20 9EL,51.638451871254200,-0.168736013231221
Tattler and Gull,HA3 7JU,51.599758240340400,-0.329095657999487
Magpie and Peafowl,WD17 2QS,51.656885919535900,-0.392269693139072
Dolphin and New World blackbird,AL2 2JY,51.713463000000000,-0.332754000000000
Kite and Fulmarine petrel,WD19 7QU,51.629676595402700,-0.403519105501679
Wader and Petrel,HA6 2HH,51.629233113366200,-0.434020602393852
Grackle and New World blackbird,WD17 1NB,51.659645953990200,-0.401454063969398
Jay and Mamo,EN5 3DG,51.650547635721800,-0.217903123555075
Argus and Vole,AL3 4SE,51.754800000000000,-0.351917677000000
Rabbit and Asiatic leopard,WD6 5NW,51.663475209574700,-0.258333000000000
Moluccan boobook and Fulmarine petrel,EN5 5PG,51.653741636679600,-0.181651109579260
Perching duck and Recurvebill,HA8 7WY,51.613332458522800,-0.277799649928712
Bronzewing pigeon and Thrasher,AL1 4ET,51.761104360000000,-0.322885163000000
Stint and Scimitar babbler,NW7 4AH,51.616365905907800,-0.238612489197854
Wader and Mouse,EN6 2JD,51.696686146417400,-0.193734808119101
Coati and Tree warbler,HA7 2HT,51.600745514386700,-0.315125382977273
Buzzard and Hawk,HA3 6JX,51.607434257054400,-0.344092988401018
Kestrel and Fox,N12 8JG,51.616714129339300,-0.178711000000000
Argus and Scimitar babbler,HP2 7NJ,51.779382497142600,-0.442309390839783
Logrunners and Jerboa,N20 0RT,51.624251248055500,-0.154268338585157
Pratincole and Thrasher,N20 8AN,51.634463671841500,-0.198664423412208
Chickadee and Darwin's finches,AL4 9JQ,51.766723760000000,-0.294721127000000
Buzzard and Tree warbler,WD7 7AP,51.684647877796000,-0.317408347312057
Petrel and Eagle,WD6 5HH,51.661200523298100,-0.272471908227221
Petrel and Gull,AL1 5UQ,51.748969290000000,-0.319394285000000
Jay and Mink,WD23 9FR,51.640496290395300,-0.357904636568511
Parrotbill and Egret,EN4 9JY,51.648430121826500,-0.154746365531654
American sparrow and Stint,WD23 3DZ,51.646198683239300,-0.361355351335278
Kestrel and Linsang,NW7 1PU,51.609850620161700,-0.202108558383332
Night heron and Philippine hawk-owl,WD24 7GA,51.678615989401400,-0.383487149946515
Vulture and Capuchin,HA5 4TL,51.605064772581500,-0.385075305870482
Maya and Puffleg,HA6 2RR,51.611479054623900,-0.436436944051437
Goose and Egret,EN6 5LJ,51.694745345093100,-0.171167189719643
Prion and Shearwater,AL4 0HD,51.753564730000000,-0.268022471000000
Kākāriki and Greenbul,WD6 2PT,51.649436409544400,-0.254676962784196
Mink and Chicken,NW7 3EG,51.612952863226500,-0.264237239288287
Songlark and Perching duck,HA3 7RT,51.596456697816000,-0.328364977779150
Logrunners and Parrotlet,HA8 0QP,51.608270549845000,-0.264415829954975
Mamo and Viscacha,WD6 1BD,51.657169066875600,-0.275328753538643
Logrunners and Egret,HA3 6RP,51.613655981587400,-0.339576866409892
Darwin's finches and Maya,AL2 1DF,51.712119450000000,-0.286976063000000
Snipe and Armadillo,N12 9NU,51.618821877401200,-0.171635373914878
Pheasant and Recurvebill,N3 1NT,51.609261165969900,-0.188917103590648
Ground sloth and Thrasher,AL2 1GR,51.722421110000000,-0.293550763000000
Thrasher and Gull,WD3 3SD,51.656400720832500,-0.436250468404623
Cloud rat and Asiatic leopard,WD6 1HD,51.655502159800400,-0.271430839078368
B and Duck,HA6 2RB,51.612691236725500,-0.433391000000000
Wallaby and Bunting,AL10 9HN,51.753482100000000,-0.233471201000000
Zebra and Dolphin,AL1 3SF,51.756374040000000,-0.333593934000000
Coati and Minke whale,N10 1QT,51.600883774578000,-0.156789928334440
Quetzal and Eagle,AL3 4JD,51.746568300000000,-0.362057334000000
Piping shrike and Myna,AL10 0PP,51.768497650000000,-0.228015361000000
Chickadee and New World blackbird,HA6 3RD,51.611693583539600,-0.408901731506396
Hawk and Booted eagles,HA7 4WQ,51.604508123353600,-0.295623000000000
Darwin's finches and Scimitar babbler,WD7 8LG,51.682339791966600,-0.330845445478904
Pheasant and Mole,NW7 3DR,51.614601568998000,-0.255349106080445
Old World quail and Eagle,N20 8DH,51.627262730797600,-0.187102248213400
Parrotlet and Grackle,AL10 0TF,51.762741560000000,-0.235109587000000
Siskin and Ibex,EN5 5TY,51.653998786950900,-0.200680127135651
Booted eagles and Jay,AL1 4HF,51.757498690000000,-0.314093284000000
Wallaby and Mole,N20 9QL,51.633079827894200,-0.178908403869555
Linsang and Wader,N3 3SA,51.596057964814700,-0.201036200267082
Solitaire and Logrunners,NW7 2AJ,51.609696000000000,-0.244705000000000
Eagle and Thrasher,WD25 9LB,51.689682273396100,-0.389169368735998
Black cockatoo and Crow,HA5 3WW,51.600385152847400,-0.397789047780902
Fish eagle and Solitaire,HA7 4NG,51.619123411785900,-0.304983176591789
Duck and Solitaire,WD6 4QE,51.663334311714000,-0.280618147822273
Petrel and Pratincole,N3 2AE,51.600915863652700,-0.179588982378352
Booted eagles and Peafowl,HA7 4HR,51.611970636383300,-0.307199431665337
Elephant and Duck,N3 1UD,51.600085493412900,-0.201555695540878
Flameback and Thrasher,NW7 2ZJ,51.615469131180800,-0.241174947996936
Tahr and Logrunners,EN6 5AD,51.698658000000000,-0.190314000000000
Zebra and Asiatic leopard,WD6 9SL,51.659524107048700,-0.268545200814426
Condor and Guillemot,HA8 9BL,51.609079195356900,-0.268024414457458
Quetzal and Macaw,WD23 3PW,51.649145976352500,-0.354773357496386
Jay and Moluccan boobook,WD6 2BB,51.648937989361300,-0.270827702195703
Grackle and Rat,WD7 9AW,51.698908369276200,-0.262368266564140
Tit-tyrant and Guillemot,WD23 2RN,51.653168713330800,-0.369705406248046
Myna and Argus,WD7 8JY,51.685263926208000,-0.319613320320381
Prion and Stilt,HA5 4JQ,51.610585908631000,-0.371404584622884
Kite and Chicken,AL10 9JN,51.751421360000000,-0.232769277000000
Prion and Lemming,EN5 2ET,51.647217782144900,-0.200037995790128
Rabbit and Myna,WD7 7JA,51.691711047449500,-0.321486952035084
Chipmunk and Dorcopsis,WD3 3SH,51.655218247504400,-0.435235837033311
Asiatic leopard and Asiatic leopard,N12 9HT,51.618014877754700,-0.172361176006092
Black jay and Cloud rat,EN5 5EG,51.650103904356800,-0.183661423305352
Linsang and Lemming,N12 7DQ,51.620791209973100,-0.186710108312526
Warbler and Tree warbler,WD19 4PZ,51.644932037025600,-0.388081940002278
Solitaire and Buzzard,WD6 5DQ,51.664919347136100,-0.263668971067460
Tree warbler and Stilt,HA6 3HQ,51.620458526799800,-0.417378080396161
Scimitar babbler and Chickadee,HA3 5HU,51.599786634612100,-0.345064247680422
Old World warbler and Lemming,NW9 5UH,51.604161974189800,-0.245120985630152
Cloud rat and Myna,AL5 9EL,51.747650000000000,-0.301973000000000
Badger and Petrel,AL10 0PT,51.770445040000000,-0.225373706000000
Chipmunk and Bunting,EN4 8EN,51.637233314657200,-0.160388901362899
Francolin and Bronzewing pigeon,HA7 1JN,51.596505785552200,-0.294274843454937
Black jay and Stilt,AL9 7TX,51.719105120000000,-0.220942032000000
Piping shrike and Crow,N12 2FH,51.616854000000000,-0.180703000000000
Jerboa and Kite,HA7 4AG,51.617576000000000,-0.313381000000000
Mink and Vole,WD23 3FE,51.649944591844500,-0.360439712513186
Mink and River dolphin,NW9 5RU,51.605798000000000,-0.244971000000000
Polecat and Capuchin,WD25 8BG,51.672908999040800,-0.345596644325620
Peafowl and Thicketbird,AL2 1FE,51.724737740000000,-0.308246540000000
Rabbit and Bunting,HP2 4TJ,51.758222367671600,-0.434010705164615
Dorcopsis and Mink,NW4 1PN,51.597782000000000,-0.220850000000000
Towhee and Dolphin,HA3 5EA,51.599127000000000,-0.337768000000000
Kite and Towhee,WD25 9AB,51.686978393892300,-0.377605140294576
Badger and Marmoset,EN6 9BB,51.698658000000000,-0.190314000000000
Duck and Thicketbird,WD6 1EH,51.655604000000000,-0.275807000000000
Towhee and Snipe,HA7 1SG,51.604508123353600,-0.295623000000000
Kite and Diving bird,N12 8SZ,51.620990299909100,-0.181559364338148
Parrotbill and Cloud rat,WD3 3SP,51.657090745640100,-0.440130146305565
Cloud rat and Old World quail,HA6 2JF,51.631038060809300,-0.429797177528447
Rat and Mockingbird,AL4 0TH,51.748755000000000,-0.287111552000000
Parakeet and Grackle,HA6 3EG,51.621818337779800,-0.418862044042397
Kangaroo and Mink,N11 1DT,51.628226669569300,-0.148038640615517
B and Stint,EN5 1BX,51.637934168851900,-0.167253911598219
Mockingbird and Condor,AL1 5HD,51.750070170000000,-0.326596930000000
Goose and Myna,WD17 4PD,51.666359426550000,-0.407811609272060
Marmoset and Recurvebill,N11 1EL,51.628493668794100,-0.149573760665616
Chipmunk and Crow,HA3 7BN,51.602375627263900,-0.338010092732653
Tit-tyrant and Herring gull,EN4 0JA,51.670652463367200,-0.166381905316967
Recurvebill and Viscacha,HA7 3HJ,51.627526964578000,-0.327266562438066
Flameback and Duck,EN6 2JS,51.696571709956200,-0.197993585009245
Philippine hawk-owl and Masked owl,HA6 3SJ,51.615050772270500,-0.420454937347776
Ibex and New World blackbird,HA3 6TX,51.612801619802500,-0.344663165993437
Black jay and Partridge,AL1 3DY,51.753712000000000,-0.338009389000000
Maya and Grouse,N20 9QG,51.637364000000000,-0.177913000000000
Thicketbird and Mink,HA8 6PT,51.610049633855500,-0.284509642672121
Francolin and Gull,WD17 2AG,51.651564611767900,-0.389133213870958
Grosbeak and Ground sloth,EN4 8QL,51.643529546950100,-0.152473817481651
Tree warbler and Grackle,WD23 9EE,51.640496000000000,-0.357905000000000
Capuchin and Kākāriki,AL10 8BX,51.763833290000000,-0.221633310000000
Greenbul and Jay,EN5 5JB,51.651853265164900,-0.178025000000000
Pitohui and Goose,N11 1HJ,51.619799000000000,-0.147818000000000
Wallaby and Vole,AL3 5EW,51.754771330000000,-0.340565000000000
River dolphin and Triller,WD23 4LF,51.637909033872900,-0.347954444989704
Puffleg and Hawaiian honeycreeper,WD4 8FN,51.694350081160400,-0.435145469695836
Herring gull and Kite,N20 0NE,51.625991693433800,-0.171823919102568
Polecat and Wader,WD23 3AG,51.646520936071800,-0.368353870719987
Macaw and Crow,AL2 3FP,51.702641000000000,-0.346039000000000
Peafowl and Grackle,N12 9AN,51.616876089938500,-0.163350028443934
Hawaiian honeycreeper and Argus,N3 2AG,51.600600942007700,-0.178417527301469
Jerboa and Petrel,N3 1AR,51.610395120677200,-0.194230218078908
Egret and Warbler,WD23 4NS,51.644851290370600,-0.356952290025191
Black jay and Bronzewing pigeon,HA8 7QP,51.612863826613500,-0.283869144416195
Egret and Black jay,HA8 8DQ,51.626244000000000,-0.294975776450913
Parakeet and Triller,AL1 5FT,51.747343289871600,-0.316238781049212
Treepie and Grouse,AL2 2HX,51.720396140000000,-0.346252805000000
Badger and Maya,HP3 8PU,51.752027036934600,-0.436716826263359
Pratincole and Black cockatoo,AL1 3FP,51.754465000000000,-0.327637000000000
Myna and Moluccan boobook,HA3 6PD,51.605877314437000,-0.359370443530037
Masked owl and Hawk,WD19 7AN,51.629786386005600,-0.388635000000000
Prion and Pratincole,HA7 3RS,51.613904291642000,-0.322885470318301
Nukupuʻu and Badger,N20 0AQ,51.632132088260600,-0.151636495222494
Moluccan boobook and Treepie,WD6 3HN,51.642792091440100,-0.301340216444855
Mouse and Vole,HA3 6ER,51.603455546685500,-0.336801002827809
Songlark and Stint,AL2 3UG,51.709327630000000,-0.358481700000000
Mink and Chicken,WD5 0HB,51.700782522042700,-0.424620171287881
Songlark and Black jay,HP2 4QZ,51.757961950449200,-0.440800728420920
Black jay and Armadillo,WD19 7DT,51.628099326133600,-0.386150202153782
Siskin and Viscacha,WD18 7HQ,51.650624000000000,-0.421163894139270
Vulture and Piping shrike,AL1 1UP,51.734655480000000,-0.310714709000000
Parrotbill and Elephant,AL10 8QU,51.752580170000000,-0.230898559000000
Cuscus and Siskin,AL10 8DF,51.760452310000000,-0.233561429000000
Bronzewing pigeon and Civet,EN5 3DY,51.647933329497800,-0.218656102564373
Rat and Philippine hawk-owl,HA3 8QU,51.597225910644400,-0.317378066377466
Old World quail and Parakeet,N12 9EJ,51.622001000000000,-0.175730000000000
Puffleg and Gull,WD17 2QB,51.659938890233800,-0.393925538791773
Piping shrike and Polecat,NW9 5FW,51.596375294399200,-0.242158107662698
Crow and Dorcopsis,AL2 3YA,51.704287900000000,-0.372398324000000
Black cockatoo and Thrasher,EN5 1NW,51.649367000000000,-0.175466000000000
Buzzard and Eagle,WD23 2PH,51.648155141821800,-0.379222724471753
Old World warbler and Tree warbler,WD25 9WZ,51.681409580853200,-0.385890107447850
Viscacha and Cuscus,N20 9BP,51.632765000000000,-0.177436000000000
Solitaire and Booted eagles,WD6 5EB,51.667001827613100,-0.276849698669527
Buzzard and Vole,AL1 4ZX,51.747650000000000,-0.301973000000000
Maya and White ibis,EN4 8RZ,51.642400460854400,-0.165917590570825
Meadowlark and Snipe,EN5 5TZ,51.653324273946500,-0.198914252689303
Vulture and Boto,WD6 1AZ,51.662273000000000,-0.264960000000000
Parakeet and Guillemot,WD23 2EF,51.654648937816600,-0.381289668536657
Boto and Diving bird,AL10 8QP,51.752329590000000,-0.228590286000000
Kite and Philippine hawk-owl,AL3 6ES,51.770781000000000,-0.337620000000000
Moluccan boobook and Nukupuʻu,WD25 0DB,51.687947977081100,-0.408385281442813
Skunk and Booted eagles,EN4 8QX,51.645939913809500,-0.166844352063133
Piping shrike and Snipe,WD24 7RF,51.677568908032000,-0.391710912104708
Black cockatoo and Buzzard,HA2 6JR,51.596093655757600,-0.356142403814987
Prion and Rabbit,AL10 1AJ,51.764306850000000,-0.226194092000000
Linsang and Gull,AL10 9HU,51.755193070000000,-0.237229480000000
Maya and Eagle,NW9 5PN,51.599978000000000,-0.242432939623961
Mamo and Tit-tyrant,HA7 4RG,51.618256536485500,-0.300378626105451
Ground sloth and Stilt,WD6 5PU,51.656906490870300,-0.250284095444916
Capuchin and Dorcopsis,AL1 1SE,51.745395810000000,-0.333027395000000
Herring gull and Solitaire,WD25 0HJ,51.688583873447000,-0.403559860575218
Towhee and Kestrel,WD7 8EW,51.692581835402500,-0.327690720938469
White ibis and Old World warbler,HA5 4SS,51.603569999362100,-0.376449766238882
Quetzal and B,N11 1TA,51.621410042375400,-0.144025643455439
Zebra and Bunting,AL1 4UZ,51.762745690000000,-0.307536249000000
Old World vulture and Asiatic leopard,AL1 1RD,51.747549390000000,-0.339061288000000
Parrotlet and Civet,WD6 5DS,51.664633968774300,-0.276650340102295
Maya and Mink,AL3 6PZ,51.771843420000000,-0.326226562000000
Piping shrike and Nukupuʻu,AL1 3FX,51.754781231641100,-0.329581369632218
Guillemot and Maya,HA8 5PT,51.595770226087900,-0.281452671340520
White ibis and Gull,WD18 1SQ,51.658962657749100,-0.403444367020938
Black jay and Jerboa,EN6 9FZ,51.698662000000000,-0.190290000000000
Mouse and White ibis,WD17 4JW,51.680472796392600,-0.426192972275916
Francolin and Chipmunk,N14 5NG,51.636751690432700,-0.146347415526568
Gull and Thicketbird,WD24 4BN,51.664027475041800,-0.392407327740490
Capuchin and Scimitar babbler,WD19 7QP,51.629843583551700,-0.402574089168500
Philippine hawk-owl and Songlark,AL1 3NX,51.747470006622600,-0.325737005557728
Zebra and Fulmarine petrel,HA6 2XW,51.611240637723600,-0.423316835828718
Hawk and Mink,WD5 0DQ,51.702487908349700,-0.430436422347267
Badger and Perching duck,WD6 3HR,51.642242400821600,-0.301881053458824
Myna and Badger,N20 9BU,51.636144184450400,-0.174724949349822
Fish eagle and Egret,WD18 7HW,51.651046922063200,-0.421198892847747
Tree warbler and Moluccan boobook,WD24 5EX,51.670192193832100,-0.402673598986540
Black jay and Bunting,WD6 2LR,51.652799849740300,-0.258335261210561
New World blackbird and Kangaroo,HA6 2NG,51.612427422789400,-0.429341758598598
Duck and Wader,WD24 5HP,51.672983872623100,-0.405626930740664
Ice seal and Lemming,HP2 7RJ,51.780748473690600,-0.437507450164488
Old World quail and Siskin,WD18 7NJ,51.654115963879800,-0.408081651384155
Meadowlark and Wallaby,WD24 6SX,51.680292000000000,-0.404626961923181
Perching duck and Masked owl,EN5 3HS,51.648902879912000,-0.241818182485668
Wader and Ground sloth,WD19 5AH,51.629205359673200,-0.384076000000000
Triller and Puffleg,EN4 8LE,51.633619355690000,-0.146157219893813
Mink and Fulmarine petrel,WD5 0SD,51.719330116935500,-0.397815683102301
Mamo and Chipmunk,N20 8PH,51.624770706869400,-0.194613036075321
Francolin and White ibis,AL4 0FT,51.751972368721700,-0.277645345926587
Warbler and Mamo,N20 0DG,51.625798961328900,-0.158915466165971
Polecat and Coati,EN6 3EU,51.699107330184400,-0.207385787806175
Guillemot and Flameback,EN4 8DR,51.638519360825800,-0.166146441512232
Viscacha and Duck,AL3 4SD,51.754239870000000,-0.351869810000000
Zebra and Old World vulture,WD7 9LJ,51.694824491300200,-0.287990894878822
Tree warbler and Parrotbill,AL4 0UZ,51.757838780000000,-0.302735321000000
Zebra and Chicken,WD23 4HP,51.641181304626700,-0.352373521999813
Crow and Pheasant,AL4 9NE,51.768802570000000,-0.314788113000000
Marmoset and Grouse,HA7 4QS,51.619039107506600,-0.291104415759538
Black jay and Pheasant,AL2 3FG,51.702670000000000,-0.373952000000000
Polecat and Greenbul,WD24 4BL,51.664007288141700,-0.390933181837846
Shearwater and Skunk,AL2 3HL,51.727459090000000,-0.356811426000000
B and B,EN4 8LA,51.635107284256200,-0.146992488205238
Old World warbler and Chickadee,WD5 0ST,51.699877551817900,-0.404204337574114
Wallaby and Marsh harrier,HP1 9QF,51.764175000000000,-0.439340000000000
Marmoset and Scimitar babbler,WD23 3PJ,51.652493001613400,-0.351371000000000
Kite and Zebra,EN6 9GG,51.698662000000000,-0.190290000000000
Polecat and Parrotlet,HA6 1EQ,51.608794148257400,-0.419256791517408
Logrunners and Lemming,HA8 0PR,51.609959088294800,-0.255787059857799
Peafowl and Grouse,WD25 0BH,51.684570437696000,-0.405986649754536
Parakeet and Ground sloth,WD6 2HH,51.648028515254100,-0.268910945624628
Scimitar babbler and Skunk,WD17 2RE,51.658427682394700,-0.389945283099400
Vole and Chickadee,EN5 2NZ,51.642862147713300,-0.206280753584297
Black jay and Badger,WD18 7BP,51.656687353540800,-0.418039205490024
Jackal and Bunting,WD6 1GR,51.653252793038400,-0.278686683520921
Marsh harrier and Booted eagles,WD24 6BL,51.672176419589100,-0.397831339332867
Jay and Mole,HP2 7EA,51.768501685304400,-0.444147000000000
Lemming and Badger,WD6 4NA,51.660809575941000,-0.288145423517440
Kangaroo and Greenbul,N20 8DD,51.627517783603100,-0.188479103803953
Fulmarine petrel and Wader,N12 9DJ,51.615275261229800,-0.170824581197159
Jerboa and River dolphin,HA8 7HF,51.611575956067600,-0.279929000000000
Chipmunk and Old World warbler,HP2 7NL,51.779867562252700,-0.440915532558197
Zebra and Viscacha,HA6 3BE,51.614713185179500,-0.424106465692191
Parrotbill and Duck,AL10 8HW,51.758195810000000,-0.230606637000000
Egret and Songlark,WD5 0NL,51.701044521915000,-0.412686819228238
Tree warbler and Night heron,WD24 6PR,51.679010823948200,-0.396548726271546
Condor and Condor,N20 8LN,51.631996767920300,-0.208457803536023
Piping shrike and Hawk,EN5 1QJ,51.649243000000000,-0.176208000000000
Masked owl and Guillemot,AL5 5EU,51.747650000000000,-0.301973000000000
Black cockatoo and Black cockatoo,WD24 7BW,51.676117299596300,-0.394712841320597
Puffleg and Zebra,AL1 3HZ,51.751285110000000,-0.335898000000000
Skunk and New World blackbird,N12 0QE,51.609139104150800,-0.164846585142020
Mole and Logrunners,WD24 4XE,51.667487000000000,-0.392111000000000
Zebra and Shearwater,N3 2QR,51.597058000000000,-0.185880000000000
New World blackbird and Stilt,WD7 7JG,51.680568777132000,-0.315129463720649
Philippine hawk-owl and Prion,WD17 2TE,51.656077938971300,-0.394336705569660
Boto and Thrasher,HA8 5SF,51.599462090064800,-0.278728712230663
Kite and Prion,WD6 2LG,51.651041956500100,-0.265326828193536
Pitohui and Chipmunk,WD24 5TU,51.674144922888700,-0.403837000000000
Grouse and B,WD25 8AG,51.666336528468100,-0.356536638550974
Partridge and Crow,WD6 9JS,51.655282962172600,-0.279043546199616
Pratincole and Black cockatoo,EN4 9HT,51.654712931438700,-0.159724579575498
Siskin and Kangaroo,NW9 5JA,51.595918654654600,-0.245049000000000
Dolphin and Recurvebill,EN5 3NB,51.646265000000000,-0.236110000000000
Wader and Grouse,HP2 4RE,51.760160000000000,-0.441029000000000
White ibis and Maya,AL2 3JQ,51.747650000000000,-0.301973000000000
Night heron and Diving bird,WD17 2DS,51.655440005174900,-0.395689264685853
Grackle and Recurvebill,WD25 9TP,51.696734690366900,-0.378254688915215
Flameback and Kākāriki,N11 1QH,51.615446000000000,-0.143807000000000
Pheasant and Maya,NW7 1FW,51.611872000000000,-0.207564000000000
Partridge and River dolphin,WD19 4JG,51.644510334607900,-0.397346947770892
Thrasher and Tahr,HA8 9UB,51.621177770280000,-0.265252443664390
Ibex and Tit-tyrant,AL1 4PN,51.755037930000000,-0.319328383000000
Piping shrike and Towhee,HA8 0TN,51.605346540275600,-0.263704195903455
Buzzard and Booted eagles,AL1 5BJ,51.750943840000000,-0.324174238000000
Moluccan boobook and Vole,WD17 1HD,51.657535386454600,-0.397682673382870
Diving bird and Francolin,N12 8JH,51.616661381839400,-0.177846768731141
Triller and Parrotlet,WD6 1LB,51.659604000000000,-0.264769000000000
Diving bird and Booted eagles,HA8 5EN,51.601796707496400,-0.269326742605733
Civet and White ibis,EN6 2AG,51.698627336357700,-0.197173914028616
Kākāriki and Tree warbler,WD7 8EL,51.689103017497500,-0.325243706468325
Minke whale and Badger,WD18 7PE,51.654016735962200,-0.424059223317722
Lemming and Minke whale,WD6 2ZX,51.655281258567800,-0.279043537785237
Grouse and Mole,WD18 6LA,51.644236053334100,-0.415567522142896
Kite and Grackle,EN5 4RT,51.679524378663800,-0.209287500710445
Perching duck and Polecat,N12 8AB,51.614034355529000,-0.184148405313017
Cloud rat and Greenbul,HA6 1JQ,51.598042601499600,-0.413479340584907
Moluccan boobook and Myna,N3 1YL,51.607726804510700,-0.187967234773118
Old World vulture and River dolphin,AL10 9GE,51.768900940000000,-0.247116090000000
Triller and Mouse,AL4 9NN,51.771582150000000,-0.314235273000000
Towhee and Wader,N12 8AJ,51.616499831203600,-0.181926636013706
White ibis and Tahr,WD7 9EB,51.689790084792700,-0.278226983995049
Wallaby and Vulture,NW9 5NJ,51.597997677400100,-0.243611527268518
Songlark and Crow,WD25 7QE,51.691929397703200,-0.402935768809820
B and Pratincole,WD23 4GG,51.637493989611700,-0.344024389426696
Partridge and Black cockatoo,HA6 1RQ,51.605019692265400,-0.407445475945746
Mink and Scimitar babbler,AL4 0TD,51.750209810000000,-0.288215487000000
Pratincole and American sparrow,N20 9HB,51.630175174465900,-0.169647314755836
New World blackbird and Flameback,HA7 3DY,51.619433772208100,-0.315300053871613
Peafowl and Egret,EN5 1JE,51.647165199148300,-0.176233672929080
Shearwater and Puffleg,WD6 1QE,51.654931299460300,-0.262605035637680
Guillemot and Perching duck,AL2 2LR,51.720377580000000,-0.337291920000000
Peafowl and Mamo,HP3 9JN,51.742876832364500,-0.449880421685018
Wallaby and Treepie,HA5 3NN,51.596775000000000,-0.392018000000000
Ibex and Towhee,WD4 8GY,51.711658085399700,-0.442130000000000
Ibex and Black cockatoo,EN4 8JU,51.633404951098900,-0.146816216731461
Mamo and Magpie,NW7 1GU,51.607685340608800,-0.210469264741028
Ice seal and Black cockatoo,WD18 0WF,51.650975000000000,-0.393288000000000
Hawk and Chickadee,N12 9NN,51.611987697783700,-0.162420777002091
Armadillo and Pitohui,NW7 2JS,51.612557914027800,-0.247339222233340
Duck and Kite,WD17 1PD,51.661682318955800,-0.395685770271981
Egret and Gull,HP2 7HT,51.768726306180200,-0.423357331061389
Wallaby and Badger,AL3 4GD,51.744173349653200,-0.356552793544362
Fulmarine petrel and Perching duck,HA8 7EQ,51.610122203695500,-0.277184577416136
Gull and Thicketbird,WD24 7NT,51.674741367630600,-0.382901960151978
Greenbul and Night heron,AL9 7EW,51.732855970000000,-0.218099526000000
Booted eagles and Wader,WD6 2SE,51.646315439101200,-0.257658714704561
Warbler and Night heron,HA3 6DD,51.610835722635900,-0.336632383901232
Magpie and Jerboa,HP3 8LR,51.746563944481600,-0.427576619726542
Rabbit and Zebra,HA6 1BN,51.605893561610700,-0.416873693260432
Dolphin and Stint,HA7 2LD,51.595875555095400,-0.309761451707465
Booted eagles and Boto,EN5 5AQ,51.649732073113600,-0.188114040610800
Mockingbird and New World blackbird,HA6 1DH,51.603406931593800,-0.415184041360413
Egret and Fish eagle,HA3 7LF,51.603437032233500,-0.327271110759608
Warbler and Grosbeak,NW7 1BA,51.607736235460300,-0.207911058976029
Marmoset and Stilt,WD7 7EJ,51.683717013924700,-0.313320096240273
Eagle and Magpie,NW7 1GY,51.607928270366500,-0.211658389163138
Rat and River dolphin,WD19 6HA,51.622722295915400,-0.383552841284434
Maya and Mockingbird,EN5 1YZ,51.649821205073300,-0.176445090643670
Guillemot and Herring gull,AL1 1TF,51.738049370000000,-0.318510446000000
Piping shrike and Chicken,EN5 2NS,51.644290000000000,-0.206740117109560
B and Recurvebill,HA6 2XZ,51.611138640679800,-0.425096803325510
Mamo and Polecat,HA7 1JZ,51.601489032625600,-0.296239639736799
Solitaire and Songlark,AL1 9WU,51.747650000000000,-0.301973000000000
Mockingbird and Chicken,WD23 3LH,51.644935111414900,-0.359217000000000
Meadowlark and Vulture,NW7 1EZ,51.619216278890900,-0.223681105850290
Perching duck and Bunting,HA8 9YE,51.606873457425200,-0.268454950255645
American sparrow and Ice seal,AL4 9PJ,51.768385480000000,-0.303296283000000
Songlark and White ibis,N11 3JE,51.614229131871500,-0.154544941887076
Egret and Ice seal,WD17 4LY,51.677605196481500,-0.423573206656682
River dolphin and Magpie,AL1 5LN,51.748706480000000,-0.312349071000000
Mink and Thrasher,WD3 3GL,51.651352753416100,-0.431798562181837
Ibex and Asiatic leopard,NW4 1NY,51.597076333723800,-0.216502856174794
Old World quail and Treepie,EN5 4NR,51.656766139820300,-0.211717200270837
Triller and Crow,NW7 3JX,51.620681000000000,-0.255366031877362
Herring gull and Black jay,AL2 3LX,51.704010130000000,-0.363406577000000
Civet and Tattler,N11 3BP,51.609963762558100,-0.151497219938319
Hawk and Skunk,HA3 7NW,51.597840258424600,-0.329541450093274
Pheasant and Kite,NW7 2PL,51.610742445114200,-0.224069677833379
Tattler and Pheasant,WD23 1FR,51.640271351752500,-0.355455858183593
Triller and Quetzal,WD17 4SW,51.676199508593100,-0.414669259544685
Vulture and Capuchin,AL2 2SD,51.716255460000000,-0.351702126000000
Cuscus and Eagle,N20 0XZ,51.620457594733400,-0.161789718963667
Marmoset and Chicken,NW9 5QD,51.601272654800000,-0.250243025800000
B and Capuchin,HA6 2PR,51.617109491213400,-0.435867907299076
Argus and Hawaiian honeycreeper,HA8 7LD,51.615497532230500,-0.277314000000000
Bunting and Booted eagles,WD23 4XF,51.637499311645100,-0.347593606032632
Jerboa and Hawk,HA3 9BN,51.595635395738100,-0.298739867601957
Parrotlet and Goose,AL1 5NG,51.747739450000000,-0.308256520000000
Fish eagle and Tit-tyrant,WD23 1HH,51.634055871006000,-0.350189689506462
Nukupuʻu and Cuscus,WD24 5AX,51.669500731183100,-0.398778948570671
American sparrow and Bronzewing pigeon,WD24 5NG,51.682877804286100,-0.411803321282747
Linsang and Black jay,WD5 0RN,51.724441390320100,-0.410680291145489
Argus and Greenbul,WD23 2BJ,51.665145292091700,-0.366384000000000
Parrotbill and Jackal,WD6 2RB,51.653101227490500,-0.255013245568150
Old World warbler and Capuchin,HA8 9NZ,51.616344725677200,-0.261320054959229
Marmoset and Ibex,HA3 7BB,51.603254772147100,-0.338497840769542
Grouse and Hawaiian honeycreeper,WD6 1SA,51.659178523729400,-0.257946131131953
Old World vulture and Flameback,AL10 0JL,51.763506790000000,-0.226805111000000
Marsh harrier and Tahr,AL4 0ER,51.759346320000000,-0.304388615000000
Condor and Peafowl,WD23 4GJ,51.639143677947700,-0.337952438513171
Bronzewing pigeon and Triller,N3 1QT,51.604038000000000,-0.194150000000000
Thrasher and Perching duck,HA5 3YD,51.612777850023900,-0.402003347499476
Thrasher and Chicken,HA8 7JX,51.615239920148100,-0.276037491182355
Recurvebill and Old World vulture,WD4 8NS,51.720289440864200,-0.427561656915297
Thicketbird and Booted eagles,N12 2FG,51.616854000000000,-0.180703000000000
Nukupuʻu and Bunting,WD18 7BX,51.651353307350200,-0.417805000000000
Meadowlark and Tree warbler,AL10 9NY,51.754660280000000,-0.246696809000000
Boto and Cloud rat,WD19 7EY,51.626842974472300,-0.386989400010528
Greenbul and Booted eagles,WD6 4BF,51.670611913802700,-0.283162701530489
Towhee and Wallaby,AL2 3XB,51.706390460000000,-0.374233298000000
Snipe and Pheasant,WD23 1GD,51.636098932628200,-0.342659041000064
Black cockatoo and Fox,EN6 3LL,51.689762811327400,-0.241783507177206
Kangaroo and Egret,WD6 4EN,51.669464822097700,-0.280472804068084
Grouse and Bunting,HP2 4QA,51.759116086753200,-0.434950598838328
Mouse and Triller,EN4 8BL,51.646755506483300,-0.167677000000000
Old World warbler and Hawk,AL1 4QD,51.757761340000000,-0.312344763000000
Shearwater and Viscacha,AL1 1JT,51.741215230000000,-0.317929425000000
Mockingbird and Marmoset,N20 2DN,51.629749000000000,-0.173771000000000
Elephant and Rat,WD19 7HR,51.625228088794100,-0.397766400005516
Eagle and Crow,WD25 8HF,51.658979000000000,-0.347304000000000
Parrotlet and Siskin,AL2 2AJ,51.715053930000000,-0.354510680000000
Pitohui and Fish eagle,WD25 0EE,51.689327453173700,-0.397413961651449
Herring gull and Fulmarine petrel,N12 8DR,51.613515734318900,-0.182594738096734
Kite and Crow,N14 5LD,51.638760237061100,-0.142002228348941
Cuscus and Cloud rat,AL2 1BS,51.718533590000000,-0.287167994000000
Ice seal and Jerboa,AL2 3EH,51.721149910000000,-0.363482730000000
Capuchin and Elephant,AL4 0NJ,51.738394380000000,-0.266374000000000
Hawaiian honeycreeper and Ground sloth,N20 0QB,51.624342139450100,-0.176888000000000
Zebra and Dorcopsis,N14 4PX,51.640813505649200,-0.142192896529610
B and Vole,HP2 4GW,51.754656273214700,-0.428078028835612
New World blackbird and Tahr,AL3 4ST,51.755107630000000,-0.350910950000000
Old World vulture and Perching duck,WD6 3EA,51.642683376522700,-0.316895454674745
Peafowl and Old World quail,EN4 8LF,51.635117083371200,-0.147613466664191
Thicketbird and Philippine hawk-owl,AL4 9BJ,51.769479480000000,-0.295008590000000
Cloud rat and Parrotlet,HA6 1PQ,51.601192861682000,-0.409052172185603
Moluccan boobook and Booted eagles,HA8 8DT,51.618437954400100,-0.278270858765095
Boto and Boto,WD6 5EJ,51.665768120641000,-0.279181214133575
Herring gull and Philippine hawk-owl,N12 0AG,51.606087757840600,-0.160637208491781
Bronzewing pigeon and Thicketbird,EN5 2UT,51.643893284529600,-0.201383738957702
Mink and Old World vulture,AL1 3SW,51.755885750000000,-0.332134045000000
Jay and Maya,HA8 8FG,51.622861173417800,-0.286077984676563
Civet and B,NW9 5QU,51.601997188346300,-0.242273133823910
Chicken and Shearwater,HA7 2JH,51.597441283715300,-0.309212419740107
Old World warbler and American sparrow,HA8 8XX,51.626841780563200,-0.266117000000000
Wader and White ibis,AL1 5NN,51.746034850000000,-0.307277226000000
Kākāriki and Gull,N3 1AX,51.609578163218900,-0.191980729864588
Mamo and Chickadee,EN6 2PU,51.692038565709300,-0.183328745441962
Ground sloth and Mockingbird,NW7 2LL,51.609331427275900,-0.240242348839899
Kangaroo and Darwin's finches,HA8 8TU,51.622782000000000,-0.270320000000000
Bronzewing pigeon and Ice seal,HA7 3DR,51.618013431682200,-0.313055000000000
Philippine hawk-owl and Ice seal,EN6 5NL,51.695560171450600,-0.166330346366382
Pitohui and Tahr,EN4 8BP,51.645009619028900,-0.167734647787326
Night heron and River dolphin,HA2 6JS,51.596765609467000,-0.356609038741354
Solitaire and Tit-tyrant,WD24 4GL,51.661553533844500,-0.390355003643054
Fulmarine petrel and Marmoset,AL1 3QD,51.758019940000000,-0.329186481000000
Vulture and Jackal,WD23 1HX,51.635257297360900,-0.344828370878309
Pheasant and Zebra,WD23 2JX,51.653241909065000,-0.380327872724217
Old World vulture and Cuscus,HA8 7BD,51.612428000000000,-0.275509000000000
Mamo and Scimitar babbler,N12 7ES,51.620736836565000,-0.190179315873353
Magpie and Mamo,WD6 1EF,51.656795067476300,-0.273130982100838
Hawk and Minke whale,HP3 8AQ,51.733542000000000,-0.451764000000000
Ground sloth and Grouse,WD25 9AY,51.682387000000000,-0.386977583251707
Moluccan boobook and Vulture,WD5 0DF,51.700207422049000,-0.431369111536186
Jay and Linsang,HA3 6EX,51.605392758948600,-0.336441398950757
Towhee and Cuscus,EN5 5NE,51.653336509105600,-0.185107941407804
Piping shrike and River dolphin,HA5 3DL,51.599737000000000,-0.381920315088557
Fulmarine petrel and Night heron,EN6 1NS,51.712595605699900,-0.179652000000000
Shearwater and Egret,HA8 4JD,51.613332458522800,-0.277799649928712
Chicken and Kestrel,EN4 0NR,51.663137849899200,-0.176966019735476
Linsang and Grouse,WD18 1SX,51.641751042519300,-0.427895303722714
Grosbeak and Bunting,HA3 6SX,51.611908041583500,-0.346977653136240
Goose and Prion,EN5 2PR,51.643399242977300,-0.209656052535275
Mockingbird and Francolin,NW7 2XD,51.615469131180800,-0.241174947996936
Philippine hawk-owl and Chickadee,N11 1LR,51.626453555189900,-0.146796088568446
Piping shrike and Tahr,HP3 8DH,51.748181716948600,-0.450539039827694
Rabbit and B,AL1 2DJ,51.745551000000000,-0.347082886000000
Goose and Booted eagles,WD7 8BA,51.690187214752200,-0.323572000000000
Old World vulture and Hawk,WD19 4HY,51.643833980720400,-0.401822313288931
Kangaroo and Rabbit,WD7 9AT,51.687375942292000,-0.278550052217395
Cuscus and Darwin's finches,N12 9ET,51.612139816113800,-0.172741598444139
Mink and Quetzal,AL1 5DX,51.750557710000000,-0.322319685000000
Grouse and Grouse,WD17 2JH,51.648417531499200,-0.387177777616381
Perching duck and Kākāriki,N20 0DN,51.625740283955800,-0.156895171016460
Recurvebill and Guillemot,N3 1UZ,51.601389000000000,-0.195059409551236
Warbler and Meadowlark,NW7 1GT,51.606410000000000,-0.210465599141967
Treepie and Wader,AL1 2QP,51.736161850000000,-0.349008328000000
Siskin and Maya,HP2 7FW,51.770642894868200,-0.444802000000000
Kākāriki and Greenbul,HA7 2HY,51.599791817171600,-0.311334310082232
Kite and Ground sloth,WD24 7PQ,51.673079780407100,-0.384349519167910
Jay and Puffleg,WD4 8LP,51.710046744678400,-0.441667184041718
Quetzal and Piping shrike,HA7 4SB,51.613653136106300,-0.301662734941814
Darwin's finches and Coati,HA8 0DF,51.599950839393600,-0.263072521530016
Cloud rat and Quetzal,N20 0LD,51.626828354426500,-0.174893000000000
Pitohui and Egret,AL2 1HT,51.728583040000000,-0.298676393000000
Kite and Condor,N12 0DN,51.609728819463700,-0.177301153541537
Snipe and Tattler,HP2 5NH,51.765222170459200,-0.449245607719592
Cuscus and Dolphin,WD6 3TN,51.640056733649900,-0.311818919463010
American sparrow and Grouse,WD23 2DH,51.663441083454900,-0.379183413377926
Masked owl and Snipe,AL10 9NE,51.761793000000000,-0.244334000000000
Philippine hawk-owl and Kestrel,AL10 8XW,51.748859740000000,-0.226277768000000
Rat and Chickadee,N20 9DJ,51.638188881877200,-0.172634082846104
Parakeet and Ice seal,WD6 2QQ,51.655887925235600,-0.252535255209727
Grouse and Mole,HP2 4DF,51.751106970898100,-0.445991390939250
Dorcopsis and Francolin,WD6 2EN,51.653044019188400,-0.276714104657113
Badger and Parakeet,N11 3DT,51.613794309637100,-0.152627101547892
Capuchin and Guillemot,N12 0EX,51.612815000000000,-0.176730000000000
Tree warbler and Tahr,AL1 9QF,51.747655000000000,-0.301949000000000
Chicken and Crow,HA6 1DA,51.602800136311000,-0.410873190300930
Linsang and Francolin,N12 8PL,51.610243723110100,-0.184415213490089
Fulmarine petrel and Thrasher,HA8 6TE,51.612022046499400,-0.300799257639828
Puffleg and Mink,EN6 2HY,51.695130155907300,-0.191959110790790
Recurvebill and Stint,AL10 9UH,51.762493172396800,-0.245437032456810
Darwin's finches and Zebra,WD6 1BZ,51.659632000000000,-0.263567000000000
Boto and Vulture,WD6 3SA,51.639514779951300,-0.305408012975124
Old World quail and Lemming,N12 9UD,51.615954621657100,-0.169410593804945
Crow and Greenbul,HA3 5AE,51.597443488721100,-0.338839943061951
Vulture and Ice seal,AL1 1JR,51.745452740000000,-0.325014806000000
Treepie and Treepie,AL2 3TJ,51.709862000000000,-0.358694000000000
Pitohui and Fox,WD17 1QU,51.662748000000000,-0.399393000000000
Tree warbler and Moluccan boobook,EN6 1SJ,51.705495800482100,-0.178418855851123
Mockingbird and Viscacha,EN6 3EX,51.698923862445400,-0.205381587555020
Linsang and Dorcopsis,HA6 2JW,51.616459446623300,-0.446506750593436
Dolphin and Black jay,HA8 9EP,51.611186317014500,-0.261531599718218
Scimitar babbler and Kangaroo,EN6 2AY,51.698101003646400,-0.198034128415965
Cuscus and Grosbeak,WD23 2LH,51.651891214364600,-0.374984085094635
Gull and Philippine hawk-owl,HA8 8XP,51.630642169695800,-0.270439832185218
Ibex and Booted eagles,WD5 5BT,51.641755000000000,-0.427873000000000
Mole and B,EN5 5DG,51.649760304831300,-0.181795976302980
Parrotlet and Badger,WD7 8AB,51.676579000000000,-0.319646000000000
Fox and Towhee,HP1 9NB,51.764175000000000,-0.439340000000000
Hawaiian honeycreeper and Ice seal,WD19 7BN,51.629737978482200,-0.390888959486158
Stint and Pratincole,WD99 1AS,51.648776000000000,-0.422087000000000
Moluccan boobook and Old World vulture,HA2 6LY,51.599015745271100,-0.356758837595787
American sparrow and Francolin,AL10 8DH,51.759668870000000,-0.234084673000000
Fish eagle and Macaw,N2 9AA,51.601733861885100,-0.172047475002744
Wallaby and Kestrel,N11 1NS,51.618475912886100,-0.144868000000000
Old World vulture and Magpie,WD24 6BH,51.672467728693000,-0.399280000000000
Siskin and Kestrel,HA8 9LL,51.614496160941200,-0.267052697060749
Warbler and Grouse,WD19 6HH,51.622435530971700,-0.398717086375352
Francolin and Triller,HA7 3LD,51.616606502042800,-0.316170377459493
Dolphin and Armadillo,AL1 5NW,51.747115210000000,-0.306744315000000
Partridge and Towhee,HA8 0UE,51.604676000000000,-0.266329000000000
Mamo and Chickadee,AL2 1GB,51.721965340000000,-0.310981000000000
Stint and Grackle,N12 9QL,51.613498575332800,-0.175691326432563
Maya and White ibis,HA5 4SN,51.604598855514100,-0.381279533430337
Perching duck and Cuscus,N14 5DU,51.630872238506100,-0.147584108693326
Argus and Zebra,EN6 2SH,51.685431146933700,-0.179383472936133
Grouse and Recurvebill,N12 7WP,51.616894435384500,-0.180697504006309
Scimitar babbler and Peafowl,AL1 2HH,51.735751900000000,-0.324490072000000
Quetzal and Snipe,N12 8TT,51.622233000000000,-0.180455000000000
Bunting and Shearwater,HA7 3LP,51.615912779716700,-0.328155801133271
Ice seal and Stint,WD18 0YY,51.641750000000000,-0.427895000000000
Mockingbird and Black jay,N3 1SS,51.597213192681100,-0.205423173123129
Lemming and Ibex,NW7 2QA,51.604206852143300,-0.236714793427089
B and Rabbit,EN5 5NJ,51.654942503172200,-0.184292028610161
White ibis and Polecat,N3 1JN,51.604612484998200,-0.194777350157247
Meadowlark and Goose,AL10 8AX,51.761844000000000,-0.149778000000000
Rat and Argus,N12 0BT,51.612294786635000,-0.176346211050347
Badger and Ibex,N3 3QJ,51.596599000000000,-0.194604000000000
Petrel and Tahr,WD5 0BF,51.702361000000000,-0.403575633414823
River dolphin and Mamo,AL3 4AY,51.743796310000000,-0.354799234000000
Solitaire and Jackal,WD7 0FG,51.683002000000000,-0.317296000000000
Kākāriki and Nukupuʻu,WD25 0EW,51.690363368236100,-0.398867561427814
Herring gull and Thrasher,WD7 9ED,51.690179497565100,-0.278414759319953
Marmoset and Jerboa,WD17 2DB,51.650508623709200,-0.389503114430736
Old World vulture and Vulture,AL1 1TS,51.734160840000000,-0.309458742000000
Vulture and Capuchin,HP2 7PG,51.778900219902400,-0.437136411539744
Ibex and Condor,AL10 8YE,51.766979000000000,-0.216713000000000
Kangaroo and Macaw,EN4 8ER,51.632966801960900,-0.159550033751836
Mamo and Linsang,WD6 2DF,51.653955698646300,-0.275725403475037
Viscacha and Skunk,WD4 8QX,51.691370156550700,-0.433526535302208
Ibex and Asiatic leopard,AL2 1LB,51.726978790000000,-0.292843396000000
Eagle and Philippine hawk-owl,AL3 4DW,51.755553090000000,-0.348054934000000
Fox and Guillemot,WD25 9DR,51.679505251455400,-0.381459401231506
Jerboa and Crow,WD5 0NG,51.701080644784500,-0.415362727141274
Scimitar babbler and Jay,EN5 2FY,51.648375000000000,-0.200169000000000
Old World warbler and Ground sloth,HA5 4AN,51.616836115549200,-0.363048642883706
Night heron and River dolphin,N3 1XE,51.602998600960200,-0.192747506187706
Thrasher and Ice seal,HA8 9QZ,51.617883180981900,-0.268064834528077
Booted eagles and Lemming,HA6 1BJ,51.607784000000000,-0.415531216100369
Marsh harrier and Recurvebill,AL3 5NW,51.755737470000000,-0.340716879000000
Tattler and Booted eagles,N20 8AU,51.637480000000000,-0.198337597297491
Ice seal and Booted eagles,AL9 7NH,51.735836520000000,-0.218967108000000
Wallaby and Moluccan boobook,HA5 3EU,51.598446027917800,-0.385035755069858
Linsang and Polecat,AL9 7DG,51.734085610000000,-0.217949787000000
Ground sloth and Macaw,EN6 1LS,51.707153445989000,-0.182100916657821
Mouse and Solitaire,HP2 7AJ,51.760251554804500,-0.446662791052861
Lemming and Rat,AL3 5SA,51.765963790000000,-0.340892645000000
Grouse and Jerboa,WD18 0RB,51.652985794894300,-0.401008950117127
Diving bird and Parrotlet,EN4 8AP,51.645864138385400,-0.170634363639734
Songlark and Flameback,N12 0PD,51.606016488945200,-0.172770834962965
Armadillo and Mockingbird,N11 3AU,51.620505005455800,-0.153512000000000
Kākāriki and Stint,HP2 4FQ,51.753567299023400,-0.437446075964712
Guillemot and Chickadee,HP2 7AG,51.759697954091300,-0.448319145548428
Guillemot and Buzzard,EN6 2AD,51.699402403249100,-0.196115665201465
Polecat and Fish eagle,WD17 1BQ,51.661089567951000,-0.400492380141369
Hawk and Solitaire,NW4 1NE,51.595893701028100,-0.212650905867018
Thicketbird and Coati,WD19 4AJ,51.643872778676700,-0.381023072480246
Hawaiian honeycreeper and Elephant,HA8 9UT,51.615636135563600,-0.271286000000000
Pratincole and Black jay,HA8 7TD,51.617334097532500,-0.289492869951483
Grackle and Marmoset,HA8 5JN,51.597479869532300,-0.269288707598602
Dolphin and Ibex,AL10 8YG,51.766054670000000,-0.216314286000000
Francolin and Bunting,N11 3GP,51.612397037350600,-0.153550437398003
Night heron and Herring gull,AL2 1LD,51.727687400000000,-0.293960613000000
Grosbeak and Siskin,N11 3EG,51.615422439234400,-0.145815464415720
Myna and Badger,HA8 8DW,51.622464991524900,-0.285543876814273
Prion and Black jay,WD3 3RG,51.653687290209600,-0.433712847906025
Pratincole and Warbler,AL4 0WA,51.747650000000000,-0.301973000000000
Warbler and Pitohui,N12 7DU,51.623069402004900,-0.184004425159284
Greenbul and Logrunners,N20 0NP,51.621740221793800,-0.164453801583981
Prion and Minke whale,HP3 8QH,51.747646385152800,-0.430523163002565
Mink and Mink,N3 2HR,51.600702241207100,-0.188449028184987
Moluccan boobook and Scimitar babbler,WD7 8EQ,51.686593855445200,-0.320808216809093
Wallaby and Black cockatoo,WD4 8LX,51.700484897475000,-0.434644428734262
Parakeet and Tattler,N12 0DD,51.613229164646200,-0.176872063009404
Marsh harrier and Ibex,WD17 4SP,51.681059248317500,-0.420979777793113
Grouse and Elephant,N12 0RJ,51.611420871970500,-0.171615023547642
Recurvebill and Pitohui,NW9 5DB,51.600790398075000,-0.254012000000000
Old World warbler and Wallaby,HA8 9YP,51.608097418538300,-0.268523916969258
Recurvebill and Hawk,AL4 9RT,51.766865170000000,-0.301382317000000
Stilt and Diving bird,HP2 4DE,51.753322752775900,-0.449001251853592
Greenbul and Ground sloth,HA5 4HR,51.607879293954800,-0.374649706390294
Treepie and Magpie,NW7 3QS,51.615356791637600,-0.249903580724371
Vole and Perching duck,WD5 0GU,51.704570671339600,-0.404676081440720
Siskin and Parrotlet,AL9 5AX,51.762631240000000,-0.213521987000000
Mink and Tree warbler,N12 8QN,51.621349941263000,-0.178655744822309
Philippine hawk-owl and Asiatic leopard,HP2 5PQ,51.757897340830400,-0.447468039093128
Tattler and Shearwater,HA3 5RZ,51.595647631033400,-0.336609780022203
Pitohui and Lemming,AL3 4HD,51.750653490000000,-0.344930624000000
Zebra and Crow,WD19 4QF,51.642308000000000,-0.390762000000000
Grackle and Nukupuʻu,HA8 5JT,51.600049281138400,-0.267299478705910
Stilt and Treepie,AL1 5UB,51.746540000000000,-0.302927000000000
Mink and Masked owl,HA7 1NY,51.599951196568800,-0.298087656221271
Scimitar babbler and Ground sloth,HA8 8XL,51.631182463153700,-0.270491527942627
Darwin's finches and Old World quail,AL9 6EA,51.745742540000000,-0.173062980000000
Viscacha and Puffleg,HA8 5LD,51.599228000000000,-0.266392000000000
Lemming and Parrotbill,EN6 3NU,51.691642400484600,-0.228631156194163
Skunk and Triller,HA8 8PY,51.623344472468700,-0.275600314978608
Ice seal and Meadowlark,WD7 9FH,51.703740000000000,-0.305200000000000
Elephant and Bunting,WD18 6NS,51.647255680528800,-0.417442459003299
Parrotlet and Partridge,WD18 7RQ,51.651515315908200,-0.406611573964955
Black jay and Perching duck,EN6 5NG,51.694220870021900,-0.168670650479902
Old World warbler and Thicketbird,WD25 7DH,51.694441101495400,-0.401168943977592
Warbler and Coati,AL1 1TQ,51.737747570000000,-0.312180000000000
Mamo and Cloud rat,WD4 4DB,51.641751042519300,-0.427895303722714
Fish eagle and American sparrow,NW7 4AY,51.618462592079100,-0.239311351018448
Parakeet and Kestrel,AL1 1JQ,51.742553190000000,-0.322833472000000
Old World vulture and Minke whale,N10 2HN,51.605004964970000,-0.147250776546117
Guillemot and Gull,AL10 0UL,51.770568280000000,-0.222817972000000
Ibex and Rat,WD25 9FG,51.683649581114600,-0.391206149368033
River dolphin and Partridge,EN5 5UU,51.653819445773800,-0.201887119011823
Chipmunk and Darwin's finches,EN6 2RX,51.687920525581600,-0.175811419376917
Jerboa and Herring gull,WD4 8JF,51.719472772528700,-0.444571550746953
Marsh harrier and Parrotbill,HA3 7DR,51.606069612185100,-0.334077204413948
Francolin and Piping shrike,AL9 6NQ,51.727563630000000,-0.171537118000000
Cloud rat and Cloud rat,WD18 0BQ,51.648785923291700,-0.391746803594500
Jerboa and Moluccan boobook,NW9 5XT,51.601567789811700,-0.244224649794355
Siskin and Petrel,EN5 3LX,51.648733641702700,-0.232342370896770
Lemming and B,HA3 5NN,51.603140546407400,-0.355931254277693
Masked owl and Siskin,AL10 9RE,51.763597700000000,-0.241235084000000
Perching duck and Armadillo,EN6 5NR,51.694599000000000,-0.166340000000000
Maya and Guillemot,EN4 0AG,51.649203932154300,-0.149166000000000
Mole and Dolphin,AL1 4LS,51.752362680000000,-0.315863705000000
Kākāriki and Dorcopsis,AL1 3PE,51.755801720000000,-0.327600000000000
Linsang and Black cockatoo,WD6 5AU,51.669068658019500,-0.273083659763013
Grouse and Kangaroo,AL4 9TW,51.771828290000000,-0.299485695000000
Booted eagles and Tree warbler,WD6 5HZ,51.666707321175100,-0.269052215982120
Kākāriki and Old World vulture,NW9 5QL,51.601582486281600,-0.242202508252012
Egret and Prion,N12 8EU,51.612027000000000,-0.186857000000000
Mamo and Guillemot,HA8 0LW,51.600823283716200,-0.266735755336450
Guillemot and Thicketbird,WD6 4RJ,51.656206217687500,-0.282030038313925
Perching duck and Thicketbird,AL2 3TH,51.708007290000000,-0.359875529000000
Piping shrike and Ibex,EN5 4DA,51.653047032730500,-0.214913847799619
Shearwater and Mamo,AL3 5UH,51.757225680000000,-0.349341399000000
Chickadee and Rabbit,HA5 4SR,51.605087294791100,-0.378229616190269
Kangaroo and American sparrow,AL1 5AR,51.738832400000000,-0.311036897000000
Pitohui and Solitaire,AL2 2ND,51.722136090000000,-0.339558378000000
Petrel and Wallaby,HA7 1JJ,51.596310817367700,-0.295090678879379
Pheasant and Pitohui,EN5 4HF,51.657710708452400,-0.207024630318147
Quetzal and Shearwater,WD24 4PD,51.665577430912500,-0.390024421231370
Armadillo and Guillemot,AL1 4LG,51.752342550000000,-0.314459142000000
Warbler and Badger,AL10 8PN,51.753639630000000,-0.225424037000000
Dolphin and Black cockatoo,HA7 3QZ,51.612192940875300,-0.327729192757576
Siskin and Mink,HA8 6BQ,51.597174252568300,-0.287073945657122
Chipmunk and Darwin's finches,WD25 0RJ,51.683543746416000,-0.403881794080851
Peafowl and American sparrow,HA5 4JB,51.607872108004800,-0.375429808997040
Magpie and Pheasant,WD17 4NX,51.662649363765600,-0.406090910514583
White ibis and Stint,N12 2FL,51.616854000000000,-0.180703000000000
Rat and Siskin,HA2 6LE,51.598745911920800,-0.352263693288813
River dolphin and Myna,HA3 7JF,51.603964843421300,-0.329605504464603
Pratincole and Chipmunk,HA8 9YS,51.606501788843700,-0.268252470419740
Mockingbird and Piping shrike,N12 8PB,51.610997884712600,-0.184919510713867
Chipmunk and Argus,WD24 6PT,51.678422571102500,-0.396931103459238
Argus and Wallaby,AL1 5DR,51.749084610000000,-0.308003449000000
Mink and Pitohui,HA6 3BF,51.623857025250600,-0.412535882143272
Mouse and Towhee,AL1 1HA,51.749204920000000,-0.340405773000000
Fox and Marsh harrier,EN4 8UN,51.641854375504300,-0.167225921046011
Grackle and Booted eagles,HA3 7DQ,51.605843360472200,-0.331442779256669
Fish eagle and Towhee,HA8 7AW,51.613443195516500,-0.275542268495118
Grosbeak and Elephant,WD19 4HA,51.640987367604600,-0.384363107278173
Logrunners and Greenbul,WD25 0FD,51.689142364591900,-0.393080271671129
Gull and Pratincole,WD19 4RT,51.638729480754900,-0.396105606557009
Kite and Hawaiian honeycreeper,WD25 9FL,51.689046964883300,-0.386775863682287
Kestrel and Hawaiian honeycreeper,NW7 1SE,51.611446358129800,-0.212386708472243
Black jay and Marsh harrier,EN5 1AF,51.645287025388200,-0.186181002363910
Macaw and Meadowlark,WD5 0PG,51.701452635857600,-0.416275896145522
Guillemot and Macaw,AL1 2ED,51.740725920000000,-0.337254785000000
Hawk and Cuscus,AL2 1QS,51.719956940000000,-0.291052072000000
New World blackbird and Prion,N12 0AA,51.609951308684100,-0.174837000415445
Grouse and Ground sloth,HA6 1PE,51.602317527791400,-0.411092194309225
Prion and Fish eagle,WD18 8QZ,51.641381122254500,-0.425263269874487
Capuchin and Tree warbler,WD17 3DN,51.662971846019200,-0.415969587770364
Coati and Marmoset,N11 3FD,51.611096052417900,-0.146887231344579
Argus and Meadowlark,N12 8HR,51.616075521905700,-0.183561379469663
Mockingbird and Mole,N3 1EN,51.607067629811300,-0.198304818496994
Bunting and Skunk,HP2 7GY,51.760850000000000,-0.423965000000000
Argus and Ground sloth,HA8 0HJ,51.603270000000000,-0.260621000000000
Chicken and Armadillo,N11 3DY,51.614612804706900,-0.150539000000000
Towhee and Myna,AL1 4FH,51.752254560000000,-0.316476211000000
Maya and Armadillo,AL3 4JX,51.743685760000000,-0.365697000000000
Old World warbler and Grouse,WD18 1XN,51.641751042519300,-0.427895303722714
Snipe and Masked owl,AL2 1EG,51.727854110000000,-0.301744548000000
Armadillo and Capuchin,WD6 5PE,51.668588000000000,-0.249010000000000
Parrotbill and Civet,WD25 7EX,51.696465811242600,-0.402602445758620
White ibis and Black jay,AL2 2SH,51.717133940000000,-0.352147907000000
Cloud rat and Viscacha,WD25 8HD,51.659504609173700,-0.351549999434399
Kangaroo and Badger,EN6 4BH,51.719614552129000,-0.147998779048077
Duck and Warbler,WD25 7LL,51.690841293469100,-0.410222505067719
Minke whale and Guillemot,WD18 1SD,51.658962657749100,-0.403444367020938
Wader and Capuchin,WD19 6EQ,51.625079910507400,-0.385636113695736
Parrotbill and Bunting,WD25 7NX,51.697217037739800,-0.400318676944966
Chickadee and Petrel,WD19 4EJ,51.642190437012300,-0.382268095029926
New World blackbird and Thrasher,EN5 2HX,51.649160701693700,-0.200076677314735
American sparrow and Shearwater,HA7 3EF,51.623298346907200,-0.319436000000000
Grosbeak and Minke whale,HA5 4NN,51.606397728510600,-0.375453552174002
Booted eagles and Old World warbler,HA8 8HT,51.622573641214000,-0.283748426425201
Magpie and Puffleg,HA7 1DG,51.598247197041500,-0.293444350397874
Hawaiian honeycreeper and Black jay,WD17 3BF,51.641750000000000,-0.427895000000000
Stilt and Rat,WD18 1FN,51.641755000000000,-0.427873000000000
White ibis and Boto,N20 0ST,51.623738308173600,-0.157106322195328
Condor and Tree warbler,HA8 9YH,51.608263916759100,-0.268228744457246
Dolphin and Zebra,AL1 3FL,51.746629620000000,-0.326446000000000
Rabbit and Mamo,AL2 1NE,51.726555750000000,-0.305861950000000
Mouse and Bronzewing pigeon,NW7 0LB,51.615437000000000,-0.241094000000000
Rabbit and Polecat,N20 8PT,51.634073706454200,-0.201211000000000
Parrotlet and Grouse,WD19 7AP,51.627581875623200,-0.389722730262214
Minke whale and Black cockatoo,WD23 3EZ,51.658103000000000,-0.351794000000000
Mouse and Vole,WD17 1QX,51.661982288593900,-0.398696977212432
Treepie and Kangaroo,HA8 8UE,51.624201984473900,-0.270930333919072
Mouse and Parakeet,HA5 4AR,51.615098255351300,-0.360944579327476
Linsang and American sparrow,HA8 5QB,51.597544318299200,-0.274888390661263
Kangaroo and Solitaire,HA8 0FE,51.604631702749700,-0.271933807559506
Logrunners and Rat,WD17 4DR,51.664414864476900,-0.403006915768960
Masked owl and Francolin,WD25 9DF,51.680224206133500,-0.382735580967665
Wader and White ibis,EN5 1EJ,51.641224000000000,-0.181554361339235
Minke whale and Triller,WD7 9AL,51.696632000000000,-0.271948000000000
Diving bird and Myna,EN5 9LQ,51.643012000000000,-0.171144786961926
Tahr and Capuchin,WD19 6XT,51.618412537386400,-0.390567307120370
Snipe and Pratincole,AL10 0JD,51.766104520000000,-0.222573008000000
Wallaby and American sparrow,AL1 4LU,51.752272030000000,-0.318650000000000
Flameback and Grouse,EN4 9EU,51.649865915677600,-0.157420116396521
Treepie and Chipmunk,EN5 5NP,51.655936706630400,-0.188112366397960
Duck and Booted eagles,EN4 9HS,51.651176199409800,-0.152105091689613
Crow and Kākāriki,WD7 8DP,51.679813559087000,-0.327090765119251
Pitohui and Boto,N20 0FA,51.627541000000000,-0.171722000000000
American sparrow and Cloud rat,N20 0QZ,51.626065822104800,-0.175173000000000
Nukupuʻu and Dolphin,EN4 8DU,51.636729045185300,-0.163790872026207
Old World quail and Zebra,N12 8RR,51.623697000000000,-0.179140000000000
Kestrel and White ibis,N12 8DP,51.615004899579600,-0.181784155536998
Minke whale and Diving bird,WD23 4TF,51.642729514049500,-0.356335256074816
Wallaby and Dorcopsis,EN6 4NF,51.703407367627800,-0.162684442271647
Civet and Dolphin,EN6 2QG,51.688628099360400,-0.180267941374200
Polecat and Snipe,N3 3WP,51.601389000000000,-0.195059409551236
Treepie and Viscacha,EN5 2TY,51.644309007176800,-0.196828895707293
Ice seal and Kangaroo,WD18 8UJ,51.643959820366700,-0.428469213766987
Jay and Moluccan boobook,WD24 7UY,51.672997868964300,-0.392798408049651
Hawaiian honeycreeper and Elephant,WD6 3HP,51.642271874075900,-0.300810456462597
Ground sloth and Mink,HA7 2NG,51.598739868041700,-0.305727756759181
Snipe and Crow,AL2 1GQ,51.722376560000000,-0.314762982000000
Vulture and Chicken,AL4 9YF,51.772291970000000,-0.297352118000000
Ice seal and Mole,EN6 1SA,51.705207825669200,-0.182468368542176
Dolphin and Guillemot,EN5 4DN,51.655788000000000,-0.215249843123439
Tattler and Linsang,HA3 7NG,51.597821869326800,-0.332675273863187
Dolphin and Skunk,EN5 2BA,51.644602722595200,-0.189619359606624
Rat and Parrotlet,AL1 4XY,51.759276050000000,-0.306999445000000
Skunk and Cuscus,NW7 1JP,51.604777068434100,-0.204922782436580
Hawk and Petrel,N12 0QZ,51.605853592288700,-0.174438124490569
Myna and Vole,AL1 9XX,51.753408337354000,-0.336122676535098
Condor and River dolphin,AL4 0UJ,51.752648980000000,-0.300148212000000
Prion and Old World warbler,AL4 9LH,51.773660930000000,-0.313722977000000
New World blackbird and Diving bird,HA8 0LY,51.604414939514300,-0.260302850553117
Diving bird and Wader,EN5 1HS,51.643653258549500,-0.180551604042482
Shearwater and Asiatic leopard,EN4 0DX,51.647586000000000,-0.146822022429736
Magpie and Recurvebill,WD17 1HN,51.659558802346800,-0.397698054314893
Fox and Snipe,HA7 3RE,51.612150734271900,-0.328553996437140
Mamo and Goose,EN6 5NQ,51.693599726182500,-0.169780916338447
Crow and Duck,WD25 9DP,51.678101000000000,-0.379591000000000
Darwin's finches and Rabbit,HA7 3PF,51.608537510733200,-0.328036815733160
Francolin and Parakeet,HA7 4BE,51.611809778514600,-0.309327000000000
Pitohui and Ibex,HA8 8TQ,51.626824785437300,-0.272564355252928
Grackle and Cloud rat,AL1 1PJ,51.747536530000000,-0.331804184000000
Kangaroo and Eagle,WD17 4AZ,51.669519984788300,-0.404157819589548
American sparrow and Tattler,EN6 5HZ,51.697460484381300,-0.164792012982906
Tit-tyrant and Diving bird,N12 9JJ,51.621040692462600,-0.171375000000000
Grouse and Greenbul,HA6 3GA,51.613863920520900,-0.414344000000000
Tahr and Elephant,EN5 3JX,51.645797202154200,-0.235000467789409
Grosbeak and Jerboa,HA8 5DE,51.604643104541400,-0.273319685651720
Rabbit and Siskin,HP2 5PD,51.766819837348300,-0.451755973503222
Bunting and Capuchin,WD5 0TU,51.697856202050500,-0.405664579067698
Black cockatoo and Coati,N12 7EU,51.623060418040900,-0.188078765399194
Herring gull and Mink,EN5 3HD,51.651441000000000,-0.220369000000000
Marmoset and Treepie,AL10 9PE,51.756122500000000,-0.241047388000000
Ground sloth and Old World vulture,WD6 5LQ,51.667387396594500,-0.268216495537950
Macaw and Parrotbill,AL4 9YQ,51.773235460000000,-0.298548640000000
Piping shrike and New World blackbird,WD23 1LN,51.636791188871800,-0.342012420221643
Vole and Tree warbler,N12 9SR,51.616990344963800,-0.176446889173258
Vole and Kite,AL3 4JR,51.744183090000000,-0.362534694000000
B and Snipe,WD17 4RA,51.663744073823300,-0.402611180161635
Booted eagles and Tattler,AL1 2HP,51.736570300000000,-0.333352169000000
Dorcopsis and Nukupuʻu,AL10 8AG,51.762805300000000,-0.222035987000000
Black cockatoo and B,AL1 1HW,51.747109130000000,-0.336542379000000
Thrasher and Egret,WD18 7PS,51.650871922562300,-0.416882871118272
Greenbul and Fulmarine petrel,WD25 8DA,51.651967000000000,-0.336659000000000
Stint and Thrasher,HA8 0ED,51.606491142080100,-0.274246026799982
Black jay and Eagle,N3 1YE,51.605393864301600,-0.189460907897677
Darwin's finches and B,WD18 7NW,51.650475000000000,-0.409351000000000
Recurvebill and Scimitar babbler,EN5 5QR,51.655281634647900,-0.182962888192669
Logrunners and Triller,AL10 8HS,51.741652380000000,-0.231716000000000
Booted eagles and Thrasher,HA5 3RF,51.606002838130700,-0.391179438715155
Pheasant and Grackle,N12 9RY,51.622012577331100,-0.176158872768037
Herring gull and Jackal,HA8 8JL,51.622226713488800,-0.276755000000000
Buzzard and Warbler,AL1 1EB,51.733300870000000,-0.307810957000000
Warbler and Perching duck,EN5 2PJ,51.644138293755400,-0.212127378782937
Snipe and Siskin,N3 2PL,51.604408436148500,-0.186207601811509
Meadowlark and Perching duck,WD19 4JT,51.642743104296300,-0.397654950805383
Parakeet and Grackle,WD17 4JQ,51.679489973606200,-0.422639899508845
Pheasant and Lemming,AL1 5WD,51.748645780000000,-0.317523038000000
Masked owl and Snipe,AL9 5AT,51.763090660000000,-0.213576309000000
Zebra and Eagle,AL3 6DW,51.773024740000000,-0.342329558000000
Kangaroo and Armadillo,NW7 1GE,51.607900768962500,-0.214896000000000
Hawaiian honeycreeper and Fox,N10 2NX,51.606161337692000,-0.145311871379793
Towhee and Hawaiian honeycreeper,WD6 5DH,51.664355523950800,-0.263242273987326
Chipmunk and Zebra,N20 8HH,51.627637850313400,-0.183446348106499
Philippine hawk-owl and Old World warbler,EN6 5PR,51.691648621949700,-0.175574722308298
Herring gull and Old World warbler,HP2 4NQ,51.749025038632300,-0.425361645505765
Flameback and Goose,WD19 7DL,51.627757115960500,-0.397272766376326
Old World vulture and Masked owl,WD23 4HL,51.641606767317400,-0.355783307126655
Fox and Thrasher,WD17 2RQ,51.657471819640400,-0.389747840586784
Asiatic leopard and Marmoset,NW4 1EP,51.595705478376900,-0.215055003958112
American sparrow and Kangaroo,WD17 1JJ,51.658789000000000,-0.396569000000000
Old World warbler and Pheasant,AL1 1XT,51.747840080000000,-0.341180107000000
Tit-tyrant and Pheasant,AL4 9YG,51.771851180000000,-0.297339718000000
Chicken and Cuscus,WD17 4DU,51.673377000000000,-0.411535000000000
Nukupuʻu and Kestrel,WD18 7LY,51.654675556049200,-0.404390000000000
Masked owl and Jay,HP3 8TN,51.741566597189700,-0.436498509476885
Ground sloth and Jerboa,EN5 4EF,51.654268855879500,-0.217207814629562
Ground sloth and American sparrow,NW9 5XH,51.596681000000000,-0.252340000000000
Maya and Wallaby,N12 0QU,51.609445512022900,-0.168343744625659
Tit-tyrant and Darwin's finches,WD19 5EB,51.632211174353800,-0.385021723332700
Jerboa and Puffleg,AL2 2TX,51.721408900000000,-0.351775329000000
Jackal and Crow,WD5 0JF,51.695478598858700,-0.429420079560963
Parrotbill and Goose,AL3 5PP,51.758016960000000,-0.339763952000000
Coati and Thrasher,HP2 4NE,51.747740315006000,-0.426116136360736
Pratincole and Macaw,EN6 9GF,51.698662000000000,-0.190290000000000
River dolphin and Kestrel,N20 2DA,51.629861783400000,-0.173676799500000
Parakeet and Stint,N12 9JG,51.620389837090700,-0.174158171073876
Moluccan boobook and Quetzal,N11 3NH,51.608336730862400,-0.151534425979271
Pratincole and Logrunners,AL1 5GG,51.750230000000000,-0.309618000000000
Myna and Dorcopsis,AL3 4DG,51.752861540000000,-0.341459747000000
Tahr and Tahr,WD25 7AR,51.692376038245000,-0.410009581317810
Rabbit and Ground sloth,AL3 5JZ,51.757146830000000,-0.334826052000000
Magpie and Elephant,HA8 8PP,51.616375147320400,-0.275575586338139
Tahr and Old World warbler,AL10 8TY,51.761364910000000,-0.226092034000000
Siskin and American sparrow,WD3 3HG,51.648712950133800,-0.442369064329763
Asiatic leopard and Viscacha,AL10 8RX,51.752148110000000,-0.223120980000000
Booted eagles and Scimitar babbler,AL4 0XF,51.752267310000000,-0.299249813000000
Petrel and Ground sloth,WD17 4HZ,51.682359290963600,-0.418692445567518
Civet and Perching duck,EN4 8DA,51.639160153762500,-0.166872089302064
Capuchin and Shearwater,AL1 1PW,51.746270790000000,-0.330054574000000
Kite and Magpie,HA8 5SJ,51.600492686768100,-0.275426436938658
Marsh harrier and Treepie,HA6 2HN,51.630699996142400,-0.435458312116541
Elephant and Tree warbler,WD19 6XB,51.618863302135900,-0.384758890969153
Kite and Goose,HA7 2PB,51.600186388591400,-0.309384813079601
Thrasher and Thicketbird,WD23 1SB,51.630062038322800,-0.337980952569913
Wader and Cuscus,WD6 5DR,51.664369251841900,-0.275156572989519
Kite and Fulmarine petrel,EN4 0BB,51.649000823930200,-0.144170996171229
Marsh harrier and Cuscus,WD19 6EX,51.620453331272600,-0.384644654145204
Tree warbler and Kite,AL10 9TG,51.774218000000000,-0.248447000000000
Greenbul and Dolphin,NW7 2RZ,51.616353214673100,-0.226421798675898
Triller and Solitaire,EN5 9PP,51.643012000000000,-0.171144786961926
Mole and Songlark,AL9 6AW,51.763094680000000,-0.155045258000000
B and Thrasher,HP2 7DG,51.772976000000000,-0.437124000000000
Diving bird and Parrotbill,WD7 7LP,51.681802731281600,-0.310888747411301
Duck and Black cockatoo,WD19 4AG,51.645559443701100,-0.381396600844968
Coati and Quetzal,EN4 0NQ,51.662668112314500,-0.184373604538669
Old World vulture and Thrasher,HA3 6DS,51.610319234019200,-0.333185077680120
Night heron and Shearwater,WD17 1NJ,51.659936904518600,-0.401689613642998
Skunk and American sparrow,AL10 0FH,51.762400740979800,-0.235659118996207
Rabbit and Maya,WD17 1RY,51.663415875130800,-0.400959912847091
Polecat and Rat,AL4 9EB,51.780634000000000,-0.295864000000000
Jerboa and Warbler,AL2 1QT,51.721088740000000,-0.291588512000000
Francolin and Mamo,EN4 8FR,51.643734714200000,-0.146568562200000
Old World warbler and Meadowlark,HA7 2BH,51.601561800431800,-0.320004663215064
Meadowlark and Fish eagle,AL9 7LW,51.736611940000000,-0.216141423000000
Chicken and Vulture,HA8 0AF,51.606606062950400,-0.272277644094553
Treepie and Magpie,WD23 1BA,51.645211437470800,-0.369889587583143
Stint and Kite,N11 3EB,51.609789162003700,-0.150117823732896
Crow and Logrunners,WD3 3FR,51.655734323767000,-0.448229178029459
Badger and Crow,NW7 4AR,51.617446506635600,-0.237516177155147
Partridge and Egret,N12 9TT,51.617466891230300,-0.170664236846705
Rat and Shearwater,HA8 5RJ,51.602945120765600,-0.278322643157401
Stint and Rat,AL10 9EX,51.762149640000000,-0.243015789000000
Cloud rat and Mole,WD19 6YP,51.617647817340900,-0.388572104554842
River dolphin and Chicken,WD4 8TZ,51.641750000000000,-0.427895000000000
B and Argus,WD19 4BS,51.646669672818000,-0.382354382189971
Egret and Goose,AL2 1JN,51.726249300000000,-0.292146904000000
Wader and Masked owl,AL10 9HA,51.758173700000000,-0.238113199000000
Treepie and Shearwater,WD6 1AX,51.656236525476300,-0.275508726137754
Elephant and Buzzard,HA8 5PA,51.597645428809400,-0.275649800658814
Grosbeak and Old World vulture,AL2 1UX,51.721885190000000,-0.312479248000000
Vulture and Armadillo,WD23 3NH,51.648499901228500,-0.361301286887241
Maya and Jerboa,AL1 2PJ,51.741728680000000,-0.344590488000000
Civet and Black cockatoo,NW7 3DH,51.614409161358100,-0.248466754719213
Perching duck and Herring gull,WD6 1NA,51.658350856703300,-0.257920039058768
Armadillo and Petrel,NW9 4AT,51.604207000000000,-0.243228000000000
Viscacha and Recurvebill,HA5 4TJ,51.606150041835400,-0.382913968678556
Fish eagle and Boto,EN6 5HH,51.698585111476400,-0.167134200455675
Guillemot and Ibex,WD6 3DD,51.642763237440700,-0.299346807551389
Siskin and Chicken,NW7 0JQ,51.615437000000000,-0.241094000000000
Pitohui and Perching duck,HP2 4UN,51.751996391198800,-0.434517000000000
Zebra and Civet,EN5 1FF,51.649105000000000,-0.176925000000000
Diving bird and Civet,WD23 2RG,51.652971501608300,-0.369235357731049
Myna and Ground sloth,HA5 3SG,51.601732246824900,-0.396485310693449
Warbler and Flameback,HA8 0BY,51.604170912046200,-0.268124544357842
Booted eagles and Night heron,NW9 4AJ,51.603212000000000,-0.240772000000000
Francolin and Partridge,WD24 4JF,51.670286218409500,-0.391115627366600
Egret and Mockingbird,AL1 5QL,51.744247260000000,-0.311153640000000
Darwin's finches and Mole,NW7 2HP,51.610551265450500,-0.219166619322509
Night heron and White ibis,WD25 9SW,51.684156220541200,-0.381611801952641
Skunk and Solitaire,AL10 8HB,51.756120610000000,-0.234324519000000
New World blackbird and New World blackbird,EN4 8RE,51.648385745806700,-0.169145190164205
Prion and Petrel,EN6 1BA,51.697330638524100,-0.191205769028498
Peafowl and Fish eagle,AL1 4RS,51.759768840000000,-0.320036624000000
Petrel and Coati,AL1 2LX,51.735737470000000,-0.335497239000000
Minke whale and Thrasher,AL2 1JW,51.725434930000000,-0.291178530000000
Guillemot and Old World quail,WD25 9NQ,51.685204639745900,-0.391165494875799
Night heron and Pheasant,HA6 3QA,51.613171094967600,-0.408445659915086
Partridge and Moluccan boobook,WD18 0RP,51.653983972126400,-0.405643178024519
Minke whale and Partridge,HA8 5LS,51.596507045163300,-0.272227758182981
Lemming and Tit-tyrant,N11 1NA,51.615749818086700,-0.143202112528722
Black cockatoo and Argus,HA7 4YW,51.622608822312600,-0.296040998633106
Myna and Pitohui,HP3 8HZ,51.741662723043400,-0.445779515133672
Grouse and Chicken,EN4 8HZ,51.643853000000000,-0.160410000000000
Mamo and Minke whale,AL3 4TF,51.754622680000000,-0.348393141000000
Civet and Fox,HA7 9JQ,51.604469000000000,-0.295599000000000
Nukupuʻu and Greenbul,AL4 9AF,51.761296720000000,-0.305576233000000
Francolin and Zebra,EN4 9QL,51.652471907009100,-0.167650576837788
Tree warbler and Triller,HA3 8RZ,51.600688968228500,-0.317452220771290
Kākāriki and Parrotbill,WD7 7DB,51.689649036986200,-0.316890155799125
Grosbeak and Civet,WD23 3AP,51.649819037469500,-0.364332622926559
Boto and Nukupuʻu,AL1 2NL,51.737459110000000,-0.340879569000000
Chipmunk and Badger,WD18 0EA,51.651255492267900,-0.399407471191508
Viscacha and Parrotlet,EN4 9BG,51.655454505879600,-0.172084262369982
Old World quail and Ice seal,WD17 1PB,51.661745021384200,-0.395148504388016
Old World vulture and Thicketbird,WD4 8DY,51.707698932527300,-0.446350358259207
Night heron and Macaw,WD17 3FA,51.666000923021700,-0.419883829195291
Prion and Piping shrike,HA7 4ET,51.614307558974800,-0.307126934772047
Hawk and Recurvebill,HA8 9EG,51.608951462119500,-0.263638871571432
Tree warbler and Shearwater,AL4 9JB,51.764295140000000,-0.292189658000000
Argus and Herring gull,AL4 0LF,51.747650000000000,-0.301973000000000
Egret and Petrel,EN5 2UH,51.644314000000000,-0.198279971679211
Old World quail and B,WD17 1AY,51.657476046775500,-0.399925651427733
Eagle and Masked owl,WD18 7BN,51.656129137064500,-0.417986357422548
Lemming and Dolphin,NW9 5NS,51.598902696762000,-0.242796906753677
Elephant and River dolphin,EN5 5QD,51.661043676884900,-0.193752000000000
Francolin and Tahr,AL10 9HE,51.757208720000000,-0.237324861000000
Jerboa and Skunk,WD19 6TR,51.619158758442500,-0.394498879321974
Mole and Pratincole,AL3 6HH,51.770074550000000,-0.337176543000000
Ice seal and Francolin,AL1 5EH,51.749651960000000,-0.322003000000000
Minke whale and Mamo,HA5 3ED,51.599203652380900,-0.396213481430346
Vulture and Egret,EN6 2EL,51.690468464353100,-0.194242000000000
Chicken and Magpie,AL3 4GE,51.742188299839600,-0.358638157614720
Greenbul and Piping shrike,EN5 9TH,51.643015000000000,-0.171012000000000
Thicketbird and Booted eagles,HA8 4QF,51.613334000000000,-0.277800000000000
Stint and Wader,AL1 1UA,51.737699000000000,-0.315945000000000
Solitaire and New World blackbird,HA7 4UZ,51.620407818339900,-0.307997805109614
Cloud rat and Skunk,WD25 0JU,51.702735446982000,-0.390905552640505
Pratincole and Vole,WD24 7PD,51.674254000000000,-0.386578000000000
Songlark and American sparrow,N3 1LP,51.606046346652800,-0.187456488499500
Old World vulture and Myna,WD23 2ZS,51.640494455889500,-0.357904625225253
Siskin and Masked owl,WD23 1EH,51.633948491117900,-0.341928228602178
Armadillo and Stint,N12 9RD,51.619681000000000,-0.176299000000000
Snipe and Gull,AL10 9LW,51.772125790000000,-0.234279714000000
Rat and Civet,WD19 7BZ,51.628791573428900,-0.397958721328336
Skunk and Ground sloth,EN6 3NZ,51.691849351486400,-0.234613062769871
Mockingbird and Petrel,N3 1YP,51.607856553160200,-0.187052228212433
Mole and Macaw,AL2 2FN,51.720965000000000,-0.352067000000000
Civet and Recurvebill,N12 8BU,51.615771417259100,-0.179023523688033
Snipe and Rabbit,WD4 8PN,51.693714000000000,-0.425141000000000
Buzzard and Francolin,WD18 7BY,51.657231685458300,-0.405891000000000
Maya and Old World warbler,N3 2EX,51.599100180114200,-0.177900014046976
Myna and Rat,N3 1RY,51.598637956527300,-0.198638455046804
Crow and Meadowlark,N11 3EU,51.614758865313600,-0.149352442701399
Recurvebill and Asiatic leopard,N20 8PN,51.631244808240700,-0.199861191370502
Goose and Armadillo,WD23 2HS,51.655847899815500,-0.384774419859226
Goose and Meadowlark,AL9 5PH,51.764790490000000,-0.186003493000000
Crow and Mockingbird,N3 2JU,51.599394897290200,-0.193829000000000
Tit-tyrant and Thrasher,WD3 3NP,51.654018409568200,-0.436968527335024
Goose and Chicken,AL1 5NP,51.747029320000000,-0.306399861000000
Ground sloth and Greenbul,EN4 8LX,51.633017360388100,-0.154750599965440
Grosbeak and B,WD6 4NG,51.661889093164700,-0.288304000000000
Old World vulture and Logrunners,NW7 4HP,51.629280000000000,-0.237982000000000
Kangaroo and Tattler,WD6 1NJ,51.658262853797200,-0.272048684772169
Wallaby and Dorcopsis,HP3 8QA,51.749445951618500,-0.436009169850687
Kite and Greenbul,NW7 1PY,51.611301409975800,-0.203481091721824
Booted eagles and Parakeet,HA8 9JQ,51.610030844691300,-0.269750175150829
Marsh harrier and Elephant,AL10 9HX,51.755300990000000,-0.239630425000000
Prion and Duck,AL3 5JU,51.755854110000000,-0.341973132000000
Guillemot and Parakeet,WD25 9BG,51.681266354996400,-0.377968496801103
Grosbeak and Herring gull,EN5 2QT,51.644077295233500,-0.217578700323936
Wader and Parrotbill,EN5 1BU,51.639013774053600,-0.169016865845790
Triller and Black cockatoo,HA8 8RH,51.628553490884000,-0.276385292557200
Towhee and Herring gull,HA6 3LF,51.617244922651200,-0.421129878950230
Marmoset and Meadowlark,EN5 2LH,51.647456208480400,-0.204451620731078
Guillemot and Argus,EN6 2AR,51.693200917213800,-0.197490831605921
New World blackbird and Dolphin,HA6 1JL,51.599862868194300,-0.411105669996152
Old World vulture and Chickadee,N3 1PR,51.611520649066300,-0.191990206714763
Quetzal and Mink,AL9 7QY,51.724350000000000,-0.201556524000000
Herring gull and Coati,N12 9DR,51.615326054271200,-0.172353636150721
Puffleg and Viscacha,EN5 2HH,51.651164000000000,-0.199867000000000
Prion and Bunting,AL3 6DA,51.771172450000000,-0.334063519000000
Quetzal and Minke whale,AL10 9JX,51.774984360000000,-0.233023022000000
Darwin's finches and B,AL3 5TX,51.759473980000000,-0.348723283000000
Grosbeak and Linsang,N3 2BW,51.603179000000000,-0.190273066371267
Egret and Myna,N10 1BD,51.604438598592200,-0.148400222002612
Marmoset and Francolin,N20 8BB,51.635810733274100,-0.200894273207374
Masked owl and Old World vulture,NW7 3JW,51.620540305518600,-0.254399058148719
Ice seal and Mamo,HA8 5HL,51.600415971979700,-0.270823175609071
Moluccan boobook and Ice seal,N12 9NL,51.613460750887500,-0.164036758804475
Jerboa and Night heron,N12 0JG,51.607625269912000,-0.176764404619076
Duck and Coati,WD18 6PA,51.646563994978000,-0.420834282934305
Dolphin and Mamo,N12 8ER,51.614532528695300,-0.185544038531095
New World blackbird and Marmoset,NW7 4BN,51.618380948266200,-0.240011000000000
Lemming and Puffleg,WD6 2EG,51.648309480322400,-0.256902895594734
Ice seal and Francolin,AL3 5NN,51.755102430000000,-0.340319985000000
Myna and Mink,HA7 1HR,51.601819708853500,-0.302927328984571
Treepie and Dorcopsis,WD17 4NS,51.661543000000000,-0.403975000000000
Old World quail and Mockingbird,N20 0LU,51.626333417988100,-0.174136279232998
Grosbeak and Myna,WD6 3AF,51.656566000000000,-0.312333000000000
Linsang and Capuchin,HA8 7SG,51.617324991356800,-0.286402037938276
Mole and Jerboa,NW7 4EQ,51.623913476179900,-0.237019997649333
Badger and Old World warbler,N14 5JP,51.632148210486500,-0.142402478912964
Chicken and B,WD6 3HU,51.652320796870000,-0.280745813730448
Pratincole and Fulmarine petrel,EN6 3PP,51.692149757365400,-0.226498922967689
Partridge and Maya,HP2 7SU,51.764033000000000,-0.434708000000000
Kangaroo and Ice seal,HA8 5LF,51.599345256500600,-0.267730568399629
Old World warbler and Scimitar babbler,AL3 5TR,51.762022770000000,-0.347094270000000
Jerboa and Gull,HP3 8RQ,51.748080903503400,-0.435462380921330
Vulture and Quetzal,WD23 1AS,51.637321529824500,-0.352860228150728
Towhee and Chickadee,HA3 6SL,51.617595000000000,-0.359352000000000
River dolphin and Egret,WD17 4SB,51.671527855375900,-0.412981253993140
Macaw and Boto,WD6 4ER,51.667535231940500,-0.281341206850660
Wader and Marsh harrier,HA7 3SN,51.613127776474300,-0.322033046329928
Marsh harrier and Wallaby,NW9 5PG,51.599357059395400,-0.241913021821374
Grosbeak and Eagle,WD18 0WR,51.650917670903600,-0.407629939942058
Thicketbird and Fish eagle,N20 9JW,51.633579657147900,-0.163657963686497
Stint and Magpie,HA7 4HW,51.614930844589100,-0.306699314334952
Vole and Tree warbler,HA8 8BL,51.622813085333900,-0.287712249588790
Francolin and Petrel,WD19 6TU,51.619096340325200,-0.393879941637295
Jay and Old World quail,WD6 5PX,51.665176076550400,-0.265220836406614
Kangaroo and Boto,WD23 2LR,51.651354962428100,-0.375870586620794
Grosbeak and Dorcopsis,AL3 4AA,51.740920210000000,-0.354251920000000
Vole and Grouse,WD23 2LA,51.645917212457500,-0.373319000000000
Ibex and Kestrel,AL4 0HS,51.757677000000000,-0.273120024000000
Lemming and Piping shrike,WD19 5JB,51.633354509941300,-0.378364000000000
Stint and Triller,AL2 2AL,51.714314000000000,-0.352294000000000
Myna and Kite,AL1 1BX,51.749181000000000,-0.341174000000000
Mouse and Jackal,N3 1ER,51.607578896350800,-0.197634696767388
Moluccan boobook and Mouse,N11 3HE,51.617160105909000,-0.150511471716452
Kite and White ibis,WD19 7BP,51.629743719774300,-0.396567020742531
Mouse and Wallaby,N12 9HY,51.619744787001800,-0.170269273391384
Kangaroo and Perching duck,WD5 0LJ,51.704807044879300,-0.412309113108802
Parrotlet and Towhee,AL2 1RA,51.747827110000000,-0.301864776000000
Peafowl and Goose,WD6 1HT,51.657141886489900,-0.263720464705385
Greenbul and Snipe,WD24 7JY,51.679790568613200,-0.386511788522959
River dolphin and Boto,WD25 0RR,51.686546430017200,-0.396571836614353
Crow and Parrotbill,HP3 8JD,51.742462048101900,-0.445027868680703
Warbler and Marsh harrier,EN6 1BY,51.705043000000000,-0.176430409214466
Duck and Armadillo,N3 2QG,51.603678211628000,-0.188417229400404
Thrasher and Recurvebill,WD17 4YJ,51.668990740070100,-0.409555901421934
Philippine hawk-owl and Warbler,HA3 7LD,51.602574089137600,-0.327923740778023
Argus and Bunting,EN6 2RR,51.688279091970600,-0.175739134768425
Logrunners and Siskin,N12 0RE,51.610910005095000,-0.165959485361642
Grosbeak and Mamo,HA7 1JY,51.601013730284800,-0.295708726050388
Solitaire and Grosbeak,WD3 3LP,51.653099804733300,-0.435511170712071
Herring gull and Boto,AL1 4PF,51.758388570000000,-0.322869868000000
Ice seal and Marmoset,EN5 1AZ,51.641434990380700,-0.182358000000000
Tit-tyrant and Tree warbler,AL1 2HW,51.735231760000000,-0.332807640000000
Darwin's finches and Fish eagle,HA2 6DX,51.596904000000000,-0.350186000000000
Piping shrike and Gull,HA7 1FR,51.606259709832000,-0.296451047584610
Herring gull and Jerboa,WD5 0AQ,51.704285671536700,-0.417653141370233
Partridge and Civet,AL1 9XQ,51.747650000000000,-0.301973000000000
Francolin and Thicketbird,N12 9TB,51.616644613894900,-0.175030719532639
Ice seal and Masked owl,N3 1YD,51.606098842253400,-0.189692807169571
Black cockatoo and Maya,WD17 3JL,51.673503443547500,-0.421459483115105
Puffleg and Civet,WD19 7PS,51.629887775981000,-0.406488090756171
Cuscus and River dolphin,AL1 3RR,51.754359500000000,-0.333800000000000
Rat and Fox,HA6 1HD,51.604386567157200,-0.421821406449552
Wader and Condor,HA8 0JJ,51.607391805868700,-0.249444478043927
Night heron and Recurvebill,HA7 3DE,51.625961194247400,-0.321516284849150
Treepie and Lemming,WD6 1LL,51.656313000000000,-0.254442000000000
Civet and Herring gull,WD25 0JQ,51.689578243365900,-0.399980329676615
Stilt and Ice seal,WD17 2RD,51.658368000000000,-0.391527215284309
Tahr and Minke whale,NW7 4JY,51.621344561880900,-0.242609081354795
Fulmarine petrel and Hawk,WD6 5NX,51.668227242182000,-0.259188000000000
Petrel and Herring gull,WD25 9BA,51.700033302903000,-0.375546466945817
Grackle and Tit-tyrant,NW7 1AE,51.617997940276000,-0.217459516013479
Fox and Vole,NW7 1NX,51.615455000000000,-0.205672000000000
Boto and Lemming,WD17 4JA,51.680976000000000,-0.419483965692753
Hawk and Jerboa,HA8 6RL,51.609370832834200,-0.294081532700141
Pratincole and Scimitar babbler,HP3 8HG,51.745078546936000,-0.442301727364249
Capuchin and Duck,HA8 5SR,51.601943953162500,-0.275053778046382
Duck and Greenbul,N3 1BJ,51.600984816410300,-0.199801840060082
Condor and Perching duck,HA8 0RJ,51.606131889496800,-0.257233445755076
Petrel and Pheasant,N11 3LG,51.618285239862900,-0.157442801224254
Treepie and Kite,WD6 4AQ,51.670096880676900,-0.283109793214092
Lemming and Dolphin,WD23 2LQ,51.650530658279700,-0.373486036880703
Tree warbler and Buzzard,WD19 7PH,51.627387769651500,-0.405809953506531
Peafowl and Towhee,HA8 0PQ,51.608263540937500,-0.256660791722551
Chickadee and New World blackbird,WD19 5AQ,51.632866153608900,-0.379695487103929
Grackle and Old World warbler,WD23 4SG,51.642116490617100,-0.340878775388129
Pitohui and Bunting,HA8 7BQ,51.611705000000000,-0.275968255542910
Rat and Polecat,HA6 2NF,51.618165000000000,-0.443470802541557
Booted eagles and Parrotbill,AL1 5NS,51.746959520000000,-0.305924432000000
Tit-tyrant and Thicketbird,EN5 5TS,51.654144065465200,-0.199011864015790
Marsh harrier and Boto,HP3 8EP,51.742795192475700,-0.446421426062109
Songlark and White ibis,HA7 3SH,51.614302048423500,-0.320516482822456
Marmoset and American sparrow,EN5 2TA,51.647112586384100,-0.213759344637521
Booted eagles and Kite,AL1 4TZ,51.754162060000000,-0.309668202000000
Jackal and Solitaire,WD5 0ND,51.700502326379400,-0.413820060111838
Black cockatoo and Mink,EN6 5HU,51.696689900583100,-0.164967890012909
Tree warbler and Thrasher,AL2 3UN,51.708547520000000,-0.378715165000000
Gull and Marmoset,WD5 0GP,51.704004595400000,-0.406172070879544
Grosbeak and Mouse,HA8 8QA,51.623223358924900,-0.277150696348524
Towhee and Jay,NW9 5GR,51.604596601902600,-0.249537544349049
Gull and Bronzewing pigeon,HA3 7LG,51.603163161150200,-0.325721635654589
Kestrel and Boto,WD18 7EF,51.651774000000000,-0.415030000000000
Flameback and Zebra,AL4 9TB,51.771402190000000,-0.301110531000000
Myna and Flameback,HA3 6DJ,51.612492326955400,-0.332339993200377
Wader and Stilt,HA6 1QB,51.607088117757800,-0.404152694510956
Moluccan boobook and Kestrel,N11 1TB,51.620912063753000,-0.142673579072878
Bunting and Ibex,WD25 0AT,51.687391200602400,-0.405786309272937
Gull and Grouse,WD25 0DE,51.687603708578000,-0.396954022910577
Wader and Peafowl,HP2 4NW,51.757776289603300,-0.436084000000000
Francolin and Rabbit,HP2 4PQ,51.752413928684700,-0.430662148678727
Warbler and Herring gull,AL10 8PP,51.751976860000000,-0.225474724000000
B and Condor,HA8 8AF,51.621733000000000,-0.292000000000000
Shearwater and Flameback,WD23 1LE,51.633126096680600,-0.349934431324139
Stint and Dolphin,AL3 4AU,51.745625480000000,-0.354428589000000
Warbler and Ibex,EN6 5DG,51.699830030862300,-0.167966640421391
Eagle and Marsh harrier,AL9 5AJ,51.762376180000000,-0.211532277000000
Guillemot and Prion,HA7 3AD,51.621224613745100,-0.317906228493933
Stint and Rabbit,NW7 4LG,51.626197438203700,-0.243013921766250
Cuscus and Snipe,WD7 9HA,51.708091915164400,-0.304395258766644
Marmoset and Prion,HA5 4EY,51.613088457591400,-0.370953938555789
Goose and Mamo,HA6 1RE,51.604652607228000,-0.410216457632333
Logrunners and Jerboa,WD23 1RF,51.631029404796200,-0.341528950710770
Lemming and Skunk,AL1 4RL,51.760508190000000,-0.320806152000000
Vulture and Bunting,WD6 2JF,51.647460472988100,-0.261503041459484
Treepie and Minke whale,AL2 1HZ,51.728813120000000,-0.297798939000000
Tahr and Tahr,N20 8HJ,51.627737099822500,-0.184049209411806
Parrotlet and Siskin,HA8 0LN,51.602949000000000,-0.262640000000000
Dolphin and Crow,N3 2RH,51.599373590979900,-0.178134537482832
American sparrow and Macaw,HP2 7AA,51.763393262743400,-0.448293897794086
Jackal and Grosbeak,WD18 0AE,51.651456000000000,-0.396191000000000
Elephant and Triller,NW9 5XX,51.596351657600000,-0.238912000000000
Meadowlark and Chickadee,HA5 4RB,51.605942335420700,-0.377635952600612
Kestrel and Scimitar babbler,NW4 1JP,51.596526589905300,-0.215831355016499
White ibis and Perching duck,WD24 5HD,51.671633908844600,-0.404878929927081
Dorcopsis and Skunk,AL10 8LF,51.744290860000000,-0.230990627000000
Jay and New World blackbird,AL4 9SH,51.768864440000000,-0.299727522000000
New World blackbird and Civet,WD19 6TY,51.617722784096500,-0.395358455066845
Magpie and Partridge,WD24 7WB,51.641750000000000,-0.427895000000000
Triller and Jerboa,EN5 3JU,51.647532419367000,-0.230799105941653
Boto and Siskin,N3 2SS,51.596292986987500,-0.187671553191403
Dorcopsis and Pitohui,NW7 1RY,51.610723000000000,-0.209472000000000
Kite and Scimitar babbler,AL2 3BE,51.733387990000000,-0.362837982000000
Moluccan boobook and Coati,HA6 1SS,51.606275659090600,-0.413871112080237
Marmoset and Eagle,HP2 7HP,51.777698061344000,-0.427900710265826
Dolphin and Pitohui,HA8 6LE,51.610153857235200,-0.279956334973451
Quetzal and Kestrel,AL9 7HX,51.739373540000000,-0.212657943000000
Boto and Wader,EN4 0LR,51.662105317203400,-0.174173462670210
