name,postcode,lat,lon
boa constrictor and Warbler,BT44 9BG,55.053480000000000,-6.358180000000000
Jay and tree snake,BT44 9BZ,55.040546000000000,-6.416623000000000
cobra and Old World quail,BT44 9DQ,55.006084000000000,-6.416590000000000
tiger snake and dugite,BT44 9FB,55.004337000000000,-6.414016000000000
Argus and cayman,BT44 9HX,55.005669000000000,-6.322401000000000
Pratincole and blind snake,BT44 9JS,55.060869000000000,-6.274078000000000
Rat and blue racer,BT44 9JT,55.024477000000000,-6.305226000000000
frill-necked lizard and Tit-tyrant,BT44 9ND,55.005207000000000,-6.414576000000000
Shearwater and Triller,BT44 9PX,55.003407000000000,-6.358772000000000
king cobra and perentie,BT53 6AP,55.069153000000000,-6.515981000000000
Gila monster and Wallaby,BT53 6BQ,55.073436000000000,-6.518797000000000
elapid and Greenbul,BT53 6DP,55.071451000000000,-6.516926000000000
K훮k훮riki and Parrotbill,BT53 6EF,55.072399000000000,-6.515376000000000
rock python and American sparrow,BT53 6HF,55.076090000000000,-6.512483000000000
Lemming and box turtle,BT53 6JE,55.069981000000000,-6.510972000000000
Duck and Schneider python,BT53 6LA,55.065764000000000,-6.518032000000000
Logrunners and Badger,BT53 7AQ,55.067815000000000,-6.507264000000000
tiger snake and iguana,BT53 7BW,55.071391000000000,-6.496360000000000
frill-necked lizard and Buzzard,BT53 7DE,55.048922000000000,-6.501317000000000
anole and box turtle,BT53 7JE,55.056026000000000,-6.512867000000000
tuatara and kabaragoya,BT53 7QU,55.061664000000000,-6.512596000000000
Mockingbird and alligator,BT53 7UE,55.066654000000000,-6.508575000000000
horned viper and Rat,BT53 8AJ,55.155395000000000,-6.409342000000000
Hawaiian honeycreeper and Myna,BT53 8BG,55.121934000000000,-6.471277000000000
coral snake and Night heron,BT53 8BJ,55.125504000000000,-6.469416000000000
Masked owl and Dolphin,BT53 8EX,55.169865000000000,-6.453136000000000
Tahr and Tahr,BT53 8HB,55.088990000000000,-6.495369000000000
adder and mamba,BT53 8NB,55.071308000000000,-6.438156000000000
Mouse and perentie,BT53 8NN,55.081715000000000,-6.410657000000000
Coati and monitor,BT53 8PF,55.108668000000000,-6.418677000000000
giant tortoise and Masked owl,BT53 8PG,55.107984000000000,-6.419331000000000
hawksbill and diamond python,BT53 8RR,55.135415000000000,-6.352528000000000
blind snake and dukite,BT53 8TH,55.140555000000000,-6.376482000000000
blue tongue and diamondback,BT53 8XQ,55.129084000000000,-6.326510000000000
giant tortoise and Pratincole,BT53 8XX,55.097182000000000,-6.313871000000000
death adder and River dolphin,BT53 8YN,55.098239000000000,-6.325373000000000
Pratincole and cayman,BT53 9SR,55.072040000000000,-6.517768000000000
Herring gull and Coati,BT54 6AU,55.198728000000000,-6.255443000000000
Prion and Darwin's finches,BT54 6AW,55.200913000000000,-6.249929000000000
Linsang and anole,BT54 6DX,55.198396000000000,-6.261709000000000
hawksbill and goanna,BT54 6EG,55.200156000000000,-6.260217000000000
slowworm and elapid,BT54 6HF,55.203321000000000,-6.318246000000000
Jay and rock snake,BT54 6HJ,55.190220000000000,-6.278757000000000
Asiatic leopard and Magpie,BT54 6HX,55.167636000000000,-6.301231000000000
Treepie and Crow,BT54 6NU,55.204493000000000,-6.254246000000000
hawksbill and diamond python,BT54 6QJ,55.203269000000000,-6.238592000000000
Peafowl and Petrel,BT54 6QS,55.206939000000000,-6.218526000000000
Piping shrike and Booted eagles,BT54 6QT,55.210170000000000,-6.205421000000000
amethystine python and Black cockatoo,BT54 6QX,55.201342000000000,-6.208317000000000
tortoise and K훮k훮riki,BT54 6SZ,55.205670000000000,-6.240623000000000
bull snake and Rat,BT54 6WN,55.202694000000000,-6.266640000000000
Booted eagles and Coati,BT54 6WP,55.199935000000000,-6.268222000000000
sand lizard and Maya,BT57 8QA,55.206795000000000,-6.523955000000000
cayman and racer,BT57 8QF,55.206111000000000,-6.521743000000000
sea snake and black snake,BT57 8QG,55.206152000000000,-6.524397000000000
Grackle and Schneider python,BT57 8RQ,55.206839000000000,-6.521763000000000
Warbler and krait,BT57 8SN,55.219179000000000,-6.497812000000000
agamid and Old World quail,BT57 8XH,55.202226000000000,-6.519908000000000
Myna and bicycle lizard,BT57 8XL,55.202297000000000,-6.504387000000000
White ibis and loggerhead,BT57 8YG,55.175686000000000,-6.483627000000000
