name,postcode,lat,lon
MILLSIDE RESTAURANT,BT44 9LJ,55.000948000000000,-6.339102000000000
Ground Espresso Bars Ltd,BT53 6AG,55.070783000000000,-6.517846000000000
Bob & Berts Ballymoney,BT53 6AN,55.069062000000000,-6.516437000000000
Subway,BT53 6AN,55.069062000000000,-6.516437000000000
Cunningham's Catch,BT53 6DX,55.072442000000000,-6.517298000000000
Superbites,BT53 6JJ,55.070811000000000,-6.508340000000000
Zinc,BT53 6JJ,55.070811000000000,-6.508340000000000
Tea at Tillys,BT53 8RQ,55.131149000000000,-6.326253000000000
The Scenic Inn,BT53 8UT,55.097362000000000,-6.344648000000000
O'Connors Bar,BT54 6AA,55.201736000000000,-6.248869000000000
Central bar ,BT54 6AD,55.202022000000000,-6.248906000000000
Cellar Restaurant,BT54 6AW,55.200913000000000,-6.249929000000000
The Diamond Bar and Bistro,BT54 6AW,55.200913000000000,-6.249929000000000
Thyme&Co,BT54 6BJ,55.202631000000000,-6.246319000000000
Costa Coffee & Bistro Ballycastle,BT54 6BN,55.205547000000000,-6.241287000000000
Marconi's Seaside Bistro ,BT54 6BN,55.205547000000000,-6.241287000000000
Marine Hotel Ballycastle ,BT54 6BN,55.205547000000000,-6.241287000000000
Martin McKinley T/A Anzac Restaurant,BT54 6DP,55.201207000000000,-6.251596000000000
THE SALTHOUSE HOTEL ,BT54 6PF,55.194763000000000,-6.245189000000000
The Golf Shoe Restaurant,BT54 6QP,55.203755000000000,-6.235586000000000
THE FRENCH ROOMS LTD,BT57 8QA,55.206795000000000,-6.523955000000000
Tartine at Distillers Arms,BT57 8QE,55.203400000000000,-6.522423000000000
Bushmills Inn Hotel,BT57 8QG,55.206152000000000,-6.524397000000000
