name,postcode,lat,lon
mamba and Viscacha,BT44 9JA,55.009502000000000,-6.302811000000000
Tit-tyrant and Partridge,BT44 9JE,55.031933000000000,-6.290087000000000
deaf adder and Rabbit,BT44 9LT,55.000401000000000,-6.331951000000000
Magpie and gavial,BT44 9LZ,55.000214000000000,-6.329726000000000
Civet and amphisbaena,BT44 9NQ,55.016587000000000,-6.347570000000000
Pheasant and sand lizard,BT44 9QZ,55.001786000000000,-6.333583000000000
thorn lizard and Kite,BT53 6DF,55.078014000000000,-6.521210000000000
Old World quail and saltwater crocodile,BT53 6EA,55.072785000000000,-6.515533000000000
iguana and Francolin,BT53 6ED,55.076170000000000,-6.513653000000000
green turtle and python,BT53 6FB,55.070682000000000,-6.512948000000000
Zebra and terrapin,BT53 6GU,55.077146000000000,-6.512677000000000
carpet snake and bicycle lizard,BT53 6LQ,55.063079000000000,-6.522340000000000
Dolphin and constrictor,BT53 6LX,55.079252000000000,-6.512726000000000
puff adder and agama,BT53 6UE,55.079508000000000,-6.511401000000000
frill-necked lizard and Masked owl,BT53 7BJ,55.072862000000000,-6.499045000000000
water snake and Boto,BT53 7BP,55.070800000000000,-6.497696000000000
dukite and cobra de capello,BT53 7BY,55.073881000000000,-6.495498000000000
Triller and Cuscus,BT53 7EN,55.041046000000000,-6.439144000000000
Treepie and ringhals,BT53 7FF,55.070741000000000,-6.500234000000000
pit viper and loggerhead,BT53 7HG,55.072266000000000,-6.470714000000000
ringhals and Condor,BT53 7HR,55.068573000000000,-6.490079000000000
soft-shelled turtle and cobra de capello,BT53 7HU,55.068972000000000,-6.491754000000000
lizard and rat snake,BT53 7JL,55.017755000000000,-6.505919000000000
Treepie and Mink,BT53 7JN,55.009175000000000,-6.505847000000000
cobra and Partridge,BT53 7QU,55.061664000000000,-6.512596000000000
Badger and hognose snake,BT53 7RH,55.060722000000000,-6.519109000000000
gavial and gavial,BT53 8AW,55.167937000000000,-6.494797000000000
terrapin and rat snake,BT53 8BE,55.123710000000000,-6.471084000000000
horned viper and Kite,BT53 8BG,55.121934000000000,-6.471277000000000
brown snake and Logrunners,BT53 8DL,55.143896000000000,-6.471707000000000
gopher snake and diamond python,BT53 8HN,55.101926000000000,-6.451924000000000
cobra de capello and Chipmunk,BT53 8JX,55.065034000000000,-6.329218000000000
cobra de capello and diamondback,BT53 8NF,55.066962000000000,-6.418161000000000
Vole and diamondback turtle,BT53 8QP,55.156240000000000,-6.413248000000000
Prion and Mink,BT53 8RA,55.133157000000000,-6.326373000000000
Chicken and Ibex,BT53 8RF,55.131124000000000,-6.327054000000000
Old World vulture and Old World quail,BT53 8RJ,55.132725000000000,-6.320668000000000
copperhead and water snake,BT53 8SL,55.130625000000000,-6.327771000000000
Armadillo and horned toad,BT53 8SR,55.131503000000000,-6.328304000000000
Snipe and skink,BT53 8SX,55.132034000000000,-6.329164000000000
ringhals and Puffleg,BT53 8TD,55.127502000000000,-6.336063000000000
hawksbill and gecko,BT53 8TN,55.118265000000000,-6.369865000000000
box turtle and Grouse,BT53 8TT,55.136607000000000,-6.374370000000000
B and harlequin snake,BT53 8UD,55.169453000000000,-6.362878000000000
Jerboa and Polecat,BT53 8UR,55.095793000000000,-6.351290000000000
Ibex and whip snake,BT53 8UX,55.088673000000000,-6.347605000000000
alligator and death adder,BT53 8XA,55.094126000000000,-6.356196000000000
Boto and smooth snake,BT53 8YF,55.090851000000000,-6.306322000000000
moloch and Marsh harrier,BT53 8YG,55.086860000000000,-6.289403000000000
tortoise and turtle,BT53 8YP,55.116222000000000,-6.337661000000000
Grouse and rat snake,BT54 6BG,55.202047000000000,-6.247317000000000
Tit-tyrant and New World blackbird,BT54 6DN,55.201722000000000,-6.263134000000000
bicycle lizard and Vulture,BT54 6EY,55.199903000000000,-6.258861000000000
king snake and diamond python,BT54 6FA,55.201577000000000,-6.252788000000000
Tit-tyrant and python,BT54 6FL,55.199969000000000,-6.260963000000000
Hawaiian honeycreeper and flying lizard,BT54 6HN,55.182917000000000,-6.314836000000000
racer and Bronzewing pigeon,BT54 6JX,55.204634000000000,-6.259204000000000
kabaragoya and anaconda,BT54 6NJ,55.220159000000000,-6.401020000000000
amphisbaena and diamondback,BT54 6PF,55.194763000000000,-6.245189000000000
green turtle and B,BT54 6RN,55.182474000000000,-6.152220000000000
dukite and elapid,BT54 6RR,55.201536000000000,-6.184761000000000
swift and python,BT54 6RU,55.202712000000000,-6.257593000000000
Schneider python and leguaan,BT54 6RW,55.205309000000000,-6.161372000000000
puff adder and Condor,BT54 6RY,55.196687000000000,-6.260982000000000
dugite and leguaan,BT54 6SP,55.204796000000000,-6.265137000000000
Philippine hawk-owl and puff adder,BT57 8PU,55.203299000000000,-6.521738000000000
saltwater crocodile and gecko,BT57 8TP,55.169925000000000,-6.523662000000000
