name,postcode,lat,lon
MILLSIDE RESTAURANT,BT44 9LJ,55.00069200000000,-6.33944000000000
The Restaurant  Logans,BT44 9PU,55.00549900000000,-6.35932600000000
Ground Espresso Bars Ltd,BT53 6AG,55.07057700000000,-6.51763100000000
Boyds Cafe,BT53 6AH,55.07082930000000,-6.51691930000000
The clocktower restaurant ,BT53 6AH,55.0707,-6.5169
Bob & Berts Ballymoney,BT53 6AN,55.06909000000000,-6.51654300000000
Subway,BT53 6AN,55.06909000000000,-6.51654300000000
Montys,BT53 6DL,55.07073900000000,-6.51620000000000
Cunningham's Catch,BT53 6DX,55.07251400000000,-6.51738700000000
Zinc,BT53 6JJ,55.07083129882810,-6.50833797454834
Armada Inn,BT53 8RH,55.13177900000000,-6.32610000000000
Tea at Tillys,BT53 8RQ,55.13120900000000,-6.32642100000000
The Scenic Inn,BT53 8UT,55.09724500000000,-6.34507300000000
O'Connors Bar,BT54 6AA,55.20174600000000,-6.24887100000000
Central bar ,BT54 6AD,55.20204200000000,-6.24881100000000
Cellar Restaurant,BT54 6AW,55.20090800000000,-6.24992900000000
The Diamond Bar and Bistro,BT54 6AW,55.20090800000000,-6.24992900000000
Thyme&Co,BT54 6BJ,55.20358100000000,-6.24275900000000
Costa Coffee & Bistro Ballycastle,BT54 6BN,55.20556300000000,-6.24129000000000
Marconi's Seaside Bistro ,BT54 6BN,55.2055,-6.2413
Marine Hotel Ballycastle ,BT54 6BN,55.20556300000000,-6.24129000000000
Martin McKinley T/A Anzac Restaurant,BT54 6DP,55.2012,-6.2516
THE SALTHOUSE HOTEL ,BT54 6PF,55.19476699829100,-6.24515819549561
The Golf Shoe Restaurant,BT54 6QP,55.2038,-6.2356
Hunters Bar,BT54 6RA,55.19897300000000,-6.18637300000000
THE FRENCH ROOMS LTD,BT57 8QA,55.20691100000000,-6.52380000000000
Lillys at the Diamond Ltd,BT57 8QD,55.20499700000000,-6.52300700000000
Tartine at Distillers Arms,BT57 8QE,55.20337300000000,-6.52245400000000
Bushmills Inn Hotel,BT57 8QG,55.20619800000000,-6.52498800000000
