name,postcode,lat,lon
MILLSIDE RESTAURANT,BT44 9LJ,55.0009,-6.3391
The Restaurant  Logans,BT44 9PU,55.0055,-6.3593
Ground Espresso Bars Ltd,BT53 6AG,55.0708,-6.5178
Boyds Cafe,BT53 6AH,55.0707,-6.5169
The clocktower restaurant ,BT53 6AH,55.0707,-6.5169
Bob & Berts Ballymoney,BT53 6AN,55.0691,-6.5164
Subway,BT53 6AN,55.0691,-6.5164
Montys,BT53 6DL,55.0706,-6.5164
Cunningham's Catch,BT53 6DX,55.0724,-6.5173
Zinc,BT53 6JJ,55.0708,-6.5083
Armada Inn,BT53 8RH,55.1319,-6.3261
Tea at Tillys,BT53 8RQ,55.1311,-6.3263
The Scenic Inn,BT53 8UT,55.0974,-6.3446
O'Connors Bar,BT54 6AA,55.2017,-6.2489
Central bar ,BT54 6AD,55.2020,-6.2489
Cellar Restaurant,BT54 6AW,55.2009,-6.2499
The Diamond Bar and Bistro,BT54 6AW,55.2009,-6.2499
Thyme&Co,BT54 6BJ,55.2026,-6.2463
Costa Coffee & Bistro Ballycastle,BT54 6BN,55.2055,-6.2413
Marconi's Seaside Bistro ,BT54 6BN,55.2055,-6.2413
Marine Hotel Ballycastle ,BT54 6BN,55.2055,-6.2413
Martin McKinley T/A Anzac Restaurant,BT54 6DP,55.2012,-6.2516
THE SALTHOUSE HOTEL ,BT54 6PF,55.1948,-6.2452
The Golf Shoe Restaurant,BT54 6QP,55.2038,-6.2356
Hunters Bar,BT54 6RA,55.1989,-6.1861
THE FRENCH ROOMS LTD,BT57 8QA,55.2068,-6.5240
Lillys at the Diamond Ltd,BT57 8QD,55.2050,-6.5230
Tartine at Distillers Arms,BT57 8QE,55.2034,-6.5224
Bushmills Inn Hotel,BT57 8QG,55.2062,-6.5244
