name,postcode,lat,lon
king snake and copperhead,NE19 1LY,55.222482132568800,-2.158547000000000
Condor and garter snake,NE19 2AX,55.125107108344600,-2.000817213312280
sidewinder and tokay,NE19 2BH,55.116919000000000,-2.027093000000000
soft-shelled turtle and boa constrictor,NE19 2LJ,55.063621345452400,-2.028622402907280
Capuchin and alligator,NE19 2RD,55.161439998128800,-2.038879306341920
bull snake and Black cockatoo,NE19 2RT,55.154176500057800,-2.006122046188300
Hawk and Parrotlet,NE19 2SL,55.168077339721900,-2.011273181540790
Coati and brown snake,NE46 4AQ,55.037848730439000,-2.127320531980270
tree snake and sand lizard,NE46 4BN,55.035948642698600,-2.167650481092160
chameleon and Polecat,NE46 4BX,55.058758519476500,-2.164709000000000
copperhead and amphisbaena,NE46 4DZ,55.015701997992900,-2.131926073127250
elapid and Grosbeak,NE46 4EA,55.016277092147500,-2.131943603515720
bearded dragon and Tattler,NE46 4HU,55.050188909122100,-2.069041000000000
Solitaire and worm lizard,NE47 5AQ,55.004709890866900,-2.187938000000000
Peafowl and thorn lizard,NE47 5BG,55.006932973635800,-2.223174041473370
amethystine python and Cuscus,NE47 5DD,55.004955000000000,-2.174981708563040
python and Ibex,NE47 5LW,55.004974328179500,-2.173399532300200
Linsang and indigo snake,NE47 6NR,55.044108105903600,-2.302441945155040
Macaw and fer-de-lance,NE47 7AH,55.007726980398400,-2.357329303418470
Argus and Tit-tyrant,NE47 7AP,55.016074481597400,-2.392527856138650
goanna and Kite,NE48 1JX,55.162195601944500,-2.332765120340200
crocodile and leathery turtle,NE48 1PF,55.164055378657400,-2.298185722814430
cobra de capello and Dorcopsis,NE48 2BB,55.144619613891000,-2.254206250802980
goanna and Ice seal,NE48 2DJ,55.146107593384900,-2.260209047344700
loggerhead and Shearwater,NE48 2DS,55.146897712975900,-2.256276091581570
crocodile and rat snake,NE48 2DZ,55.144560000000000,-2.246339000000000
diamond snake and Warbler,NE48 2EJ,55.142512845989300,-2.247447037407910
garter snake and gopher snake,NE48 2SB,55.177684811313700,-2.161164329826030
carpet snake and tiger snake,NE48 2SZ,55.179444000000000,-2.176340000000000
Coati and cycling lizard,NE48 3DZ,55.079271661452300,-2.326437147131240
leguaan and Jay,NE48 3HJ,55.089627465443700,-2.194384000000000
amethystine python and Black jay,NE48 3NS,55.085231538975400,-2.189507000000000
Masked owl and Eagle,NE48 3PX,55.126033738307200,-2.233184665042430
cycling lizard and Parrotbill,NE48 3QA,55.109733567978300,-2.255348242518090
Komodo dragon and Schneider python,NE48 4AG,55.054719383102200,-2.132226766585120
leathery turtle and Chickadee,NE61 4LE,55.208137484834800,-2.045116291597070
