name,postcode,lat,lon
The Hadrian Hotel,NE46 4EE,55.0162,-2.1328
The Boe Rigg,NE48 1PE,55.1583,-2.3002
Hollybush Inn,NE48 1PW,55.1793,-2.3226
The Cheviot,NE48 2AU,55.1444,-2.2548
Fountain Cottage Cafe Ltd,NE48 2DE,55.1452,-2.2538
Carriages Tearoom,NE48 2DG,55.1442,-2.2506
Carriages at the Golf Club,NE48 2DT,55.1487,-2.2568
Riverdale hall hotel Ltd,NE48 2JT,55.1448,-2.2644
WWN PUBS LTD T/A THE BAY HORSE INN,NE48 2RX,55.1762,-2.1706
Barrasford Arms Hotel,NE48 4AA,55.0551,-2.1328
