name,postcode,lat,lon
The Hadrian Hotel,NE46 4EE,55.016141431470400,-2.132740721468990
The Boe Rigg,NE48 1PE,55.158426000000000,-2.300198339066700
Hollybush Inn,NE48 1PW,55.179287418989700,-2.322544033589830
The Cheviot,NE48 2AU,55.144366698352700,-2.254832187749400
Fountain Cottage Cafe Ltd,NE48 2DE,55.145150662866700,-2.253786027935380
Carriages Tearoom,NE48 2DG,55.144187000000000,-2.250626000000000
Carriages at the Golf Club,NE48 2DT,55.148729735562200,-2.256805627502880
Riverdale hall hotel Ltd,NE48 2JT,55.144741639872900,-2.264420439546380
WWN PUBS LTD T/A THE BAY HORSE INN,NE48 2RX,55.176162331576600,-2.170594544774890
Barrasford Arms Hotel,NE48 4AA,55.055114206285300,-2.132744642362740
