name,postcode,lat,lon
Marmoset and Perching duck,NE19 1BL,55.216140000000000,-2.118727000000000
gopher snake and skink,NE19 2AY,55.110711211155600,-2.009046417648210
racer and Myna,NE19 2HA,55.031661153732300,-1.994572000000000
Black jay and worm lizard,NE19 2HS,55.031157792330900,-1.992100787081250
gopher snake and Elephant,NE19 2LS,55.088928774096600,-2.012817078825570
Magpie and Parrotbill,NE46 4AF,55.037543056021000,-2.127460382337090
Pitohui and Jackal,NE46 4AN,55.038098008504100,-2.129527560277380
asp and black snake,NE46 4AX,55.036980431822400,-2.124078920765480
Schneider python and grass snake,NE46 4BB,55.048597519941300,-2.156857137340990
Argus and Macaw,NE46 4BY,55.060786914819000,-2.173562775218590
bearded dragon and snapping turtle,NE46 4DX,55.015631545630400,-2.130596584460540
Gull and sea snake,NE46 4HF,55.012473016875100,-2.084926017259590
Buzzard and Pratincole,NE46 4NF,55.010402998230800,-2.038153542176640
Magpie and lizard,NE46 4TF,55.044880525480100,-2.113555488427320
Linsang and bushmaster,NE46 4TW,55.072352258297100,-2.062063681363250
Hawaiian honeycreeper and monitor,NE47 5AE,55.004717673730600,-2.194535705618850
ringhals and Mamo,NE47 5AN,55.008449646318800,-2.198415769716050
B and iguana,NE47 5DU,55.006253217446800,-2.171388183689920
Grackle and Philippine hawk-owl,NE47 6NL,55.014936911637400,-2.310416536473760
thorn lizard and diamondback,NE47 6NN,55.011581583218300,-2.318709380102590
bearded lizard and tokay,NE47 7AR,55.013990060861400,-2.381107536540450
skink and Stint,NE48 1LD,55.162645997649600,-2.351572531367190
New World blackbird and gaboon viper,NE48 1RS,55.204636134676400,-2.367215135719540
milk snake and habu,NE48 2AS,55.143422000000000,-2.255640972079330
loggerhead and Warbler,NE48 2DF,55.144827839663500,-2.249108704088120
Wader and indigo snake,NE48 2EX,55.128410000000000,-2.195341000000000
diamond snake and Ice seal,NE48 2HZ,55.157782342541600,-2.259280707599550
tokay and copperhead,NE48 2JL,55.143988273726200,-2.255316117689690
Goose and Elephant,NE48 2JN,55.143798978373700,-2.255597299785760
Herring gull and rock python,NE48 2RG,55.164276895743000,-2.154957160721300
alligator and Dorcopsis,NE48 2RY,55.175821593769000,-2.170074955057930
Myna and Black cockatoo,NE48 2SJ,55.177279163126100,-2.148020495568980
Dorcopsis and milk snake,NE48 3BN,55.114969308002500,-2.296660000000000
Old World quail and Old World warbler,NE48 3DH,55.084925686908000,-2.270777066150340
leguaan and Prion,NE48 3EF,55.072898090587400,-2.317161056833380
Shearwater and Chipmunk,NE48 3LE,55.087791997126500,-2.222089308860220
box turtle and Stilt,NE48 3LG,55.087599505344900,-2.219221287385480
blindworm and Polecat,NE48 3LH,55.088128149894100,-2.220070180010580
caiman and mamba,NE48 3QB,55.118365359102500,-2.261361173592270
pit viper and boomslang,NE48 3QE,55.111514000000000,-2.271773981220400
Shearwater and fer-de-lance,NE48 4AF,55.054099089643100,-2.132459518110320
king cobra and skink,NE48 4AP,55.062218041279000,-2.144275703682900
Gila monster and Polecat,NE48 4AY,55.079234488687600,-2.139277860223690
Jackal and rattlesnake,NE48 4BY,55.053213427720200,-2.119996834134180
