name,id,postcode,lat,lon
leathery turtle and Magpie,734252,NE48 3NS,55.085231538975400,-2.189507000000000
Tattler and Bronzewing pigeon,734142,NE48 3HL,55.097989460374200,-2.191353429296950
Flameback and Kangaroo,735335,NE46 4BE,55.035141481011700,-2.145492483471980
Crow and kabaragoya,734237,NE48 3LL,55.087852155354300,-2.218643010154370
puff adder and Bronzewing pigeon,735093,NE47 6NN,55.011581583218300,-2.318709380102590
Tit-tyrant and iguana,734783,NE48 1LL,55.141192389194400,-2.356058649741410
Boto and anole,734927,NE47 5EA,55.021776630575600,-2.192506912634140
Herring gull and crocodile,734791,NE48 1NE,55.202250000000000,-2.353980000000000
Argus and rat snake,734245,NE48 3LY,55.088708850961500,-2.221937727400730
perentie and Rabbit,752377,NE19 2PR,55.143207295257000,-2.039630179900250
alligator and Jerboa,734139,NE48 3HG,55.102948011158200,-2.213976763957260
rock snake and hawksbill,734808,NE48 1PT,55.180610841017200,-2.314718972612820
Cloud rat and Puffleg,735319,NE47 5AX,55.008895028852300,-2.216399000000000
Logrunners and Myna,734926,NE47 5DZ,55.016202496932500,-2.176544486449570
Schneider python and Duck,734258,NE48 3PD,55.069240994211000,-2.180974911353470
Tit-tyrant and rock python,734789,NE48 1NA,55.182556000000000,-2.336829000000000
bearded dragon and Towhee,735407,NE47 5DA,55.005905717510800,-2.175608026556630
Old World quail and Egret,734518,NE48 2TP,55.167477738016800,-2.146194583362090
Jay and mountain devil,752354,NE19 2LE,55.057529106682400,-2.027256064173220
Rabbit and tree snake,752344,NE19 2HR,55.032146355886000,-1.993727651282630
constrictor and Warbler,734228,NE48 3JQ,55.117941000000000,-2.136638000000000
milk snake and cobra de capello,734623,NE48 3DY,55.078765041771500,-2.327858000000000
fer-de-lance and Jay,735352,NE46 4DD,55.034756216275000,-2.128546721625010
Ground sloth and Maya,752358,NE19 2LJ,55.063621345452400,-2.028622402907280
brown snake and Cuscus,734277,NE48 4AB,55.054771361903000,-2.133995791321380
Rabbit and Darwin's finches,730840,NE61 4LF,55.207975192111100,-1.999986631151820
Parakeet and gopher snake,734257,NE48 3PB,55.065979229281800,-2.161716550966640
Parakeet and Capuchin,735417,NE47 5DP,55.004030553677000,-2.185714902272210
Vole and Polecat,735391,NE46 4HB,55.019411628051000,-2.095404000000000
gavial and Flameback,734135,NE48 3HB,55.079824000000000,-2.239792000000000
Guillemot and Petrel,735134,NE46 4TP,55.078855157594500,-2.048995220845850
Mamo and Nukupu ªu,735820,NE46 4AL,55.037684682188900,-2.129494930394450
diamond python and bearded dragon,735094,NE47 6NP,55.036776000000000,-2.287804000000000
Rabbit and tuatara,735400,NE46 4HP,55.039048646971200,-2.064688000000000
Chicken and Kite,735095,NE47 6NQ,55.019813037165900,-2.282302237083930
diamond python and Puffleg,734297,NE48 4BB,55.084726807437600,-2.120749308562740
python and Mink,734287,NE48 4AQ,55.055025791905600,-2.131413787647380
hoop snake and mamba,735312,NE47 5AP,55.005880235287200,-2.198027841622150
amphisbaena and Marmoset,735089,NE47 6NG,55.007507345288600,-2.268018961975220
River dolphin and Linsang,734126,NE48 3ED,55.075650575420000,-2.364324862096670
perentie and cobra de capello,735305,NE47 5AE,55.004717673730600,-2.194535705618850
green turtle and American sparrow,752384,NE19 2RF,55.146692210277500,-2.064391714365360
