name,postcode,lat,lon
Ibex and Philippine hawk-owl,NE19 1BN,55.210010000000000,-2.104983000000000
Mouse and ringhals,NE19 2BD,55.096457623528000,-2.022566174693180
agamid and frilled lizard,NE19 2HG,55.040502608888500,-2.015132849083570
Philippine hawk-owl and Asiatic leopard,NE19 2HR,55.032146355886000,-1.993727651282630
cerastes and rock snake,NE19 2HS,55.031157792330900,-1.992100787081250
grass snake and Marmoset,NE19 2PQ,55.132618214361600,-2.016611199180050
Cloud rat and rattlesnake,NE19 2PW,55.137816147084400,-2.060895000000000
horned toad and cerastes,NE19 2RF,55.146692210277500,-2.064391714365360
carpet snake and king snake,NE19 2RL,55.182796022277400,-2.093094000000000
blue tongue and Meadowlark,NE19 2SL,55.168077339721900,-2.011273181540790
Thrasher and New World blackbird,NE20 0RY,55.044025730001900,-1.989844830731240
Marsh harrier and Skunk,NE46 4AE,55.037210898930200,-2.127146391375760
lizard and Goose,NE46 4BE,55.035141481011700,-2.145492483471980
Towhee and puff adder,NE46 4BF,55.032895000000000,-2.127141000000000
Fox and gecko,NE46 4DG,55.010193508813500,-2.131907955914720
Mole and giant tortoise,NE46 4EH,55.022359000000000,-2.116963198352860
Lemming and soft-shelled turtle,NE46 4TW,55.072352258297100,-2.062063681363250
Civet and Fulmarine petrel,NE47 5AP,55.005880235287200,-2.198027841622150
Black cockatoo and galliwasp,NE48 1AL,55.176525506138000,-2.393947098892450
jew lizard and adder,NE48 1AP,55.175803000000000,-2.357623000000000
B and leathery turtle,NE48 1LY,55.181414688927100,-2.326707000000000
tiger snake and monitor,NE48 1NU,55.166052968903000,-2.328574718909490
swift and diamond python,NE48 1RP,55.213511581801900,-2.302878000000000
Night heron and Kestrel,NE48 2AH,55.143360052585100,-2.254935584746290
Old World warbler and tortoise,NE48 2AQ,55.143018064272500,-2.255184412583990
tortoise and Crow,NE48 2BU,55.144563707306000,-2.250832817545140
Logrunners and racer,NE48 2DA,55.145084660796800,-2.251087000000000
Vulture and Philippine hawk-owl,NE48 2DU,55.153132249886800,-2.273217000000000
cerastes and ringhals,NE48 2EP,55.137906472408100,-2.227246167290880
Gila monster and blue tongue,NE48 2HP,55.135930025048700,-2.258542870949890
green turtle and tortoise,NE48 2HY,55.141669104371300,-2.302724939778420
Logrunners and Ibex,NE48 2LD,55.149681000000000,-2.328754900944210
blind snake and Kangaroo,NE48 2TD,55.165071247121000,-2.128746678993000
monitor and black snake,NE48 2TE,55.156364608832000,-2.099199440264430
Kākāriki and Macaw,NE48 3AS,55.056482989237100,-2.202363602578690
giant tortoise and Ice seal,NE48 3AY,55.065892046750800,-2.201988368841370
Tit-tyrant and crocodile,NE48 3BN,55.114969308002500,-2.296660000000000
Masked owl and iguana,NE48 3DN,55.088838387455700,-2.247929836541800
Rabbit and Shearwater,NE48 3EB,55.029029000000000,-2.349666000000000
racer and Old World quail,NE48 3EL,55.057076017082700,-2.232548455731470
gecko and Rat,NE48 3PR,55.106740753797300,-2.237837057156500
dukite and frilled lizard,NE48 3PX,55.126033738307200,-2.233184665042430
Night heron and Gull,NE48 3PZ,55.112433000000000,-2.240520818345570
goanna and Crow,NE48 4AE,55.054214777855600,-2.133634000000000
bearded dragon and cerastes,NE48 4BD,55.062727000000000,-2.123172000000000
