name,postcode,lat,lon
Linsang and Petrel,TS28 5JH,54.732419745349900,-1.382824269404220
Perching duck and Recurvebill,DL16 7QB,54.874715000000000,-1.695681000000000
Armadillo and Tree warbler,DH9 0DE,54.871074539273800,-1.692249256367930
Chicken and Badger,DH7 8DE,54.735038398004500,-1.655961358518650
Vole and Scimitar babbler,DL16 6AZ,54.698469997699000,-1.605206831633110
Grosbeak and Vulture,DH3 4NU,54.862742241107600,-1.555200122386630
Ice seal and Eagle,SR7 9BB,54.816501671506800,-1.385122761067370
Treepie and Petrel,DH7 7BP,54.783792000595400,-1.631944860435960
Masked owl and Grouse,DH5 0EA,54.810850481761700,-1.467190893383480
Treepie and Flameback,DH4 4XJ,54.861608055642800,-1.486354162168480
Parrotbill and Bronzewing pigeon,DH7 7JL,54.767711609851000,-1.636769045362540
Grosbeak and Pheasant,DH1 3LL,54.763961000000000,-1.582362000000000
Fulmarine petrel and Fox,DH5 8EW,54.840112566331700,-1.457463322046910
Jackal and Logrunners,DH1 2DS,54.775235000000000,-1.538968294373360
Tree warbler and Wallaby,DH7 9BH,54.791626199008500,-1.689073357916000
Thicketbird and Tree warbler,DL16 6ER,54.701887698691600,-1.587142316232210
Grackle and Jackal,DH7 9NZ,54.776090000000000,-1.715165000000000
Guillemot and Solitaire,DH1 4LH,54.786706756572200,-1.596169048502820
Grackle and Coati,DH6 3HW,54.748836493423300,-1.445711425805210
Magpie and Wader,DH6 1ND,54.765546776574500,-1.440727346357780
Meadowlark and Mamo,DH1 5RF,54.800233038443700,-1.616038232574520
Piping shrike and Ground sloth,DH7 9UQ,54.798945787410600,-1.680446631579350
Masked owl and Coati,DH9 0UB,54.874983420017900,-1.681700380773680
Towhee and Jackal,SR3 2SR,54.867393250130000,-1.421868323522770
Thicketbird and Stilt,DH6 5EN,54.742169000000000,-1.521603000000000
Polecat and Philippine hawk-owl,DH1 5LB,54.797831838940400,-1.580192895731010
Shearwater and Flameback,DH1 2PL,54.756151913888700,-1.539899000000000
Philippine hawk-owl and Fulmarine petrel,DH9 7PN,54.860867059350700,-1.699866883233860
Mink and Stilt,DL14 6DT,54.655432528612500,-1.671435944308580
Asiatic leopard and Partridge,DL14 8NF,54.658953648687000,-1.633662000000000
Stilt and American sparrow,DH4 5LN,54.849242193884500,-1.484128348568700
Vulture and Skunk,DL17 8DP,54.686784678423000,-1.550253415242800
Fulmarine petrel and Pitohui,SR7 8LD,54.830631000000000,-1.371441000000000
Black jay and Skunk,DH5 0RT,54.818509178395400,-1.449535876674990
B and Hawaiian honeycreeper,TS29 6JS,54.695765912639000,-1.427428484225790
Rabbit and Guillemot,DH5 8EB,54.840682000000000,-1.456039000000000
Mockingbird and Zebra,DH9 6EY,54.851255992913700,-1.670346169606690
Pratincole and Flameback,TS28 5PP,54.736458768305200,-1.374826613436640
Old World warbler and Prion,DH4 6GH,54.856567000000000,-1.501416000000000
Mockingbird and Vulture,SR7 9LE,54.821653668845700,-1.383877261018210
Stint and Stint,SR7 9HB,54.820409304014700,-1.399179141050740
Myna and Philippine hawk-owl,DH1 2UQ,54.785626073936000,-1.516814729575760
Ice seal and Gull,DH1 2EU,54.774368040326500,-1.547697399371390
River dolphin and Mink,TS21 2AW,54.656947312245300,-1.453673995343740
Coati and Guillemot,DH3 4QW,54.836978803719300,-1.538543864883190
Polecat and Fish eagle,DH7 8XU,54.757328826406100,-1.615278695513360
Scimitar babbler and Warbler,DH4 6LT,54.841551073088400,-1.495141765067430
Badger and Viscacha,SR8 1QP,54.748296778450000,-1.361501367527710
Old World warbler and Darwin's finches,DH1 2HR,54.782327211100900,-1.539850000000000
Hawk and Quetzal,TS22 5TS,54.635715000000000,-1.358415000000000
Chicken and Crow,SR2 0LZ,54.864379000000000,-1.372040000000000
Magpie and Old World vulture,TS21 3AN,54.653111136080300,-1.444054033209050
Myna and Peafowl,DH9 0HA,54.875885003157900,-1.686290631118150
River dolphin and Parrotlet,SR2 0PB,54.869061211441700,-1.363615219522280
Vole and Thicketbird,DH7 6QU,54.807702553144300,-1.634061434537230
Masked owl and Guillemot,DL17 9JJ,54.705818895310300,-1.515357875688480
Kestrel and Capuchin,DH4 5LF,54.850863417594700,-1.489247330282880
Stilt and Moluccan boobook,SR2 0QD,54.865585586315200,-1.361895000000000
Duck and Songlark,TS28 5HA,54.717067055040000,-1.364770722693450
Shearwater and Stilt,DH5 0GA,54.814108575929900,-1.440321558834120
Buzzard and Ibex,SR3 3PR,54.870378459669700,-1.437548155962870
Hawk and Cloud rat,DH6 1QL,54.773912767780100,-1.476878887359100
Linsang and Maya,SR3 3PY,54.870929955661600,-1.436325046995420
Viscacha and Jay,DH1 4FL,54.769321000000000,-1.591456000000000
Greenbul and Stint,SR8 4SQ,54.759589721879900,-1.309995765516830
Kākāriki and Towhee,DH7 8HJ,54.753514725649300,-1.605697281590340
Duck and Warbler,TS29 6JT,54.694629281171100,-1.428421917605180
Ibex and Dolphin,DL17 8PS,54.686486456427500,-1.562076598175310
Boto and Booted eagles,DH4 5FD,54.844374227696900,-1.491291000000000
Boto and Grosbeak,DL5 4XD,54.639090040355000,-1.579752707082580
Chicken and Parrotbill,DH7 0AR,54.822694107996200,-1.711589120213730
Polecat and Boto,DH6 1PP,54.775573647879000,-1.480681732495530
Partridge and Zebra,DH9 7AR,54.860204955451300,-1.704716608970210
Duck and Elephant,DH2 1PZ,54.872597860102600,-1.635422131126830
Logrunners and Bronzewing pigeon,SR8 2DS,54.767346299385000,-1.347555083018420
Crow and Black cockatoo,DL17 9JQ,54.704468100032000,-1.514660117704580
Thicketbird and White ibis,DH1 4NJ,54.784470191897300,-1.588463407425980
Shearwater and Kangaroo,DL16 7EX,54.691215622187400,-1.620340935769170
Kestrel and Badger,DH1 2HZ,54.779459007665400,-1.544111411847180
Ibex and Wader,TS21 2EB,54.651372521059300,-1.443147850346720
Marsh harrier and Mockingbird,DH6 4NP,54.724004801671600,-1.471559471749830
Thrasher and Moluccan boobook,DH4 6GJ,54.855892000000000,-1.505490000000000
Coati and Minke whale,SR7 0AJ,54.840299136646300,-1.352451869512760
Fish eagle and Mole,DH2 3TD,54.845248048500700,-1.597126719960810
Rabbit and Puffleg,DH7 7RQ,54.781315000000000,-1.647729000000000
New World blackbird and Ice seal,DH6 1DL,54.776232111574300,-1.504925107600340
Ibex and Black cockatoo,DH1 5AU,54.792958833753700,-1.590041353385070
Quetzal and Mink,DH7 6QG,54.818828240505900,-1.619565817286560
Condor and Skunk,DL16 7QD,54.684035273386700,-1.624347426020040
Philippine hawk-owl and B,DL14 7BE,54.663884374652400,-1.676390759582490
Rabbit and B,DH9 7NH,54.866014644400000,-1.701418086400000
Crow and Francolin,DH4 6JJ,54.844145989991500,-1.498955701949610
Dolphin and Kākāriki,SR3 1JX,54.876498011127900,-1.410937901675280
Badger and Kestrel,DH9 6XA,54.866547962470700,-1.686222838091650
Jay and Badger,DH7 6PW,54.820013155046400,-1.619150056937470
American sparrow and Linsang,SR8 9AN,54.757940548646600,-1.333285954865030
Pitohui and Fulmarine petrel,DH5 9PD,54.829433165436100,-1.472178000000000
Ice seal and Mole,SR8 4QP,54.762829825332100,-1.318814615399360
Asiatic leopard and Asiatic leopard,SR8 1JD,54.754101336277500,-1.346152071250890
New World blackbird and Minke whale,DH4 4HQ,54.856739535068100,-1.472178630458290
Puffleg and Tattler,DH6 1EH,54.772274457730500,-1.504056277726290
Coati and Eagle,DH9 6EW,54.852052339255700,-1.669078102290090
Wallaby and Asiatic leopard,SR8 1NW,54.748611841825100,-1.341579000000000
Marsh harrier and Dorcopsis,TS29 6HW,54.712261554040600,-1.423082000000000
Rat and Tree warbler,DL17 9LF,54.705167000000000,-1.518485000000000
Darwin's finches and Jay,DH2 2EY,54.862514672244900,-1.579522000000000
Ground sloth and Badger,DH2 3BE,54.848969972925200,-1.584241183299960
Old World quail and Argus,TS26 0FP,54.679331000000000,-1.246589000000000
Duck and Cuscus,DH7 6SJ,54.810031391387600,-1.628579227563070
Rat and Asiatic leopard,TS25 4AR,54.668170465012300,-1.245711781516260
Old World vulture and Quetzal,DH7 9DF,54.787911235990700,-1.721089000000000
Gull and Minke whale,SR3 2PU,54.855175842644500,-1.413382487251560
Elephant and Mouse,DH6 4LR,54.718545067736400,-1.480851682346210
B and Jay,SR8 4LN,54.764472543431200,-1.314761895901360
Ibex and Buzzard,DH2 2NF,54.858741058691700,-1.593035599826810
B and Francolin,DL14 9BF,54.639346000000000,-1.702305000000000
Prion and Siskin,DL16 6JY,54.710062603491400,-1.591575837294810
Parakeet and Tree warbler,DH1 2TQ,54.748290045095000,-1.538449238845460
Hawaiian honeycreeper and Logrunners,DH6 3LB,54.742180312276300,-1.417563211394050
Pratincole and Thrasher,DH6 2HN,54.760973187295300,-1.392258184590090
Chipmunk and Tattler,DH1 2DG,54.781839763468700,-1.527479231114330
Siskin and Tahr,DH4 6JY,54.844669465037900,-1.504026000000000
Rat and Nukupuʻu,DL16 7AN,54.687328651026200,-1.619942666147590
Dolphin and Asiatic leopard,DL17 8QY,54.690132063422200,-1.539434845524020
Solitaire and Guillemot,TS27 3BB,54.705761940209200,-1.275075488858540
Rat and Masked owl,DH1 5YX,54.792842233320200,-1.571877403028300
Pitohui and Grackle,DL14 8QE,54.665577000000000,-1.648068000000000
Capuchin and Puffleg,SR7 7SF,54.835929680150300,-1.337092810106090
Skunk and Piping shrike,DH6 2RY,54.796533000000000,-1.392067000000000
Bunting and Masked owl,SR3 3JJ,54.874456854538300,-1.433361674865760
Meadowlark and New World blackbird,DH1 5HX,54.794013459805300,-1.583063042638590
Cloud rat and Skunk,SR7 7DZ,54.826169000000000,-1.346839000000000
Black cockatoo and Towhee,DL17 9JZ,54.701401012570700,-1.523060580851520
Wader and Masked owl,SR7 0BZ,54.841171681591600,-1.362808260520570
Chicken and Civet,TS21 3BT,54.655092522569000,-1.450908904226170
Eagle and Tree warbler,SR8 3BN,54.785843837444400,-1.354550000000000
Mamo and Kākāriki,DH9 6TE,54.867372609083200,-1.692433237711710
Logrunners and Parrotbill,DH1 2BN,54.782500121766400,-1.523988694070540
Viscacha and Shearwater,TS22 5FH,54.638825000000000,-1.325396000000000
Masked owl and Lemming,DH6 2SJ,54.797555885630900,-1.400902318122030
Pheasant and Pitohui,DH6 4LA,54.721221923043000,-1.505595522477200
Perching duck and Old World vulture,DH4 7HQ,54.876448800662500,-1.489453900751010
Solitaire and Mouse,DL15 0SA,54.709526500507000,-1.723132084787190
Jay and Minke whale,SR7 0EE,54.843666591882400,-1.357054020282100
Marsh harrier and Tit-tyrant,DH7 7AS,54.782624038003000,-1.626155910377330
Quetzal and Pratincole,DL14 8UA,54.647389568484200,-1.649046032750670
B and Piping shrike,DL16 7UN,54.694758888931600,-1.602574292971480
Marmoset and Flameback,DH4 6PS,54.828196000000000,-1.494605000000000
Booted eagles and Fox,DH9 0XF,54.872757931416600,-1.679473945085540
Greenbul and Night heron,DH3 3EW,54.857333590801300,-1.578220326360880
Puffleg and Elephant,DL16 7PA,54.700713507311600,-1.654218921924650
Old World quail and Scimitar babbler,SR7 9LW,54.820272616673100,-1.380910171103420
Petrel and Old World warbler,SR8 1NF,54.745074561903200,-1.347058609502370
Boto and Peafowl,DL14 8DU,54.673425000000000,-1.630943564044600
Tree warbler and Shearwater,DH4 4HH,54.857004052345800,-1.468950719000660
Polecat and Cuscus,TS29 6EZ,54.711731899603700,-1.428600592889780
Jerboa and Songlark,DH5 9DX,54.824520900613900,-1.447493007890090
Guillemot and Bronzewing pigeon,TS28 5JD,54.736356658509000,-1.384736872068480
Gull and Darwin's finches,DH4 5HZ,54.850162144407900,-1.480690237622610
Mouse and Asiatic leopard,DH2 2DF,54.855154656544000,-1.579598185295830
Rat and Wader,SR8 1DF,54.757633377163900,-1.341215913603510
Kākāriki and Perching duck,SR7 7DG,54.842693024382900,-1.339614000000000
Dorcopsis and Philippine hawk-owl,DH6 2LN,54.761425403304700,-1.389252106819560
Macaw and Old World quail,DH2 3AG,54.850070592356200,-1.585491394513600
Rat and Prion,DH6 1PS,54.777228000000000,-1.478453000000000
Booted eagles and Thicketbird,DH1 2RZ,54.771116609070800,-1.540971992975580
Tahr and Vulture,DH2 2UA,54.851428720004800,-1.596520054206960
Polecat and Wallaby,DH7 0AG,54.826208264973700,-1.708015259518330
Bronzewing pigeon and Guillemot,TS26 0AZ,54.680064136240600,-1.253618357514730
Capuchin and White ibis,DL17 8EP,54.684299723171500,-1.549008982927930
Rabbit and Mouse,DL16 6FG,54.711028555454400,-1.584923145007000
Parakeet and Lemming,DL17 8UB,54.690123724221600,-1.551597177567490
Gull and Jerboa,SR8 1EA,54.759604552893500,-1.336832772863200
Mouse and Mamo,DH1 2RN,54.778849317419100,-1.539718464657630
Fox and Recurvebill,DL16 6SP,54.709997617989700,-1.583040151817260
Mole and Nukupuʻu,DH2 2SB,54.862930600245200,-1.615692453774810
Treepie and Old World quail,DH6 1AB,54.786997000000000,-1.491358000000000
Ibex and Mink,DH2 1EZ,54.873298000000000,-1.603423000000000
Kākāriki and Black jay,SR7 7HX,54.834473725036800,-1.333784989345370
Pratincole and Thrasher,TS27 3AE,54.715837000000000,-1.263098000000000
Pheasant and Night heron,DH4 7RR,54.874419689068400,-1.492035275847160
Treepie and Eagle,DH4 7LX,54.865025454836200,-1.502077878250380
Skunk and Fox,DH5 9AW,54.831049731226300,-1.450486189217180
Rat and Jerboa,DH4 4SY,54.858614945541200,-1.477777707242300
Perching duck and Quetzal,DH5 9DU,54.824571770482900,-1.446683000000000
Partridge and Buzzard,DH1 9LQ,54.792710368164800,-1.535113326005250
Badger and Towhee,DH4 5JJ,54.851697342050100,-1.482446083298950
Mamo and Old World warbler,DH4 4SA,54.864313643350700,-1.501619247655010
Greenbul and Warbler,DH7 7PR,54.781064611394300,-1.664526651476080
Macaw and Rabbit,SR8 2BB,54.765756998301700,-1.346135219879710
Tattler and Minke whale,DL14 7RS,54.671253248293500,-1.693605662383110
Kestrel and Kite,SR8 3XZ,54.786985000000000,-1.341159000000000
Philippine hawk-owl and Ground sloth,DH1 5HH,54.801526355957400,-1.579517031842070
Darwin's finches and Armadillo,TS25 3RX,54.660346294088900,-1.249158607827420
Dorcopsis and Grackle,DL5 4TS,54.635553318479500,-1.565613735220110
Buzzard and Macaw,SR8 2LU,54.758824000376900,-1.361631000000000
Duck and Ground sloth,DH2 3RH,54.838454625537700,-1.583897677209300
Jackal and Flameback,DH6 2XE,54.761598037915300,-1.384292084873650
Old World vulture and New World blackbird,DH6 2AF,54.784064178342400,-1.413214427171030
Gull and Vulture,DH1 3WB,54.761755000000000,-1.588781000000000
Crow and Ibex,TS26 0PF,54.690844678489400,-1.251558963964290
Condor and Gull,TS28 5GY,54.736327000000000,-1.380309000000000
Thicketbird and Ibex,DH6 5AH,54.737159853109800,-1.527563000000000
Old World quail and Lemming,TS24 9RG,54.718309000000000,-1.251566000000000
Meadowlark and Piping shrike,SR8 2DW,54.770631000000000,-1.344969000000000
Bunting and Flameback,DL14 7EW,54.663943000000000,-1.674592000000000
Stint and Myna,TS26 0AU,54.682377006874800,-1.249775897643360
Vulture and Kākāriki,DL14 8RB,54.653940819987400,-1.658459639607950
Mink and Magpie,DH9 0SL,54.876453776852600,-1.647870519205640
White ibis and Philippine hawk-owl,DH6 2UJ,54.803743879168200,-1.420490001675120
Chipmunk and Tahr,DL14 0RZ,54.647943604080100,-1.701560299817940
Towhee and Vole,DH1 4SR,54.776457620250800,-1.578983872058920
Night heron and Bunting,DL17 0DT,54.672867764103400,-1.529861036902880
Fish eagle and Kangaroo,DL17 8JD,54.690905261616000,-1.549090916473830
Tattler and Capuchin,DH2 2JW,54.863355818045200,-1.583812858863430
Goose and Night heron,DH5 0GG,54.810399917887200,-1.436358694959220
Argus and Rabbit,DL17 9DR,54.697200000000000,-1.482427000000000
Pitohui and Gull,SR7 8HY,54.833697278649200,-1.368437090970740
Hawk and Songlark,DL14 6LR,54.654271821169500,-1.684433729938770
Black cockatoo and Bronzewing pigeon,DH2 2AT,54.856164386581800,-1.580537868794080
Pratincole and Black jay,DH2 3HJ,54.845020640928700,-1.585620987435130
Goose and Kākāriki,DH9 6JX,54.864100674969900,-1.692084206882230
Marmoset and Night heron,DL17 0QR,54.662939863981300,-1.551865435913000
Parakeet and Triller,TS27 4DQ,54.743919965015600,-1.283668282847140
Treepie and Towhee,DH4 5AS,54.842804256369300,-1.471114000000000
Bronzewing pigeon and Tahr,SR7 9HQ,54.819395740596500,-1.399567683626040
Jay and Bronzewing pigeon,DH1 1BQ,54.789216200607300,-1.527082251028450
Solitaire and Treepie,SR8 2LR,54.756780924344500,-1.353877000000000
Chicken and Flameback,DH1 1JL,54.780183180352000,-1.565139036672830
B and Towhee,TS21 4DL,54.680817843201700,-1.432508782653910
Condor and Viscacha,DH4 4RB,54.866414000000000,-1.498711000000000
Myna and Rabbit,SR8 5SW,54.754910068659000,-1.329668762946560
Condor and Diving bird,DH7 9XE,54.798578890781700,-1.670930179587050
Pheasant and Petrel,DH5 0GH,54.810733000000000,-1.435109000000000
Songlark and Linsang,SR3 2FZ,54.860357000000000,-1.423680000000000
B and Capuchin,DL14 6EG,54.654027896992700,-1.670439817000250
Capuchin and Kite,DL16 7PX,54.702514503026700,-1.655507103964410
Skunk and Eagle,SR2 0HR,54.868722118584100,-1.369245556184660
Chipmunk and B,DH1 5SS,54.798075024978600,-1.567544690317660
Viscacha and Perching duck,DL17 0DW,54.669806012671200,-1.535230213012870
Fish eagle and Jackal,DH6 1DN,54.776452000000000,-1.505748458248340
Fox and Thicketbird,DH1 5NF,54.796062613313200,-1.567706141027320
Vulture and Grackle,DH1 1QT,54.778300432651100,-1.571237000000000
Eagle and White ibis,DL16 7UU,54.697764000000000,-1.587231000000000
Moluccan boobook and Francolin,DH6 3GA,54.747719383558400,-1.441190412523850
Diving bird and Tit-tyrant,SR3 3DB,54.875707461976100,-1.424118206584580
Zebra and Magpie,SR7 9SN,54.819009040331400,-1.404989178757190
Macaw and Rat,TS26 0SN,54.699421371765500,-1.247723642922900
Triller and Myna,SR7 7NE,54.827294326837700,-1.330681029977060
Nukupuʻu and Armadillo,TS21 3NT,54.665352921399100,-1.450351988954390
Fish eagle and Tahr,DH6 4QW,54.728585174944800,-1.481313476258080
Skunk and Darwin's finches,DH5 0JN,54.809361092736300,-1.439764796458030
Mouse and Fish eagle,DH6 3JJ,54.746574969100300,-1.413865049709110
Fulmarine petrel and Marmoset,DH1 4UA,54.792707044645600,-1.535113184470670
Marsh harrier and Old World quail,DH7 9HR,54.768723498077400,-1.705071619367480
Marsh harrier and Petrel,SR7 7RW,54.831787545293700,-1.358986290976280
Condor and Vole,DH1 2TY,54.753774605941100,-1.534455931611280
Mockingbird and Chickadee,DL14 7JU,54.660577425511200,-1.673099652774630
Thicketbird and Triller,DH7 9QZ,54.790247518870500,-1.694682387344240
Wader and Diving bird,DH5 9RW,54.820113000000000,-1.480842000000000
White ibis and Marsh harrier,DH4 6DS,54.847956201647000,-1.519138000000000
Black cockatoo and Grosbeak,DH7 0GA,54.827591866336200,-1.711647639532420
Vole and Perching duck,SR8 2EZ,54.766434331751300,-1.351781739522050
Gull and Towhee,DH1 5XD,54.800854252706500,-1.565695052595180
Black cockatoo and Flameback,TS21 4DT,54.680351914583700,-1.430886788830500
Rabbit and Dolphin,DH3 3LW,54.848615810745600,-1.572813665488350
Wallaby and Fox,TS27 4PX,54.737387896842200,-1.313945196249400
Siskin and Dolphin,DH7 9LG,54.774365134296000,-1.707999749960600
Nukupuʻu and Goose,DH6 2JN,54.764142123982500,-1.391589064953910
Kangaroo and Nukupuʻu,DH9 6TG,54.868698380915700,-1.690771519868320
Chickadee and Night heron,DL15 0RU,54.712261712670200,-1.716765213039170
Lemming and Capuchin,DH3 9DL,54.853921893114900,-1.573972547116590
Armadillo and Triller,DH6 2BX,54.783915814049500,-1.412720000000000
B and Piping shrike,SR3 2UQ,54.863130117786100,-1.411771447637720
Coati and Civet,DL17 9EY,54.688727000000000,-1.526824000000000
Treepie and Polecat,DH6 5NJ,54.740967615861600,-1.511335044694700
Ice seal and New World blackbird,DH6 2JL,54.764458696082100,-1.395594051985580
Grackle and Rabbit,DH5 9NS,54.831897643721800,-1.475600519603510
Nukupuʻu and Kestrel,DH9 6LD,54.863370052697200,-1.694566893970460
Vole and Herring gull,DH1 1SS,54.800870000000000,-1.535720000000000
Vulture and Mamo,SR7 9PS,54.817180168707900,-1.391368320652390
Dolphin and Guillemot,DH1 5GT,54.805984516501000,-1.575565685745700
Thrasher and Scimitar babbler,DH6 2HF,54.761195424086800,-1.391773105529420
Capuchin and Treepie,DL17 0NH,54.652205407748000,-1.563002987798400
Gull and American sparrow,DL16 7GP,54.700990000000000,-1.611700000000000
Stint and Dolphin,SR2 0FW,54.863697000000000,-1.372563000000000
Eagle and Jerboa,DH4 7ND,54.869275809587400,-1.495481168257690
Tree warbler and Prion,SR8 4HW,54.760482972914200,-1.305893513555210
Triller and Stilt,DH1 3BW,54.776527232374300,-1.570634903780110
Philippine hawk-owl and Herring gull,DH2 3SH,54.845588022858200,-1.607650414051880
Prion and Dolphin,SR7 7NB,54.827980077405900,-1.331183371314060
Fulmarine petrel and Chicken,DH4 5PW,54.852774230016100,-1.488460005177930
Goose and Myna,SR7 8SB,54.802175013679200,-1.351910126367140
Cloud rat and Nukupuʻu,SR8 3QA,54.788845212942700,-1.325048932880040
Tree warbler and Perching duck,DH2 1JD,54.874707730890000,-1.597768184796820
Badger and Warbler,DH5 0QA,54.807400084383000,-1.435466778671330
Old World quail and Vole,DL15 0UA,54.708525000000000,-1.664318000000000
Francolin and Guillemot,DH1 5RZ,54.808756473212200,-1.571615920203360
Vulture and Mole,DH1 2UE,54.760786128068500,-1.551687154385080
Grouse and Ibex,DH3 3ET,54.858100547453700,-1.576529964892940
Greenbul and Chicken,SR8 4EG,54.765031022418100,-1.312343313834680
Towhee and Pratincole,DL16 7AQ,54.687620527347500,-1.618450783628570
Myna and American sparrow,DH7 9LT,54.777230509010000,-1.715006047311150
Pheasant and Kite,DH6 2LA,54.761115306405200,-1.386568296944990
Civet and Buzzard,DH1 4AY,54.776221863329200,-1.588858002366030
Masked owl and Philippine hawk-owl,DH4 7HA,54.875940211091500,-1.488182406299400
Grackle and Old World quail,SR2 0JD,54.867436033733100,-1.372522097817700
Badger and Snipe,SR7 7BY,54.839146097837300,-1.338378000000000
Rabbit and Lemming,DL14 6QQ,54.648966484091600,-1.686675412001880
Mamo and Petrel,SR7 7UT,54.823120907569400,-1.346516536873600
White ibis and Stint,DH2 2JJ,54.861879263209200,-1.583002373725000
River dolphin and Jerboa,DL17 8TJ,54.685987192183800,-1.563664000000000
Grackle and Chicken,DH7 8PE,54.759727416806900,-1.612194660046640
Philippine hawk-owl and Meadowlark,DL16 7FD,54.698488391747100,-1.615447538620330
Jay and Wallaby,DH7 9PR,54.772877261456300,-1.698559332670380
Condor and Tahr,TS27 4AJ,54.742944806135500,-1.278838887118080
Peafowl and Petrel,DH4 4ES,54.857253704619400,-1.476782768009090
Perching duck and Puffleg,TS27 4LS,54.747638069064100,-1.294492755405070
Rat and Hawk,SR7 9JH,54.819804068163200,-1.385975262991480
Cloud rat and Bunting,DL16 6FP,54.705892000000000,-1.572710000000000
Kestrel and River dolphin,DH4 7DF,54.868387579920100,-1.489368736891910
Logrunners and Jerboa,DH6 4LU,54.719460792288200,-1.478542389631420
Coati and Macaw,DL14 8PZ,54.666791430076200,-1.645793596187530
Petrel and Asiatic leopard,SR7 8JT,54.836961509790400,-1.372309655200300
Ice seal and Parakeet,DH6 3QX,54.748007503901000,-1.409059502375900
Shearwater and Jerboa,DH7 8TJ,54.749119157898700,-1.640042455666630
Thrasher and Eagle,TS27 3HD,54.682976000000000,-1.320710000000000
Goose and Old World quail,DH3 4PT,54.863129827865700,-1.533929977656880
Parakeet and Magpie,DH1 5BT,54.798972000000000,-1.589981735988630
Diving bird and Macaw,TS28 5NF,54.713241172936500,-1.361819228957460
Pitohui and Magpie,SR7 0QB,54.844648318723400,-1.383480404544280
Herring gull and Hawaiian honeycreeper,DL15 0GU,54.710968622460100,-1.680951925490750
Gull and Armadillo,DH4 5DP,54.843148451548900,-1.481807992904030
Fish eagle and Rabbit,DH3 3JE,54.850146735774200,-1.576301735112680
Night heron and Hawk,DL16 6RD,54.702478094539900,-1.602467850612630
Moluccan boobook and American sparrow,SR7 8AW,54.837597491855300,-1.351389651200140
Chicken and Vulture,SR8 5RF,54.757614904865500,-1.324775906903230
Gull and Lemming,DH7 7HY,54.768490784969000,-1.651185936961860
Meadowlark and Hawk,TS27 4LP,54.747480248224500,-1.293625526438870
Cloud rat and Guillemot,DH2 3TE,54.843056816319200,-1.597568968155740
Mouse and Lemming,DH7 6TQ,54.805838851420400,-1.641934695126920
Old World warbler and Guillemot,DH1 2AY,54.785651026155900,-1.518571539564350
Guillemot and Towhee,TS21 4AR,54.683113587128100,-1.435315191242510
Parrotlet and Polecat,SR7 8LR,54.835152995077400,-1.353047984047270
Cuscus and Kite,DH4 7DY,54.868285666581400,-1.495088408448980
Prion and Bunting,DH7 8YD,54.758262350665100,-1.612115420628930
Peafowl and Warbler,TS21 3FB,54.670500135846200,-1.449863863251220
Flameback and Moluccan boobook,DH6 5PN,54.741071848461500,-1.532380559910360
Diving bird and Francolin,DL14 8XQ,54.646874866900100,-1.648198154887150
Francolin and Fish eagle,DL16 7XX,54.693986493548400,-1.605467531988130
Triller and Marsh harrier,DH9 6BW,54.855720220777000,-1.679671248526120
Mouse and Duck,DL17 0BH,54.677413246019000,-1.531716062693100
Crow and Peafowl,SR8 4RF,54.762022650132400,-1.320708595273010
Linsang and Elephant,DH6 4SL,54.713257758596700,-1.503720908538030
Vulture and Chipmunk,TS27 3AX,54.706166468509100,-1.273593931028170
Nukupuʻu and Scimitar babbler,SR7 8BQ,54.833737119729200,-1.362302584860390
Armadillo and Pitohui,DH9 0JX,54.875610935335500,-1.695128956325520
Eagle and Fish eagle,DH4 6RG,54.810687757782600,-1.502994894274280
Badger and Wallaby,SR3 2PS,54.856069193895800,-1.397605811819410
Chickadee and Peafowl,DH2 3UA,54.851044718227500,-1.594545895969810
Chicken and Dorcopsis,DH1 5US,54.786196289019300,-1.588663588432750
Booted eagles and Macaw,DL16 6JW,54.704866664836000,-1.596454310109630
Grosbeak and Buzzard,DH2 2LR,54.863770441138500,-1.589604000000000
Condor and Old World warbler,DL16 7AH,54.686989573153000,-1.617851736962660
Buzzard and Stilt,DH2 3NA,54.863497912467400,-1.639539257438620
Buzzard and Petrel,DL14 0TT,54.655822803216800,-1.697069642735520
Tahr and Boto,DL14 9TF,54.643457965596100,-1.697424920738420
Grouse and Hawk,DH1 2BG,54.784679069318800,-1.532002075629490
Grackle and Bronzewing pigeon,DH4 4JY,54.867083038376100,-1.489011271388860
Parrotbill and Masked owl,DL17 8PX,54.685308970485000,-1.564509014997040
Prion and Badger,TS21 4EP,54.680005880575800,-1.435683997243340
Rabbit and Duck,DH9 6BL,54.855108939826800,-1.676202589989470
Bronzewing pigeon and Old World warbler,DL14 9AP,54.638306549621100,-1.686029126605180
Skunk and Bronzewing pigeon,DH9 0PB,54.873745062140400,-1.692867849084760
Cuscus and Fulmarine petrel,DH9 7NW,54.865826587576400,-1.703133113325050
Snipe and Civet,SR7 8RY,54.801383600044300,-1.356869531013590
Hawaiian honeycreeper and Vole,DL15 0XL,54.684274923607700,-1.711934436922790
Recurvebill and Linsang,DH6 2YA,54.762479915628200,-1.395250543780200
Tit-tyrant and Marsh harrier,DH9 6UJ,54.871492228083900,-1.676601208476240
Kangaroo and Partridge,SR3 3NG,54.877487138062400,-1.433755564192170
Puffleg and Quetzal,DL16 6QA,54.699633273395800,-1.598213051943590
American sparrow and Snipe,DH7 9SS,54.800035616261500,-1.667807000000000
Snipe and Scimitar babbler,DL16 6HP,54.700056038560400,-1.582366206243250
Parrotbill and Condor,SR8 5RW,54.755900803533500,-1.321976434644590
Skunk and Capuchin,DH9 6LE,54.862977705270900,-1.695785038213290
Tit-tyrant and Guillemot,SR8 1AW,54.759126517527600,-1.333235392660300
Pheasant and Booted eagles,SR8 3BP,54.783989661764600,-1.359368976029760
Asiatic leopard and Marsh harrier,DL14 8JP,54.663752619922300,-1.624456948564570
Mockingbird and Condor,DL14 6AL,54.654340590994000,-1.679814393343960
Ice seal and Parrotbill,DH6 2NH,54.764625879261300,-1.387711935576040
Polecat and Dorcopsis,DH2 2XJ,54.851219242944700,-1.598391116219270
Night heron and Tit-tyrant,SR8 5QE,54.765777000000000,-1.334760260970800
Fish eagle and Greenbul,DH2 2RJ,54.863633349760400,-1.602287361730000
Zebra and Herring gull,DH7 8XL,54.746484000000000,-1.609944000000000
Prion and Skunk,TS21 2AZ,54.654987775004600,-1.451592304604570
Wallaby and Crow,DH4 7LU,54.867563896744600,-1.500924771494350
Wallaby and Kestrel,DL14 6NW,54.652785526075300,-1.683096844685150
Siskin and Linsang,DH5 0GT,54.811129000000000,-1.435148000000000
New World blackbird and Gull,DH2 3NS,54.822897136261200,-1.596664278748770
Old World quail and Pheasant,DH9 6UL,54.870426550288800,-1.677996541570960
Partridge and Dorcopsis,DH1 5DN,54.804458367614500,-1.589084968625070
Bronzewing pigeon and Philippine hawk-owl,DL16 7QF,54.698930000000000,-1.616545000000000
Fish eagle and Kestrel,SR8 5RD,54.757417468983000,-1.326441861843820
Flameback and Wallaby,DH7 6QD,54.818506197313900,-1.620035706931920
Fish eagle and Ground sloth,DL17 8SS,54.686649812301100,-1.538279846619050
Nukupuʻu and Scimitar babbler,DL14 9HB,54.633627848869300,-1.716583307101830
Pheasant and Mouse,DL16 6HE,54.702903594286800,-1.576828113955160
Triller and Lemming,SR2 0FE,54.866752000000000,-1.377394000000000
Nukupuʻu and Vole,DL14 6RX,54.650448486091300,-1.672607000000000
Grouse and Greenbul,DH4 7HF,54.875511048186800,-1.488702120558990
Civet and Towhee,DH9 7QZ,54.864337507727000,-1.707942611774540
Perching duck and Perching duck,DH1 3RB,54.776001391146000,-1.576998734355130
Thrasher and Gull,DH1 9JX,54.792710368164800,-1.535113326005250
Kestrel and American sparrow,DH3 4EX,54.843441000000000,-1.548031000000000
Macaw and Masked owl,DH6 4SQ,54.712126907172400,-1.501887653844180
Black jay and Booted eagles,DL14 7QQ,54.667180000000000,-1.675264000000000
Tit-tyrant and Lemming,TS27 3EL,54.681257707848100,-1.298482193750430
Parakeet and Zebra,DH1 9LB,54.792726000000000,-1.535031000000000
Recurvebill and Kākāriki,DH3 3BA,54.855358089082000,-1.573505705480370
Pheasant and Bunting,DH1 5GW,54.807882724426300,-1.573585480460470
Siskin and Stilt,DL4 2EY,54.634873846125500,-1.640803566920810
Piping shrike and Masked owl,SR7 7HY,54.835003770687700,-1.335395414128990
Francolin and Fish eagle,DH6 2AW,54.773959703238300,-1.410640188871630
Black jay and Capuchin,DH7 6NR,54.816870000000000,-1.628345000000000
Hawk and Perching duck,DH9 0QZ,54.876509483315200,-1.651610312170210
Grouse and Ice seal,SR2 0NQ,54.869410481177600,-1.359963536647280
Bronzewing pigeon and Piping shrike,TS27 4EB,54.749736147899900,-1.293663955438030
Treepie and Myna,DH6 5AT,54.733884018728100,-1.524496000000000
Hawk and Quetzal,DL16 7RD,54.722633474269500,-1.645415913925640
White ibis and Chicken,DL14 7TH,54.657704417536100,-1.677478373916430
Goose and Night heron,DH5 8HA,54.838659787804800,-1.466264300828320
Siskin and Flameback,SR7 0PU,54.846904000000000,-1.372872000000000
Grouse and Wallaby,TS27 4DD,54.739890941222000,-1.277603935083140
Elephant and Tree warbler,DH4 6HW,54.845283000000000,-1.504175337780690
Thicketbird and Ground sloth,SR8 1LH,54.749276825872600,-1.343075997126050
Petrel and Mockingbird,DH4 6ED,54.855074581920200,-1.519225308760630
Night heron and Civet,DH4 7TN,54.862949677290300,-1.504300130785790
Mockingbird and Black jay,SR2 0RF,54.869375936135800,-1.365371026395320
Kestrel and Argus,DL14 8BW,54.695472794716000,-1.683292060089370
Parrotbill and Prion,DL14 9SS,54.641084380032500,-1.689881315261320
Polecat and Rat,TS27 4BF,54.740844000000000,-1.273098000000000
Lemming and Zebra,TS28 5FA,54.715598000000000,-1.367308000000000
Myna and Eagle,SR7 7DE,54.838530841890200,-1.334543409685440
Marmoset and Armadillo,DH4 7JE,54.877594985603800,-1.499273566491980
Egret and Badger,TS21 3EP,54.664025000000000,-1.410511000000000
Partridge and Darwin's finches,DH9 6FB,54.857635827508500,-1.672179219796480
Puffleg and Warbler,TS29 6JH,54.697345573178800,-1.430819750362450
Masked owl and Quetzal,DH6 3JS,54.745240394263700,-1.414785298297470
Thicketbird and Tahr,DL14 0LJ,54.645064429887100,-1.726793036724830
Fulmarine petrel and Piping shrike,DH9 0TA,54.869709439201400,-1.699770095063330
Siskin and Mole,TS29 6NL,54.698174083570000,-1.394081222286350
New World blackbird and Towhee,DL17 9PB,54.699516562211900,-1.512453760486440
American sparrow and Towhee,DL14 8EE,54.656478000000000,-1.659198000000000
Parrotbill and Philippine hawk-owl,SR2 0HE,54.868331974252300,-1.363361814180850
Nukupuʻu and Grosbeak,DH2 1NU,54.868213188679100,-1.623853595396170
Greenbul and Capuchin,DH9 6RT,54.871650058044500,-1.643081746570600
Stint and Recurvebill,DH4 4AH,54.842984876570900,-1.468901154383750
Zebra and Bunting,SR8 3EJ,54.783808776823400,-1.350695458200910
Grackle and Booted eagles,DH7 7AW,54.782019000000000,-1.624887000000000
Civet and Asiatic leopard,DH6 2BN,54.783915080625800,-1.417710258024730
Skunk and Scimitar babbler,SR7 7NG,54.827812512166300,-1.333396510290840
Tattler and Crow,DH7 0EJ,54.826499218110100,-1.705693947637960
Piping shrike and Thrasher,SR8 3EL,54.783317046092400,-1.351169798693870
Recurvebill and Ice seal,DH1 4HA,54.775581625985700,-1.588211570791570
Armadillo and Tahr,SR7 7QF,54.830927081894000,-1.345923498132670
Thrasher and Grackle,SR7 0BQ,54.841271548931200,-1.359583462024310
Peafowl and Tattler,SR8 2NN,54.756177815926200,-1.351277395344180
Hawk and Logrunners,DH4 6AE,54.846780500497600,-1.508111223537310
Minke whale and Zebra,DH4 5PU,54.842179354930600,-1.482147402336710
Argus and Triller,SR7 7JY,54.833295688532100,-1.328744748664120
Songlark and Songlark,DH4 4ZH,54.863506000000000,-1.488820000000000
Rabbit and River dolphin,SR3 1HQ,54.874386199666200,-1.401743040544270
Hawaiian honeycreeper and Perching duck,DH3 4DA,54.872810218749500,-1.576204466876370
Civet and Songlark,DL14 6RS,54.641469000000000,-1.681759000000000
Fox and Skunk,DH6 2EL,54.773399201308700,-1.424934193979380
Grackle and Cloud rat,SR3 2RQ,54.863005879440000,-1.423348792264950
Flameback and Moluccan boobook,DL16 7RG,54.714038820384600,-1.641191227400070
Capuchin and Peafowl,DH5 9HY,54.821450565359100,-1.450149557046630
Nukupuʻu and Vulture,SR3 2FG,54.867903000000000,-1.408147000000000
Cuscus and River dolphin,DL14 7PA,54.662930425976600,-1.689622064047100
Asiatic leopard and Condor,SR7 0NB,54.839731385883900,-1.386778420259440
Fulmarine petrel and Parrotbill,DH5 8JE,54.836766773780700,-1.454830252654200
Pitohui and Mamo,TS29 6HT,54.713890629629600,-1.425201930032980
Polecat and Greenbul,TS21 3BE,54.656258743962800,-1.448475151469690
Kestrel and Perching duck,DH4 4QN,54.867664013255300,-1.494706643041580
Puffleg and Philippine hawk-owl,DH9 6NE,54.864366249645100,-1.697644168487880
Towhee and Ice seal,DH6 3RE,54.744038294957000,-1.418965669735610
Cloud rat and Grouse,DL14 0LN,54.650591539773200,-1.711397584028970
Cuscus and Black cockatoo,SR3 2FD,54.866126909275700,-1.413878140000310
Logrunners and Goose,SR8 4SH,54.758637397185400,-1.310043035817540
Wallaby and Condor,SR7 0BT,54.839751167399500,-1.352491780046040
Jay and Rabbit,DL17 9ND,54.702760209637000,-1.516806448825330
Philippine hawk-owl and Goose,DH1 4BF,54.777698796242100,-1.594113490744280
Mamo and Minke whale,DL17 8LJ,54.687884378319900,-1.558493752701190
Moluccan boobook and Meadowlark,DH7 6PR,54.818344686715000,-1.617251604314880
River dolphin and Rabbit,DH4 7HL,54.877155090156600,-1.488587810957380
Stint and Flameback,DL16 7BX,54.690278867948100,-1.620581000000000
Lemming and Parakeet,DH9 6TA,54.867620422932900,-1.694488050403260
Flameback and Masked owl,SR7 0HH,54.840549760221000,-1.367613878407830
Thrasher and Grackle,DH9 6BQ,54.855997438316500,-1.679155026839300
Moluccan boobook and Kestrel,TS28 5EY,54.717923409052200,-1.365269625959520
Elephant and Capuchin,DH1 1DT,54.785826483557600,-1.545439301452720
Thrasher and Chickadee,DH7 8EX,54.756902634226900,-1.611258253109480
Masked owl and Jackal,DH7 6BA,54.824798568899900,-1.626420412331070
Chickadee and Peafowl,TS27 3AU,54.715843214487600,-1.289937608333200
Tree warbler and Logrunners,DH7 8LL,54.760047000000000,-1.610607000000000
Marmoset and Fish eagle,SR7 7DJ,54.839021559909700,-1.337182290307310
B and Triller,SR3 3SE,54.866042077630800,-1.438434261799090
Stint and Rat,DH1 5RP,54.799318446850300,-1.565944831183640
Petrel and Fish eagle,DL14 8LZ,54.660591576674800,-1.634019659853650
Parakeet and Pheasant,DH9 7QU,54.862473105298000,-1.709934612458880
Parrotlet and Pitohui,DL4 2EJ,54.633436690678900,-1.641048594202760
Argus and Ice seal,DH5 9DD,54.823395592452300,-1.449033652448590
Rabbit and Greenbul,DH7 7NW,54.773404829738700,-1.629412004990790
Parrotbill and Fox,DH4 4AU,54.848249847074100,-1.474843493729450
Viscacha and Prion,DL17 8RX,54.705014000000000,-1.539237557231630
Marmoset and Kite,DH7 8TY,54.756525534952800,-1.634507289645040
Crow and Crow,DH7 8HN,54.741921231426100,-1.602703261713650
Ground sloth and Jackal,DH9 7LN,54.865405959327500,-1.711315795517360
Thrasher and Wader,DH3 3TU,54.861188676288100,-1.575609646491420
Masked owl and Night heron,DH6 4ET,54.709953735293300,-1.513352996502270
Darwin's finches and Ice seal,DH7 6BF,54.819566345672900,-1.627542677064010
Prion and Cuscus,DL16 7PN,54.702071681003600,-1.657807450419090
Boto and Parrotlet,DH1 2AB,54.785874404851000,-1.522798407484830
Egret and Magpie,DL15 0AH,54.712788416598100,-1.689412000000000
Fulmarine petrel and B,SR3 2AU,54.871755763626200,-1.404103821593640
Jay and Recurvebill,TS28 5BA,54.729658161373800,-1.378782277537390
Ice seal and Treepie,DL14 8UW,54.642284977255500,-1.646022000000000
Night heron and Mouse,DH6 2JU,54.766308135792100,-1.400664379974640
Peafowl and Jackal,DH2 3BT,54.850863000000000,-1.580637000000000
Wader and Petrel,DH9 6JF,54.864693061874600,-1.695367058397030
Fulmarine petrel and Black cockatoo,DH6 3QN,54.750257119257200,-1.404148407570500
Prion and Prion,TS27 4NY,54.746493000000000,-1.293736000000000
Marmoset and Grouse,DL14 6BA,54.652478412212300,-1.679085085802900
White ibis and Jay,DH3 4AQ,54.868966127517700,-1.574234733450170
Tahr and Triller,SR2 0NJ,54.871130085706400,-1.358861102348480
Darwin's finches and Prion,TS28 5NG,54.708198773038900,-1.363372782090980
Thicketbird and Tattler,DH7 7JJ,54.767802991185400,-1.640296419885380
B and Treepie,SR8 2DU,54.767263034449400,-1.348784297122350
Eagle and Shearwater,DL14 8ED,54.654476678557000,-1.626836341677520
Grackle and Wallaby,DH9 6UR,54.869126489347600,-1.675731976219990
Linsang and Solitaire,DH2 3AB,54.850065891039300,-1.589400601057970
Darwin's finches and Chipmunk,DH6 2HQ,54.759698680992200,-1.390785450887500
Perching duck and Herring gull,DH7 8DH,54.736204398417500,-1.658343197285160
Treepie and White ibis,DL17 9JT,54.701541311881100,-1.522174442297360
Coati and Goose,SR3 2PG,54.869479387018700,-1.414624041843430
Partridge and Puffleg,DH1 2QR,54.787156237573900,-1.524260590873240
Egret and Stilt,TS26 0PW,54.691584946383200,-1.250645539844390
Parrotbill and Quetzal,SR2 0DS,54.876231391711200,-1.373788143227190
Philippine hawk-owl and Old World quail,DH2 2NA,54.849253536123700,-1.599095884951920
Macaw and Flameback,DH1 1XG,54.779256810475500,-1.572518308734620
Greenbul and Puffleg,DH6 2AL,54.784831000000000,-1.389926000000000
Myna and Wallaby,DL17 0BQ,54.678190000000000,-1.532635580470750
Songlark and Mouse,SR2 0YU,54.874268472807000,-1.364390332284390
Kestrel and Parakeet,DH5 0AG,54.815106000000000,-1.447805000000000
Ice seal and Treepie,DL17 9HA,54.698296078657900,-1.515121657196260
Mouse and Badger,DH1 2DQ,54.781297768310300,-1.529071435950970
New World blackbird and B,DH7 7JR,54.767055557232600,-1.652099730905240
Badger and Kangaroo,DH6 3AQ,54.751163860198600,-1.426336744589090
Mockingbird and Partridge,TS27 3JQ,54.714519537171900,-1.256509478587270
Peafowl and Chipmunk,TS28 5DY,54.726788514992300,-1.378220588870430
B and Partridge,DH1 4NE,54.783762068821400,-1.588999253519800
Fox and Rat,DH7 6HH,54.819140952512300,-1.624760726425240
Lemming and Mamo,DL17 8NB,54.686666351228300,-1.559639321228450
Civet and Scimitar babbler,DH4 7PQ,54.876057286074500,-1.503406905246550
Kākāriki and Lemming,SR7 7HD,54.837471649220000,-1.331493596075760
Old World vulture and Rat,DL17 9DU,54.703792584848700,-1.490195809466680
Minke whale and Magpie,SR8 3NF,54.792507965545800,-1.327600751213910
B and Stilt,DH6 3LF,54.740119367749700,-1.416940411351790
Viscacha and Myna,DH6 1BB,54.793491457172100,-1.488803993048310
Myna and White ibis,TS28 5NA,54.717277000000000,-1.384374000000000
Thrasher and Recurvebill,DH6 1HQ,54.773765472518600,-1.486580924232190
Eagle and Chickadee,DH1 5JD,54.792764277014900,-1.585673123675530
Thicketbird and River dolphin,SR8 2DG,54.769872968278600,-1.346146600320540
Recurvebill and Chickadee,DH2 3AW,54.847900293321700,-1.586790655951870
Siskin and Civet,SR8 1BP,54.759889605953000,-1.334591000000000
Chicken and Greenbul,DH9 0PT,54.872879352503800,-1.688152754739760
Masked owl and Shearwater,DH7 8RH,54.754096864915500,-1.613460360585250
Perching duck and Grackle,TS21 4AB,54.683928101819100,-1.440422448458070
Dolphin and Mink,TS27 4RN,54.718617132803900,-1.341988164756960
Mink and Parrotbill,SR3 3DY,54.874662455305900,-1.425473317331930
Moluccan boobook and Marsh harrier,DH7 7TL,54.786979607805600,-1.637047450575620
Coati and Meadowlark,DL16 6XE,54.704645794563500,-1.589550738664410
Booted eagles and Vulture,SR8 3HF,54.786017317905900,-1.336991710193400
Chicken and Vulture,DH5 0JS,54.808464336212200,-1.436013000000000
Peafowl and Piping shrike,DL14 9EF,54.637351332149200,-1.717858837505530
Thicketbird and Kākāriki,TS21 4AE,54.683689554328600,-1.443264183751670
Herring gull and Goose,DH7 9XH,54.797993262224900,-1.670374979481240
Perching duck and Lemming,DL17 0JQ,54.661779923245600,-1.559040234752660
New World blackbird and Fish eagle,TS27 4FF,54.737088660406700,-1.357779246164490
Viscacha and Chicken,DL15 9AT,54.742838000000000,-1.678154000000000
Wader and Hawaiian honeycreeper,DH9 0DU,54.873322646676200,-1.696424036507210
Bunting and Partridge,SR8 3RB,54.786567934835200,-1.319566541201350
Vole and Mouse,DH2 2NN,54.857534268472100,-1.611459997480050
Greenbul and Jerboa,TS29 6BA,54.720171863854300,-1.400956769761610
White ibis and Black cockatoo,DL17 8AL,54.685604329415400,-1.547009077538600
Peafowl and Ground sloth,DL4 1ES,54.635356069853700,-1.652077598631720
Grackle and Parrotlet,DH1 2TX,54.787708486743700,-1.518453809025080
Rabbit and Mouse,DL17 0JJ,54.662513707635200,-1.563140461547260
Chipmunk and Mamo,DH4 4FF,54.854202415554200,-1.475654039986700
Maya and Buzzard,DH7 8AQ,54.749460232065000,-1.636885691326410
Jackal and New World blackbird,DH1 1BD,54.793657764440100,-1.523048950305390
Stilt and Nukupuʻu,TS27 4HH,54.747035352566500,-1.286704639979810
Masked owl and Crow,SR7 8EL,54.835332000000000,-1.368022000000000
Mole and Hawaiian honeycreeper,DL17 8RZ,54.702202174011500,-1.544450061632110
Triller and Francolin,TS27 4DW,54.727387505189600,-1.260994000000000
Parakeet and Fox,DH2 2QT,54.863827822651300,-1.606819120976760
Buzzard and Fox,DL14 6PR,54.644747539270300,-1.681625244231790
Minke whale and Parrotlet,SR7 7BX,54.839618129138500,-1.346109997982210
White ibis and Myna,DH5 9ND,54.817158000000000,-1.458547401644550
River dolphin and Ibex,DH1 3ST,54.747586350134000,-1.584969036063770
Elephant and Old World warbler,DL16 6TX,54.707955000000000,-1.608808000000000
Wallaby and Chicken,DH6 5JL,54.734797702804700,-1.590053775892700
Zebra and Mouse,SR3 3AQ,54.875333144336500,-1.420882000000000
Buzzard and Booted eagles,DH7 8AZ,54.746503072087500,-1.636694644710610
Eagle and Myna,DH3 4AA,54.863775187720300,-1.567512252634310
Meadowlark and Condor,SR7 7NZ,54.831032000000000,-1.328782000000000
Marsh harrier and Hawaiian honeycreeper,SR7 8DS,54.835760603853400,-1.366022832696490
Jay and Recurvebill,DH1 1PE,54.782136078072200,-1.543863645155000
Argus and Old World quail,DH6 3DN,54.750546568980400,-1.440405761872070
Cloud rat and Pitohui,TS21 4BJ,54.682701594405800,-1.435615602989080
Guillemot and Mockingbird,DH1 3PR,54.765843594390000,-1.591885036875980
Perching duck and Maya,DL16 6LU,54.707226555512400,-1.598075969128250
Logrunners and Pitohui,DL17 8AS,54.683772787425900,-1.542686481398400
Gull and Tit-tyrant,DL16 7TT,54.696682180245100,-1.602617570293190
Tree warbler and Mouse,DH6 4DF,54.714962221509800,-1.502986064954960
Tahr and Hawaiian honeycreeper,DH7 9QW,54.789138259247800,-1.703990144582420
Viscacha and Perching duck,TS29 6HL,54.709123725478300,-1.418719703532150
Francolin and Viscacha,TS26 0QG,54.687959365906600,-1.252930600915500
American sparrow and Stilt,TS21 2JS,54.651336000000000,-1.454726000000000
New World blackbird and Kestrel,SR7 7LR,54.830312197076700,-1.332016586389940
Magpie and Towhee,DH7 9JW,54.772772861524500,-1.714866359282820
Magpie and Moluccan boobook,DH2 3HU,54.847129364100900,-1.590006608996640
Polecat and Condor,DH1 4RD,54.777686151486300,-1.580821158111530
Cloud rat and River dolphin,TS27 4BT,54.733091000000000,-1.276467000000000
Solitaire and River dolphin,DH4 6AA,54.847106986344500,-1.506627794968910
Old World warbler and Wader,DL17 9LH,54.703251150086800,-1.522775079963120
Zebra and Myna,SR7 7TW,54.834746104229400,-1.339229533902280
Greenbul and Duck,DH5 9QZ,54.822293177136000,-1.482386181338940
Magpie and Skunk,DH1 3EW,54.772453642367400,-1.574983845308000
Condor and Piping shrike,DH2 3NB,54.862075041745400,-1.638523729579420
Quetzal and Hawaiian honeycreeper,TS25 3NW,54.658543290548500,-1.246804642127310
Piping shrike and Mamo,SR7 9HF,54.819639053184700,-1.399704140951490
Zebra and Ibex,DL14 6RU,54.650192559767400,-1.664612665404770
Black jay and Argus,SR8 5NQ,54.762397628024000,-1.326716640277120
Parakeet and Magpie,DH7 6HR,54.819319186114200,-1.624276638447950
Puffleg and Grouse,TS27 3BA,54.706378346012200,-1.274459238623470
Prion and Black cockatoo,DH7 9XX,54.796199397116500,-1.668336491590120
Night heron and Elephant,TS22 5NN,54.640283531574500,-1.351170816442060
Kestrel and Hawaiian honeycreeper,TS29 6EL,54.719243647651900,-1.428355283015660
Piping shrike and Partridge,TS29 6EX,54.710479000000000,-1.429505049758940
New World blackbird and Civet,DH1 5DW,54.803405821481700,-1.588753399896270
Moluccan boobook and Skunk,DH7 6BQ,54.829347474913000,-1.629927569610180
Hawaiian honeycreeper and Eagle,SR3 3PH,54.873727337716700,-1.434945844457690
Condor and Civet,DH2 3AD,54.850588011705800,-1.592338889217810
Fish eagle and Dolphin,DH6 3HB,54.748801000000000,-1.441704000000000
Tahr and Tree warbler,SR8 3BG,54.784309724988600,-1.355321114039280
Polecat and Wader,SR8 5NL,54.763210925062000,-1.327526828917750
Marsh harrier and Kākāriki,TS27 4BZ,54.738301558979400,-1.277818586127520
Logrunners and Snipe,SR8 2QB,54.768828000000000,-1.352287000000000
Peafowl and River dolphin,NE38 9HA,54.875964842011900,-1.553714362655560
Tahr and Greenbul,DH5 9DN,54.822690362336300,-1.446117233818010
Zebra and Dolphin,DH2 2HX,54.864979601854600,-1.585634596032250
Wader and Recurvebill,DL14 6JJ,54.650609790593300,-1.676078000000000
Booted eagles and Kākāriki,SR3 2TQ,54.866513893988300,-1.401719324043610
Diving bird and Moluccan boobook,DH1 1RG,54.777733958925900,-1.573699000000000
Maya and B,SR7 9AQ,54.818409440383500,-1.383864371458030
Parakeet and Parrotbill,DL5 4XB,54.638263984950100,-1.579962633171090
Macaw and B,DL15 0DY,54.710852756024000,-1.698910496174510
Old World warbler and Treepie,DH2 3DF,54.851296584104400,-1.578766088459320
White ibis and Hawk,DH7 6TD,54.805792166775700,-1.638310262988320
Booted eagles and Fish eagle,DH1 5FF,54.799357257180500,-1.592233000000000
Parrotbill and Eagle,DH7 8RS,54.751909529728700,-1.618002339152210
Viscacha and Peafowl,SR8 2JS,54.755584098658200,-1.356228045594560
Tattler and Mink,TS29 6EU,54.711519520617600,-1.429302036867170
Jerboa and Jackal,DH6 1RN,54.774148626938600,-1.511930336842680
Francolin and Warbler,DH2 3NU,54.823167825802000,-1.599712122340780
Herring gull and Myna,DH2 2JX,54.862025235799400,-1.588920867849850
Marmoset and Triller,DL4 2HE,54.635724302599300,-1.642732612424560
Lemming and B,DL16 6BG,54.706440000000000,-1.575126000000000
Treepie and Dorcopsis,DH3 3SX,54.859649842913000,-1.572432296761880
Ice seal and Fish eagle,DH7 7NY,54.775600121638100,-1.632066003740890
Grouse and Vole,DH9 7BD,54.860012122489600,-1.706727591672440
Cuscus and Old World vulture,DH3 4HW,54.839016496657800,-1.547504586202170
Parrotlet and Stint,TS21 2AD,54.653005884580400,-1.450534048732950
Scimitar babbler and Gull,DL17 8QH,54.693112007840500,-1.540843938724370
Buzzard and Perching duck,DL15 0JJ,54.685655041704800,-1.710327013442190
Grouse and Petrel,TS26 0PY,54.692717946541100,-1.252207131423060
Dolphin and Rabbit,DH5 0JU,54.809376673623500,-1.441195990190830
Thicketbird and Cuscus,SR8 3HS,54.783472785575000,-1.336753436512530
Dolphin and Tree warbler,DH1 5BQ,54.797175029016100,-1.585192531415630
Condor and Fulmarine petrel,DH4 6GF,54.857351817747500,-1.503683524886280
Vulture and Kākāriki,SR3 2DN,54.870155550432000,-1.400325349773710
Stint and Armadillo,DL17 0DB,54.674905000000000,-1.531202000000000
Diving bird and Wallaby,DH6 1QD,54.791181620014300,-1.455661170147460
Mouse and Tit-tyrant,DH6 2EA,54.782517360413900,-1.418585496155000
Pratincole and Songlark,DH4 6TJ,54.845989916038600,-1.519395556135020
Bronzewing pigeon and Armadillo,DH3 4DL,54.877324388965400,-1.566852974717290
Treepie and Prion,DH7 6SD,54.806658962729100,-1.630710413924480
Parakeet and Magpie,DH1 4PF,54.770729607343200,-1.593763333811870
River dolphin and Polecat,TS25 4BZ,54.666447501972400,-1.244673898567310
Black cockatoo and Ground sloth,DL14 8NZ,54.662322967687200,-1.633011954048150
Perching duck and Eagle,SR8 3JB,54.785327018539500,-1.337298441974600
Logrunners and Chickadee,DH2 3DA,54.849105056607500,-1.589612813589390
Pratincole and Tree warbler,TS27 4QZ,54.719019692085200,-1.339994541277000
Zebra and Skunk,SR8 5JT,54.767374524407600,-1.341135465280020
Grosbeak and Chicken,DH4 6QX,54.813389892834600,-1.515643370540360
Petrel and Booted eagles,TS21 4AH,54.683076973073100,-1.444901160151700
Greenbul and Goose,DH7 7HD,54.769189605618600,-1.656744403741360
Cloud rat and Perching duck,DH9 6HL,54.866483602912100,-1.692689288354670
Francolin and B,DH7 6HZ,54.821053432980500,-1.624229425201240
Mouse and Jackal,DH2 3TR,54.844874416095200,-1.590200751723520
Herring gull and Elephant,SR3 3ER,54.870820950845200,-1.428379513709740
Diving bird and Snipe,DL14 6NH,54.653813486135900,-1.691411890986020
Partridge and Chickadee,DL14 7PG,54.665414000000000,-1.676611000000000
Eagle and Mouse,SR7 9ED,54.821297145274700,-1.386232763725590
Pitohui and Fish eagle,DH1 2UZ,54.778024154056100,-1.547314606570110
Myna and Night heron,DL14 6DE,54.651663000000000,-1.669591000000000
Condor and Elephant,DL17 0PY,54.657172000000000,-1.547201000000000
Treepie and Prion,DL17 9ED,54.673774000000000,-1.484958000000000
Tit-tyrant and Armadillo,DH4 4TE,54.861102832713100,-1.479552702579690
B and Tattler,SR3 3HR,54.872822187613400,-1.425889058643710
Towhee and Thrasher,SR7 7HF,54.837258724017500,-1.333630152103110
Philippine hawk-owl and Black jay,TS22 5SL,54.639549000000000,-1.361634186747840
Jackal and Siskin,SR8 3AU,54.784613000000000,-1.352999000000000
Petrel and Civet,DH7 9TT,54.801513470503900,-1.672773031748880
Nukupuʻu and Lemming,DL16 6XP,54.710764053011800,-1.610861269733300
Kangaroo and Puffleg,SR7 7XJ,54.833159001599000,-1.346525718165900
Marmoset and Magpie,DH4 7AZ,54.869181463330200,-1.477407482521100
Puffleg and Lemming,DH9 7AE,54.863352068862600,-1.705488183635370
Mole and Crow,DL17 0EE,54.656700548659700,-1.562551956389760
Nukupuʻu and Condor,SR8 1PJ,54.747826323633300,-1.357500667070920
Petrel and Armadillo,DL14 8JR,54.662620325442000,-1.624576000000000
Tit-tyrant and Mouse,SR8 4AQ,54.773220648015800,-1.327749000000000
Mockingbird and Parakeet,DH6 4QT,54.728744331510300,-1.478609597672220
Parakeet and Towhee,DH4 6LG,54.839588779373500,-1.503075991423950
Chickadee and Pheasant,DL14 8BQ,54.697795863202200,-1.681582748017630
Tit-tyrant and Thrasher,DH6 2PX,54.755236609859800,-1.391644862867840
Philippine hawk-owl and Grackle,DH1 3JX,54.773703772448400,-1.565115218140700
Dolphin and Triller,TS21 4AA,54.683223811937300,-1.439858000000000
Prion and Herring gull,DH1 1BJ,54.785897349624700,-1.530992834507300
Goose and Mockingbird,TS27 3HJ,54.664756000000000,-1.307340000000000
White ibis and Herring gull,DH1 5PA,54.802129096374500,-1.572946001626150
Maya and Hawaiian honeycreeper,DH2 1PG,54.870844166029100,-1.626104136630240
Vulture and Bronzewing pigeon,DH4 5NJ,54.844860265519300,-1.495801000000000
Thicketbird and Marsh harrier,DH4 7TA,54.868113842162100,-1.503551231073920
Diving bird and Shearwater,DH1 3UP,54.764487416362500,-1.571259611985270
Kite and Myna,TS27 3QQ,54.715502576357800,-1.252688358056290
Tree warbler and Egret,SR8 3RJ,54.785303723758400,-1.318483731344380
Hawaiian honeycreeper and Kākāriki,DH7 7BQ,54.785272443604200,-1.637140474644510
Treepie and Dolphin,SR8 1AF,54.757559000000000,-1.333960000000000
Greenbul and Bronzewing pigeon,SR2 0LR,54.867332169425400,-1.364639636420080
Ground sloth and Rabbit,DH6 4DS,54.714084631021700,-1.505946017439320
Polecat and Pheasant,SR3 2RS,54.865242239925800,-1.428785582885950
Wallaby and Logrunners,DH7 9FY,54.798300509623300,-1.674338847893610
Grouse and Mouse,SR3 3SH,54.868072650288400,-1.436411634957920
Linsang and Wader,DH4 6EE,54.854721597364100,-1.518590881202770
Old World quail and Wader,TS27 4LA,54.748050377032200,-1.291223151817610
Hawaiian honeycreeper and Puffleg,DH4 6EU,54.856306459287800,-1.521687374596920
Partridge and Solitaire,DH4 7TL,54.864078705103500,-1.505704050428240
Recurvebill and Stilt,DL16 7HF,54.684320891086100,-1.595789402518580
Meadowlark and Viscacha,DH9 7HA,54.852312927120300,-1.707624451478710
Nukupuʻu and Petrel,NE38 9HR,54.877470000000000,-1.547217449417090
Capuchin and Fish eagle,TS27 3HF,54.676881000000000,-1.304621000000000
Maya and Gull,TS29 6LS,54.707605159705100,-1.411307409583730
Treepie and Mole,DH5 9BW,54.829310313961800,-1.453358460962250
Kestrel and Parakeet,DH5 8DB,54.839739352282600,-1.464490601132580
Kite and Bunting,DH7 8DN,54.738617000000000,-1.669164000000000
Old World vulture and Hawk,DL15 0UP,54.709937283227600,-1.678352564306650
Black cockatoo and Egret,SR8 3EU,54.786083704820400,-1.342588606211400
Jackal and Solitaire,DH1 3ES,54.773909741352800,-1.574938000000000
Chicken and Coati,TS21 4EJ,54.679578870569700,-1.436620464249780
Fulmarine petrel and Kangaroo,SR8 1PN,54.746548427905000,-1.360565704699840
Chipmunk and Tattler,DH5 9DA,54.828326703136200,-1.452453344298670
Perching duck and Bunting,DH1 5GA,54.805873823774000,-1.572190901122990
Snipe and Fox,DH3 3UP,54.859632444680500,-1.575158636203440
B and Songlark,DH3 3ND,54.848100125668700,-1.566760983393070
Linsang and Maya,TS27 3HW,54.669179694991800,-1.285912000000000
Crow and Tattler,DH7 6TT,54.816744356867500,-1.649774667788100
Treepie and Grosbeak,DL16 6UL,54.706417130445200,-1.611678818471360
Old World vulture and Skunk,DH1 5FQ,54.793892000000000,-1.591914000000000
Treepie and Stint,DL17 8JG,54.690006454761000,-1.549054335992140
Buzzard and Asiatic leopard,DH5 9NT,54.822719130944800,-1.454459099233950
Recurvebill and Recurvebill,DH4 5LW,54.850159957698500,-1.484396984837960
Jay and Guillemot,DH2 1SR,54.870399295086400,-1.585890691397000
Hawk and Partridge,DH1 2LX,54.781485546950000,-1.526519380883110
Thicketbird and Bronzewing pigeon,DH5 9SD,54.825093507276600,-1.479470894616930
Asiatic leopard and Parrotlet,DH1 1LP,54.791146433832300,-1.519734872733500
Black cockatoo and Recurvebill,DL14 6ET,54.655979000000000,-1.673816527511340
Ground sloth and Petrel,DL14 9TH,54.641585428808800,-1.692542556717110
Fulmarine petrel and Gull,DH6 1LX,54.765113594601400,-1.438386503114500
Jerboa and Partridge,DH5 9QW,54.822103163822400,-1.484193993683790
Warbler and Grosbeak,SR8 2NH,54.752417891673700,-1.353994314593900
Quetzal and Partridge,DH3 4NJ,54.838105780704900,-1.544276258122100
Argus and Puffleg,DH6 2AP,54.770961915239500,-1.405880618737260
Mockingbird and Crow,DH3 3LX,54.847726000000000,-1.572403000000000
Rat and Rat,DL14 8UZ,54.642794236850800,-1.635806395649130
Dolphin and Snipe,DH6 3JG,54.745788000000000,-1.414633971253210
Guillemot and Moluccan boobook,TS27 4LE,54.747730000000000,-1.291555000000000
Eagle and Piping shrike,DH1 4AT,54.775943256281300,-1.594193051258030
Tree warbler and Rabbit,DL17 9JG,54.703551065399000,-1.514562432614080
Tree warbler and Prion,DL14 8FB,54.654288000000000,-1.656700000000000
Pitohui and Fulmarine petrel,DH7 7PF,54.779214054555100,-1.645776648400890
Francolin and Parrotbill,DL14 7QB,54.666603633996300,-1.681780061749700
Masked owl and Bunting,DH9 0HN,54.875419679895500,-1.683582616582960
Towhee and Black cockatoo,TS27 4AR,54.741347937145400,-1.274673000000000
Skunk and Dorcopsis,DH7 8AA,54.745517883024700,-1.610575168331860
Stint and Magpie,DL14 7TE,54.657519559321600,-1.675557767893470
Marsh harrier and Vole,SR7 7XH,54.841816898666000,-1.340577770454090
Hawaiian honeycreeper and Civet,TS28 5LJ,54.738073660565300,-1.376044278897340
Ice seal and Greenbul,DL16 7BD,54.701348027176300,-1.656137671241770
Partridge and Wader,DL16 7EL,54.690939386099800,-1.616480505815050
Dorcopsis and Eagle,DL16 7GA,54.676326000000000,-1.596567000000000
Polecat and Songlark,DH4 7AR,54.868868526727100,-1.481976955532180
Piping shrike and Boto,DH7 9TG,54.797605521136000,-1.666598482331250
Crow and Mamo,DH6 5EB,54.738492009729200,-1.523821132772840
Flameback and Elephant,DL16 9AQ,54.699314429452700,-1.602235000000000
Badger and Gull,SR7 0AN,54.840085650278600,-1.351178489326910
Dorcopsis and River dolphin,DL17 8HD,54.685137150520200,-1.554320029755580
Minke whale and Buzzard,DH7 6JX,54.818597732542800,-1.626368665334750
Bronzewing pigeon and Mink,DH7 6FJ,54.825072000000000,-1.624609000000000
Rabbit and Lemming,SR7 9HX,54.816688910155100,-1.377947000000000
Bronzewing pigeon and Perching duck,DH6 3HX,54.747626416534200,-1.448368912654310
Grosbeak and Myna,DH9 0TR,54.872339824379600,-1.683186179195700
Dolphin and Hawk,DH9 6TD,54.868497973789300,-1.693250491774160
Logrunners and Polecat,DH9 6QL,54.865108193820800,-1.685470584723300
Scimitar babbler and Francolin,DH6 2AD,54.784901004312800,-1.413435558462930
Pratincole and Siskin,DH6 1EE,54.774989357417300,-1.504287361554720
Thicketbird and Masked owl,DH1 2ND,54.761232797514900,-1.550967370073920
Moluccan boobook and Polecat,DH6 5LN,54.726302975052500,-1.548869074749980
Mole and Asiatic leopard,DH1 2PH,54.755857778765800,-1.541082387049530
Parrotbill and Wallaby,DH7 7AH,54.781492722071200,-1.626477295900550
Recurvebill and Egret,DL17 9NS,54.699538024651600,-1.513322437014140
Rabbit and Gull,DH4 7HY,54.877189497640400,-1.496831767911620
Treepie and Rat,DL17 9NT,54.697702445669700,-1.510520488143900
Tit-tyrant and Marmoset,DL17 8LS,54.689118559397700,-1.554400532766140
Wallaby and Stilt,SR8 1HB,54.751835372817000,-1.345908905766080
Pitohui and Vole,DH3 4QB,54.835507259504300,-1.549676000000000
Rabbit and Crow,DH7 9SZ,54.799146226959600,-1.668063508993800
Ice seal and Tit-tyrant,DH7 8XG,54.749892440996000,-1.625338696656690
Moluccan boobook and Jackal,DH7 6DX,54.836944999026100,-1.634201939383130
Viscacha and Treepie,TS28 5AJ,54.724791783226500,-1.379648520004200
Booted eagles and Logrunners,DH4 7LL,54.867997546526100,-1.499298961612090
Parrotbill and Macaw,SR7 8JA,54.832861175946300,-1.370100334435920
Mouse and Kite,DH6 3LW,54.739018735808700,-1.423572773928650
Kangaroo and Grouse,DH2 3LE,54.825490554218300,-1.590194591299360
Fulmarine petrel and Eagle,SR7 9BT,54.815688603010300,-1.384279235102310
Triller and Skunk,DH2 2RL,54.863185598315900,-1.608305406153840
Hawk and White ibis,DH1 2SZ,54.759316000000000,-1.552449000000000
Towhee and Crow,DH9 7PU,54.862062378793900,-1.703581369862060
Snipe and Recurvebill,DH9 6AG,54.856902070762600,-1.684880157060990
Philippine hawk-owl and Thicketbird,DH3 4AT,54.869271810208500,-1.576849247636430
Fox and Duck,SR8 2AE,54.761997692587000,-1.342279536118810
Jay and Armadillo,DH5 0EQ,54.813376089308100,-1.461166953109610
Duck and Eagle,DH5 8EQ,54.838747462675700,-1.455644354266970
Grouse and Guillemot,SR3 2QH,54.866024638573100,-1.426998338015550
Perching duck and Hawaiian honeycreeper,SR8 5DU,54.768820175534500,-1.335967145472040
Dorcopsis and B,DH7 8EP,54.737428774356200,-1.659124986325410
Asiatic leopard and Old World quail,DH6 4RP,54.740783128439300,-1.461384885659670
Recurvebill and Kangaroo,DH4 4RF,54.865130085873800,-1.496935121766790
Pitohui and Cuscus,DL16 7TP,54.695972588136800,-1.605479306151430
Kangaroo and Diving bird,DH2 1PL,54.873427360307600,-1.630381240286650
Old World vulture and Boto,SR8 2BA,54.764891972058500,-1.347376963033470
Puffleg and Fox,TS27 4SG,54.729431641907100,-1.331114062902370
Triller and Mockingbird,DL17 0DN,54.671889214693900,-1.530120431952870
Zebra and Songlark,TS26 0ZR,54.690141000000000,-1.256597000000000
Tit-tyrant and Viscacha,DH2 2SL,54.864888632724800,-1.621095695487870
Mockingbird and Francolin,TS26 0FL,54.679516000000000,-1.250308000000000
Mamo and Argus,DH4 5QE,54.840217279334800,-1.481440691831700
Booted eagles and Kestrel,SR7 7AU,54.838683389077300,-1.336144628409910
Maya and Rat,DH1 2UW,54.785598666212200,-1.525818274175290
Civet and Philippine hawk-owl,DH7 9SF,54.799771000000000,-1.666189957125210
Perching duck and Vulture,DL14 8PP,54.664717305231700,-1.637284805639830
Grosbeak and Diving bird,SR8 4AL,54.771981197939000,-1.329013622177820
Elephant and Kestrel,DL17 0LT,54.657493681936900,-1.574246218765110
Dorcopsis and Old World quail,DH7 8RQ,54.753644485745900,-1.615329141590360
Parakeet and Asiatic leopard,DH7 6UX,54.816005100500500,-1.619125492927440
Songlark and Tahr,DH7 6JA,54.819973600879400,-1.629608584900660
Goose and Mockingbird,DH1 1LE,54.780891846548100,-1.569826862593130
Macaw and Hawaiian honeycreeper,TS27 4AG,54.743810077251800,-1.280780780507040
Tit-tyrant and Bunting,DH6 4JF,54.724007206160200,-1.515172072641190
Booted eagles and Pratincole,DH3 4PG,54.861876839567100,-1.519097698680300
Stint and Puffleg,DH7 8HB,54.756012000000000,-1.608036401142920
Stint and Viscacha,DH1 3RR,54.766423827639300,-1.588071363399550
Masked owl and Cuscus,DH7 9DH,54.789002515037700,-1.718717733468750
Mockingbird and Petrel,TS29 6GB,54.706784000000000,-1.429213000000000
Fox and Polecat,DH6 1PT,54.779177000000000,-1.482408000000000
Old World quail and Fulmarine petrel,DH4 5PF,54.842508585107600,-1.492015519711670
Bunting and Coati,DH9 6JA,54.865713342846400,-1.693707861092360
Magpie and Stint,DL16 6SA,54.703498067350800,-1.609378965450340
Armadillo and Ibex,DL14 6HQ,54.653782408399200,-1.676052488690370
Kite and Argus,DH4 6DB,54.852338230138100,-1.513588436659490
Maya and White ibis,DH9 7PF,54.859834717370900,-1.700310727520240
Pitohui and Puffleg,DL16 7UL,54.694006469589400,-1.603326337290410
Hawk and Quetzal,DH4 7JA,54.877815393914100,-1.498242218917670
Quetzal and Partridge,TS29 6QB,54.698047603395200,-1.429134180912910
Ground sloth and Night heron,DH7 9LS,54.776848688918700,-1.713143193636720
Mamo and Lemming,SR8 2FA,54.771090000000000,-1.344836000000000
Chicken and Coati,DH6 1PE,54.772176148492800,-1.478455729011400
Booted eagles and Vole,TS27 4QS,54.736997820119300,-1.294506746464660
Shearwater and Shearwater,DL4 1BW,54.634743838620200,-1.654824888092710
Lemming and Tit-tyrant,TS27 4SR,54.736886257695500,-1.353511398269070
Tattler and Rabbit,SR8 1JS,54.750536763397400,-1.346737717238780
Linsang and Darwin's finches,DH1 4LW,54.785272000000000,-1.591363000000000
Parrotbill and Parakeet,DH5 8JS,54.834264147823800,-1.470089804964200
Mamo and Masked owl,DH7 7QP,54.774369833618600,-1.627599945675880
Tree warbler and Grouse,DL16 6LF,54.710411900935200,-1.593900444825820
Egret and Grouse,DH1 4NF,54.783526951879200,-1.588566270904720
Maya and Skunk,DH2 2FH,54.866463000000000,-1.615936000000000
Wader and Argus,DH6 4PH,54.719959258669400,-1.471208429739030
Dolphin and Minke whale,SR8 5QZ,54.757968849693000,-1.328639275196870
Mamo and Black cockatoo,DH1 1PP,54.781324776139300,-1.550418452392530
Scimitar babbler and Vulture,TS28 5PR,54.736708855764000,-1.374527675367620
Black cockatoo and Dolphin,DH6 3NJ,54.746286889792000,-1.413760465682430
Argus and Zebra,DL4 1NE,54.633075876918700,-1.643638812585610
Bronzewing pigeon and Pheasant,DL17 8DX,54.690465743976900,-1.544503882702540
Lemming and Thrasher,SR8 4AR,54.765533344108000,-1.320152473481200
Thicketbird and Darwin's finches,DH4 4EY,54.857809267676900,-1.474329927855980
Mouse and Nukupuʻu,DH1 4DB,54.775729410498600,-1.578898154589290
Fox and Rabbit,DH9 6NG,54.862872089336000,-1.696673847469590
Macaw and Grouse,DH6 4NS,54.722782451088900,-1.469463885022650
B and Mamo,DH3 4DS,54.860087000000000,-1.516437000000000
Bunting and Fox,DL14 9DG,54.638744438196000,-1.706570008874340
Old World warbler and Grackle,DH7 8SA,54.746884317088700,-1.626112110732390
Linsang and Masked owl,TS25 4BQ,54.664969081794700,-1.245383485134480
Tit-tyrant and Parakeet,DH9 8NH,54.868576931419600,-1.726329209574590
Peafowl and Logrunners,DH1 3EX,54.774475004172900,-1.574807217120830
Kite and Condor,DH7 7LP,54.776311981533800,-1.636847513419160
Tit-tyrant and Ice seal,DH5 8AN,54.844181605008400,-1.461083792504880
Thrasher and Mouse,DL15 0XF,54.693734389141100,-1.710471206848330
Grackle and Greenbul,DH1 3PN,54.776803802474800,-1.575171463738450
Jay and New World blackbird,SR7 0AU,54.842149883886200,-1.352359962994850
Kangaroo and Moluccan boobook,SR3 3AU,54.876123070654800,-1.418798000000000
Ice seal and Herring gull,SR8 2RL,54.761146000000000,-1.366101000000000
Night heron and Siskin,DH4 5JQ,54.851158313887400,-1.482625000000000
Tree warbler and Masked owl,DL16 7TL,54.695971746908100,-1.602469355752210
Darwin's finches and Capuchin,DH4 4QX,54.867797572191100,-1.494688000000000
Philippine hawk-owl and Badger,DH9 6EG,54.852041017726600,-1.668221567197280
Goose and Triller,DL14 6GA,54.652148762833200,-1.676778402836050
Ibex and Meadowlark,DL16 6NT,54.699435793149600,-1.595577184122610
Pitohui and Fulmarine petrel,DH4 7NP,54.875696416259900,-1.492190655998280
Thrasher and Partridge,SR8 3HW,54.784560662473800,-1.340140952331190
Minke whale and Cuscus,TS28 5BN,54.735077833010600,-1.380671755341580
Black cockatoo and Duck,SR8 1HT,54.752953646849600,-1.346636674664870
Gull and Bronzewing pigeon,TS21 3EH,54.659631633545300,-1.451080248100280
Duck and Treepie,DH1 5LX,54.799310045996400,-1.576288880752950
Kestrel and Piping shrike,DH2 2AY,54.857749543521600,-1.581565108558820
Tattler and Fox,DH9 0PU,54.873764823329200,-1.690031518024930
Nukupuʻu and Chicken,DL17 8NJ,54.686290877578600,-1.565165507591200
Booted eagles and Myna,SR3 2UJ,54.862331579875900,-1.412032332799020
Dolphin and Pitohui,DH1 1AT,54.790659153363600,-1.526085673242390
Asiatic leopard and Mockingbird,DH2 2RA,54.864509471363900,-1.609196216261600
Asiatic leopard and Argus,SR7 0ED,54.843396934679400,-1.357042733659360
Duck and Parakeet,DH7 8PR,54.755010977017800,-1.629952809285860
Mockingbird and Moluccan boobook,DH1 2SH,54.767122992040900,-1.523718358758330
Cuscus and Chickadee,TS25 3QR,54.656067132591700,-1.247485939694810
Cuscus and Dorcopsis,DH1 3BN,54.774281284263000,-1.565777472459930
Capuchin and Solitaire,DH1 1SE,54.792707044645600,-1.535113184470670
Pratincole and Tahr,DL17 8HE,54.685667516306000,-1.554360756671700
Tahr and Bunting,DH1 2TP,54.774875283228000,-1.543960831716670
Ground sloth and River dolphin,DH6 2QE,54.757852877917200,-1.384131515403760
Snipe and Stilt,DH3 4DE,54.872733521218600,-1.577405168211350
Asiatic leopard and Skunk,DL16 7UG,54.693984717514700,-1.610478729386040
Hawaiian honeycreeper and Wallaby,DH9 0TF,54.872696000000000,-1.683090000000000
Mockingbird and Myna,SR3 3RU,54.867589432895500,-1.436854645751870
Rabbit and Minke whale,DL15 0UG,54.726661293422500,-1.688654347100280
Capuchin and Old World quail,DH3 3JH,54.849860980391500,-1.574248924711510
Songlark and Mink,SR8 5ND,54.764934972910300,-1.328897022259330
Shearwater and Towhee,SR7 0HY,54.842340286775000,-1.369765908749830
Logrunners and Greenbul,DH6 2AX,54.773439901850200,-1.390905541783220
Grosbeak and Lemming,TS28 5EU,54.717596039819800,-1.366252731024920
Fish eagle and Armadillo,SR3 3RR,54.869784898230900,-1.439395097542970
Logrunners and Argus,SR3 3JA,54.873849344270700,-1.432201420667820
Old World warbler and Mole,DH2 3NL,54.828081000000000,-1.593157000000000
Booted eagles and Coati,DL14 6TA,54.646653625761800,-1.662038377904690
Bunting and Songlark,TS27 3HE,54.683362243374100,-1.309722194003670
Thrasher and Towhee,DL17 0QB,54.659715011813700,-1.552241939337750
Duck and Rat,DH1 4JZ,54.783105902184500,-1.596997879472270
Gull and Duck,DH4 5AQ,54.845467576928600,-1.473587078264380
Philippine hawk-owl and Diving bird,DH5 9DW,54.822637936293000,-1.446444792595080
Asiatic leopard and Tahr,DL16 6JS,54.705985979979100,-1.595248236448810
Recurvebill and Old World vulture,DH4 6HE,54.853668870480800,-1.518401000000000
Polecat and Magpie,SR8 2EN,54.767918219975700,-1.353669816496440
Moluccan boobook and Skunk,DH6 5JU,54.714845065473600,-1.571193366187580
Mouse and Kākāriki,DL17 8TL,54.684751370187200,-1.564390892539570
Dorcopsis and Viscacha,DH3 4PL,54.868425695672700,-1.527683088996940
Pheasant and Bunting,DL14 6JD,54.651872326153200,-1.677586511833400
Shearwater and Stint,DH1 1SW,54.778923086271300,-1.574915000000000
Francolin and Duck,SR8 1EX,54.751642000000000,-1.344918000000000
Linsang and Minke whale,SR8 2BP,54.768558352488600,-1.344007279711950
Perching duck and Grosbeak,SR8 3TY,54.785461459019500,-1.374491111932130
Argus and Hawk,SR8 5PD,54.761159779466700,-1.328757430565890
Philippine hawk-owl and Scimitar babbler,DH1 4HP,54.784284804112700,-1.597499283766750
Piping shrike and Old World vulture,DH7 9LJ,54.776386036753700,-1.711312041938790
Grosbeak and Tattler,DL14 8NU,54.660250187118800,-1.628147612257960
Nukupuʻu and Petrel,DH4 7LB,54.870471108713100,-1.502041965845130
Parrotlet and Fish eagle,DH7 8QW,54.755061977449700,-1.626067888807410
Old World quail and Capuchin,DH4 6HB,54.859141192946600,-1.518148823967630
Rabbit and Kangaroo,TS21 2EP,54.650191753167000,-1.489285757232180
Jerboa and Kangaroo,DH2 3BD,54.849700937958800,-1.585136975216190
Parrotbill and Wallaby,DH2 3BN,54.848387291977400,-1.587299614171940
Egret and Chickadee,DH3 3NQ,54.851011435382000,-1.571744863926740
Parrotbill and Gull,DH7 8YA,54.757596270906800,-1.611779930751220
Partridge and Snipe,DL14 6JB,54.651339106952900,-1.676459360254120
Ground sloth and Black jay,DL17 9AU,54.678874911648400,-1.486537635928050
Fish eagle and Ice seal,DH6 5HA,54.732569978846500,-1.587684747597460
Tit-tyrant and Recurvebill,DL17 9ES,54.700207547376400,-1.521228059513070
Myna and Jackal,SR2 0RJ,54.868096332022600,-1.366419494069790
Masked owl and Black jay,DH4 7NX,54.875531553633800,-1.496183000000000
Vulture and Shearwater,DL17 0EY,54.659234706857400,-1.560974438451950
Philippine hawk-owl and Treepie,SR8 1LF,54.749689006462600,-1.344514175252480
Petrel and Coati,DH4 5QW,54.839131566861600,-1.479726311302180
Marsh harrier and Stint,DL17 0DH,54.672650708496400,-1.529506895423520
Rat and Bunting,TS22 5SF,54.642705000000000,-1.351363000000000
Old World vulture and Recurvebill,DH2 2FB,54.865258778428800,-1.617680359034750
Bronzewing pigeon and Marsh harrier,DL4 2ES,54.635544892963000,-1.639806155247630
Treepie and Philippine hawk-owl,DL14 9SX,54.641268498537100,-1.691599789784040
Warbler and Kangaroo,DL16 7DS,54.690542476861900,-1.613179940150630
Towhee and Darwin's finches,DH1 1JQ,54.780382000000000,-1.543059000000000
Mouse and Zebra,DH2 2ES,54.852948000000000,-1.580587000000000
Bronzewing pigeon and Linsang,DL14 8RL,54.649341716937000,-1.640536618432180
Solitaire and Chickadee,DH6 5NQ,54.744732128050200,-1.522396518862660
Thicketbird and Warbler,DH9 7JH,54.860143846226000,-1.724625928935190
Petrel and Goose,DL17 0AN,54.682184608030900,-1.538594163904040
Civet and Old World warbler,DH2 2EH,54.851399904371200,-1.585290876332620
Perching duck and Mockingbird,DL14 6QA,54.648690471815800,-1.680541000000000
Zebra and Macaw,SR8 3AR,54.783577820315300,-1.357960526776780
Greenbul and Kestrel,DH6 5HD,54.732864335645000,-1.584405067082850
Jackal and Shearwater,SR8 2HA,54.765481988888500,-1.351828038144980
Towhee and Viscacha,TS29 6DZ,54.713152066876100,-1.422961689688710
Asiatic leopard and Jay,SR7 8JH,54.833457954426000,-1.370807180181130
Myna and Hawaiian honeycreeper,SR7 0BB,54.840289620328800,-1.354040240252020
Piping shrike and Kite,DL16 7AR,54.687607250708600,-1.622825306049790
Chicken and Polecat,DH5 8AP,54.844547824048800,-1.464644972442390
Capuchin and Dolphin,DH4 4JU,54.867577006288500,-1.488942703017170
Fulmarine petrel and Goose,DL5 4YG,54.634314640461400,-1.561041357358700
Perching duck and Parrotlet,DH4 4JT,54.867240707948300,-1.490177855541700
Myna and Eagle,TS22 5QT,54.637599458153700,-1.356791094064200
Greenbul and Greenbul,DH9 8BD,54.875973373073800,-1.703604060606540
Wader and Tit-tyrant,DH4 6RJ,54.812521782273400,-1.505384185701710
Civet and Jerboa,DH5 8GZ,54.840704518459700,-1.464586995872750
Towhee and Warbler,SR7 7XL,54.826408652959600,-1.334680428239820
Linsang and Crow,DH9 7DN,54.864754900783600,-1.702190603511850
Asiatic leopard and Booted eagles,DH4 6NH,54.857162000000000,-1.493218000000000
Prion and Peafowl,DL14 8TE,54.643856746131500,-1.648689057364950
Quetzal and Armadillo,DH7 7HN,54.775115857278000,-1.667918114506170
Boto and Jackal,DL15 0TW,54.725361042407200,-1.711612355794660
Armadillo and Macaw,SR3 2AN,54.870935090472200,-1.407185678874250
Wader and Black cockatoo,SR8 4EB,54.763567644318200,-1.311016017012190
Goose and Jerboa,DL14 6BQ,54.650646593821600,-1.679641933968780
Siskin and Condor,DH5 0PW,54.806182000000000,-1.436246000000000
Maya and Moluccan boobook,DH9 0DQ,54.872251023873100,-1.691959811009370
Old World vulture and Grosbeak,DL4 2QU,54.641083000000000,-1.619522000000000
Jackal and Tahr,DH1 5XY,54.805250259760700,-1.589403638160680
Rat and B,DH4 5DG,54.842495539117400,-1.480306000000000
Kākāriki and B,DH5 8HJ,54.836951192533700,-1.460029000000000
Petrel and Parakeet,DH7 6DN,54.835289047791100,-1.633391765472960
Tit-tyrant and Rabbit,TS25 4AJ,54.667798265425200,-1.246555937033680
Guillemot and Black cockatoo,DH6 1JT,54.773270559457800,-1.499334000197620
Old World vulture and Tattler,TS27 4LF,54.747550071323400,-1.290191025231410
Tree warbler and Parrotlet,DH4 5HN,54.846638081655200,-1.482479659916050
Goose and Skunk,TS29 6QG,54.700201313852400,-1.432409000000000
Kite and Herring gull,TS27 4HS,54.744907000000000,-1.283744000000000
Black jay and Lemming,SR7 0EH,54.845416519306800,-1.356590172337100
Fish eagle and Chicken,DH4 7RS,54.874417929914700,-1.491614535516190
Piping shrike and Kite,DH9 7BG,54.860498619061300,-1.707238148261020
Pheasant and Tit-tyrant,DH1 1PQ,54.781913325223800,-1.546773657737580
Marmoset and Tree warbler,DH2 3HT,54.847084261750000,-1.595317521860780
Chicken and Mole,DH3 3BJ,54.856052478625500,-1.574199333024630
Thrasher and Mockingbird,TS29 6HP,54.712287271040000,-1.424417473775830
Fulmarine petrel and Parrotbill,DL16 6XL,54.708825000000000,-1.611343027123530
Mamo and New World blackbird,TS25 3ND,54.659172880587500,-1.246886009535410
Duck and Asiatic leopard,DH1 2ES,54.775844208052000,-1.545924261266030
Thrasher and Polecat,DH9 0DB,54.871444117362300,-1.692698336471850
Macaw and Francolin,DL16 7UT,54.694680000000000,-1.589341000000000
Peafowl and New World blackbird,DH1 9DG,54.792707044645600,-1.535113184470670
Wader and New World blackbird,DL16 6HW,54.700538949440800,-1.581678500596700
Stint and Kestrel,SR7 7WQ,54.842599775018000,-1.337466247626170
Diving bird and Wader,DL16 6FA,54.706982000000000,-1.573320000000000
Meadowlark and Treepie,TS28 5EH,54.718493094542700,-1.369390124507870
Old World quail and Stilt,SR8 3RA,54.786696437558200,-1.320046440854620
Quetzal and Cuscus,DH2 3AN,54.848450639976500,-1.584791599913310
Vulture and Darwin's finches,DH1 2QH,54.779583195818300,-1.553345095402010
Herring gull and Fulmarine petrel,DL14 0HR,54.642464596701400,-1.720085908559530
Jerboa and Parrotlet,DH7 8AB,54.749837401568500,-1.630838885517420
Old World quail and Siskin,DH7 6EB,54.842170765411100,-1.644852168475740
Skunk and Night heron,TS21 2JE,54.659811201385600,-1.453031027651260
Fox and Argus,DL16 6NG,54.700954491035600,-1.595562087249440
Kākāriki and Partridge,TS28 5HE,54.717536280735700,-1.358305538743840
Prion and Fulmarine petrel,DH7 6EZ,54.833942000000000,-1.639304000000000
Marsh harrier and Chipmunk,DH1 4QP,54.774278482177500,-1.580312283721340
Crow and Tit-tyrant,DH9 0UF,54.873584292678600,-1.679327143688540
Kestrel and Partridge,DH5 0NR,54.804432206757600,-1.429207583600920
Pheasant and Thrasher,DH4 6LR,54.841200034873000,-1.495006005736510
Prion and American sparrow,TS27 3AQ,54.706797059674300,-1.270851203028720
Rat and Black jay,DH4 4ZL,54.863506000000000,-1.488820000000000
Cuscus and Dorcopsis,DH2 1NE,54.869959204852700,-1.621811693910640
Badger and Pratincole,DL14 6TZ,54.656036723959000,-1.685381000000000
Greenbul and Herring gull,DL15 0DQ,54.710471101856700,-1.690097543474600
Tree warbler and Dolphin,SR8 2DF,54.769701063392100,-1.345931759731510
Grouse and Mink,DH1 3PG,54.775986326103600,-1.575257753619520
Ground sloth and Wader,DH2 2LD,54.862481113323100,-1.590863623567550
Pitohui and Viscacha,DH6 1HD,54.774844891284700,-1.506325585699400
Snipe and Ibex,DH5 8LA,54.833562000000000,-1.465600000000000
Logrunners and Grosbeak,DL5 4YD,54.634023310647100,-1.560006550043700
Meadowlark and Guillemot,DH7 8XX,54.756773495673700,-1.615858881696930
Warbler and Greenbul,SR7 9QA,54.818832174148600,-1.389273682743160
Duck and Tattler,TS21 2JH,54.650245026390700,-1.454089306346200
Rabbit and Badger,DH7 6EN,54.846404283058600,-1.654516925097420
Mouse and Hawk,SR3 1HP,54.873731000000000,-1.403699000000000
Meadowlark and Fulmarine petrel,DH4 4JN,54.866580892880600,-1.485013359048550
Hawk and Gull,DL5 4UG,54.633188540991700,-1.567776731204910
Guillemot and Eagle,TS21 2AT,54.649469000000000,-1.448936000000000
B and Elephant,DL14 6NE,54.652288662743700,-1.689036655861840
Pratincole and Duck,DH6 4HQ,54.718699121373300,-1.507007664844560
Coati and Elephant,DH2 3TJ,54.844000530019500,-1.592218389052130
Kestrel and Ice seal,DH3 3AD,54.855327000000000,-1.574718000000000
Tit-tyrant and Piping shrike,SR8 2LX,54.756419000000000,-1.362648000000000
Stint and Black jay,DH6 3RQ,54.743120083035600,-1.420516614319590
Old World quail and Snipe,DL15 0RL,54.706715601742800,-1.712365305846140
Mamo and Guillemot,SR7 0JY,54.842969828688400,-1.371593572731210
Zebra and Badger,DH1 9SZ,54.786060000000000,-1.585182000000000
Jerboa and Civet,SR8 1HE,54.751674714435000,-1.346113472152920
Masked owl and Polecat,DL16 6RE,54.702755603983400,-1.602139264169900
Argus and Petrel,SR7 8SG,54.803270215264400,-1.350010267832870
Condor and Bunting,DL14 6NP,54.653694663588200,-1.683663243271600
Scimitar babbler and Songlark,DL14 8EP,54.652000837946300,-1.648200603621600
Triller and White ibis,TS22 5RX,54.637990336073000,-1.359325838930720
Maya and Mamo,SR7 9QP,54.819142543439600,-1.390233882926190
Old World vulture and Boto,DL14 8PJ,54.664085837760300,-1.636484267438030
Grouse and Wallaby,SR7 9DJ,54.811023595462000,-1.375294525825310
Black cockatoo and Coati,SR3 2NH,54.859037372578400,-1.409120426233790
American sparrow and Tit-tyrant,DH6 2HJ,54.759629599861300,-1.391345919045990
Capuchin and Crow,DH1 5EF,54.796227332989700,-1.591936950941780
Pheasant and Grouse,DH3 3BE,54.857964338292700,-1.573556109978150
Puffleg and Armadillo,SR8 4DA,54.766398616375500,-1.314216311138190
Mouse and Herring gull,DH4 4DX,54.851155090929900,-1.477531373190670
Grosbeak and Bronzewing pigeon,SR7 8PA,54.834946707214700,-1.356507535534520
Guillemot and Kestrel,TS28 5NS,54.693336000000000,-1.366941000000000
Chickadee and Magpie,DL16 7AL,54.686908231844900,-1.620567062764260
Chickadee and Marsh harrier,DH1 4HH,54.786912086060600,-1.598468411289750
Triller and Night heron,DL16 7BN,54.685378616650700,-1.622845955054260
Elephant and Parakeet,DH9 7RR,54.869084534468100,-1.705134805342960
Egret and Thrasher,DH6 5NX,54.710103525885500,-1.530595000000000
Duck and Old World warbler,DH7 8JH,54.756197731384300,-1.612834367350530
Argus and Quetzal,DH7 9NL,54.767022272264300,-1.703933844600420
Triller and Viscacha,SR3 3LX,54.875321102005900,-1.435624848964050
Diving bird and Condor,DL16 6TW,54.710744983094200,-1.580859562715010
Vole and Greenbul,DL16 6XT,54.708686904143900,-1.610477620671300
Rabbit and Chicken,DH2 2TF,54.853727000000000,-1.592927000000000
Lemming and Fulmarine petrel,DH9 6PX,54.866165508907800,-1.698440902177370
Siskin and Zebra,DH7 7QT,54.770671538328400,-1.623126181742940
Dorcopsis and Piping shrike,TS22 5PS,54.646891631666000,-1.263601655246330
Old World vulture and Jay,SR8 1DZ,54.754359006326100,-1.343941555594050
Chipmunk and Badger,DL16 7DE,54.690248665562600,-1.608435735313410
Viscacha and Prion,DL14 0RA,54.646014829876000,-1.695685873119390
Black cockatoo and Lemming,DL17 8NN,54.686444479824300,-1.565396541273580
Herring gull and Mink,DH9 7LB,54.862685555240600,-1.720059522304940
B and Marsh harrier,SR7 0PZ,54.851779000000000,-1.370318000000000
Vulture and Shearwater,DL16 7QG,54.700717972039800,-1.652636146643550
Ice seal and Thrasher,DH1 5EQ,54.795625046159900,-1.591880799773030
Magpie and Piping shrike,DL16 6XZ,54.710921419002400,-1.609493920124210
Parakeet and Scimitar babbler,DH4 4XL,54.860235906026800,-1.482898000000000
Petrel and Macaw,SR3 1DJ,54.874123000000000,-1.415696495428280
Condor and Maya,DH6 2UU,54.803925574347300,-1.415275901228140
Kestrel and Cloud rat,DH9 7QQ,54.861053888223700,-1.706455204523370
Chickadee and Badger,DH7 9YQ,54.798789234614900,-1.672281719535500
Marsh harrier and Wader,DH7 6RN,54.809366566845900,-1.631588141106430
Marmoset and Grosbeak,DH4 4LX,54.870426101942400,-1.468088776002490
Pheasant and Coati,DH1 1DB,54.783420013588000,-1.541174820019370
Polecat and Mouse,DH1 4NS,54.768257690640500,-1.596274942705390
Solitaire and Civet,DL16 6JU,54.706613668130600,-1.592153646003260
Towhee and Solitaire,DH1 4HL,54.786504461191000,-1.597492803929280
Tahr and Parakeet,DL15 0EB,54.709112414420600,-1.696533264121870
Jackal and Boto,DH3 3RF,54.858494082117600,-1.573425903656430
Armadillo and Stilt,DH6 4LE,54.719603385201800,-1.506173908155410
Cloud rat and Skunk,TS21 2AR,54.652993915918800,-1.445931010477890
Fulmarine petrel and Ibex,DH6 1NX,54.778207872330600,-1.511259623482210
Scimitar babbler and Wallaby,SR7 0LT,54.843280000000000,-1.386475000000000
Armadillo and Old World warbler,DH6 3LS,54.738001019375700,-1.423105741769110
Egret and Tit-tyrant,DH4 4SU,54.858842070990900,-1.478351152755500
Boto and Partridge,DH7 8BA,54.745894832743100,-1.637647677804620
Mole and Greenbul,DL15 0DG,54.708479825035100,-1.681142165289220
Egret and Civet,DH4 7SD,54.877157288908900,-1.513196251405510
Parakeet and Pitohui,DH1 5UL,54.786058632343700,-1.585181845243210
Maya and Kite,DH1 4NW,54.787160704418800,-1.594858315749640
Wallaby and Condor,TS24 9RW,54.715595455061900,-1.247362240756090
Parrotlet and Skunk,SR7 9BY,54.814593365074200,-1.380965862405660
Triller and Petrel,SR8 1JN,54.750802827056100,-1.346080906288290
Petrel and Armadillo,DH9 7RD,54.865443563870400,-1.707872000000000
Skunk and Fulmarine petrel,DL14 6AH,54.653851000000000,-1.677957137944630
Pheasant and Black cockatoo,SR2 0DE,54.876555445406600,-1.363512783571410
B and Zebra,DL16 7NH,54.686389005725400,-1.644971614626270
Grosbeak and Badger,DH5 8JW,54.833985697165000,-1.463975133798720
Hawk and Asiatic leopard,DH7 8YB,54.757957808800400,-1.612429109105970
Duck and Mouse,SR3 3JP,54.876510136658900,-1.430449723262380
Rat and Chipmunk,SR8 1DN,54.755281195500300,-1.343305124833650
Vole and Nukupuʻu,SR7 0HL,54.839192329428100,-1.367526100455440
New World blackbird and Moluccan boobook,DL17 0QY,54.663136695321000,-1.554064663770230
Treepie and Duck,DH5 0AF,54.814590000000000,-1.447099000000000
Francolin and Rat,DL17 9NL,54.698801604365800,-1.515689738434980
Duck and Stilt,DH1 4RN,54.779374933930000,-1.585856536416880
Duck and Wallaby,DH1 2JX,54.778474456089700,-1.552424493436860
Mouse and Goose,DH4 5JN,54.851292508739700,-1.486578607537330
Fish eagle and Quetzal,DL16 6UB,54.707044000000000,-1.610666142658700
Chickadee and Triller,DH2 3PN,54.824184941506100,-1.605709913888060
Solitaire and Warbler,TS21 3BL,54.654714950281400,-1.444792000000000
Mockingbird and Fish eagle,DH7 7PA,54.779541906716000,-1.647266316362450
Philippine hawk-owl and Meadowlark,DH4 4PU,54.859967839899400,-1.504710560315210
Macaw and Pheasant,DH1 2UD,54.753683903681900,-1.536585589427880
Stint and Eagle,SR7 0EW,54.845643113980600,-1.362068202571410
Chickadee and Asiatic leopard,DH6 1QN,54.772306126622200,-1.476978000000000
Towhee and Myna,DH9 7RN,54.867474598669700,-1.704570047272410
Cloud rat and Minke whale,DH4 4RU,54.865483756323800,-1.493378402279740
Rat and Recurvebill,DL16 6BH,54.698857445548400,-1.602767005006200
Goose and Chickadee,SR3 1BG,54.877155000000000,-1.407188000000000
Mamo and Kestrel,SR3 3SD,54.869548237006700,-1.440691682487060
River dolphin and Old World vulture,SR8 5PN,54.758863482889700,-1.327909657735710
Elephant and Herring gull,DH9 6ED,54.853165854330600,-1.665393000000000
Chickadee and Tit-tyrant,DL17 0QH,54.660007664037300,-1.553618363453460
Bronzewing pigeon and Egret,DL16 7WB,54.697472000000000,-1.585946000000000
Jerboa and Parrotlet,DH6 1EB,54.775549445775400,-1.502803670207880
Tahr and Buzzard,DH5 8BT,54.839013090385900,-1.464142269247920
Herring gull and Tahr,DH5 8LD,54.835501239848300,-1.463145000000000
Stilt and Chipmunk,SR8 3DH,54.787625064006600,-1.341786085118670
Ground sloth and Warbler,SR7 9SJ,54.818130009710300,-1.407165238672550
Petrel and Meadowlark,DL16 7LZ,54.690821505200500,-1.617893514210030
Tit-tyrant and Dorcopsis,TS28 5JB,54.736067643128900,-1.380920686685680
Treepie and Piping shrike,DL17 9LL,54.702624611653700,-1.523418662296420
Stint and Thicketbird,DH7 7QF,54.776339475084000,-1.646159302384330
Diving bird and Marmoset,DL15 0LF,54.692063881142500,-1.707147642158260
Puffleg and Jerboa,DH7 6LT,54.814277907020300,-1.621429130665000
Siskin and Prion,DH1 9PN,54.792726000000000,-1.535031000000000
Chickadee and Jerboa,DH9 8RG,54.876255673156800,-1.694080000000000
Flameback and Viscacha,DL17 9AH,54.676194080618000,-1.490138236939030
Grouse and Solitaire,DH1 5HT,54.794780228491900,-1.581297658931690
Gull and Jackal,SR8 4BH,54.768714169155000,-1.320068084463240
Night heron and Civet,DH1 1EZ,54.782404779651000,-1.555739564945450
Marmoset and American sparrow,DH7 8NR,54.751761605482400,-1.634161753234820
Shearwater and Grouse,DH5 8NX,54.835651727167100,-1.470927925931160
Coati and Prion,DH9 0PP,54.872799634820500,-1.688605277776910
Fish eagle and Philippine hawk-owl,SR8 3JT,54.789224857110500,-1.338509918965320
Piping shrike and Rabbit,SR7 9RX,54.817585904605600,-1.404325360766740
Ice seal and Ice seal,SR7 8ER,54.831762385029800,-1.366178864023100
Kangaroo and Towhee,DH9 7BY,54.857825401367100,-1.726386000000000
Songlark and Kestrel,SR7 9TE,54.819642118998100,-1.402147451615280
Fish eagle and Grackle,DH7 7EW,54.769587519886700,-1.651316401122440
Cuscus and Hawaiian honeycreeper,DH6 2ER,54.773030405248100,-1.424861697763280
Partridge and Tit-tyrant,TS22 5PA,54.646766111108200,-1.320570058519830
Polecat and Old World quail,DH4 6UB,54.856493736134600,-1.524427000000000
Crow and Chickadee,DL17 0QS,54.662593744410700,-1.553047438033370
Peafowl and Mink,TS26 0AW,54.681314990663100,-1.252432170288170
Towhee and Perching duck,DL16 6DU,54.703779313721600,-1.596465096955550
Zebra and Tattler,DH2 1PQ,54.873010247703800,-1.629153984764850
Piping shrike and Hawaiian honeycreeper,TS29 6FG,54.720493000000000,-1.407470000000000
Capuchin and Goose,SR8 1PH,54.749060083593300,-1.331365539793150
Nukupuʻu and Stilt,SR7 8JQ,54.833762220022200,-1.372297000891960
Siskin and Jay,SR8 4AJ,54.771903376907600,-1.327942337397330
Old World warbler and Tit-tyrant,SR3 2AL,54.872156000000000,-1.402992000000000
Peafowl and Jackal,NE38 9HW,54.876957203468500,-1.549885146274860
Vulture and River dolphin,DL16 7JD,54.673716307079600,-1.595708584121270
Polecat and Old World warbler,DL17 8EW,54.683188971415300,-1.547392000000000
Myna and Piping shrike,DL14 9HG,54.633310603162300,-1.719281002104700
Linsang and Quetzal,DH5 0AX,54.815949150761000,-1.449788528773900
Thicketbird and Tree warbler,DH7 8TH,54.750434385333400,-1.641118321518460
Masked owl and Macaw,DH6 1PJ,54.774870706564900,-1.473959521639780
Hawk and Moluccan boobook,DH1 3JP,54.773283000000000,-1.565244000000000
Parakeet and Chicken,DL4 2DN,54.634129249335900,-1.641243891198280
Old World quail and Piping shrike,DL5 4ZD,54.637167000000000,-1.582112000000000
Meadowlark and Coati,DL15 0EL,54.712461102027200,-1.691650052770530
Fish eagle and Chipmunk,DH4 7TU,54.865573045179300,-1.506340156472430
Viscacha and Towhee,DH1 5UF,54.786058632343700,-1.585181845243210
Goose and Perching duck,TS28 5NL,54.702950524926300,-1.348154076729180
Bunting and Wallaby,DH2 1QF,54.873514308863500,-1.635367116277380
Capuchin and American sparrow,TS21 4AF,54.684075861621000,-1.445197753566990
Perching duck and Quetzal,DL17 8JJ,54.689783090300400,-1.556828000000000
Fish eagle and Mouse,TS22 5PJ,54.643547965920000,-1.270944991178080
Polecat and Black jay,DH4 7DB,54.867900502242800,-1.488938613434890
Rabbit and Old World warbler,DL14 6TD,54.646112661386900,-1.661407516918450
Mole and Flameback,DH7 8UH,54.751511586190700,-1.617618000000000
Ice seal and Minke whale,DH5 0NG,54.809156136435400,-1.440141039837280
Mole and Mole,DH9 0XD,54.872347765654700,-1.687611454374310
Marsh harrier and Coati,TS22 5SJ,54.636454848371500,-1.354485234603810
Maya and River dolphin,DL15 0QP,54.709626771316100,-1.690259180051830
Lemming and Partridge,TS25 2LE,54.653102019399700,-1.244688848135740
Skunk and River dolphin,DH5 9BY,54.833109000000000,-1.458535000000000
Eagle and Perching duck,DL14 7EP,54.664705488605300,-1.674508000000000
Herring gull and Black jay,DH1 5RG,54.802023000000000,-1.621901000000000
Warbler and Herring gull,DH7 9AT,54.761503000000000,-1.718131000000000
Thicketbird and Tit-tyrant,DH7 7RH,54.780949000000000,-1.645665949000000
Civet and Elephant,DL16 7FW,54.686334000000000,-1.620490000000000
Myna and Ground sloth,DH7 6ND,54.816385905743400,-1.628925565196630
Goose and Vulture,DH2 3HY,54.847293796089900,-1.593477781088930
Dolphin and Nukupuʻu,SR2 0AH,54.877029232088100,-1.361323431793400
Eagle and Black cockatoo,DH9 6RE,54.870845417066500,-1.673318517765680
Dorcopsis and Elephant,DH6 2ES,54.773077985683400,-1.425420638760230
Hawaiian honeycreeper and Hawk,DH6 3EU,54.749835233994100,-1.440104846754660
Fulmarine petrel and Magpie,SR7 8HD,54.830862778926000,-1.364278194057610
Old World quail and Grouse,SR8 2NX,54.757091307170000,-1.350687858400380
Herring gull and Armadillo,SR7 0ER,54.845417791376600,-1.360234172883190
Thrasher and Badger,DH5 8HU,54.836246197096700,-1.458994218534110
Condor and Mouse,DH7 9PJ,54.770256934723100,-1.700070979967830
Peafowl and Bronzewing pigeon,SR7 7RZ,54.837759650672200,-1.339897000000000
Polecat and Old World quail,SR3 2AA,54.871294586966100,-1.410889079607750
Masked owl and Masked owl,DH1 2EF,54.773159734163700,-1.544197742875800
Wallaby and Prion,DL15 0LT,54.705447000000000,-1.707624555853850
Zebra and Rabbit,DH5 8BA,54.846113308138800,-1.465060298724490
Puffleg and Myna,SR8 3BD,54.783428119636400,-1.356843375480160
Jackal and Maya,DL5 4UJ,54.633333250400800,-1.570563653016180
Triller and Scimitar babbler,DH9 6UN,54.870081973413000,-1.676830635712120
Piping shrike and Herring gull,DH9 6JJ,54.863868472406200,-1.696230146643600
Snipe and Jay,DH5 0AD,54.815077028805000,-1.447715204761920
Condor and Booted eagles,DH1 5LL,54.794249611039400,-1.573433382053830
Viscacha and Minke whale,DH3 3RJ,54.858222895044500,-1.570422308424720
Tahr and Linsang,DH6 3QR,54.747995926309500,-1.401198815598210
Jerboa and American sparrow,DL15 0BJ,54.709230187984100,-1.676045635262610
Ground sloth and B,DH1 5YQ,54.795234885278700,-1.567435008864560
American sparrow and Towhee,DH5 0QH,54.807173237735300,-1.436932387110820
Flameback and Elephant,DL14 8AJ,54.674318677251400,-1.635478025957890
Prion and Skunk,DH7 6HY,54.820946752932500,-1.624603929454910
Cloud rat and Parrotbill,DH2 3LG,54.822439449642400,-1.588809168277100
Kangaroo and Towhee,DH2 3JQ,54.845851341030300,-1.594784807429940
Rabbit and Jackal,DL16 6UY,54.709322250380400,-1.595913450578800
Marsh harrier and American sparrow,DH4 5DN,54.843078574431900,-1.484393793724490
Puffleg and Ibex,SR3 2AR,54.872278738676600,-1.402631304398420
Kestrel and Eagle,DH3 4NT,54.856756000000000,-1.559627000000000
Greenbul and Tree warbler,DL16 7JF,54.674365292402200,-1.596291407836680
Minke whale and Coati,TS21 2DR,54.647851833718800,-1.449518744962050
Quetzal and Hawk,TS29 6ET,54.712145919926400,-1.428734468364670
Old World quail and Booted eagles,DH4 5QN,54.838648120837200,-1.480152917015670
Coati and Perching duck,TS21 2AA,54.652345950011000,-1.449675017921340
Moluccan boobook and Skunk,TS29 6DN,54.718178469488800,-1.412318581524220
Black jay and Minke whale,DH2 2HD,54.863781338089300,-1.579508502701620
Grosbeak and Jay,DH1 1TX,54.777899505176500,-1.572423785891340
Parrotlet and Magpie,DL14 9EU,54.635268398828800,-1.714867781474550
Crow and Grosbeak,DH6 2XH,54.801601475430500,-1.417860593645950
Old World quail and Jerboa,DH4 7RA,54.871835000000000,-1.494732000000000
Lemming and Argus,SR3 2EG,54.871057694858000,-1.397398022234900
Triller and Petrel,SR7 7RU,54.828783674180700,-1.345070850409620
Night heron and Lemming,DH6 1LD,54.767290205778100,-1.470793851139890
Buzzard and Argus,DL16 6HQ,54.700936755532900,-1.582372682270290
Mouse and Fish eagle,TS29 6AX,54.718002996512700,-1.400336732915300
Siskin and Francolin,DH5 9NE,54.821529000000000,-1.455500513836040
Gull and Capuchin,DH2 2AD,54.859469055374900,-1.582466418183880
Warbler and Ground sloth,DH9 7BQ,54.860099135082100,-1.709281774909880
Tattler and Mouse,DL16 7DL,54.690083369009600,-1.615759461101570
Chicken and Prion,DH2 2TP,54.857712754164300,-1.594572519675060
Towhee and Chipmunk,DH4 6RW,54.812550435021100,-1.508013469089140
Petrel and Jerboa,DL15 9AU,54.758170556204300,-1.696663990177220
Myna and River dolphin,SR8 3SB,54.787124303756200,-1.322636176206880
Lemming and Lemming,DH4 4QW,54.867344054593300,-1.493401832830880
Hawaiian honeycreeper and Partridge,SR3 2ST,54.868157463142400,-1.423836236458480
Goose and Quetzal,SR3 2QB,54.863818720140300,-1.398238177184870
Chicken and Capuchin,SR8 4QJ,54.763725441315700,-1.319871936648610
Kestrel and Mouse,DH9 6HN,54.866539226009900,-1.689822030658790
Marmoset and Meadowlark,DH3 3EP,54.857413384346600,-1.577907950796540
Flameback and Chipmunk,DH6 2XD,54.761216453960800,-1.383474234576120
Bronzewing pigeon and Stilt,DH1 4SJ,54.776295112832200,-1.578767914688570
Partridge and Kangaroo,DH2 3HB,54.846003314465300,-1.586545290574360
Macaw and Pitohui,DH4 7JB,54.877622502122800,-1.497231587226830
Stint and Herring gull,DL15 0ST,54.720695162104100,-1.685548528602420
Viscacha and Old World quail,DH4 4UB,54.856567836464700,-1.480296448916460
Thrasher and Myna,SR8 2AQ,54.763355997744300,-1.345847543866550
Parakeet and River dolphin,DH9 7NT,54.865906645148300,-1.699143949320440
Tree warbler and American sparrow,SR7 0HT,54.843049284569800,-1.367855103063950
Masked owl and New World blackbird,TS27 4NP,54.753952930867200,-1.298655862765700
Old World vulture and Skunk,DL17 8SA,54.698772000000000,-1.547312000000000
American sparrow and Grosbeak,DL14 8LE,54.661580054007400,-1.625174569067230
Chipmunk and Ibex,DH9 7QG,54.860872845485700,-1.705911273097170
Coati and Chickadee,DH5 9HX,54.821046828833800,-1.450295108589320
Vulture and Guillemot,TS21 3BA,54.655253854008700,-1.446861269681520
Macaw and Wader,DH6 5AJ,54.737274316006900,-1.527267775487550
Coati and Shearwater,DH1 3ER,54.773430474618900,-1.573715000000000
Stilt and Elephant,DH4 6AY,54.847412996909400,-1.513429625930300
Logrunners and Perching duck,DL14 8SW,54.645176359596400,-1.654442151408840
Grosbeak and Wallaby,DH1 3TF,54.755355056428800,-1.588867343574870
Parrotlet and Vulture,TS29 6AN,54.719454442102600,-1.410437209310610
Parrotlet and Wader,DH3 3QL,54.858585310166000,-1.571259651044290
Ice seal and Armadillo,DH4 6TZ,54.838694717839900,-1.493308995287820
Triller and Wader,SR7 9DF,54.810692120294000,-1.377244558003060
Diving bird and Guillemot,DH7 9RH,54.788406186188700,-1.661138101986310
Stilt and Solitaire,DH9 0UE,54.874692345435800,-1.680362467800120
Hawk and Meadowlark,DL14 8PE,54.659249781239600,-1.612872514009680
Kākāriki and Peafowl,DL17 0RA,54.663817777647700,-1.553700000000000
B and Zebra,DL16 6LX,54.708115897540300,-1.597974061427020
Rabbit and Tit-tyrant,DH4 7DH,54.869709571352800,-1.487466617750390
Scimitar babbler and Kite,DL14 6XX,54.650004622196800,-1.674796200035120
Thrasher and Grackle,DH5 9RQ,54.812531600667400,-1.486105273642810
Piping shrike and Armadillo,DH7 8XB,54.746872094681000,-1.646012151710700
Armadillo and Rabbit,SR8 3SJ,54.785783850214300,-1.322378674130470
Moluccan boobook and Kangaroo,DH2 3AY,54.850078328199100,-1.582501041355560
White ibis and Condor,SR3 3BX,54.877011266946500,-1.422385292046930
Grosbeak and Badger,DH4 4QY,54.867523125137100,-1.493243777508620
Capuchin and Fox,SR8 1EY,54.751926253260000,-1.344431440624200
Wader and Greenbul,DH4 6EW,54.853840708468400,-1.514022068117850
Mole and Siskin,DH2 2HH,54.866365036132700,-1.580837147535760
New World blackbird and Bunting,DH3 4EY,54.848823000000000,-1.545420473430590
Guillemot and River dolphin,DH5 0BJ,54.815556916846300,-1.458492544885890
Petrel and Hawk,DH1 1ES,54.781225991917600,-1.555317135490830
Rat and Treepie,DL16 9DA,54.699317876954800,-1.602235000000000
Black cockatoo and Dolphin,DH7 7SY,54.770057038738200,-1.622028295061730
Crow and Bunting,DL16 6XF,54.704257000000000,-1.590977000000000
Piping shrike and Nukupuʻu,DL5 4TF,54.635357423821900,-1.563617329149160
Mole and Condor,DL4 1EZ,54.633191893170400,-1.649524499925170
Viscacha and Boto,DH7 9YX,54.796273000000000,-1.665490000000000
Night heron and Guillemot,TS21 2HN,54.641054000000000,-1.468483000000000
Eagle and Darwin's finches,SR7 7EE,54.838453847631400,-1.326696000000000
Parakeet and Quetzal,DL17 8JZ,54.686552363619600,-1.557949780580010
Grackle and Maya,DL14 8RW,54.649300591593600,-1.641823269152840
Macaw and Puffleg,SR8 2DD,54.768389286917300,-1.345983994429780
Triller and Piping shrike,DH6 4SB,54.719527039716600,-1.502883681075640
Mole and Fox,DH1 5WB,54.790460000000000,-1.586879000000000
Hawaiian honeycreeper and Fox,SR8 3DQ,54.787687326659200,-1.340012310037340
Old World quail and Old World vulture,DH1 1BF,54.780447000000000,-1.546008000000000
Chickadee and Grosbeak,DH7 8SB,54.746422000000000,-1.624498376472930
Vole and Francolin,DH1 9HW,54.792710368164800,-1.535113326005250
Magpie and Petrel,DH3 4BW,54.876911123102100,-1.569413294336170
Jackal and Herring gull,DH9 6DZ,54.853364919182000,-1.662743689173460
Macaw and Hawk,TS27 4PW,54.737355700720500,-1.317797503768440
Songlark and Tahr,DH1 3SU,54.747659420832200,-1.590607499213670
Greenbul and Towhee,DH4 7TB,54.868458172877000,-1.504248169366510
Stilt and Wader,SR7 7DR,54.836346797179300,-1.331061000000000
Kākāriki and Myna,DH5 0PH,54.806434226307900,-1.432617625147430
Songlark and Rabbit,DH3 3LP,54.846840546772900,-1.573969245028520
Stilt and Wallaby,DH2 2DW,54.853802967204300,-1.581123083769960
Diving bird and Mouse,TS27 4DH,54.741268885517100,-1.279614225689990
Pheasant and Tattler,DH1 9TX,54.792717000000000,-1.535020000000000
Goose and Herring gull,DH7 0EF,54.822009144569400,-1.714551055601530
Vole and Skunk,DL14 7UE,54.657899227013700,-1.683196589929270
Wallaby and Philippine hawk-owl,DH5 9QN,54.822921006949400,-1.482098004589960
Wader and Mockingbird,SR7 0BA,54.840160256812000,-1.353202000000000
Cuscus and Scimitar babbler,SR3 2BU,54.874194872256000,-1.392161840579210
Warbler and Meadowlark,SR3 2FB,54.867549348986000,-1.410554000000000
Booted eagles and Jackal,SR3 3NE,54.876890505187400,-1.436865299045070
Ground sloth and Jay,DH3 4PD,54.856311787630200,-1.534631619422750
Boto and Kākāriki,DL14 0RX,54.651473357524600,-1.704401635625640
Bunting and Parakeet,DH7 6AE,54.822527494159900,-1.630176651160700
