name,postcode,lat,lon
Ozzie’s diner,BR5 2RG,51.4040,0.1049
McDonalds,BR5 3AE,51.4008,0.1127
Orpington Golf Centre,BR5 3HY,51.4084,0.1240
Bengal Lancer,BR7 6NR,51.4116,0.0753
Moonlight Cuisine,BR7 6NR,51.4116,0.0753
The Sydney Arms,BR7 6PL,51.4151,0.0867
Sidcup Family Golf,BR7 6RP,51.4315,0.0766
Duke of York,CM11 2PR,51.6127,0.4343
The magic mushroom restaurant ,CM11 2UD,51.6012,0.4454
Tiptree Tea Rooms at Barleylands,CM11 2UF,51.5982,0.4461
The shepherd and dog public house,CM11 2YA,51.6035,0.4731
Gandhi Restaurant,CM12 9AP,51.6248,0.4162
Wimpy Billericay,CM12 9BY,51.6240,0.4166
Pasha,CM12 9UN,51.5949,0.4285
Bonnies cafe,CM13 1SN,51.6249,0.3834
Essex quality food and wine ltd TA Masons Restaurant & Bar,CM13 2AA,51.6128,0.3189
The Fat Turk,CM13 3AE,51.6011,0.2919
Virgin Active Clearview,CM13 3EN,51.5726,0.3156
Thatchers Arms,CM13 3HU,51.5933,0.2842
De Rougemont Manor,CM13 3JP,51.5880,0.2908
Peri UK Ltd,CM13 3LB,51.5766,0.2995
The Halfway House,CM13 3LL,51.5799,0.3548
South Essex Golf Club,CM13 3LW,51.5846,0.3622
The Green Man,CM13 3PZ,51.5965,0.3509
Cafe Amoore,CM14 4AG,51.6202,0.3046
Las Tapas,CM14 4AN,51.6199,0.3013
WHITTAKERS,CM14 4AN,51.6199,0.3013
BALTI HOUSE,CM14 4AP,51.6195,0.2992
Lemongrass,CM14 4AP,51.6195,0.2992
ROOSTERS PIRI PIRI,CM14 4AP,51.6195,0.2992
Subway,CM14 4AP,51.6195,0.2992
MEAT STOP,CM14 4BA,51.6192,0.3009
Hey Joe music & coffee,CM14 4BX,51.6195,0.3022
The Raj Restaurant Essex Ltd,CM14 4DJ,51.6181,0.2983
CKN Bar & Kitchen,CM14 4EG,51.6150,0.2992
The Spread Eagle,CM14 4HD,51.6182,0.3035
Marygreen Manor Hotel,CM14 4NR,51.6127,0.2786
Rossi ,CM14 4RG,51.6213,0.3047
cafe 89 Ltd t/a Eightea9,CM14 4RR,51.6202,0.3003
eastern oriental chinese restaurant ltd,CM14 4RW,51.6204,0.3016
Chick N Shack,CM14 4RX,51.6198,0.2990
Bardswell Social Club and Institute Limited,CM14 4TJ,51.6213,0.2969
The Essex Arms,CM14 5HA,51.6118,0.2990
Ubaid Limited,CM14 5HA,51.6118,0.2990
Juboraj Tandoori,CM14 5HR,51.6124,0.2986
dw cafe & sports bar ,CM14 5LF,51.6049,0.3005
The Bull Brentwood,CM14 5LZ,51.6118,0.2736
mizu ,CM14 5NA,51.6094,0.2658
THE BRENTWOOD KITCHEN,CM15 8AA,51.6214,0.3071
Woodland coffee shop,CM15 9AU,51.6220,0.3053
SOULSUB LIMITED,DA1 1AS,51.4465,0.2168
Dartford Dosahouse ,DA1 1BE,51.4449,0.2168
Le Tre Sorelle,DA1 1BX,51.4452,0.2164
The Coffee House,DA1 1DE,51.4441,0.2195
Efes Turkish Restaurant ,DA1 1DS,51.4439,0.2198
Esquires Coffee Dartford,DA1 1DT,51.4441,0.2181
Royal Victoria & Bull Hotel,DA1 1DU,51.4443,0.2172
The Royal Victoria and Bull Hotel,DA1 1DU,51.4443,0.2172
Sedir Restaurant,DA1 1EW,51.4430,0.2164
New York Deli ,DA1 1EX,51.4438,0.2186
Cafe in the Park,DA1 1JP,51.4389,0.2174
Hawley kitchen ,DA1 1PX,51.4275,0.2260
McDonald's,DA1 1YT,51.4376,0.2372
The Jafflong,DA1 2DT,51.4448,0.2138
Ena Sandwiches,DA1 2EF,51.4455,0.2087
Sunflower cafe,DA1 2HL,51.4438,0.2154
McDonald's,DA1 2HR,51.4440,0.2161
Dartford Priory KFC Store ,DA1 2HS,51.4437,0.2163
Gill's Fish Bar,DA1 3JP,51.4434,0.1912
British Raj,DA1 4EF,51.4533,0.1768
Assos Restaurant,DA1 4ES,51.4510,0.1791
Crayford KFC Store,DA1 4ES,51.4510,0.1791
T/A New Princess Garden,DA1 4JD,51.4527,0.1790
KAANAA LTD,DA1 5FP,51.4615,0.2267
Europa Worldwide group,DA1 5PZ,51.4611,0.2470
COSTA COFFEE - GRAVESEND ,DA11 0AA,51.4427,0.3677
Coffee Republic Gravesend ,DA11 0AA,51.4427,0.3677
Sultan Sofrasi,DA11 0AB,51.4426,0.3664
Burger King,DA11 0AF,51.4423,0.3678
McDonald's,DA11 0AF,51.4423,0.3678
Pad Thai Live,DA11 0AZ,51.4432,0.3696
The sausage shop,DA11 0AZ,51.4432,0.3696
Marie's Tea Room,DA11 0BA,51.4438,0.3695
Northman Coffee Limited,DA11 0BB,51.4437,0.3691
Three Daws Riverside Inn,DA11 0BJ,51.4450,0.3694
Julius Caesar Italian ,DA11 0BQ,51.4445,0.3696
Gandhi restaurant ,DA11 0BS,51.4451,0.3673
Galms Ltd (McDonald's),DA11 0DQ,51.4442,0.3606
Sie's Pie & Mash,DA11 0TA,51.4430,0.3668
Eastgate coffee shop limited,DA11 8AD,51.4331,0.3318
The Six Bells,DA11 8BT,51.4322,0.3471
Gingers Cafe and Sandwich Bar ,DA11 8RA,51.4339,0.3531
Northfleet Fishbar,DA11 8RA,51.4339,0.3531
Kimberley Clark,DA11 9AD,51.4446,0.3400
COSTA COFFEE - EBBSFLEET,DA11 9BJ,51.4489,0.3213
White Eagle Pl Ltd,DA11 9EX,51.4435,0.3363
Hot Rod Diner Ltd,DA11 9HJ,51.4454,0.3289
Ye Olde Leather Bottel,DA11 9PH,51.4415,0.3379
The Marlin Plaice ,DA12 1AD,51.4417,0.3696
sukhothai restaurant ,DA12 1AD,51.4417,0.3696
Alto Gusto ,DA12 1AS,51.4404,0.3694
CHINA GARDEN,DA12 1AS,51.4404,0.3694
The invicta Bar,DA12 1AS,51.4404,0.3694
Twin Dynasty,DA12 1BA,51.4397,0.3692
The Pantry,DA12 1ER,51.4400,0.3710
Tufail Indian Restaurant,DA12 1EZ,51.4382,0.3723
prince of orange,DA12 1NJ,51.4327,0.3707
FirstPort - Nelson Court,DA12 1PL,51.4334,0.3737
No.84,DA12 1QF,51.4318,0.3753
PANTHEON GRAVESEND LTD,DA12 2EB,51.4425,0.3703
reliance fish restaurant,DA12 2EE,51.4428,0.3714
SHIP AND LOBSTER,DA12 2QB,51.4431,0.3964
Moove Lubricants Limited,DA12 2QX,51.4399,0.3923
Rasoighar,DA12 2RE,51.4421,0.3717
Creams,DA12 2RF,51.4415,0.3745
V's Punjabi Grill at the Canal Tavern,DA12 2RS,51.4425,0.3823
Rose & Crown Public House,DA12 3EA,51.4142,0.4307
Inn on the Lake hotel,DA12 3HB,51.4030,0.4073
Southern Valley Golf Course Ltd,DA12 4LT,51.4193,0.4045
Best Western Manor Hotel,DA12 5UQ,51.4114,0.3769
The Ship Inn Southfleet ,DA13 9NS,51.4159,0.3202
Millbrook Garden Centre - The Mill,DA13 9PA,51.4208,0.3115
Honeydale Farm Shop and Tea Room,DA14 5AW,51.4139,0.1348
RUXLEY MANOR GARDEN CENTRE LTD,DA14 5BQ,51.4114,0.1328
WHITE CROSS INN,DA14 5EL,51.4303,0.1388
Kelsey's Kitchen,DA14 5ET,51.4327,0.1393
SAL'S CAFE,DA14 5HB,51.4167,0.1231
Galms Ltd (McDonald's),DA14 5JA,51.4097,0.1443
McDonalds,DA14 6DS,51.4261,0.1020
The Kitchen ,DA14 6ED,51.4262,0.1036
The Kitchen,DA14 6ED,51.4262,0.1036
COSTA COFFEE - SIDCUP HIGH STREET,DA14 6EH,51.4257,0.1040
Sidcup KFC Store,DA14 6EP,51.4250,0.1062
The Darjeeling ,DA14 6ES,51.4248,0.1059
Papadam,DA14 6HJ,51.4242,0.1075
Kitchen Brasserie,DA14 6LF,51.4177,0.1051
MOGHUL,DA14 6ND,51.4266,0.1001
MOSTLIKE LTD,DA14 6QF,51.4307,0.0835
Appleyard,DA15 7AA,51.4352,0.1019
Jalsha tandoori restaurant ,DA15 7AA,51.4352,0.1019
COSTA COFFEE - SIDCUP STATION,DA15 7AX,51.4333,0.1024
KASPAS DESSERTS - SIDCUP ,DA15 7AX,51.4333,0.1024
The Elephant London,DA15 7AX,51.4333,0.1024
TOSCANA RESTAURANT LTD,DA15 7DH,51.4326,0.1024
Curry Mahal ,DA15 7DN,51.4322,0.1023
Hello Burger Sidcup,DA15 7DU,51.4314,0.1026
For 4Brothers Ltd T/A Maharani,DA15 8DJ,51.4412,0.0872
Shish restaurant 1993,DA15 8DJ,51.4412,0.0872
Chefs kitchen ,DA15 8PW,51.4506,0.1017
Sidcup Leisure Centre,DA15 9AE,51.4350,0.1057
Havard Catering Services at Sidcup Golf Club,DA15 9AW,51.4389,0.1121
El Iberico ,DA15 9ER,51.4451,0.1024
OVAL CAFE LIMITED,DA15 9ER,51.4451,0.1024
Oval spice ltd,DA15 9ER,51.4451,0.1024
The Banana Garden,DA15 9ER,51.4451,0.1024
Saffron Indian Diner ,DA15 9JN,51.4474,0.1179
Blackfen Cafe,DA15 9LU,51.4502,0.1043
COSTA COFFEE - BLACKEN ,DA15 9LU,51.4502,0.1043
Doan gia,DA15 9NB,51.4506,0.1047
Sidcup Dawat Ltd,DA15 9NB,51.4506,0.1047
HAPPY BELLYS,DA16 1ST,51.4617,0.1143
Noodle City,DA16 1TJ,51.4622,0.1084
Saray Restaurant,DA16 1TQ,51.4619,0.1112
Balseros Latino Bar and Restaurant,DA16 1TR,51.4621,0.1126
Luso Flavours,DA16 1TR,51.4621,0.1126
KOFFI POT LTD,DA16 1TY,51.4625,0.1088
UTKU CAFE LTD,DA16 1TY,51.4625,0.1088
Falcon Tandoori,DA16 2PL,51.4567,0.0945
WELLING CHICKS LTD,DA16 3AX,51.4642,0.0998
WIMPY,DA16 3HE,51.4629,0.1078
Chupitos Tapas Bar and Restaurant ,DA16 3HF,51.4636,0.1080
Mums cafe,DA16 3HF,51.4636,0.1080
pie and mash shop,DA16 3HF,51.4636,0.1080
The Green Man Sunset Restaurant,DA16 3NL,51.4669,0.0922
Maison Parisienne,DA16 3PA,51.4625,0.1068
Espresso Bar ,DA16 3PB,51.4628,0.1044
A&A ASSOCIATES (LONDON) LIMITED,DA16 3PG,51.4632,0.1023
New Ming Restaurant,DA16 3PG,51.4632,0.1023
Cruffins,DA16 3PY,51.4632,0.1042
Galms Ltd (McDonald's),DA16 3PY,51.4632,0.1042
Sub Way,DA16 3QB,51.4634,0.1026
MKA Foods LTD T/A New Curry Centre,DA16 3QD,51.4636,0.1017
Akrbf Ltd,DA16 3QR,51.4639,0.0997
CAFE DELUXE WELLING LTD,DA16 3RW,51.4663,0.0853
Stone valley lodge Ltd,DA2 6PD,51.4466,0.2476
Thermo Fisher,DA2 6PT,51.4573,0.2522
COSTA COFFEE - DARTFORD ,DA2 6QE,51.4529,0.2537
Campanile Dartford,DA2 6QN,51.4585,0.2544
Laing O Rourke,DA2 6SN,51.4554,0.2543
The plough ,DA2 7BW,51.4273,0.2071
Birchwood Park Golf & Country Club,DA2 7HJ,51.4126,0.1604
Rowhill Grange Hotel and Spa,DA2 7QH,51.4181,0.1888
Green Spice ,DA2 8DP,51.4135,0.2776
Bexley Kitchen,DA5 1AA,51.4418,0.1500
Tanyard Lane Bar & Kitchen ,DA5 1AA,51.4418,0.1500
Melucci's Italian delicatessen ltd,DA5 1AB,51.4415,0.1480
Ferrari's Restaurant Bexley Village,DA5 1AD,51.4416,0.1472
Coffee Mill and Kitchen,DA5 1AH,51.4414,0.1492
Greys tea and coffee house,DA5 1AH,51.4414,0.1492
SAGGOR TANDOORI,DA5 1BT,51.4480,0.1215
Anchor,DA5 1JE,51.4453,0.1338
Baltizer ,DA5 1LA,51.4410,0.1507
ALBERELLO LIMITED,DA5 1LB,51.4415,0.1505
Bexley Greek Taverna,DA5 1LB,51.4415,0.1505
LILYCROSS LIMITED T/AS MAHARAJAH OF BEXLEY,DA5 1LB,51.4415,0.1505
Holiday Inn London Bexley,DA5 1ND,51.4464,0.1541
Riverside Cafe,DA5 1PQ,51.4480,0.1602
Fortune Inn,DA5 3HG,51.4360,0.1276
Ruchi Restaurant Limited,DA5 3HG,51.4360,0.1276
The Cafe ,DA6 7AT,51.4556,0.1536
Masala Inn,DA6 7AU,51.4577,0.1383
Thai Bexleyheath,DA6 7BD,51.4576,0.1394
Bexleyheath KFC Store,DA6 7BT,51.4574,0.1405
Adels ,DA6 7DE,51.4567,0.1454
Tom Bells,DA6 7DE,51.4567,0.1454
Subway,DA6 7DQ,51.4568,0.1444
The Kings Arms,DA6 7DW,51.4570,0.1434
cafe Mojito,DA6 7EJ,51.4572,0.1394
The Rose Public House,DA6 7ES,51.4569,0.1408
Bexleyheath Conservative Club t/a 1V1 Club,DA6 7EZ,51.4568,0.1420
Creams,DA6 7EZ,51.4568,0.1420
TTH ENTERPRISE LTD,DA6 7EZ,51.4568,0.1420
Galms Ltd (McDonald's),DA6 7JN,51.4562,0.1462
Cast Iron Restaurant & Brew Bar,DA6 7JZ,51.4550,0.1521
The Prince Albert,DA6 7LE,51.4555,0.1527
Twin Palace,DA6 7LE,51.4555,0.1527
Hazine,DA6 8AJ,51.4582,0.1344
Aligor Restaurant,DA6 8BE,51.4581,0.1355
Cuore Food From The Earth Limited,DA6 8BE,51.4581,0.1355
Winiks Bakery Limited,DA6 8BE,51.4581,0.1355
Stuzzichini,DA6 8DB,51.4574,0.1378
THE M KITCHEN,DA6 8DB,51.4574,0.1378
Zingara,DA6 8DG,51.4578,0.1353
The Jasmine by Spice Nouv-Oh!,DA6 8DT,51.4581,0.1328
VIET VIAND,DA6 8DT,51.4581,0.1328
Fleur de The Ltd,DA6 8HL,51.4558,0.1226
Bexleyheath golf club ,DA6 8JS,51.4521,0.1294
Glasshouse restaurant ,DA7 4EG,51.4628,0.1326
Crook Log Leisure Centre,DA7 4HH,51.4602,0.1245
Zanz Cafe,DA7 4QW,51.4643,0.1331
Bombay Balti House ,DA7 5AE,51.4659,0.1457
Jalsha 2(Tandoori Restaurant),DA7 6HJ,51.4672,0.1582
Spice onamika,DA7 6HJ,51.4672,0.1582
Jade Garden,DA8 1HN,51.4734,0.1610
parkview cafe,DA8 1PP,51.4838,0.1659
De White Hart restaurant ltd,DA8 1QY,51.4817,0.1810
Starburger ,DA8 1RB,51.4801,0.1790
McDonald's Restaurants,DA8 1RN,51.4784,0.1808
The Exchange Erith Ltd,DA8 1RS,51.4814,0.1778
Mambocino cafe,DA8 1SE,51.4803,0.1803
Riverside Steak and Fish House,DA8 1SE,51.4803,0.1803
k's spice african restaurant ,DA8 1TA,51.4801,0.1791
Erith KFC Store,DA8 2AB,51.4783,0.1828
Forest cafe,DA8 2NU,51.4684,0.1907
Erith Leisure Centre,DA8 3AT,51.4770,0.1744
Subway Restaurant,DA9 9BT,51.4525,0.2752
McDonald's,DA9 9HY,51.4486,0.2798
Ori Caffe,DA9 9SA,51.4405,0.2715
The Daily Grind,DA9 9SE,51.4398,0.2692
Bluewater KFC Store ,DA9 9SF,51.4392,0.2733
Galms Ltd (McDonald's),DA9 9SF,51.4392,0.2733
SIZZLED,DA9 9SF,51.4392,0.2733
Shawa Bluewater,DA9 9SF,51.4392,0.2733
Wingstop Bluewater,DA9 9SF,51.4392,0.2733
Costa at Showcase Cinema de Lux Bluewater,DA9 9SG,51.4377,0.2704
Cocoba,DA9 9SH,51.4391,0.2721
Coffee Republic,DA9 9SQ,51.4380,0.2703
Comptoir Bluewater,DA9 9ST,51.4394,0.2729
Gravity - Bluewater,DA9 9ST,51.4394,0.2729
SPUDULIKE BLUEWATER,DA9 9ST,51.4394,0.2729
Tapas Revolution Bluewater,DA9 9ST,51.4394,0.2729
Yangzte Blue Water,DA9 9ST,51.4394,0.2729
Zabardast,DA9 9ST,51.4394,0.2729
SOM Restaurants ltd,E6 7ER,51.5172,0.0804
SOM Restaurants ltd,IG1 1NE,51.5599,0.0770
KFC Ilford,IG1 1QB,51.5595,0.0769
R 2 R LTD T/A BBQ EXPRESS ILFORD,IG1 1QB,51.5595,0.0769
Spice khazana Ltd,IG1 1QF,51.5600,0.0791
Indi Spices,IG1 1QW,51.5603,0.0813
Tabla Restaurant,IG1 1QW,51.5603,0.0813
Colony Restaurant,IG1 1UE,51.5624,0.0912
TAJ CATERING EVENTS LIMITED,IG1 1UE,51.5624,0.0912
The Secret garden steakhouse,IG1 1UF,51.5620,0.0889
prince of wales,IG1 1XJ,51.5591,0.0867
Gymkhana,IG1 1XT,51.5597,0.0939
Franzos,IG1 2LT,51.5491,0.0751
AL FATH LTD,IG1 2LZ,51.5478,0.0759
Eden peri peri ,IG1 2SD,51.5503,0.0751
Chicken & Pizza 4U,IG1 2SN,51.5465,0.0768
Crave London,IG1 4AA,51.5643,0.0828
Fusion Exclusive Shisha Lounge,IG1 4BH,51.5613,0.0756
Dixy Chicken,IG1 4BL,51.5623,0.0777
Al Qasr Restaurant ,IG1 4BS,51.5637,0.0826
Adrian Teslaru ,IG1 4JB,51.5645,0.0793
Big Moe's Diner,IG11 0AD,51.5244,0.0780
Black&White Lounge restaurant,IG11 0AD,51.5244,0.0780
Mylahore,IG11 0AD,51.5244,0.0780
Bravewin Ltd,IG11 0BL,51.5273,0.0911
The Boat House Cafe and Bar,IG11 7BT,51.5321,0.0758
JULIENEST CATERING SERVICES LTD,IG11 8AG,51.5382,0.0778
CRISTINA'S STEAK LTD,IG11 8AW,51.5366,0.0768
Caffe Latte,IG11 8DG,51.5379,0.0809
COSTA COFFEE,IG11 8EA,51.5393,0.0816
KFC,IG11 8EB,51.5391,0.0805
SOM Restaurants ltd,IG11 8ER,51.5368,0.0777
CHINA FRIEND LTD,IG11 8RT,51.5404,0.0831
Pizza Di legno,IG11 8SF,51.5413,0.0846
Popeyes,IG11 8SF,51.5413,0.0846
ariana Restaurant Barking,IG11 8SF,51.5413,0.0846
The Big Friendly Coffee,IG11 8UD,51.5470,0.0928
RERHOU TRADE LIMITED,IG11 8UF,51.5459,0.0932
RITCHIES CAFE LTD T/A Ritchies Fresh Bake,IG11 8UN,51.5453,0.0931
Buon appetito cafe,IG11 9RS,51.5354,0.0943
VIJAYS VIRASAT LIMITED,IG2 6BE,51.5748,0.0845
Banana Leaf Restaurant Ltd,IG2 7DE,51.5729,0.0838
Mirage Restaurant,IG2 7HU,51.5733,0.0846
McDonald's Newbury Park,IG2 7RH,51.5742,0.0854
Newbury Park Hotels Ltd,IG2 7RH,51.5742,0.0854
delhi o delhi,IG3 8BY,51.5632,0.0976
Pit-Stop,IG3 8EG,51.5628,0.0928
Kings grill restaurant ,IG3 8EZ,51.5714,0.0960
Masala 910,IG3 8JB,51.5722,0.0952
Chicken House,IG3 8RA,51.5645,0.0980
GRILLER,IG3 8RA,51.5645,0.0980
Kukus Piri Piri,IG3 8RA,51.5645,0.0980
AA Dream factory ltd T/A Subway,IG3 8RH,51.5650,0.1010
EXCELLENT FOOD LTD T/A Original Fried Chicken,IG3 8RH,51.5650,0.1010
McCaffertys Ilford,IG3 8RH,51.5650,0.1010
FUSION FOOD T/A GOURMET GRILL,IG3 8RL,51.5653,0.1026
Wok Wala Street Kitchen ,IG3 8RL,51.5653,0.1026
MUZIRIS,IG3 8RN,51.5656,0.1036
KFC Seven Kings,IG3 8RQ,51.5647,0.0997
SOM Restaurants ltd,IG3 8RS,51.5654,0.1047
Peshawar Grill Ltd T/A Khyber Grill,IG3 8RW,51.5659,0.1051
a STAR eATERY,IG3 8TD,51.5665,0.1087
Mehak Grill House,IG3 8TH,51.5665,0.1101
Central Restaurant and Lounge,IG3 9TN,51.5604,0.0951
FAT CAFE DINER,IG3 9UB,51.5635,0.1105
Amira’s Coffee House & Garden,IG3 9UD,51.5640,0.1105
Scoffs Essex Ltd t/a Costa Coffee Goodmayes,IG3 9UH,51.5661,0.1106
Yummy chicken ,IG3 9UN,51.5663,0.1103
Jericho,IG3 9UZ,51.5637,0.1099
Cafe 104 Ltd,IG6 1QE,51.5882,0.0825
ABSHAR INDIAN CUISINE ,IG6 2AD,51.5897,0.0814
BARKINGSIDE KEBABISH LIMITED,IG6 2AD,51.5897,0.0814
ksr bakers uk ltd t/a cakes & bakes,IG6 2AD,51.5897,0.0814
Dixy Fried Chicken & Pizza,IG6 2AF,51.5905,0.0819
Scoffs Essex Ltd t/a Costa Coffee Barkingside,IG6 2AH,51.5914,0.0827
Spice,IG6 2AH,51.5914,0.0827
KFC Barkingside,IG6 2AJ,51.5927,0.0839
Qubros Ltd T/As Rossi Bros,IG6 2AJ,51.5927,0.0839
Rowans Coffee Shop Ltd,IG6 2AJ,51.5927,0.0839
McDonald's Barkingside,IG6 2AW,51.5889,0.0807
Papa Johns - BARKINGSIDE,IG6 2AW,51.5889,0.0807
Maison Fraise,IG6 2DQ,51.5895,0.0818
SUBWAY,IG6 2DQ,51.5895,0.0818
BELLAS COFFEE LTD,IG6 2DR,51.5911,0.0831
Danny's Pie and Mash,IG6 2DR,51.5911,0.0831
Sweet. Barkingside,IG6 2DU,51.5917,0.0836
Sharods Ltd,IG6 2EY,51.5935,0.0844
CAFE ILA,IG6 2LD,51.6023,0.0839
Monsoon Restaurant,IG6 2UE,51.6027,0.0870
New Old Parks Pavilion ,IG6 3HD,51.5961,0.0906
Silantro Ltd,IG6 3SL,51.6031,0.1163
Indian Ocean,IG7 5QB,51.6131,0.0911
Lionsgate,IG7 5QB,51.6131,0.0911
The Two Brewers ,IG7 6ET,51.6217,0.1206
KASPAS DESSERTS - ROMFORD ,RM1 1AU,51.5760,0.1801
McDonald's Romford Brewery,RM1 1AU,51.5760,0.1801
Namco Funscape,RM1 1AU,51.5760,0.1801
Cafe Chateau,RM1 1BH,51.5793,0.1798
Ratik limited,RM1 1BH,51.5793,0.1798
OPERA RESTAURANT ,RM1 1DA,51.5802,0.1789
BESITO LIMITED T/A CAFE BUENO ,RM1 1HR,51.5781,0.1792
Market Cafe,RM1 1JL,51.5772,0.1784
Taste of East Ltd,RM1 1JL,51.5772,0.1784
CREAM TOWN LTD,RM1 1NJ,51.5781,0.1811
KFC Romford,RM1 1NL,51.5766,0.1825
Ciao Bella,RM1 1NX,51.5760,0.1831
McDonald's Romford,RM1 1NX,51.5760,0.1831
Express Kebab House,RM1 1PS,51.5738,0.1843
BUNNO,RM1 1RA,51.5779,0.1806
Burger King,RM1 1RB,51.5769,0.1812
Remman Ltd,RM1 1RX,51.5759,0.1823
SUBWAY,RM1 1RX,51.5759,0.1823
cafe shot,RM1 2EL,51.5720,0.1910
Asia Spice ,RM1 2JH,51.5745,0.1857
Delhi Live,RM1 2JH,51.5745,0.1857
Pearl dragon romford,RM1 2JH,51.5745,0.1857
jumeirah palm lounge ltd,RM1 2JH,51.5745,0.1857
Bekash Tandoori,RM1 2LA,51.5748,0.1871
Koko cafe ,RM1 2LX,51.5762,0.1902
The Hideout,RM1 3AB,51.5799,0.1820
BB's Coffee and Muffins Romford ,RM1 3EE,51.5794,0.1857
CAFFE Della Continental,RM1 3EE,51.5794,0.1857
Della Continental,RM1 3EE,51.5794,0.1857
McDonald's Romford 2,RM1 3EE,51.5794,0.1857
Subway,RM1 3EE,51.5794,0.1857
NEGRO LIMITED T/A CAFE FINO ,RM1 3ER,51.5795,0.1829
Poppins cafe restaurant ,RM1 3LD,51.5770,0.1831
KK Foods Ltd,RM1 3RH,51.5772,0.1832
EL MEXICANA,RM1 3RL,51.5783,0.1837
Small Talk Tearooms,RM1 3RT,51.5794,0.1838
The Eastbrook,RM10 7UP,51.5524,0.1644
Gunay’s Cafe ,RM10 8YL,51.5427,0.1659
22 Ventidue LTD,RM10 9LH,51.5329,0.1523
Pietro's Cafe,RM10 9RR,51.5401,0.1567
Casa Mia,RM11 1DP,51.5648,0.2048
Burger King,RM11 1PZ,51.5653,0.1939
Thai River Restaurant,RM11 1RL,51.5630,0.2200
MOTHER INDIA (HORNCHURCH) LTD,RM11 1SU,51.5676,0.2203
Tarantino LTD,RM11 1TP,51.5633,0.2153
Uraswamy's,RM11 1TP,51.5633,0.2153
Nes' CAFE,RM11 1TS,51.5633,0.2173
OLIMBOS LIMITED,RM11 1TS,51.5633,0.2173
Wimpy,RM11 1TX,51.5627,0.2196
Passage to india ,RM11 3XB,51.5594,0.2351
Tandoori Lounge,RM11 3XS,51.5618,0.2213
Tops cafe / asya top ltd,RM11 3XS,51.5618,0.2213
MANDARIN PALACE,RM11 3XT,51.5616,0.2236
Umberto restaurant ,RM11 3XT,51.5616,0.2236
Sukhothai Hornchurch,RM11 3YD,51.5622,0.2206
Istanbul Grill Restaurant,RM12 4RS,51.5507,0.1987
COSTA COFFEE - ELM PARK,RM12 4RX,51.5511,0.1983
Parkside Brasserie,RM12 4SD,51.5511,0.1997
cardamom,RM12 4SY,51.5646,0.2018
cafe balti,RM12 4TQ,51.5650,0.1906
COSTA COFFEE - HORNCHURCH 1,RM12 4UH,51.5625,0.2183
The Rising Sun Pub,RM12 4UW,51.5627,0.2170
Burger Boyz ,RM12 5AS,51.5492,0.2003
Tea Island,RM12 6AF,51.5614,0.2211
Da Vinci's,RM12 6JL,51.5608,0.2210
vertigo lounge ,RM12 6JL,51.5608,0.2210
Fireaway Pizza ,RM12 6NB,51.5604,0.2204
ONYX RESTAURANT & BAR ,RM12 6NB,51.5604,0.2204
Pride Of Hornchurch Ltd,RM12 6NB,51.5604,0.2204
SUBWAY,RM12 6NJ,51.5613,0.2205
Taste of Bengal,RM12 6QP,51.5612,0.2228
COSTA COFFEE - HORNCHURCH 2,RM12 6QX,51.5620,0.2200
Starbucks Hornchurch,RM12 6QX,51.5620,0.2200
KFC,RM13 8TX,51.5278,0.1882
The Munch Up,RM13 8UG,51.5164,0.1736
Cauliflower,RM13 9AA,51.5187,0.1938
Alis cafe,RM13 9BU,51.5156,0.1835
Can's Meze Bar ,RM14 1RQ,51.5687,0.2676
Upminster Garden Centre,RM14 1TS,51.5945,0.2554
Spice of India,RM14 1XJ,51.5615,0.2675
Ginger Lounge,RM14 2AA,51.5525,0.2477
Lefke ,RM14 2AD,51.5534,0.2473
Roots,RM14 2AD,51.5534,0.2473
Caffe Gelato,RM14 2AH,51.5533,0.2479
THE TEACOSY LIMITED,RM14 2AH,51.5533,0.2479
ACE CREAMS & TAPAS,RM14 2SJ,51.5569,0.2491
COSTA COFFEE - UPMINSTER 2,RM14 2SJ,51.5569,0.2491
Sorrento restaurant,RM14 2SJ,51.5569,0.2491
The Station Pantry,RM14 2SU,51.5586,0.2496
COSTA COFFEE - UPMINSTER 1,RM14 2TR,51.5577,0.2502
WIMPY,RM14 2TR,51.5577,0.2502
Barracuda Fish and Chips ,RM14 2TU,51.5580,0.2503
The Fete Lounge ltd,RM14 2UB,51.5567,0.2498
Masala Grill Original LTD,RM14 3BL,51.5564,0.2508
T&K COFFEE LTD,RM14 3BL,51.5564,0.2508
cafe le raj/raj essex ltd,RM14 3BL,51.5564,0.2508
SWEET ROSE CAKERY LIMITED,RM14 3BS,51.5561,0.2507
Samihah limited t/a kushoom bugh,RM14 3BT,51.5562,0.2521
The Jobber's Rest,RM14 3LT,51.5577,0.2731
Jaxons eating house,RM14 3NU,51.5604,0.2837
Top Meadow Golf Centre ,RM14 3PR,51.5420,0.2989
The Old White Horse,RM14 3PS,51.5405,0.2961
Langdon Hills Golf & Country Club Ltd,RM14 3TY,51.5447,0.3953
MingLong Essex Limited,RM15 4BB,51.4990,0.2558
Sir Henry’s,RM15 4XB,51.5130,0.2512
The Raj Ockendon,RM15 5DX,51.5107,0.2821
Woody's,RM15 6DU,51.5131,0.2940
Subway,RM16 3BG,51.4923,0.2723
Voujon restaurant ,RM16 3BL,51.5054,0.3827
Cafe Sartoria,RM16 3HS,51.5147,0.3709
Garden Brasserie,RM16 3HS,51.5147,0.3709
The Whitmore Arms,RM16 3LB,51.5127,0.3698
kushi,RM16 6EW,51.4862,0.2883
pepes piri piri,RM17 5DD,51.4787,0.3236
MEMEL,RM17 5HF,51.4798,0.3254
New Delhi,RM17 5HJ,51.4794,0.3259
Village Indiya,RM17 5RY,51.4889,0.3409
Bombay Restaurant,RM17 5RZ,51.4889,0.3390
Orchard Cafe,RM17 5SY,51.4846,0.3421
the bull public house,RM17 6EY,51.4769,0.3423
THEOBALD ARMS,RM17 6HR,51.4737,0.3232
KFC Grays,RM17 6LU,51.4779,0.3228
Nagawa ,RM17 6LU,51.4779,0.3228
Izgara Meze,RM17 6LY,51.4775,0.3225
Subway,RM17 6NB,51.4774,0.3233
Gurkha Cookhouse ,RM17 6NQ,51.4760,0.3219
Break Bar,RM17 6QE,51.4771,0.3238
Burger King,RM17 6QE,51.4771,0.3238
The Snack Shack,RM17 6QE,51.4771,0.3238
Wimpy ,RM17 6QE,51.4771,0.3238
THE DOCK CAFE & RESTAURANT,RM18 7BJ,51.4625,0.3550
McDonald's Tilbury,RM18 7HZ,51.4711,0.3433
THE ROYAL HOTEL,RM19 1QA,51.4832,0.2307
Best Western Thurrock Hotel ,RM19 1YN,51.4888,0.2655
Scoffs (Essex) Ltd t/a Costa Coffee Gidea Park,RM2 5EL,51.5869,0.2009
The Ship PH,RM2 5EL,51.5869,0.2009
Razza,RM2 5EU,51.5871,0.2026
RADHUNI RESTAURANT,RM2 5HA,51.5866,0.2009
Zaafran Indian Cuisine,RM2 5HA,51.5866,0.2009
kushi,RM2 5HS,51.5860,0.1975
STEEP HOLM LIMITED,RM2 5QB,51.5873,0.1992
Ginger Spice,RM2 5TH,51.5767,0.2066
McDonald's 289 - West Thurrock,RM20 1TX,51.4890,0.2756
Partyman World Lakeside,RM20 1WN,51.4860,0.2762
Flip Out Lakeside,RM20 2AD,51.4881,0.2817
Nickelodeon Adventure Lakeside,RM20 2AD,51.4881,0.2817
Puttshack Lakeside,RM20 2AD,51.4881,0.2817
McDonald's 510 - Lakeside 2,RM20 2ZF,51.4874,0.2831
McDonald's 357 - Lakeside 1,RM20 2ZH,51.4874,0.2838
Chopstix Lakeside,RM20 2ZJ,51.4876,0.2835
KFC Lakeside,RM20 2ZJ,51.4876,0.2835
Shake Shack Lakeside,RM20 2ZJ,51.4876,0.2835
Thai Express Lakeside,RM20 2ZJ,51.4876,0.2835
Spreads cafe,RM20 2ZL,51.4868,0.2824
OO&O Lakeside Limited,RM20 2ZN,51.4873,0.2814
Caffe Rizzoli Prosecco Bar,RM20 2ZP,51.4871,0.2835
Chiktopia,RM20 2ZP,51.4871,0.2835
German Doner Kebab (GDK),RM20 2ZP,51.4871,0.2835
La Tasca - Lakeside,RM20 2ZP,51.4871,0.2835
Rock Up Lakeside,RM20 2ZP,51.4871,0.2835
Wimpy Lakeside ,RM20 2ZP,51.4871,0.2835
Creams Cafe Intu Lakeside,RM20 2ZQ,51.4877,0.2832
SPICY TOP LTD T/A SHAMPAAN,RM20 3HL,51.4760,0.2811
KFC Thurrock,RM20 3WE,51.4839,0.2770
the ship inn,RM20 4AR,51.4765,0.2909
McDonald's Gallows Corner,RM3 0AP,51.5916,0.2182
KUZINE,RM3 0BS,51.5939,0.2344
The Deers Rest,RM3 7LL,51.6161,0.2174
McDonald's Harold Hill,RM3 8XR,51.6013,0.2110
CAFE ESPRESSO,RM3 9AA,51.6126,0.2217
Cafe Espresso ,RM3 9AA,51.6126,0.2217
The Orange Tree,RM4 1PJ,51.6142,0.1812
Subway Collier Row,RM5 2BD,51.5980,0.1540
EAST COAST DINNER,RM5 2BH,51.5955,0.1475
Pannas Restaurant,RM5 2BH,51.5955,0.1475
Scoffs Essex Ltd t/a Costa Coffee Collier Row,RM5 3ND,51.5984,0.1630
KFC Collier Row,RM5 3NP,51.5989,0.1625
LIGHT OF INDIA,RM5 3NR,51.5986,0.1615
RAJ OF INDIA ,RM5 3NR,51.5986,0.1615
Chookys Peri Peri,RM5 3PH,51.5998,0.1631
BOLLYWOOD SPICE (ESSEX) LTD,RM5 3PJ,51.6001,0.1648
KFC Chadwell Heath,RM6 4AU,51.5697,0.1248
Indian Fusion,RM6 4BE,51.5701,0.1306
McDonald's Marks Gate,RM6 5QT,51.5909,0.1426
THE KITCHEN ILFORD LTD,RM6 6LS,51.5720,0.1411
Yummy chicken ,RM6 6LS,51.5720,0.1411
 CASA ITALIANA,RM6 6PU,51.5710,0.1305
SAFFRON,RM7 0LA,51.5655,0.1731
Burger King,RM7 7JJ,51.5832,0.1690
Chick'n shack Ltd,RM7 8JB,51.5917,0.1575
Cafe zone,RM8 1BB,51.5638,0.1467
Lara Grill,RM8 1BJ,51.5625,0.1473
Larex Ventures Limited,RM8 1YT,51.5620,0.1230
SANJHA CHULHA,RM8 1YT,51.5620,0.1230
Grubs Hut ,RM8 2AJ,51.5514,0.1153
Oak tree Cafe,RM8 2DA,51.5518,0.1151
turan cafe,RM8 3HD,51.5599,0.1467
Safwaan asan ltd,RM9 5AQ,51.5425,0.1476
KUSSAN 2 SISTERS LTD,RM9 5AW,51.5412,0.1477
KFC,RM9 6SJ,51.5308,0.1449
SOM Restaurants ltd,RM9 6UQ,51.5324,0.1364
Dagenham Restaurant Ltd,RM9 6UR,51.5322,0.1469
Pepeneros Restaurant,SE18 1BS,51.4916,0.0935
Grizzlys,SE18 1HF,51.4862,0.0984
Tiwa N Tiwa African Restaurant Ltd,SE18 1JQ,51.4871,0.0924
The Plumstead Pantry,SE18 1QJ,51.4821,0.0835
Red Lion Noodle Bar,SE18 1SB,51.4884,0.0898
Dosa & Sambal Express,SE18 1SE,51.4875,0.0927
AMBALA & KARAHI LTD,SE18 1SL,51.4886,0.0884
Malai Restaurant Ltd,SE18 1SN,51.4893,0.0860
Star Inn,SE18 2UL,51.4808,0.0784
BA Arsenal ,SE18 6SR,51.4914,0.0756
Taste nepal limited,SE18 7DZ,51.4893,0.0847
Bayleaf Indian Cuisine,SE2 0XJ,51.4851,0.1026
Abbey Arms,SE2 9RH,51.4903,0.1211
Paramount Tajmahal Restaurant (AbbeyWood) Ltd,SE2 9RH,51.4903,0.1211
McDonald's Restaurants,SE28 0FF,51.4909,0.0854
McDonald's Restaurants,SE28 8RD,51.5059,0.1032
Happy Days Cafe,SE9 2PH,51.4502,0.0819
Mahatma Tandoori LTD,SE9 2PH,51.4502,0.0819
Donut king,SS14 1AE,51.5693,0.4608
Muscovado Coffee Shop,SS14 1AE,51.5693,0.4608
McDonald's Restaurant Eastgate Shopping Centre,SS14 1AF,51.5693,0.4608
Subway,SS14 1AF,51.5693,0.4608
The Chef Bakery,SS14 1BZ,51.5690,0.4589
Towngate Theatre Café Bar,SS14 1DL,51.5708,0.4547
Burger King,SS14 1EB,51.5699,0.4615
ESQUIRES COFFEE HOUSE (BASILDON),SS14 1EB,51.5699,0.4615
HABIBA FOODS LIMITED T/A  Muffin Break ,SS14 1EB,51.5699,0.4615
James Breslaw,SS14 1EB,51.5699,0.4615
Papa's Crepes,SS14 1EB,51.5699,0.4615
Miracles cafe ,SS14 1EU,51.5700,0.4623
Poppins Restaurants,SS14 1EU,51.5700,0.4623
Cafe Cinco,SS14 1HH,51.5702,0.4605
Jodhpur Indian Kitchen,SS14 1HH,51.5702,0.4605
Tasty Buds,SS14 2HB,51.5780,0.4738
The Coriander (Basildon) Ltd,SS14 2HB,51.5780,0.4738
Subway Whitmore Way,SS14 2NL,51.5778,0.4762
Campanile Basildon,SS14 3AE,51.5845,0.4425
Burger King,SS14 3AF,51.5812,0.4435
KFC Mayflower,SS14 3HZ,51.5908,0.4795
McDonald's Restaurant Mayflower Retail Park,SS14 3HZ,51.5908,0.4795
360 Play (Basildon) Limited,SS14 3WB,51.5852,0.4632
AROMA,SS14 3WB,51.5852,0.4632
Legends Basildon,SS14 3WB,51.5852,0.4632
Mr Mulligans Basildon,SS14 3WB,51.5852,0.4632
Sprinkles Gelato Basildon,SS14 3WB,51.5852,0.4632
Villagio,SS14 3WB,51.5852,0.4632
McDonald's Restaurant Festival Leisure Park,SS14 3WE,51.5840,0.4660
McDonald's Restaurant Laindon,SS15 4DP,51.5857,0.4267
KFC Laindon,SS15 6NE,51.5704,0.4213
stay and play,SS15 6PH,51.5697,0.4192
Basildon Golf Course Ltd,SS16 5JP,51.5583,0.4596
Knosh cafe,SS16 5TL,51.5635,0.4489
Montys Curry Centre,SS17 0AH,51.5141,0.4288
efe's,SS17 0HF,51.5154,0.4274
Green Palace Ltd T/A Panahar Restaurant  ,SS17 0HL,51.5152,0.4255
railway tavern,SS17 0HL,51.5152,0.4255
Subway,SS17 0LD,51.5143,0.4201
Paulettes bakery,SS17 7NA,51.5247,0.4483
The Springhouse,SS17 7QT,51.5244,0.4502
Swan pub,SS17 8LD,51.5241,0.4060
The Bell Inn & Ostlers,SS17 8LD,51.5241,0.4060
swan pub,SS17 8LD,51.5241,0.4060
RT Inn Ltd,SS17 9AA,51.5266,0.4596
