name,postcode,lat,lon
Ozzie’s diner,BR5 2RG,51.4040,0.1049
McDonalds,BR5 3AE,51.4008,0.1127
Orpington Golf Centre,BR5 3HY,51.4055,0.1208
Bengal Lancer,BR7 6NR,51.4116,0.0753
Pizza Express,BR7 6NR,51.4116,0.0753
The Sydney Arms,BR7 6PL,51.4151,0.0867
Sidcup Family Golf,BR7 6RP,51.4315,0.0766
Principals By CH&Co @ St Pauls C Of E School,BR8 7PJ,51.4069,0.1953
Duke of York,CM11 2PR,51.6127,0.4345
copperfield bakeries ltd,CM11 2RB,51.6136,0.4301
The magic mushroom restaurant ,CM11 2UD,51.6012,0.4455
Tiptree Tea Rooms at Barleylands,CM11 2UF,51.5982,0.4460
The shepherd and dog public house,CM11 2YA,51.6035,0.4730
Wildwood Restaurants,CM12 9AB,51.6229,0.4156
Gandhi Restaurant,CM12 9AP,51.6248,0.4162
Costa Coffee,CM12 9BT,51.6247,0.4171
Giggling Squid,CM12 9BY,51.6240,0.4165
La Toscana Italian Restaurant,CM12 9BY,51.6240,0.4165
Wimpy Billericay,CM12 9BY,51.6240,0.4165
Pasha,CM12 9UN,51.5949,0.4285
Essex quality food and wine ltd TA Masons Restaurant & Bar,CM13 2AA,51.6128,0.3189
The Fat Turk,CM13 3AE,51.6011,0.2919
Warley Park Ltd,CM13 3DX,51.5906,0.3123
Virgin Active Clearview,CM13 3EN,51.5721,0.3157
Thatchers Arms,CM13 3HU,51.5931,0.2842
De Rougemont Manor,CM13 3JP,51.5880,0.2908
Chartwells (Compass Group) At Woodlands Preparatory School,CM13 3LA,51.5797,0.3001
Peri UK Ltd,CM13 3LB,51.5766,0.2995
Starbucks East Horndon,CM13 3LL,51.5799,0.3555
The Halfway House,CM13 3LL,51.5799,0.3555
Greene King @ The Boars Head,CM13 3PS,51.5949,0.3545
The Green Man,CM13 3PZ,51.5965,0.3508
Caffe Nero,CM14 4AB,51.6207,0.3047
Cafe Amoore,CM14 4AG,51.6202,0.3046
Starbucks Coffee Shop,CM14 4AJ,51.6202,0.3027
Las Tapas,CM14 4AN,51.6198,0.3012
WHITTAKERS,CM14 4AN,51.6198,0.3012
BALTI HOUSE,CM14 4AP,51.6195,0.2992
Lemongrass,CM14 4AP,51.6195,0.2992
ROOSTERS PIRI PIRI,CM14 4AP,51.6195,0.2992
Subway,CM14 4AP,51.6195,0.2992
Burger King,CM14 4AW,51.6197,0.3006
MEAT STOP,CM14 4BA,51.6192,0.3009
jehan curry hut ,CM14 4BJ,51.6193,0.3014
Hey Joe music & coffee,CM14 4BX,51.6195,0.3022
Harrys and Bonnies coffee shop,CM14 4DB,51.6204,0.3041
The Raj Restaurant Essex Ltd,CM14 4DJ,51.6181,0.2983
CKN Bar & Kitchen,CM14 4EG,51.6151,0.2992
The Spread Eagle,CM14 4HD,51.6182,0.3035
Marygreen Manor Hotel,CM14 4NR,51.6127,0.2786
Giggling Squid,CM14 4RG,51.6213,0.3047
Pizza Express,CM14 4RG,51.6213,0.3047
Rossi ,CM14 4RG,51.6213,0.3047
Wildwood,CM14 4RG,51.6213,0.3047
Nandos,CM14 4RR,51.6202,0.3006
cafe 89 Ltd t/a Eightea9,CM14 4RR,51.6202,0.3007
eastern oriental chinese restaurant ltd,CM14 4RW,51.6207,0.3017
Chick N Shack,CM14 4RX,51.6199,0.2991
Prezzo,CM14 4RZ,51.6196,0.2981
Bardswell Social Club and Institute Limited,CM14 4TJ,51.6213,0.2969
Pizza Hut,CM14 5HA,51.6118,0.2990
The Essex Arms,CM14 5HA,51.6118,0.2990
Ubaid Limited,CM14 5HA,51.6119,0.2990
Juboraj Tandoori,CM14 5HR,51.6123,0.2986
dw cafe & sports bar ,CM14 5LF,51.6050,0.3007
The Bull Brentwood,CM14 5LZ,51.6120,0.2744
mizu ,CM14 5NA,51.6094,0.2659
THE BRENTWOOD KITCHEN,CM15 8AA,51.6214,0.3071
Woodland coffee shop,CM15 9AU,51.6220,0.3053
SOULSUB LIMITED,DA1 1AS,51.4464,0.2168
Dartford Dosahouse ,DA1 1BE,51.4450,0.2168
Le Tre Sorelle,DA1 1BX,51.4452,0.2164
The Coffee House,DA1 1DE,51.4442,0.2196
Efes Turkish Restaurant ,DA1 1DS,51.4439,0.2194
Esquires Coffee Dartford,DA1 1DT,51.4441,0.2181
Royal Victoria & Bull Hotel,DA1 1DU,51.4444,0.2171
The Royal Victoria and Bull Hotel,DA1 1DU,51.4444,0.2171
Costa Coffee,DA1 1DY,51.4475,0.2164
Pizza Hut Restaurant,DA1 1DY,51.4475,0.2164
Pizza Hut Delivery,DA1 1ET,51.4435,0.2196
Sedir Restaurant,DA1 1EW,51.4432,0.2164
New York Deli ,DA1 1EX,51.4438,0.2189
McDonalds,DA1 1EY,51.4438,0.2184
Emochi Cafe ,DA1 1HD,51.4436,0.2173
Principals By CH&Co @ West Hill Primary School,DA1 1HJ,51.4420,0.2161
Cafe in the Park,DA1 1JP,51.4389,0.2174
Hawley kitchen ,DA1 1PX,51.4268,0.2274
Olive Dining @ Dartford Primary Academy (Juniors),DA1 1SQ,51.4415,0.2283
Olive Dining @ Dartford Primary Academy (Infants),DA1 1TE,51.4441,0.2279
McDonald's,DA1 1YT,51.4377,0.2371
McDonalds,DA1 1YT,51.4377,0.2371
Time and Plaice,DA1 2DL,51.4443,0.2164
Caffe Pausa @ Dunelm,DA1 2DS,51.4390,0.2023
The Jafflong,DA1 2DT,51.4449,0.2138
Ena Sandwiches,DA1 2EF,51.4455,0.2087
PEKING GARDEN,DA1 2EH,51.4455,0.2133
Sunflower cafe,DA1 2HL,51.4440,0.2163
KFC,DA1 2HR,51.4440,0.2161
McDonald's,DA1 2HR,51.4440,0.2162
Dartford Priory KFC Store ,DA1 2HS,51.4437,0.2163
Principals By CH&Co @ Our Ladys R C Primary School,DA1 2HX,51.4470,0.2082
Olive Dining @ Dartford Grammar School For Girls,DA1 2NT,51.4434,0.2039
Principals By CH&Co @ Oakfield Primary School,DA1 2SW,51.4338,0.2119
Gill's Fish Bar,DA1 3JP,51.4434,0.1912
Spice Fusion ,DA1 3QA,51.4497,0.1815
British Raj,DA1 4EF,51.4533,0.1768
Assos Restaurant,DA1 4ES,51.4510,0.1790
Crayford KFC Store,DA1 4ES,51.4510,0.1791
KFC,DA1 4FY,51.4508,0.1781
T/A New Princess Garden,DA1 4JD,51.4527,0.1790
Nando's,DA1 4LD,51.4513,0.1819
CH&CO Catering Ltd @ Holy Trinity Church Of England School,DA1 5AF,51.4525,0.2063
KAANAA LTD,DA1 5FP,51.4615,0.2267
Principals By CH&Co @ Temple Hill Primary School,DA1 5ND,51.4528,0.2299
Europa Worldwide group,DA1 5PZ,51.4612,0.2472
Olive Dining @ Cherry Orchard Primary Academy,DA10 1AD,51.4378,0.3048
Caffe Nero,DA10 1EB,51.4429,0.3209
COSTA COFFEE - GRAVESEND ,DA11 0AA,51.4427,0.3676
Coffee Republic Gravesend ,DA11 0AA,51.4427,0.3676
Costa Coffee,DA11 0AA,51.4427,0.3677
Sultan Sofrasi,DA11 0AB,51.4426,0.3664
Burger King,DA11 0AF,51.4423,0.3678
McDonald's,DA11 0AF,51.4423,0.3678
McDonalds,DA11 0AF,51.4423,0.3678
Pad Thai Live,DA11 0AZ,51.4432,0.3698
The sausage shop,DA11 0AZ,51.4432,0.3698
Marie's Tea Room,DA11 0BA,51.4438,0.3696
Northman Coffee Limited,DA11 0BB,51.4436,0.3693
Three Daws Riverside Inn,DA11 0BJ,51.4450,0.3694
Julius Caesar Italian ,DA11 0BQ,51.4445,0.3698
Gandhi restaurant ,DA11 0BS,51.4450,0.3673
Galms Ltd (McDonald's),DA11 0DQ,51.4442,0.3604
McDonalds @ Asda Gravesend,DA11 0DQ,51.4442,0.3604
Pizza Hut Restaurant,DA11 0DQ,51.4442,0.3604
Sie's Pie & Mash,DA11 0TA,51.4430,0.3668
Eastgate coffee shop limited,DA11 8AD,51.4331,0.3318
The Six Bells,DA11 8BT,51.4322,0.3471
KFC,DA11 8QU,51.4341,0.3523
Pizza Hut,DA11 8QU,51.4341,0.3523
Gingers Cafe and Sandwich Bar ,DA11 8RA,51.4340,0.3531
Northfleet Fishbar,DA11 8RA,51.4340,0.3531
Kimberley Clark,DA11 9AD,51.4446,0.3399
COSTA COFFEE - EBBSFLEET,DA11 9BJ,51.4493,0.3208
Costa Coffee,DA11 9BJ,51.4493,0.3208
White Eagle Pl Ltd,DA11 9EX,51.4434,0.3364
Hot Rod Diner Ltd,DA11 9HJ,51.4453,0.3294
Ye Olde Leather Bottel,DA11 9PH,51.4415,0.3379
The Marlin Plaice ,DA12 1AD,51.4417,0.3696
sukhothai restaurant ,DA12 1AD,51.4417,0.3696
Alto Gusto ,DA12 1AS,51.4406,0.3694
CHINA GARDEN,DA12 1AS,51.4404,0.3693
The invicta Bar,DA12 1AS,51.4406,0.3694
Twin Dynasty,DA12 1BA,51.4397,0.3692
Shapla Indian Resturant,DA12 1ER,51.4400,0.3709
The Pantry,DA12 1ER,51.4400,0.3710
Curry Mecca,DA12 1EW,51.4413,0.3706
Tufail Indian Restaurant,DA12 1EZ,51.4382,0.3724
prince of orange,DA12 1NJ,51.4327,0.3705
FirstPort - Nelson Court,DA12 1PL,51.4333,0.3738
No.84,DA12 1QF,51.4318,0.3752
PANTHEON GRAVESEND LTD,DA12 2EB,51.4424,0.3706
reliance fish restaurant,DA12 2EE,51.4428,0.3714
ESS Compass Group @ The Met Police Special Training Centre,DA12 2HN,51.4409,0.4048
SHIP AND LOBSTER,DA12 2QB,51.4422,0.3973
TNS Catering_Moove,DA12 2QX,51.4395,0.3920
Rasoighar,DA12 2RE,51.4421,0.3717
Creams,DA12 2RF,51.4415,0.3745
V's Punjabi Grill at the Canal Tavern,DA12 2RS,51.4418,0.3843
Rose & Crown Public House,DA12 3EA,51.4140,0.4307
Inn on the Lake hotel,DA12 3HB,51.4030,0.4073
Southern Valley Golf Course Ltd,DA12 4LT,51.4192,0.4045
KFC,DA12 5RT,51.4285,0.3851
Best Western Manor Hotel,DA12 5UQ,51.4114,0.3769
Kohinoor Restaurant ,DA13 9JF,51.4060,0.3529
Principals By CH&Co @ Sedley C Of E Primary School,DA13 9NQ,51.4131,0.3166
The Ship Inn Southfleet ,DA13 9NS,51.4159,0.3203
Millbrook Garden Centre - The Mill,DA13 9PA,51.4208,0.3115
Honeydale Farm Shop and Tea Room,DA14 5AW,51.4139,0.1347
RUXLEY MANOR GARDEN CENTRE LTD,DA14 5BQ,51.4114,0.1328
WHITE CROSS INN,DA14 5EL,51.4303,0.1388
Kelsey's Kitchen,DA14 5ET,51.4327,0.1393
SAL'S CAFE,DA14 5HB,51.4167,0.1231
ROYAL RADHUNY,DA14 5HF,51.4205,0.1323
Galms Ltd (McDonald's),DA14 5JA,51.4097,0.1443
McDonalds,DA14 5JA,51.4097,0.1443
Caffe Nero,DA14 6DJ,51.4267,0.1014
McDonalds,DA14 6DS,51.4262,0.1019
Costa Coffee,DA14 6ED,51.4262,0.1036
The Kitchen ,DA14 6ED,51.4262,0.1036
The Kitchen,DA14 6ED,51.4262,0.1036
COSTA COFFEE - SIDCUP HIGH STREET,DA14 6EH,51.4258,0.1039
KFC,DA14 6EP,51.4250,0.1062
Sidcup KFC Store,DA14 6EP,51.4250,0.1062
The Darjeeling ,DA14 6ES,51.4248,0.1059
Papadam,DA14 6HJ,51.4241,0.1076
MOGHUL,DA14 6ND,51.4267,0.1001
Prezzo,DA14 6ND,51.4267,0.1001
Pizza Express,DA14 6NF,51.4263,0.1001
MOSTLIKE LTD,DA14 6QF,51.4307,0.0835
Appleyard,DA15 7AA,51.4352,0.1019
Jalsha tandoori restaurant ,DA15 7AA,51.4352,0.1019
COSTA COFFEE - SIDCUP STATION,DA15 7AX,51.4333,0.1024
Costa Coffee,DA15 7AX,51.4333,0.1024
KASPAS DESSERTS - SIDCUP ,DA15 7AX,51.4333,0.1024
The Elephant London,DA15 7AX,51.4331,0.1024
TOSCANA RESTAURANT LTD,DA15 7DH,51.4326,0.1023
Curry Mahal ,DA15 7DN,51.4321,0.1023
Hello Burger Sidcup,DA15 7DU,51.4314,0.1025
For 4Brothers Ltd T/A Maharani,DA15 8DJ,51.4411,0.0872
Shish restaurant 1993,DA15 8DJ,51.4411,0.0872
Chefs kitchen ,DA15 8PW,51.4506,0.1017
Sidcup Leisure Centre,DA15 9AE,51.4350,0.1057
Havard Catering Services at Sidcup Golf Club,DA15 9AW,51.4389,0.1122
El Iberico ,DA15 9ER,51.4451,0.1023
OVAL CAFE LIMITED,DA15 9ER,51.4451,0.1024
Oval spice ltd,DA15 9ER,51.4451,0.1024
PRIDE OF INDIA,DA15 9ER,51.4451,0.1024
The Banana Garden,DA15 9ER,51.4451,0.1023
Saffron Indian Diner ,DA15 9JN,51.4474,0.1176
Blackfen Cafe,DA15 9LU,51.4502,0.1043
COSTA COFFEE - BLACKEN ,DA15 9LU,51.4503,0.1043
Costa Coffee,DA15 9LU,51.4502,0.1043
Doan gia,DA15 9NB,51.4506,0.1046
Sidcup Dawat Ltd,DA15 9NB,51.4506,0.1046
HAPPY BELLYS,DA16 1ST,51.4617,0.1143
Noodle City,DA16 1TJ,51.4622,0.1084
Saray Restaurant,DA16 1TQ,51.4619,0.1112
Balseros Latino Bar and Restaurant,DA16 1TR,51.4619,0.1137
Luso Flavours,DA16 1TR,51.4621,0.1126
KOFFI POT LTD,DA16 1TY,51.4625,0.1088
UTKU CAFE LTD,DA16 1TY,51.4625,0.1088
Falcon Tandoori,DA16 2PL,51.4567,0.0945
Olive Dining At Eastcote Primary School,DA16 2ST,51.4640,0.0841
TASTY CHICKEN PIZZA & GRILL LIMITED,DA16 3AA,51.4629,0.1084
Pizza Hut,DA16 3AD,51.4640,0.1087
WELLING CHICKS LTD,DA16 3AX,51.4642,0.0998
Totlins,DA16 3DP,51.4669,0.1101
WIMPY,DA16 3HE,51.4629,0.1077
Chupitos Tapas Bar and Restaurant ,DA16 3HF,51.4634,0.1079
Mums cafe,DA16 3HF,51.4636,0.1080
pie and mash shop,DA16 3HF,51.4636,0.1080
The Green Man Sunset Restaurant,DA16 3NL,51.4669,0.0922
Maison Parisienne,DA16 3PA,51.4625,0.1068
Espresso Bar ,DA16 3PB,51.4628,0.1044
KFC,DA16 3PB,51.4628,0.1044
A&A ASSOCIATES (LONDON) LIMITED,DA16 3PG,51.4632,0.1023
New Ming Restaurant,DA16 3PG,51.4632,0.1023
New Ming,DA16 3PG,51.4632,0.1023
Cruffins,DA16 3PY,51.4632,0.1042
Galms Ltd (McDonald's),DA16 3PY,51.4632,0.1042
Sub Way,DA16 3QB,51.4634,0.1027
MKA Foods LTD T/A New Curry Centre,DA16 3QD,51.4636,0.1017
Akrbf Ltd,DA16 3QR,51.4639,0.0997
K’s Café ,DA16 3QR,51.4639,0.0997
CAFE DELUXE WELLING LTD,DA16 3RW,51.4663,0.0856
Starbucks,DA17 6FD,51.4969,0.1565
Compass Group At Lessness Heath Primary School,DA17 6HB,51.4840,0.1503
 The Royal Tandoori,DA2 6AN,51.4429,0.2423
Miller & Carter,DA2 6NQ,51.4377,0.2413
Stone valley lodge Ltd,DA2 6PD,51.4471,0.2466
Thermo Fisher,DA2 6PT,51.4581,0.2534
COSTA COFFEE - DARTFORD ,DA2 6QE,51.4529,0.2537
Costa Coffee,DA2 6QE,51.4529,0.2537
Campanile Dartford,DA2 6QN,51.4583,0.2553
Laing O Rourke,DA2 6SN,51.4554,0.2543
Principals By CH&Co @ Wilmington C P School,DA2 7DF,51.4273,0.1980
Birchwood Park Golf & Country Club,DA2 7HJ,51.4127,0.1604
Rowhill Grange Hotel and Spa,DA2 7QH,51.4181,0.1888
Principals By CH&Co @ Maypole Primary School,DA2 7UZ,51.4312,0.1747
Principals By CH&Co @ Bean Primary School,DA2 8AL,51.4263,0.2896
Costa Coffee,DA2 8DA,51.4351,0.2581
Green Spice ,DA2 8DP,51.4136,0.2769
Bexley Kitchen,DA5 1AA,51.4418,0.1500
Tanyard Lane Bar & Kitchen ,DA5 1AA,51.4418,0.1500
Melucci's Italian delicatessen ltd,DA5 1AB,51.4415,0.1480
Ferrari's Restaurant Bexley Village,DA5 1AD,51.4416,0.1472
COSTA COFFEE - BEXLEY,DA5 1AF,51.4416,0.1472
Costa Coffee,DA5 1AF,51.4416,0.1472
Coffee Mill and Kitchen,DA5 1AH,51.4413,0.1490
Greys tea and coffee house,DA5 1AH,51.4413,0.1491
Pizza Place,DA5 1BT,51.4480,0.1215
SAGGOR TANDOORI,DA5 1BT,51.4480,0.1215
Anchor,DA5 1JE,51.4453,0.1338
Baltizer ,DA5 1LA,51.4410,0.1507
ALBERELLO LIMITED,DA5 1LB,51.4415,0.1505
Bexley Greek Taverna,DA5 1LB,51.4415,0.1505
LILYCROSS LIMITED T/AS MAHARAJAH OF BEXLEY,DA5 1LB,51.4415,0.1505
Holiday Inn London Bexley,DA5 1ND,51.4464,0.1541
Riverside Cafe,DA5 1PQ,51.4480,0.1602
Fortune Inn,DA5 3HG,51.4360,0.1276
Ruchi Restaurant Limited,DA5 3HG,51.4360,0.1276
il vesuvio restaurant,DA6 7AD,51.4561,0.1428
The Cafe ,DA6 7AT,51.4556,0.1536
Beirut city Lebanese restaurant ,DA6 7AU,51.4578,0.1383
Masala Inn,DA6 7AU,51.4578,0.1383
Thai Bexleyheath,DA6 7BD,51.4576,0.1394
Bexleyheath KFC Store,DA6 7BT,51.4574,0.1405
KFC,DA6 7BT,51.4574,0.1405
Adels ,DA6 7DE,51.4567,0.1454
Tom Bells,DA6 7DE,51.4567,0.1454
Subway,DA6 7DQ,51.4570,0.1444
The Kings Arms,DA6 7DW,51.4570,0.1430
Nando's,DA6 7DZ,51.4568,0.1469
cafe Mojito,DA6 7EJ,51.4572,0.1394
Pizza Express,DA6 7ES,51.4569,0.1408
The Rose Public House,DA6 7ES,51.4569,0.1408
Delicio - Bexleyheath,DA6 7EY,51.4568,0.1415
Bexleyheath Conservative Club t/a 1V1 Club,DA6 7EZ,51.4568,0.1422
Creams,DA6 7EZ,51.4568,0.1421
TANDAG LIMITED TA ISTANBUL KITCHEN ,DA6 7EZ,51.4568,0.1421
TTH ENTERPRISE LTD,DA6 7EZ,51.4568,0.1422
Caffe Nero,DA6 7HF,51.4566,0.1437
FA Group Ltd T/A Muffin Break,DA6 7HF,51.4566,0.1437
Burger King,DA6 7JJ,51.4559,0.1461
Galms Ltd (McDonald's),DA6 7JN,51.4561,0.1461
Starbucks,DA6 7JN,51.4561,0.1461
Cast Iron Restaurant & Brew Bar,DA6 7JZ,51.4550,0.1521
The Prince Albert,DA6 7LE,51.4555,0.1527
Twin Palace,DA6 7LE,51.4555,0.1527
Buzz Bingo,DA6 7LL,51.4563,0.1500
Zizzi,DA6 7LL,51.4563,0.1500
Tenpin Bowling,DA6 7LS,51.4550,0.1461
Hazine,DA6 8AJ,51.4582,0.1344
Aligor Restaurant,DA6 8BE,51.4581,0.1355
Cuore Food From The Earth Limited,DA6 8BE,51.4581,0.1355
Winiks Bakery Limited,DA6 8BE,51.4581,0.1355
Stuzzichini,DA6 8DB,51.4575,0.1378
THE M KITCHEN,DA6 8DB,51.4574,0.1373
Zingara,DA6 8DG,51.4578,0.1352
The Jasmine by Spice Nouv-Oh!,DA6 8DT,51.4578,0.1330
VIET VIAND,DA6 8DT,51.4580,0.1341
Elior At EDF Energy Bexleyheath,DA6 8ET,51.4574,0.1374
Fleur de The Ltd,DA6 8HL,51.4558,0.1226
Bexleyheath golf club ,DA6 8JS,51.4521,0.1293
Glasshouse restaurant ,DA7 4EG,51.4628,0.1325
Ming of the Avenue,DA7 4EG,51.4628,0.1326
Crook Log Leisure Centre,DA7 4HH,51.4603,0.1245
Spice of India,DA7 4QW,51.4644,0.1331
Zanz Cafe,DA7 4QW,51.4644,0.1331
Bakery,DA7 4RD,51.4643,0.1325
Bombay Balti House ,DA7 5AE,51.4659,0.1457
Compass Group At Mayplace Primary School,DA7 6EQ,51.4569,0.1667
Jalsha 2(Tandoori Restaurant),DA7 6HJ,51.4672,0.1582
Spice onamika,DA7 6HJ,51.4672,0.1582
Elior At Tesco Fulfillment Centre Erith,DA8 1DE,51.4935,0.1699
Jade Garden,DA8 1HN,51.4735,0.1609
Korede's Africoal ,DA8 1JJ,51.4722,0.1595
parkview cafe,DA8 1PP,51.4838,0.1658
De White Hart restaurant ltd,DA8 1QY,51.4817,0.1810
Starburger ,DA8 1RB,51.4801,0.1790
McDonald's Restaurants,DA8 1RN,51.4784,0.1808
The Exchange Erith Ltd,DA8 1RS,51.4814,0.1778
Mambocino cafe,DA8 1SE,51.4805,0.1806
Riverside Steak and Fish House,DA8 1SE,51.4805,0.1802
k's spice african restaurant ,DA8 1TA,51.4801,0.1791
Erith KFC Store,DA8 2AB,51.4783,0.1828
KFC Erith,DA8 2AB,51.4783,0.1828
Forest cafe,DA8 2NU,51.4684,0.1907
The Chefs Table,DA8 2PP,51.4737,0.1820
Erith Leisure Centre,DA8 3AT,51.4770,0.1744
ERITH SUBWAY,DA8 3EX,51.4733,0.1628
Pizza Hut Delivery,DA8 3EX,51.4733,0.1628
Compass Group At Barnehurst Infant & Junior School,DA8 3NL,51.4698,0.1617
Burger King,DA9 9AP,51.4518,0.2650
Subway Restaurant,DA9 9BT,51.4525,0.2752
McDonald's,DA9 9HY,51.4486,0.2798
McDonalds,DA9 9HY,51.4486,0.2798
Ori Caffe,DA9 9SA,51.4405,0.2715
Yo Sushi,DA9 9SA,51.4405,0.2715
Cafe Nero,DA9 9SB,51.4390,0.2679
Costa Coffee,DA9 9SE,51.4394,0.2692
Pizza Express,DA9 9SE,51.4394,0.2692
The Daily Grind,DA9 9SE,51.4398,0.2693
Zizzi,DA9 9SE,51.4394,0.2692
Bluewater KFC Store ,DA9 9SF,51.4393,0.2725
Costa Coffee,DA9 9SF,51.4393,0.2725
Galms Ltd (McDonald's),DA9 9SF,51.4393,0.2725
KFC,DA9 9SF,51.4393,0.2725
McDonalds,DA9 9SF,51.4393,0.2725
Nando's,DA9 9SF,51.4393,0.2725
SIZZLED,DA9 9SF,51.4393,0.2725
Shawa Bluewater,DA9 9SF,51.4393,0.2725
Tortilla,DA9 9SF,51.4393,0.2725
Wasabi Sushi And Bento,DA9 9SF,51.4393,0.2725
Wingstop Bluewater,DA9 9SF,51.4392,0.2733
Ask Italian,DA9 9SG,51.4377,0.2714
Costa at Showcase Cinema de Lux Bluewater,DA9 9SG,51.4377,0.2714
Five Guys,DA9 9SG,51.4377,0.2714
Gourmet Burger Kitchen (GBK),DA9 9SG,51.4370,0.2709
Nando's,DA9 9SG,51.4370,0.2709
Pizza Express,DA9 9SG,51.4370,0.2709
Rosa's Thai Cafe,DA9 9SG,51.4370,0.2709
Wagamama,DA9 9SG,51.4370,0.2709
Cocoba,DA9 9SH,51.4393,0.2725
Pret A Manger,DA9 9SH,51.4393,0.2725
Cafe Nero,DA9 9SP,51.4393,0.2725
Starbucks,DA9 9SP,51.4393,0.2725
Coffee Republic,DA9 9SQ,51.4383,0.2709
Costa Coffee,DA9 9SQ,51.4383,0.2709
Starbucks,DA9 9SS,51.4392,0.2702
Comptoir Bluewater,DA9 9ST,51.4394,0.2729
Gravity - Bluewater,DA9 9ST,51.4394,0.2729
SPUDULIKE BLUEWATER,DA9 9ST,51.4394,0.2729
Tapas Revolution Bluewater,DA9 9ST,51.4394,0.2729
Wasabi Sushi & Bento,DA9 9ST,51.4394,0.2729
Yangzte Blue Water,DA9 9ST,51.4394,0.2729
Zabardast,DA9 9ST,51.4394,0.2729
Pizza Hut Restaurant,DA9 9SX,51.4380,0.2753
Nandos Chickenland Limited,E6 7ER,51.5170,0.0803
SOM Restaurants ltd,E6 7ER,51.5172,0.0803
Costa Coffee,E6 7FB,51.5122,0.0772
McDonalds - Gallions,E6 7FD,51.5176,0.0757
McDonalds Restaurants Ltd,IG1 1NE,51.5599,0.0770
SOM Restaurants ltd,IG1 1NE,51.5599,0.0770
Halal Foods (UK) Ltd T/A Ali Curry House ,IG1 1NR,51.5607,0.0809
I E foods ltd,IG1 1NR,51.5607,0.0808
KFC Ilford,IG1 1QB,51.5595,0.0769
KFC,IG1 1QB,51.5595,0.0769
R 2 R LTD T/A BBQ EXPRESS ILFORD,IG1 1QB,51.5595,0.0769
Spice khazana Ltd,IG1 1QF,51.5600,0.0791
Indi Spices,IG1 1QW,51.5604,0.0813
Punjabi tadka,IG1 1QW,51.5603,0.0811
Tabla Restaurant,IG1 1QW,51.5604,0.0813
Subhaan Caterers Ltd,IG1 1TH,51.5614,0.0842
Colony Restaurant,IG1 1UE,51.5625,0.0913
TAJ CATERING EVENTS LIMITED,IG1 1UE,51.5624,0.0915
Cakes and craves,IG1 1UF,51.5616,0.0897
The Secret garden steakhouse,IG1 1UF,51.5616,0.0897
Gymkhana,IG1 1XT,51.5597,0.0939
Lokanta ,IG1 1XW,51.5590,0.0898
Franzos,IG1 2LT,51.5481,0.0760
AL FATH LTD,IG1 2LZ,51.5478,0.0760
Eden peri peri ,IG1 2SD,51.5502,0.0751
Chicken & Pizza 4U,IG1 2SN,51.5465,0.0768
APPACHI RESTAURANT LTD t/as Fireaway Pizza Ilford,IG1 4AA,51.5643,0.0828
Crave London,IG1 4AA,51.5643,0.0828
Fusion Exclusive Shisha Lounge,IG1 4BH,51.5615,0.0761
Dixy Chicken,IG1 4BL,51.5623,0.0776
Al Qasr Restaurant ,IG1 4BS,51.5636,0.0824
Powerleague Fives Ltd / Norwegian Playing Fields,IG11 0AA,51.5248,0.0786
Big Moe's Diner,IG11 0AD,51.5256,0.0799
Black&White Lounge restaurant,IG11 0AD,51.5256,0.0799
Mylahore,IG11 0AD,51.5244,0.0780
Bravewin Ltd,IG11 0BL,51.5273,0.0911
The Boat House Cafe and Bar,IG11 7BT,51.5315,0.0760
JULIENEST CATERING SERVICES LTD,IG11 8AG,51.5383,0.0781
CRISTINA'S STEAK LTD,IG11 8AW,51.5366,0.0769
Caffe Latte,IG11 8DG,51.5379,0.0812
COSTA COFFEE,IG11 8EA,51.5392,0.0816
Dixy Chicken,IG11 8EA,51.5393,0.0816
Kebabish Hut,IG11 8EA,51.5393,0.0816
SBR Trading Limited T/A Costa Coffee,IG11 8EA,51.5392,0.0816
KFC,IG11 8EB,51.5391,0.0805
Lituanica Barking,IG11 8EQ,51.5376,0.0794
SOM Restaurants ltd,IG11 8ER,51.5368,0.0777
Nando's Chickenland Ltd,IG11 8RR,51.5399,0.0824
CHINA FRIEND LTD,IG11 8RT,51.5405,0.0832
Pizza Di legno,IG11 8SF,51.5415,0.0849
Popeyes,IG11 8SF,51.5414,0.0846
ariana Restaurant Barking,IG11 8SF,51.5413,0.0846
Caribiscus Carribean & Takeaway,IG11 8TB,51.5417,0.0845
Pizza Hut,IG11 8TB,51.5417,0.0845
Azan Grill ,IG11 8TG,51.5414,0.0838
The Big Friendly Coffee,IG11 8UD,51.5470,0.0927
RERHOU TRADE LIMITED,IG11 8UF,51.5465,0.0919
RITCHIES CAFE LTD T/A Ritchies Fresh Bake,IG11 8UN,51.5453,0.0931
Elior UK Ltd,IG11 9PH,51.5394,0.0988
Buon appetito cafe,IG11 9RS,51.5354,0.0943
VIJAYS VIRASAT LIMITED,IG2 6BE,51.5744,0.0839
Banana Leaf Restaurant Ltd,IG2 7DE,51.5729,0.0838
Mirage Restaurant,IG2 7HU,51.5733,0.0843
McDonald's Newbury Park,IG2 7RH,51.5739,0.0842
Newbury Park Hotels Ltd,IG2 7RH,51.5742,0.0854
Miller & Carter at the Dick Turpin,IG2 7TD,51.5861,0.1027
delhi o delhi,IG3 8BY,51.5632,0.0976
Pit-Stop,IG3 8EG,51.5628,0.0927
Kings grill restaurant ,IG3 8EZ,51.5714,0.0960
Masala 910,IG3 8JB,51.5722,0.0952
Chicken House,IG3 8RA,51.5645,0.0980
GRILLER,IG3 8RA,51.5645,0.0980
Kukus Piri Piri,IG3 8RA,51.5645,0.0980
Rose Cafe,IG3 8RA,51.5645,0.0980
AA Dream factory ltd T/A Subway,IG3 8RH,51.5649,0.1008
EXCELLENT FOOD LTD T/A Original Fried Chicken,IG3 8RH,51.5650,0.1010
McCaffertys Ilford,IG3 8RH,51.5650,0.1011
FUSION FOOD T/A GOURMET GRILL,IG3 8RL,51.5653,0.1026
Wok Wala Street Kitchen ,IG3 8RL,51.5653,0.1026
MUZIRIS,IG3 8RN,51.5655,0.1036
KFC Seven Kings,IG3 8RQ,51.5648,0.0998
Kebabish Original,IG3 8RQ,51.5648,0.0997
McDonalds Restaurants Ltd,IG3 8RS,51.5654,0.1047
SOM Restaurants ltd,IG3 8RS,51.5654,0.1047
Peshawar Grill Ltd T/A Khyber Grill,IG3 8RW,51.5659,0.1053
Iman Restaurant and Takeaway,IG3 8TD,51.5665,0.1086
a STAR eATERY,IG3 8TD,51.5665,0.1087
Mehak Grill House,IG3 8TH,51.5665,0.1101
Central Restaurant and Lounge,IG3 9TN,51.5604,0.0951
FAT CAFE DINER,IG3 9UB,51.5635,0.1105
GRILL HOUSE LONDON LTD T/A GRILLER,IG3 9UB,51.5635,0.1104
Amira’s Coffee House & Garden,IG3 9UD,51.5640,0.1105
Costa Coffee,IG3 9UH,51.5657,0.1106
Scoffs Essex Ltd t/a Costa Coffee Goodmayes,IG3 9UH,51.5657,0.1106
Yummy chicken ,IG3 9UN,51.5663,0.1103
Jericho,IG3 9UZ,51.5635,0.1099
Cafe 104 Ltd,IG6 1QE,51.5882,0.0825
ABSHAR INDIAN CUISINE ,IG6 2AD,51.5898,0.0814
BARKINGSIDE KEBABISH LIMITED,IG6 2AD,51.5898,0.0814
ksr bakers uk ltd t/a cakes & bakes,IG6 2AD,51.5898,0.0814
Dixy Fried Chicken & Pizza,IG6 2AF,51.5905,0.0819
Costa Coffee,IG6 2AH,51.5914,0.0827
Scoffs Essex Ltd t/a Costa Coffee Barkingside,IG6 2AH,51.5914,0.0827
Spice,IG6 2AH,51.5914,0.0827
C&C Barkingside Limited t/as Cookies & Cream,IG6 2AJ,51.5927,0.0839
KFC Barkingside,IG6 2AJ,51.5927,0.0838
Qubros Ltd T/As Rossi Bros,IG6 2AJ,51.5927,0.0838
Rowans Coffee Shop Ltd,IG6 2AJ,51.5927,0.0839
McDonald's Barkingside,IG6 2AW,51.5889,0.0807
McDonalds Restaurants Ltd,IG6 2AW,51.5889,0.0807
Papa Johns - BARKINGSIDE,IG6 2AW,51.5889,0.0807
Pizza Hut,IG6 2DF,51.5889,0.0813
Maison Fraise,IG6 2DQ,51.5895,0.0818
SUBWAY,IG6 2DQ,51.5895,0.0818
BELLAS COFFEE LTD,IG6 2DR,51.5911,0.0831
Danny's Pie and Mash,IG6 2DR,51.5911,0.0831
Sweet. Barkingside,IG6 2DU,51.5920,0.0838
Barkingside Buzz Bingo,IG6 2EF,51.5928,0.0822
Sharods Ltd,IG6 2EY,51.5935,0.0844
CAFE ILA,IG6 2LD,51.6023,0.0839
Monsoon Restaurant,IG6 2UE,51.6027,0.0869
New Old Parks Pavilion ,IG6 3HD,51.5961,0.0906
Powerleague,IG6 3HJ,51.5992,0.1003
Silantro Ltd,IG6 3SL,51.6041,0.1175
Indian Ocean,IG7 5QB,51.6131,0.0911
Lionsgate,IG7 5QB,51.6130,0.0910
The Two Brewers ,IG7 6ET,51.6217,0.1206
Papillon Ristorante Italiano,IG7 6PF,51.6195,0.0751
KASPAS DESSERTS - ROMFORD ,RM1 1AU,51.5760,0.1807
McDonald's Romford Brewery,RM1 1AU,51.5760,0.1807
McDonalds,RM1 1AU,51.5760,0.1807
Namco Funscape,RM1 1AU,51.5760,0.1807
Nandos,RM1 1AU,51.5760,0.1807
Patisserie Valerie,RM1 1AU,51.5760,0.1807
Pizza Express,RM1 1AU,51.5760,0.1807
Starbucks Coffee,RM1 1AU,51.5760,0.1801
TGI Fridays,RM1 1AU,51.5768,0.1802
Zizzi,RM1 1AU,51.5760,0.1807
Cafe Chateau,RM1 1BH,51.5793,0.1798
Ratik limited,RM1 1BH,51.5792,0.1798
OPERA RESTAURANT ,RM1 1DA,51.5807,0.1783
BESITO LIMITED T/A CAFE BUENO ,RM1 1HR,51.5781,0.1791
Jacksons Cafe,RM1 1JL,51.5772,0.1783
Market Cafe,RM1 1JL,51.5772,0.1783
Taste of East Ltd,RM1 1JL,51.5772,0.1784
Divan cafe,RM1 1JU,51.5781,0.1800
CREAM TOWN LTD,RM1 1NJ,51.5781,0.1811
Costa Coffee,RM1 1NL,51.5769,0.1822
KFC Romford,RM1 1NL,51.5770,0.1821
Ciao Bella,RM1 1NX,51.5760,0.1831
McDonald's Romford,RM1 1NX,51.5760,0.1831
Mcdonalds,RM1 1NX,51.5760,0.1831
Express Kebab House,RM1 1PS,51.5738,0.1843
BUNNO,RM1 1RA,51.5779,0.1805
Burger King,RM1 1RB,51.5770,0.1812
KFC,RM1 1RB,51.5770,0.1812
RODIZIO LIMITED,RM1 1RS,51.5763,0.1816
Remman Ltd,RM1 1RX,51.5759,0.1825
SUBWAY,RM1 1RX,51.5759,0.1823
JRL & Co Ltd c/o The brickyard,RM1 2AD,51.5709,0.1851
cafe shot,RM1 2EL,51.5720,0.1910
S J FOOD SERVICES LTD T/A DIXY CHICKEN,RM1 2EU,51.5719,0.1889
Asia Spice ,RM1 2JH,51.5746,0.1860
Delhi Live,RM1 2JH,51.5746,0.1860
Pearl dragon romford,RM1 2JH,51.5746,0.1860
jumeirah palm lounge ltd,RM1 2JH,51.5746,0.1860
Bekash Tandoori,RM1 2LA,51.5749,0.1871
Koko cafe ,RM1 2LX,51.5762,0.1902
The Hideout,RM1 3AB,51.5800,0.1823
BB's Coffee and Muffins Romford ,RM1 3EE,51.5793,0.1851
CAFFE Della Continental,RM1 3EE,51.5794,0.1857
Della Continental,RM1 3EE,51.5794,0.1857
McDonald's Romford 2,RM1 3EE,51.5793,0.1851
McDonalds,RM1 3EE,51.5793,0.1851
Mecca Bingo Ltd,RM1 3EE,51.5793,0.1851
Subway,RM1 3EE,51.5793,0.1851
TeaTots,RM1 3EE,51.5793,0.1851
NEGRO LIMITED T/A CAFE FINO ,RM1 3ER,51.5795,0.1829
Poppins cafe restaurant ,RM1 3LD,51.5770,0.1832
KK Foods Ltd,RM1 3RH,51.5776,0.1834
Super Sushi,RM1 3RJ,51.5770,0.1827
EL MEXICANA,RM1 3RL,51.5784,0.1837
Starbucks,RM1 3RR,51.5778,0.1839
Cafe Liberty ,RM1 3RT,51.5794,0.1837
Small Talk Tearooms,RM1 3RT,51.5794,0.1839
The Eastbrook,RM10 7UP,51.5523,0.1645
Dixy Chicken,RM10 7UU,51.5505,0.1620
Ali’s Kitchen,RM10 7XJ,51.5458,0.1651
Gunay’s Cafe ,RM10 8YL,51.5427,0.1659
Pizza Hut,RM10 9HP,51.5366,0.1508
22 Ventidue LTD,RM10 9LH,51.5329,0.1523
Pietro's Cafe,RM10 9RR,51.5401,0.1567
Casa Mia,RM11 1DP,51.5648,0.2049
Burger King,RM11 1PZ,51.5653,0.1934
KORAL'S CATERING,RM11 1QJ,51.5653,0.1992
Thai River Restaurant,RM11 1RL,51.5631,0.2197
MOTHER INDIA (HORNCHURCH) LTD,RM11 1SU,51.5677,0.2203
KFC,RM11 1TP,51.5633,0.2153
Tarantino LTD,RM11 1TP,51.5633,0.2153
Uraswamy's,RM11 1TP,51.5633,0.2153
Nes' CAFE,RM11 1TS,51.5633,0.2173
OLIMBOS LIMITED,RM11 1TS,51.5633,0.2174
Nandos,RM11 1TX,51.5628,0.2193
Wimpy,RM11 1TX,51.5627,0.2196
Pizza Hut Delivery,RM11 2LG,51.5833,0.2210
Waterfall Elior @ Havering Sixth Form College,RM11 3SU,51.5613,0.2308
Passage to india ,RM11 3XB,51.5594,0.2351
Tandoori Lounge,RM11 3XS,51.5618,0.2215
Tops cafe / asya top ltd,RM11 3XS,51.5616,0.2218
MANDARIN PALACE,RM11 3XT,51.5616,0.2236
Prezzo,RM11 3XT,51.5616,0.2236
Umberto restaurant ,RM11 3XT,51.5616,0.2236
Sukhothai Hornchurch,RM11 3YD,51.5622,0.2206
Istanbul Grill Restaurant,RM12 4RS,51.5506,0.1981
COSTA COFFEE - ELM PARK,RM12 4RX,51.5513,0.1984
Costa Coffee,RM12 4RX,51.5513,0.1984
Parkside Brasserie,RM12 4SD,51.5511,0.1997
THE TAJ,RM12 4SD,51.5511,0.1997
cardamom,RM12 4SY,51.5646,0.2018
cafe balti,RM12 4TQ,51.5650,0.1906
COSTA COFFEE - HORNCHURCH 1,RM12 4UH,51.5625,0.2183
Costa Coffee,RM12 4UH,51.5625,0.2183
The Rising Sun Pub,RM12 4UW,51.5627,0.2170
Thai House Restaurant Limited T/A Thai Orchid,RM12 5AD,51.5484,0.1994
Burger Boyz ,RM12 5AS,51.5492,0.2002
Tea Island,RM12 6AF,51.5614,0.2213
Da Vinci's,RM12 6JL,51.5608,0.2210
vertigo lounge ,RM12 6JL,51.5608,0.2210
Zizzi,RM12 6JT,51.5602,0.2209
Fireaway Pizza ,RM12 6NB,51.5606,0.2204
ONYX RESTAURANT & BAR ,RM12 6NB,51.5604,0.2203
Pride Of Hornchurch Ltd,RM12 6NB,51.5604,0.2203
SUBWAY,RM12 6NJ,51.5613,0.2205
Mustard Rainham limited,RM12 6QP,51.5612,0.2227
Taste of Bengal,RM12 6QP,51.5613,0.2228
Wildwood,RM12 6QU,51.5506,0.2076
COSTA COFFEE - HORNCHURCH 2,RM12 6QX,51.5620,0.2200
Costa Coffee,RM12 6QX,51.5620,0.2200
Starbucks Hornchurch,RM12 6QX,51.5621,0.2200
Arya's Kitchen,RM12 6RJ,51.5520,0.2188
Elior UK @ Tesco Dagenham DC,RM13 8GJ,51.5225,0.1721
KFC,RM13 8TX,51.5278,0.1882
The Munch Up,RM13 8UG,51.5164,0.1736
Cauliflower,RM13 9AA,51.5187,0.1938
Alis cafe,RM13 9BU,51.5155,0.1832
Pizza Hut Delivery,RM13 9YS,51.5186,0.1916
Can's Meze Bar ,RM14 1RQ,51.5687,0.2676
Cranham Tandoori ,RM14 1RQ,51.5687,0.2676
Upminster Garden Centre,RM14 1TS,51.5944,0.2553
Spice of India,RM14 1XJ,51.5616,0.2675
Ginger Lounge,RM14 2AA,51.5525,0.2477
Lefke ,RM14 2AD,51.5534,0.2473
Roots,RM14 2AD,51.5534,0.2473
Caffe Gelato,RM14 2AH,51.5533,0.2479
THE TEACOSY LIMITED,RM14 2AH,51.5532,0.2479
Prezzo,RM14 2AJ,51.5541,0.2484
Pizza Express,RM14 2SH,51.5564,0.2489
ACE CREAMS & TAPAS,RM14 2SJ,51.5569,0.2490
COSTA COFFEE - UPMINSTER 2,RM14 2SJ,51.5569,0.2491
Costa Coffee,RM14 2SJ,51.5569,0.2490
Sorrento restaurant,RM14 2SJ,51.5569,0.2490
The Station Pantry,RM14 2SU,51.5586,0.2496
COSTA COFFEE - UPMINSTER 1,RM14 2TR,51.5577,0.2502
Costa Coffee,RM14 2TR,51.5577,0.2502
WIMPY,RM14 2TR,51.5577,0.2502
Barracuda Fish and Chips ,RM14 2TU,51.5580,0.2503
Caffe Nero,RM14 2UB,51.5567,0.2498
The Fete Lounge ltd,RM14 2UB,51.5567,0.2498
Masala Grill Original LTD,RM14 3BL,51.5564,0.2508
T&K COFFEE LTD,RM14 3BL,51.5564,0.2508
cafe le raj/raj essex ltd,RM14 3BL,51.5564,0.2508
SWEET ROSE CAKERY LIMITED,RM14 3BS,51.5561,0.2507
Samihah limited t/a kushoom bugh,RM14 3BT,51.5562,0.2520
 VILLAGE INDIAN DINING,RM14 3BU,51.5565,0.2520
Pizza Hut Delivery,RM14 3BU,51.5565,0.2520
The Jobber's Rest,RM14 3LT,51.5577,0.2762
Jaxons eating house,RM14 3NU,51.5596,0.2848
Top Meadow Golf Centre ,RM14 3PR,51.5420,0.2989
The Old White Horse,RM14 3PS,51.5406,0.2961
Langdon Hills Golf & Country Club Ltd,RM14 3TY,51.5447,0.3952
MingLong Essex Limited,RM15 4BB,51.4990,0.2558
Taste of Aveley,RM15 4BX,51.4989,0.2546
Sir Henry’s,RM15 4XB,51.5130,0.2512
Sam's cafe,RM15 4YD,51.4965,0.2277
Compass Group UK And Ireland - Chartwells,RM15 5AY,51.5128,0.2767
The Raj Ockendon,RM15 5DX,51.5107,0.2821
Woody's,RM15 6DU,51.5131,0.2940
hevsel meze restaurants ltd,RM16 2BD,51.4981,0.3295
Burger King,RM16 3BG,51.4923,0.2723
EDC Caffe & Costa Coffee,RM16 3BG,51.4923,0.2723
Subway,RM16 3BG,51.4923,0.2723
McDonald's Orsett Cock,RM16 3BJ,51.5060,0.3825
Voujon restaurant ,RM16 3BL,51.5054,0.3827
McDonalds,RM16 3BW,51.5099,0.3964
Cafe Sartoria,RM16 3HS,51.5147,0.3710
Garden Brasserie,RM16 3HS,51.5147,0.3710
The Whitmore Arms,RM16 3LB,51.5127,0.3698
kushi,RM16 6EW,51.4862,0.2883
pepes piri piri,RM17 5DD,51.4788,0.3237
MEMEL,RM17 5HF,51.4796,0.3253
Desi Indian Dining Club,RM17 5HJ,51.4794,0.3258
New Delhi,RM17 5HJ,51.4794,0.3258
Village Indiya,RM17 5RY,51.4889,0.3409
Bombay Restaurant,RM17 5RZ,51.4889,0.3390
Pizza Hut Delivery,RM17 5RZ,51.4889,0.3390
Orchard Cafe,RM17 5SY,51.4846,0.3421
the bull public house,RM17 6EY,51.4769,0.3423
THEOBALD ARMS,RM17 6HR,51.4740,0.3224
Feast,RM17 6LU,51.4778,0.3226
KFC Grays,RM17 6LU,51.4778,0.3226
KFC,RM17 6LU,51.4778,0.3226
Nagawa ,RM17 6LU,51.4779,0.3228
Izgara Meze,RM17 6LY,51.4775,0.3225
Subway,RM17 6NB,51.4774,0.3233
Gurkha Cookhouse ,RM17 6NQ,51.4762,0.3221
Break Bar,RM17 6QE,51.4774,0.3243
Burger King,RM17 6QE,51.4771,0.3237
Costa Coffee,RM17 6QE,51.4771,0.3237
The Snack Shack,RM17 6QE,51.4771,0.3238
Wimpy ,RM17 6QE,51.4771,0.3238
Right time African restaurant ,RM18 7BJ,51.4622,0.3548
THE DOCK CAFE & RESTAURANT,RM18 7BJ,51.4622,0.3548
Restaurant Zani,RM18 7BS,51.4631,0.3538
McDonald's Tilbury,RM18 7HZ,51.4709,0.3422
McDonalds,RM18 7HZ,51.4709,0.3422
THE ROYAL HOTEL,RM19 1QA,51.4832,0.2307
Compass Group UK And Ireland - Chartwells,RM19 1QY,51.4792,0.2399
Costa Coffee,RM19 1TS,51.4860,0.2442
Best Western Thurrock Hotel ,RM19 1YN,51.4888,0.2655
Costa Coffee,RM2 5EL,51.5870,0.2005
Scoffs (Essex) Ltd t/a Costa Coffee Gidea Park,RM2 5EL,51.5869,0.2005
The Ship PH,RM2 5EL,51.5870,0.2005
Razza,RM2 5EU,51.5871,0.2026
RADHUNI RESTAURANT,RM2 5HA,51.5866,0.2009
Zaafran Indian Cuisine,RM2 5HA,51.5866,0.2009
kushi,RM2 5HS,51.5860,0.1975
STEEP HOLM LIMITED,RM2 5QB,51.5873,0.1992
Ginger Spice,RM2 5TH,51.5766,0.2066
Waterfall Elior @ Dreywood Court,RM2 6EY,51.5827,0.2139
McDonald's 289 - West Thurrock,RM20 1TX,51.4890,0.2756
Costa Coffee,RM20 1WN,51.4865,0.2782
McDonalds,RM20 1WN,51.4865,0.2782
Nandos,RM20 1WN,51.4865,0.2782
Partyman World Lakeside,RM20 1WN,51.4864,0.2761
Pizza Hut Restaurant,RM20 1WN,51.4860,0.2789
FO Leisure Ltd,RM20 2AD,51.4884,0.2816
Flip Out Lakeside,RM20 2AD,51.4884,0.2816
Hollywood Bowl,RM20 2AD,51.4884,0.2816
Nickelodeon Adventure Lakeside,RM20 2AD,51.4884,0.2816
Puttshack Lakeside,RM20 2AD,51.4884,0.2816
TGI Fridays,RM20 2AD,51.4884,0.2816
Zizzi,RM20 2AD,51.4884,0.2816
Caffe Nero,RM20 2ZF,51.4871,0.2831
Costa Coffee,RM20 2ZF,51.4871,0.2831
McDonald's 510 - Lakeside 2,RM20 2ZF,51.4871,0.2831
McDonalds,RM20 2ZF,51.4871,0.2831
Pret A Manger,RM20 2ZF,51.4871,0.2831
Starbucks,RM20 2ZF,51.4871,0.2831
Costa Coffee,RM20 2ZG,51.4871,0.2831
McDonald's 357 - Lakeside 1,RM20 2ZH,51.4866,0.2841
McDonalds,RM20 2ZH,51.4866,0.2841
Burger King,RM20 2ZJ,51.4871,0.2831
Chopstix Lakeside,RM20 2ZJ,51.4871,0.2831
Five Guys,RM20 2ZJ,51.4871,0.2831
KFC Lakeside,RM20 2ZJ,51.4871,0.2831
KFC,RM20 2ZJ,51.4871,0.2831
Nandos,RM20 2ZJ,51.4871,0.2831
Pizza Express,RM20 2ZJ,51.4871,0.2831
Pizza Hut Express,RM20 2ZJ,51.4871,0.2831
Shake Shack Lakeside,RM20 2ZJ,51.4871,0.2831
Thai Express Lakeside,RM20 2ZJ,51.4875,0.2835
Tortilla,RM20 2ZJ,51.4871,0.2831
Wasabi Co,RM20 2ZJ,51.4871,0.2831
Spreads cafe,RM20 2ZL,51.4868,0.2829
Ask Italian,RM20 2ZN,51.4873,0.2814
GBK (Gourmet Burger Kitchen),RM20 2ZN,51.4873,0.2814
Nandos,RM20 2ZN,51.4873,0.2814
OO&O Lakeside Limited,RM20 2ZN,51.4872,0.2814
Prezzo,RM20 2ZN,51.4873,0.2814
Wagamama,RM20 2ZN,51.4873,0.2814
Caffe Rizzoli Prosecco Bar,RM20 2ZP,51.4871,0.2835
Chiktopia,RM20 2ZP,51.4871,0.2835
German Doner Kebab (GDK),RM20 2ZP,51.4871,0.2835
Rock Up Lakeside,RM20 2ZP,51.4878,0.2845
Wasabi Sushi & Bento,RM20 2ZP,51.4871,0.2835
Wimpy Lakeside ,RM20 2ZP,51.4871,0.2835
Costa Coffee,RM20 2ZQ,51.4875,0.2825
Creams Cafe Intu Lakeside,RM20 2ZQ,51.4875,0.2825
Pizza Hut Restaurant,RM20 2ZQ,51.4875,0.2825
Taco Bell,RM20 2ZT,51.4857,0.2844
SPICY TOP LTD T/A SHAMPAAN,RM20 3HL,51.4760,0.2811
Burger King Lakeside Retail Park,RM20 3LP,51.4859,0.2713
Costa Coffee,RM20 3LP,51.4858,0.2714
Dunelm Mill - Caffe Pausa,RM20 3LP,51.4859,0.2713
Starbucks Coffee Company,RM20 3LP,51.4859,0.2713
KFC Thurrock,RM20 3WE,51.4839,0.2770
KFC,RM20 3WE,51.4839,0.2770
TGI Fridays Restaurant,RM20 3WE,51.4839,0.2770
the ship inn,RM20 4AR,51.4766,0.2907
KFC,RM3 0AA,51.5932,0.2146
McDonald's Gallows Corner,RM3 0AP,51.5916,0.2178
Mcdonalds,RM3 0AP,51.5916,0.2178
BONAR LIMITED,RM3 0BP,51.5936,0.2336
KUZINE,RM3 0BS,51.5939,0.2344
Costa Coffee @ Tesco Romford Gallows Extra,RM3 0LL,51.5937,0.2184
The Deers Rest,RM3 7LL,51.6161,0.2174
kervan saray,RM3 7PB,51.5948,0.2122
McDonald's Harold Hill,RM3 8XR,51.6013,0.2110
McDonalds,RM3 8XR,51.6013,0.2110
CAFE ESPRESSO,RM3 9AA,51.6126,0.2217
Cafe Espresso ,RM3 9AA,51.6126,0.2217
INCO RESTAURANT,RM3 9PB,51.6056,0.2323
The Orange Tree,RM4 1PJ,51.6142,0.1812
Subway Collier Row,RM5 2BD,51.5979,0.1540
EAST COAST DINNER,RM5 2BH,51.5955,0.1475
Pannas Restaurant,RM5 2BH,51.5955,0.1475
Jamo Cindar Limited T/A Dream Cafe,RM5 3BD,51.5895,0.1684
Wong's Oriental,RM5 3BD,51.5896,0.1684
Costa Coffee,RM5 3ND,51.5984,0.1631
Scoffs Essex Ltd t/a Costa Coffee Collier Row,RM5 3ND,51.5984,0.1631
KFC Collier Row,RM5 3NP,51.5988,0.1624
KFC,RM5 3NP,51.5988,0.1624
LIGHT OF INDIA,RM5 3NR,51.5986,0.1614
RAJ OF INDIA ,RM5 3NR,51.5986,0.1614
Chookys Peri Peri,RM5 3PH,51.5998,0.1631
Veyso's Restaurant,RM5 3PH,51.5999,0.1632
BOLLYWOOD SPICE (ESSEX) LTD,RM5 3PJ,51.6001,0.1648
Pizza Hut Delivery,RM5 3PJ,51.6001,0.1648
KFC Chadwell Heath,RM6 4AU,51.5697,0.1248
Indian Fusion,RM6 4BE,51.5701,0.1306
Nando's,RM6 4HX,51.5673,0.1183
Dunelm Residential Care Home,RM6 4XJ,51.5774,0.1208
McDonald's Marks Gate,RM6 5QT,51.5909,0.1426
Roadhouse grill ltd,RM6 6AP,51.5722,0.1429
THE KITCHEN ILFORD LTD,RM6 6LS,51.5719,0.1412
Yummy chicken ,RM6 6LS,51.5719,0.1412
 CASA ITALIANA,RM6 6PU,51.5712,0.1308
Pizza Hut Restaurant,RM7 0AF,51.5691,0.1855
SAFFRON,RM7 0LA,51.5655,0.1731
Burger King,RM7 7JJ,51.5832,0.1690
KFC,RM7 7JJ,51.5832,0.1690
Dunelm Mill,RM7 7PH,51.5729,0.1665
Chick'n shack Ltd,RM7 8JB,51.5917,0.1575
ROSILE CAFE RESTAURANT ,RM7 9QH,51.5742,0.1706
Desserts Box ,RM7 9RB,51.5760,0.1764
Pizza Hut Delivery,RM7 9RB,51.5759,0.1763
Cafe zone,RM8 1BB,51.5638,0.1467
Lara Grill,RM8 1BJ,51.5626,0.1473
Larex Ventures Limited,RM8 1YT,51.5620,0.1230
SANJHA CHULHA,RM8 1YT,51.5620,0.1231
Grubs Hut ,RM8 2AJ,51.5514,0.1153
Grubs hut,RM8 2AJ,51.5514,0.1153
Oak tree Cafe,RM8 2DA,51.5518,0.1151
turan cafe,RM8 3HD,51.5600,0.1467
Cherry Tree Public House,RM8 3LJ,51.5526,0.1346
Pizza Hut,RM8 3RA,51.5604,0.1304
bengal pride restaurant ltd,RM9 4TP,51.5398,0.1279
Safwaan asan ltd,RM9 5AQ,51.5424,0.1476
KUSSAN 2 SISTERS LTD,RM9 5AW,51.5412,0.1477
Elior UK,RM9 5UN,51.5527,0.1389
KFC,RM9 6SJ,51.5306,0.1456
Mecca Bingo Club,RM9 6UQ,51.5326,0.1358
SOM Restaurants ltd,RM9 6UQ,51.5324,0.1364
Dagenham Restaurant Ltd,RM9 6UR,51.5322,0.1469
Hollywood Bowl Dagenham,RM9 6XW,51.5327,0.1305
Pepeneros Restaurant,SE18 1BS,51.4912,0.0943
Grizzlys,SE18 1HF,51.4860,0.0995
Tiwa N Tiwa African Restaurant Ltd,SE18 1JQ,51.4870,0.0927
Gurkha Club Ltd,SE18 1PR,51.4865,0.0910
SELAM ETIOPIAN FOOD,SE18 1PS,51.4844,0.0909
The Plumstead Pantry,SE18 1QJ,51.4818,0.0837
Punjabi Dhaba Ltd,SE18 1SB,51.4879,0.0912
Red Lion Noodle Bar,SE18 1SB,51.4884,0.0898
Dosa & Sambal Express,SE18 1SE,51.4877,0.0920
AMBALA & KARAHI LTD,SE18 1SL,51.4886,0.0886
Malai Restaurant Ltd,SE18 1SN,51.4893,0.0859
FIVE RIVERS,SE18 2NB,51.4801,0.0892
Timbercroft School (Waterfall Elior Ltd),SE18 2SG,51.4768,0.0901
Star Inn,SE18 2UL,51.4808,0.0785
BA Arsenal ,SE18 6SR,51.4914,0.0755
Taste nepal limited,SE18 7DZ,51.4893,0.0847
CH&Co Group Ltd,SE2 0GB,51.4827,0.1181
Bayleaf Indian Cuisine,SE2 0XJ,51.4851,0.1026
Abbey Arms,SE2 9RH,51.4907,0.1211
Paramount Tajmahal Restaurant (AbbeyWood) Ltd,SE2 9RH,51.4903,0.1216
McDonald's Restaurants,SE28 0FF,51.4909,0.0854
Pizza Hut,SE28 8RA,51.5068,0.1068
KFC Drive Thru,SE28 8RD,51.5057,0.1047
McDonald's Restaurants,SE28 8RD,51.5061,0.1050
Cafe BigBoyz,SE9 2BJ,51.4396,0.0752
Happy Days Cafe,SE9 2PH,51.4502,0.0819
Mahatma Tandoori LTD,SE9 2PH,51.4501,0.0813
Donut king,SS14 1AE,51.5697,0.4601
Muscovado Coffee Shop,SS14 1AE,51.5694,0.4609
Starbucks Coffee Company,SS14 1AE,51.5693,0.4607
McDonald's Restaurant Eastgate Shopping Centre,SS14 1AF,51.5695,0.4604
McDonalds,SS14 1AF,51.5695,0.4604
Nando's,SS14 1AF,51.5695,0.4604
Subway,SS14 1AF,51.5695,0.4604
Costa Coffee,SS14 1BA,51.5708,0.4579
The Chef Bakery,SS14 1BZ,51.5691,0.4588
Buzz Bingo,SS14 1DH,51.5686,0.4547
Towngate Theatre Café Bar,SS14 1DL,51.5705,0.4543
Burger King,SS14 1EB,51.5699,0.4614
ESQUIRES COFFEE HOUSE (BASILDON),SS14 1EB,51.5699,0.4615
HABIBA FOODS LIMITED T/A  Muffin Break ,SS14 1EB,51.5699,0.4615
James Breslaw,SS14 1EB,51.5699,0.4615
Papa's Crepes,SS14 1EB,51.5699,0.4615
Miracles cafe ,SS14 1EU,51.5701,0.4623
Poppins Restaurants,SS14 1EU,51.5701,0.4623
Cafe Cinco,SS14 1HH,51.5702,0.4604
Jodhpur Indian Kitchen,SS14 1HH,51.5702,0.4604
Costa Coffee,SS14 1HR,51.5697,0.4596
Patisserie Valerie,SS14 1HR,51.5697,0.4596
Tasty Buds,SS14 2HB,51.5780,0.4738
The Coriander (Basildon) Ltd,SS14 2HB,51.5780,0.4738
Subway Whitmore Way,SS14 2NL,51.5778,0.4762
Atalian Servest Food Co,SS14 3AD,51.5866,0.4720
Campanile Basildon,SS14 3AE,51.5845,0.4425
Burger King,SS14 3AF,51.5812,0.4435
Costa Coffee,SS14 3AF,51.5812,0.4435
Costa Coffee,SS14 3HZ,51.5908,0.4795
KFC Mayflower,SS14 3HZ,51.5907,0.4789
KFC,SS14 3HZ,51.5907,0.4789
McDonald's Restaurant Mayflower Retail Park,SS14 3HZ,51.5908,0.4795
McDonalds,SS14 3HZ,51.5908,0.4795
Nando's,SS14 3HZ,51.5908,0.4795
Pizza Express,SS14 3HZ,51.5908,0.4795
Nando's,SS14 3TJ,51.5827,0.4633
360 Play (Basildon) Limited,SS14 3WB,51.5851,0.4625
AROMA,SS14 3WB,51.5851,0.4625
Hollywood Bowl,SS14 3WB,51.5851,0.4625
Legends Basildon,SS14 3WB,51.5852,0.4632
McDonalds,SS14 3WB,51.5851,0.4625
Mr Mulligans Basildon,SS14 3WB,51.5851,0.4625
Pizza Hut Restauant,SS14 3WB,51.5851,0.4625
Sprinkles Gelato Basildon,SS14 3WB,51.5852,0.4632
Team Sport Indoor Karting,SS14 3WB,51.5851,0.4625
Villagio,SS14 3WB,51.5852,0.4632
Wagamama,SS14 3WB,51.5852,0.4632
McDonald's Restaurant Festival Leisure Park,SS14 3WE,51.5840,0.4660
McDonald's Restaurant Laindon,SS15 4DP,51.5857,0.4267
McDonalds,SS15 4DR,51.5842,0.4240
Baxterstorey Catering Services,SS15 5FS,51.5794,0.4409
B & D's Cafe & Grill,SS15 5HL,51.5732,0.4418
KFC,SS15 6BN,51.5784,0.4222
Costa Coffee,SS15 6EE,51.5814,0.4053
KFC Laindon,SS15 6NE,51.5704,0.4213
stay and play,SS15 6PH,51.5697,0.4191
Basildon Golf Course Ltd,SS16 5JP,51.5590,0.4589
Doorsteps Cafe,SS16 5SA,51.5637,0.4448
Miller & Carter,SS16 6HU,51.5528,0.4213
Montys Curry Centre,SS17 0AH,51.5141,0.4288
efe's,SS17 0HF,51.5154,0.4274
Green Palace Ltd T/A Panahar Restaurant  ,SS17 0HL,51.5152,0.4255
railway tavern,SS17 0HL,51.5152,0.4255
Subway,SS17 0LD,51.5143,0.4203
Selekt Chicken,SS17 7LJ,51.5250,0.4477
Paulettes bakery,SS17 7NA,51.5247,0.4483
STANFORD CURRY LTD,SS17 7NA,51.5246,0.4480
The Springhouse,SS17 7QT,51.5244,0.4501
Swan pub,SS17 8LD,51.5242,0.4059
The Bell Inn & Ostlers,SS17 8LD,51.5242,0.4059
RT Inn Ltd,SS17 9AA,51.5266,0.4596
Hireco Tl Ltd,SS17 9LE,51.5203,0.4853
