name,postcode,lat,lon
Ozzie’s diner,BR5 2RG,51.403973130000000,0.104880899000000
McDonalds,BR5 3AE,51.400792790000000,0.112699792000000
Orpington Golf Centre,BR5 3HY,51.408411960000000,0.124022587000000
Moonlight Cuisine,BR7 6NR,51.411586350000000,0.075347967000000
Sidcup Family Golf,BR7 6RP,51.431502260000000,0.076552557000000
Duke of York,CM11 2PR,51.612707354694600,0.434342000000000
The magic mushroom restaurant ,CM11 2UD,51.601166282259300,0.445417581959744
Tiptree Tea Rooms at Barleylands,CM11 2UF,51.598167352306400,0.446050647948020
The shepherd and dog public house,CM11 2YA,51.603500238402500,0.473083744288432
Gandhi Restaurant,CM12 9AP,51.624784906099100,0.416201112962625
Wimpy Billericay,CM12 9BY,51.623977074715200,0.416562738014384
Pasha,CM12 9UN,51.594909000000000,0.428470065352364
Bonnies cafe,CM13 1SN,51.624936000000000,0.383353000000000
Essex quality food and wine ltd TA Masons Restaurant & Bar,CM13 2AA,51.612772040937100,0.318928337999529
The Fat Turk,CM13 3AE,51.601080901746800,0.291934822842058
Virgin Active Clearview,CM13 3EN,51.572587000000000,0.315583000000000
De Rougemont Manor,CM13 3JP,51.588036265025100,0.290801715446802
Peri UK Ltd,CM13 3LB,51.576580378675200,0.299477065722422
The Halfway House,CM13 3LL,51.579901590595400,0.354794000000000
South Essex Golf Club,CM13 3LW,51.584560606263600,0.362227351152889
The Green Man,CM13 3PZ,51.596488838915900,0.350861633090207
Cafe Amoore,CM14 4AG,51.620203101227000,0.304629212618847
Las Tapas,CM14 4AN,51.619855253964400,0.301274389095956
WHITTAKERS,CM14 4AN,51.619855253964400,0.301274389095956
BALTI HOUSE,CM14 4AP,51.619537000000000,0.299236000000000
Lemongrass,CM14 4AP,51.619537000000000,0.299236000000000
ROOSTERS PIRI PIRI,CM14 4AP,51.619537000000000,0.299236000000000
Subway,CM14 4AP,51.619537000000000,0.299236000000000
MEAT STOP,CM14 4BA,51.619188243194600,0.300893921731970
Hey Joe music & coffee,CM14 4BX,51.619494897369100,0.302224078363184
The Raj Restaurant Essex Ltd,CM14 4DJ,51.618123708449700,0.298311985585124
CKN Bar & Kitchen,CM14 4EG,51.615039515252600,0.299210645985097
The Spread Eagle,CM14 4HD,51.618184414491000,0.303472347129510
Marygreen Manor Hotel,CM14 4NR,51.612688902148800,0.278638529174698
Rossi ,CM14 4RG,51.621316266953900,0.304728966447535
cafe 89 Ltd t/a Eightea9,CM14 4RR,51.620236897372900,0.300336000000000
eastern oriental chinese restaurant ltd,CM14 4RW,51.620397000000000,0.301625547968127
Chick N Shack,CM14 4RX,51.619775000000000,0.299002000000000
Bardswell Social Club and Institute Limited,CM14 4TJ,51.621307622193700,0.296912596301369
The Essex Arms,CM14 5HA,51.611760338487900,0.299044909311166
Juboraj Tandoori,CM14 5HR,51.612381994555100,0.298643000000000
dw cafe & sports bar ,CM14 5LF,51.604932486789200,0.300534048439664
The Bull Brentwood,CM14 5LZ,51.611753111841700,0.273565109904781
mizu ,CM14 5NA,51.609395000000000,0.265836000000000
THE BRENTWOOD KITCHEN,CM15 8AA,51.621394687676800,0.307145628836165
Woodland coffee shop,CM15 9AU,51.621958492508700,0.305329000000000
SOULSUB LIMITED,DA1 1AS,51.446525000000000,0.216827424057327
Dartford Dosahouse ,DA1 1BE,51.444949668336900,0.216813563620550
The Coffee House,DA1 1DE,51.444141881396000,0.219453000000000
Esquires Coffee Dartford,DA1 1DT,51.444098039123600,0.218096282632459
Royal Victoria & Bull Hotel,DA1 1DU,51.444333000000000,0.217158000000000
The Royal Victoria and Bull Hotel,DA1 1DU,51.444333000000000,0.217158000000000
Sedir Restaurant,DA1 1EW,51.443026000000000,0.216424167433331
New York Deli ,DA1 1EX,51.443821150373400,0.218604000000000
Cafe in the Park,DA1 1JP,51.438912705907800,0.217427733397055
McDonald's,DA1 1YT,51.437629306778200,0.237164751221615
The Jafflong,DA1 2DT,51.444843925757800,0.213843857794270
Sunflower cafe,DA1 2HL,51.443772000000000,0.215418000000000
McDonald's,DA1 2HR,51.444010057154000,0.216091680042543
Dartford Priory KFC Store ,DA1 2HS,51.443747000000000,0.216329575719392
Gill's Fish Bar,DA1 3JP,51.443434672277700,0.191211054292718
Crayford KFC Store,DA1 4ES,51.450981688368200,0.179050481762461
T/A New Princess Garden,DA1 4JD,51.452655845076400,0.178971880870756
KAANAA LTD,DA1 5FP,51.461473000000000,0.226655000000000
Europa Worldwide group,DA1 5PZ,51.461057000000000,0.247049000000000
COSTA COFFEE - GRAVESEND ,DA11 0AA,51.442726497612600,0.367721774235597
Coffee Republic Gravesend ,DA11 0AA,51.442726497612600,0.367721774235597
Sultan Sofrasi,DA11 0AB,51.442636711096300,0.366378782113263
Burger King,DA11 0AF,51.442266867976700,0.367769949851616
McDonald's,DA11 0AF,51.442266867976700,0.367769949851616
Pad Thai Live,DA11 0AZ,51.443170364701100,0.369612000000000
Marie's Tea Room,DA11 0BA,51.443775480706000,0.369547000000000
Northman Coffee Limited,DA11 0BB,51.443697000000000,0.369088569005771
Three Daws Riverside Inn,DA11 0BJ,51.444985712259900,0.369407340482095
Julius Caesar Italian ,DA11 0BQ,51.444493026337500,0.369638000000000
Gandhi restaurant ,DA11 0BS,51.445114519212300,0.367265000000000
Galms Ltd (McDonald's),DA11 0DQ,51.444231836296200,0.360571000000000
Eastgate coffee shop limited,DA11 8AD,51.433113785501200,0.331787477768971
The Six Bells,DA11 8BT,51.432223656960000,0.347093596879011
Gingers Cafe and Sandwich Bar ,DA11 8RA,51.433946907260100,0.353095431455871
Northfleet Fishbar,DA11 8RA,51.433946907260100,0.353095431455871
Kimberley Clark,DA11 9AD,51.444561235660400,0.339954936643430
COSTA COFFEE - EBBSFLEET,DA11 9BJ,51.448863000000000,0.321335000000000
White Eagle Pl Ltd,DA11 9EX,51.443455456452900,0.336329427363885
Hot Rod Diner Ltd,DA11 9HJ,51.445374407235000,0.328929361609033
Ye Olde Leather Bottel,DA11 9PH,51.441518151256900,0.337871043677333
The Marlin Plaice ,DA12 1AD,51.441653836854600,0.369623394674529
sukhothai restaurant ,DA12 1AD,51.441653836854600,0.369623394674529
Alto Gusto ,DA12 1AS,51.440411000000000,0.369393219744625
CHINA GARDEN,DA12 1AS,51.440411000000000,0.369393219744625
The invicta Bar,DA12 1AS,51.440411000000000,0.369393219744625
Twin Dynasty,DA12 1BA,51.439709861064400,0.369249346192906
The Pantry,DA12 1ER,51.440007376348200,0.370991547247630
prince of orange,DA12 1NJ,51.432686693404300,0.370680000000000
FirstPort - Nelson Court,DA12 1PL,51.433352414497100,0.373653961708771
No.84,DA12 1QF,51.431836006437000,0.375258677158103
PANTHEON GRAVESEND LTD,DA12 2EB,51.442512479332500,0.370301045495691
reliance fish restaurant,DA12 2EE,51.442815540174100,0.371436000000000
SHIP AND LOBSTER,DA12 2QB,51.443107000000000,0.396408000000000
Moove Lubricants Limited,DA12 2QX,51.439854000000000,0.392295000000000
Rasoighar,DA12 2RE,51.442125204259600,0.371662493972406
V's Punjabi Grill at the Canal Tavern,DA12 2RS,51.442450000000000,0.382314000000000
Rose & Crown Public House,DA12 3EA,51.414177517670800,0.430734732302576
Inn on the Lake hotel,DA12 3HB,51.403015064933100,0.407295240975763
Southern Valley Golf Course Ltd,DA12 4LT,51.419307000000000,0.404540271479470
Best Western Manor Hotel,DA12 5UQ,51.411406148837700,0.376888692061001
Millbrook Garden Centre - The Mill,DA13 9PA,51.420799372283600,0.311497796584516
Honeydale Farm Shop and Tea Room,DA14 5AW,51.413891396717900,0.134760523974821
RUXLEY MANOR GARDEN CENTRE LTD,DA14 5BQ,51.411381508245500,0.132831655631201
WHITE CROSS INN,DA14 5EL,51.430259000000000,0.138775000000000
SAL'S CAFE,DA14 5HB,51.416728682785900,0.123128114198052
Galms Ltd (McDonald's),DA14 5JA,51.409652678479900,0.144283921730161
McDonalds,DA14 6DS,51.426119714285400,0.102043335388651
The Kitchen ,DA14 6ED,51.426187863194600,0.103628000000000
The Kitchen,DA14 6ED,51.426187863194600,0.103628000000000
COSTA COFFEE - SIDCUP HIGH STREET,DA14 6EH,51.425698775028600,0.103951596866739
Sidcup KFC Store,DA14 6EP,51.425002040959500,0.106192376897834
The Darjeeling ,DA14 6ES,51.424756129346700,0.105864606996340
Papadam,DA14 6HJ,51.424242000000000,0.107510000000000
Kitchen Brasserie,DA14 6LF,51.417701522273600,0.105094473499926
MOGHUL,DA14 6ND,51.426640751569100,0.100067703261757
Appleyard,DA15 7AA,51.435232613170500,0.101871777302728
Jalsha tandoori restaurant ,DA15 7AA,51.435232613170500,0.101871777302728
COSTA COFFEE - SIDCUP STATION,DA15 7AX,51.433299000000000,0.102430000000000
KASPAS DESSERTS - SIDCUP ,DA15 7AX,51.433299000000000,0.102430000000000
The Elephant London,DA15 7AX,51.433299000000000,0.102430000000000
TOSCANA RESTAURANT LTD,DA15 7DH,51.432571057962600,0.102353862174706
Hello Burger Sidcup,DA15 7DU,51.431362357522600,0.102557330443243
For 4Brothers Ltd T/A Maharani,DA15 8DJ,51.441153522042600,0.087191000000000
Chefs kitchen ,DA15 8PW,51.450558857792800,0.101740880814936
Sidcup Leisure Centre,DA15 9AE,51.435020461128100,0.105674821006499
Havard Catering Services at Sidcup Golf Club,DA15 9AW,51.438872000000000,0.112126000000000
El Iberico ,DA15 9ER,51.445115117107100,0.102411922153748
OVAL CAFE LIMITED,DA15 9ER,51.445115117107100,0.102411922153748
Oval spice ltd,DA15 9ER,51.445115117107100,0.102411922153748
The Banana Garden,DA15 9ER,51.445115117107100,0.102411922153748
Saffron Indian Diner ,DA15 9JN,51.447431383705200,0.117876000000000
COSTA COFFEE - BLACKEN ,DA15 9LU,51.450180210385500,0.104299770494130
Doan gia,DA15 9NB,51.450623545530500,0.104651190810619
Sidcup Dawat Ltd,DA15 9NB,51.450623545530500,0.104651190810619
Noodle City,DA16 1TJ,51.462156880507400,0.108406609269947
Saray Restaurant,DA16 1TQ,51.461899214448400,0.111230809772748
Balseros Latino Bar and Restaurant,DA16 1TR,51.462058881876500,0.112590000000000
UTKU CAFE LTD,DA16 1TY,51.462500584975900,0.108796761512767
Falcon Tandoori,DA16 2PL,51.456723277898300,0.094466849583733
WELLING CHICKS LTD,DA16 3AX,51.464190016152400,0.099847707996464
WIMPY,DA16 3HE,51.462915087949600,0.107750519567377
Chupitos Tapas Bar and Restaurant ,DA16 3HF,51.463576130111100,0.107996934212642
Mums cafe,DA16 3HF,51.463576130111100,0.107996934212642
pie and mash shop,DA16 3HF,51.463576130111100,0.107996934212642
The Green Man Sunset Restaurant,DA16 3NL,51.466899275253200,0.092168449502153
Maison Parisienne,DA16 3PA,51.462464394416700,0.106808375359419
Espresso Bar ,DA16 3PB,51.462814081363400,0.104362661461474
New Ming Restaurant,DA16 3PG,51.463165996506600,0.102291328035695
Cruffins,DA16 3PY,51.463212539893100,0.104208232481802
Galms Ltd (McDonald's),DA16 3PY,51.463212539893100,0.104208232481802
Sub Way,DA16 3QB,51.463430400625800,0.102591416516868
MKA Foods LTD T/A New Curry Centre,DA16 3QD,51.463554477267900,0.101690119461903
Akrbf Ltd,DA16 3QR,51.463904284532800,0.099733811637531
CAFE DELUXE WELLING LTD,DA16 3RW,51.466320155303900,0.085303059342313
Stone valley lodge Ltd,DA2 6PD,51.446621000000000,0.247635000000000
Thermo Fisher,DA2 6PT,51.457261000000000,0.252246000000000
COSTA COFFEE - DARTFORD ,DA2 6QE,51.452915475141700,0.253702085880636
Campanile Dartford,DA2 6QN,51.458497000000000,0.254395000000000
Laing O Rourke,DA2 6SN,51.455395075829900,0.254299254770790
Birchwood Park Golf & Country Club,DA2 7HJ,51.412647269491400,0.160444407270815
Rowhill Grange Hotel and Spa,DA2 7QH,51.418101837451200,0.188776632793753
Green Spice ,DA2 8DP,51.413478000000000,0.277648000000000
Bexley Kitchen,DA5 1AA,51.441778960906800,0.149990426840794
Tanyard Lane Bar & Kitchen ,DA5 1AA,51.441778960906800,0.149990426840794
Ferrari's Restaurant Bexley Village,DA5 1AD,51.441551815215100,0.147173706708461
Greys tea and coffee house,DA5 1AH,51.441353715447400,0.149150226619142
SAGGOR TANDOORI,DA5 1BT,51.447962935008100,0.121540117117189
Anchor,DA5 1JE,51.445275946782300,0.133820722841656
Bexley Greek Taverna,DA5 1LB,51.441463967592100,0.150493671303496
Holiday Inn London Bexley,DA5 1ND,51.446379985918000,0.154092276924046
Riverside Cafe,DA5 1PQ,51.447990278175800,0.160229000000000
Fortune Inn,DA5 3HG,51.435973374588200,0.127603076232390
The Cafe ,DA6 7AT,51.455554611507400,0.153559732606331
Masala Inn,DA6 7AU,51.457748647845600,0.138289101428693
Thai Bexleyheath,DA6 7BD,51.457584938744400,0.139375472134130
Bexleyheath KFC Store,DA6 7BT,51.457365994968000,0.140531225807305
Adels ,DA6 7DE,51.456682780816000,0.145436661461565
Tom Bells,DA6 7DE,51.456682780816000,0.145436661461565
Subway,DA6 7DQ,51.456836000000000,0.144398536814867
The Kings Arms,DA6 7DW,51.456954548173600,0.143362153419574
Bexleyheath Conservative Club t/a 1V1 Club,DA6 7EZ,51.456768920864600,0.141957000000000
Galms Ltd (McDonald's),DA6 7JN,51.456239000000000,0.146158835322187
Cast Iron Restaurant & Brew Bar,DA6 7JZ,51.454986191887300,0.152136788763284
The Prince Albert,DA6 7LE,51.455470869827100,0.152677785914104
Twin Palace,DA6 7LE,51.455470869827100,0.152677785914104
Hazine,DA6 8AJ,51.458232483914300,0.134439399132824
Aligor Restaurant,DA6 8BE,51.458051101687700,0.135510574303199
Cuore Food From The Earth Limited,DA6 8BE,51.458051101687700,0.135510574303199
Winiks Bakery Limited,DA6 8BE,51.458051101687700,0.135510574303199
Stuzzichini,DA6 8DB,51.457388841138900,0.137843000000000
THE M KITCHEN,DA6 8DB,51.457388841138900,0.137843000000000
Zingara,DA6 8DG,51.457768026891400,0.135252644065953
The Jasmine by Spice Nouv-Oh!,DA6 8DT,51.458057000000000,0.132805000000000
VIET VIAND,DA6 8DT,51.458057000000000,0.132805000000000
Fleur de The Ltd,DA6 8HL,51.455767968229200,0.122578558609965
Bexleyheath golf club ,DA6 8JS,51.452137698107500,0.129362115734343
Crook Log Leisure Centre,DA7 4HH,51.460247607267900,0.124499515317078
Zanz Cafe,DA7 4QW,51.464320000000000,0.133101957869195
Bombay Balti House ,DA7 5AE,51.465931727007100,0.145697733769055
Jalsha 2(Tandoori Restaurant),DA7 6HJ,51.467176870026600,0.158210493805521
Jade Garden,DA8 1HN,51.473448354592200,0.160954525275486
McDonald's Restaurants,DA8 1RN,51.478413606510700,0.180804296870885
The Exchange Erith Ltd,DA8 1RS,51.481365082775400,0.177805342738238
Mambocino cafe,DA8 1SE,51.480348000000000,0.180335000000000
Riverside Steak and Fish House,DA8 1SE,51.480348000000000,0.180335000000000
k's spice african restaurant ,DA8 1TA,51.480117990527200,0.179099735012190
Erith KFC Store,DA8 2AB,51.478251131297500,0.182769569887229
Forest cafe,DA8 2NU,51.468353909836300,0.190749059322121
Erith Leisure Centre,DA8 3AT,51.476967011084600,0.174441954648346
Subway Restaurant,DA9 9BT,51.452536069291500,0.275201999241569
McDonald's,DA9 9HY,51.448624920285600,0.279785844536642
Ori Caffe,DA9 9SA,51.440529337506100,0.271540085583892
The Daily Grind,DA9 9SE,51.439757000000000,0.269181556317413
Bluewater KFC Store ,DA9 9SF,51.439192000000000,0.273344000000000
Galms Ltd (McDonald's),DA9 9SF,51.439192000000000,0.273344000000000
SIZZLED,DA9 9SF,51.439192000000000,0.273344000000000
Shawa Bluewater,DA9 9SF,51.439192000000000,0.273344000000000
Wingstop Bluewater,DA9 9SF,51.439192000000000,0.273344000000000
Costa at Showcase Cinema de Lux Bluewater,DA9 9SG,51.437734325964000,0.270420000000000
Cocoba,DA9 9SH,51.439091000000000,0.272059000000000
Coffee Republic,DA9 9SQ,51.438000000000000,0.270307000000000
Comptoir Bluewater,DA9 9ST,51.439426000000000,0.272852000000000
Gravity - Bluewater,DA9 9ST,51.439426000000000,0.272852000000000
SPUDULIKE BLUEWATER,DA9 9ST,51.439426000000000,0.272852000000000
Tapas Revolution Bluewater,DA9 9ST,51.439426000000000,0.272852000000000
Yangzte Blue Water,DA9 9ST,51.439426000000000,0.272852000000000
Zabardast,DA9 9ST,51.439426000000000,0.272852000000000
SOM Restaurants ltd,E6 7ER,51.517193000000000,0.080351145826776
SOM Restaurants ltd,IG1 1NE,51.559919895247600,0.077030614984537
KFC Ilford,IG1 1QB,51.559526066188100,0.076926107018122
R 2 R LTD T/A BBQ EXPRESS ILFORD,IG1 1QB,51.559526066188100,0.076926107018122
Spice khazana Ltd,IG1 1QF,51.559956000000000,0.079110000000000
Indi Spices,IG1 1QW,51.560347459898600,0.081320597345738
Tabla Restaurant,IG1 1QW,51.560347459898600,0.081320597345738
TAJ CATERING EVENTS LIMITED,IG1 1UE,51.562422824549800,0.091230000000000
prince of wales,IG1 1XJ,51.559137499591100,0.086661044213298
Gymkhana,IG1 1XT,51.559691970911700,0.093900015718384
Franzos,IG1 2LT,51.549090949758500,0.075094948666854
AL FATH LTD,IG1 2LZ,51.547844384134900,0.075918050774750
Eden peri peri ,IG1 2SD,51.550305010254300,0.075092501807794
Chicken & Pizza 4U,IG1 2SN,51.546488201265400,0.076837077908126
Crave London,IG1 4AA,51.564323205949100,0.082786306075246
Fusion Exclusive Shisha Lounge,IG1 4BH,51.561303743203900,0.075564343316959
Dixy Chicken,IG1 4BL,51.562264895796700,0.077656883519774
Al Qasr Restaurant ,IG1 4BS,51.563724000000000,0.082643000000000
Adrian Teslaru ,IG1 4JB,51.564520637915900,0.079260300238036
Big Moe's Diner,IG11 0AD,51.524356000000000,0.077992000000000
Mylahore,IG11 0AD,51.524356000000000,0.077992000000000
Bravewin Ltd,IG11 0BL,51.527259594309600,0.091128461177462
The Boat House Cafe and Bar,IG11 7BT,51.532146015264800,0.075751643084894
JULIENEST CATERING SERVICES LTD,IG11 8AG,51.538246885547000,0.077815000000000
CRISTINA'S STEAK LTD,IG11 8AW,51.536554000000000,0.076760000000000
Caffe Latte,IG11 8DG,51.537894164392100,0.080932000000000
COSTA COFFEE,IG11 8EA,51.539281031393400,0.081628273159426
KFC,IG11 8EB,51.539075567314400,0.080537349600056
SOM Restaurants ltd,IG11 8ER,51.536769384491700,0.077721231151566
Wing it,IG11 8QA,51.543502000000000,0.077956000000000
CHINA FRIEND LTD,IG11 8RT,51.540441532556700,0.083123340052574
Pizza Di legno,IG11 8SF,51.541342203891300,0.084563345154362
Popeyes,IG11 8SF,51.541342203891300,0.084563345154362
ariana Restaurant Barking,IG11 8SF,51.541342203891300,0.084563345154362
The Big Friendly Coffee,IG11 8UD,51.546969721668000,0.092753305586226
RERHOU TRADE LIMITED,IG11 8UF,51.545882732760400,0.093193799899641
RITCHIES CAFE LTD T/A Ritchies Fresh Bake,IG11 8UN,51.545317167467000,0.093138996334561
pizza town london ltd,IG11 9BZ,51.551989554710800,0.106716073837139
VIJAYS VIRASAT LIMITED,IG2 6BE,51.574762000000000,0.084461000000000
Banana Leaf Restaurant Ltd,IG2 7DE,51.572929718973200,0.083771412400641
McDonald's Newbury Park,IG2 7RH,51.574224000000000,0.085418000000000
Newbury Park Hotels Ltd,IG2 7RH,51.574224000000000,0.085418000000000
delhi o delhi,IG3 8BY,51.563213261539400,0.097640009479628
Pit-Stop,IG3 8EG,51.562840484474700,0.092832694985363
Kings grill restaurant ,IG3 8EZ,51.571408019697900,0.095996936084071
Masala 910,IG3 8JB,51.572177467303000,0.095209758079105
Chicken House,IG3 8RA,51.564483250205000,0.098030323209673
GRILLER,IG3 8RA,51.564483250205000,0.098030323209673
Kukus Piri Piri,IG3 8RA,51.564483250205000,0.098030323209673
AA Dream factory ltd T/A Subway,IG3 8RH,51.564986936053900,0.101040288114945
McCaffertys Ilford,IG3 8RH,51.564986936053900,0.101040288114945
FUSION FOOD T/A GOURMET GRILL,IG3 8RL,51.565309211137300,0.102627904968457
Wok Wala Street Kitchen ,IG3 8RL,51.565309211137300,0.102627904968457
MUZIRIS,IG3 8RN,51.565582206645000,0.103619000000000
KFC Seven Kings,IG3 8RQ,51.564740347142900,0.099744756755396
SOM Restaurants ltd,IG3 8RS,51.565370825237800,0.104708524435785
Peshawar Grill Ltd T/A Khyber Grill,IG3 8RW,51.565863396157500,0.105147000000000
a STAR eATERY,IG3 8TD,51.566522927513500,0.108657666317430
Mehak Grill House,IG3 8TH,51.566505992079500,0.110099820333512
Central Restaurant and Lounge,IG3 9TN,51.560362740352700,0.095113876209366
Scoffs Essex Ltd t/a Costa Coffee Goodmayes,IG3 9UH,51.566082815722800,0.110628537050820
Yummy chicken ,IG3 9UN,51.566295960120300,0.110277676096557
Jericho,IG3 9UZ,51.563695000000000,0.109904036333872
Cafe 104 Ltd,IG6 1QE,51.588167057517600,0.082548607249926
ABSHAR INDIAN CUISINE ,IG6 2AD,51.589743794312700,0.081364730090269
ksr bakers uk ltd t/a cakes & bakes,IG6 2AD,51.589743794312700,0.081364730090269
Scoffs Essex Ltd t/a Costa Coffee Barkingside,IG6 2AH,51.591383056353900,0.082739014852585
Spice,IG6 2AH,51.591383056353900,0.082739014852585
KFC Barkingside,IG6 2AJ,51.592729882447100,0.083869011703399
Rowans Coffee Shop Ltd,IG6 2AJ,51.592729882447100,0.083869011703399
McDonald's Barkingside,IG6 2AW,51.588910678587700,0.080677009410138
Papa Johns - BARKINGSIDE,IG6 2AW,51.588910678587700,0.080677009410138
Maison Fraise,IG6 2DQ,51.589537671885000,0.081831716559150
SUBWAY,IG6 2DQ,51.589537671885000,0.081831716559150
BELLAS COFFEE LTD,IG6 2DR,51.591061142785400,0.083142965480292
Sweet. Barkingside,IG6 2DU,51.591683204474600,0.083561234049903
Sharods Ltd,IG6 2EY,51.593485184256700,0.084380033458818
Monsoon Restaurant,IG6 2UE,51.602674936667900,0.086952564392056
New Old Parks Pavilion ,IG6 3HD,51.596108437369800,0.090593283821151
Silantro Ltd,IG6 3SL,51.603131000000000,0.116274000000000
Indian Ocean,IG7 5QB,51.613068349204000,0.091112548518804
Lionsgate,IG7 5QB,51.613068349204000,0.091112548518804
The Two Brewers ,IG7 6ET,51.621685030635600,0.120590277862271
KASPAS DESSERTS - ROMFORD ,RM1 1AU,51.575952007434300,0.180118000000000
McDonald's Romford Brewery,RM1 1AU,51.575952007434300,0.180118000000000
Namco Funscape,RM1 1AU,51.575952007434300,0.180118000000000
Cafe Chateau,RM1 1BH,51.579251567257900,0.179797776650280
OPERA RESTAURANT ,RM1 1DA,51.580186000000000,0.178919000000000
BESITO LIMITED T/A CAFE BUENO ,RM1 1HR,51.578130460557300,0.179152363726401
Market Cafe,RM1 1JL,51.577209693558900,0.178372235619691
Taste of East Ltd,RM1 1JL,51.577209693558900,0.178372235619691
CREAM TOWN LTD,RM1 1NJ,51.578094020586900,0.181113535784874
KFC Romford,RM1 1NL,51.576569000000000,0.182455000000000
Ciao Bella,RM1 1NX,51.575952418216400,0.183118142312955
McDonald's Romford,RM1 1NX,51.575952418216400,0.183118142312955
BUNNO,RM1 1RA,51.577879048944200,0.180583649275189
Burger King,RM1 1RB,51.576941014206100,0.181217088174069
Remman Ltd,RM1 1RX,51.575859354174600,0.182319894868623
SUBWAY,RM1 1RX,51.575859354174600,0.182319894868623
Asia Spice ,RM1 2JH,51.574539868827600,0.185704000000000
Delhi Live,RM1 2JH,51.574539868827600,0.185704000000000
Pearl dragon romford,RM1 2JH,51.574539868827600,0.185704000000000
Bekash Tandoori,RM1 2LA,51.574847198969200,0.187093000000000
The Hideout,RM1 3AB,51.579914000000000,0.181951000000000
BB's Coffee and Muffins Romford ,RM1 3EE,51.579431000000000,0.185666000000000
CAFFE Della Continental,RM1 3EE,51.579431000000000,0.185666000000000
Della Continental,RM1 3EE,51.579431000000000,0.185666000000000
McDonald's Romford 2,RM1 3EE,51.579431000000000,0.185666000000000
Subway,RM1 3EE,51.579431000000000,0.185666000000000
NEGRO LIMITED T/A CAFE FINO ,RM1 3ER,51.579490694072200,0.182898021105048
Poppins cafe restaurant ,RM1 3LD,51.576968238956800,0.183137960709548
KK Foods Ltd,RM1 3RH,51.577221000000000,0.183164000000000
EL MEXICANA,RM1 3RL,51.578328563838400,0.183654000000000
Small Talk Tearooms,RM1 3RT,51.579402715285600,0.183759822068251
The Eastbrook,RM10 7UP,51.552413887793600,0.164421129853935
22 Ventidue LTD,RM10 9LH,51.532924746771600,0.152292990892909
Pietro's Cafe,RM10 9RR,51.540064316272100,0.156739876271620
Casa Mia,RM11 1DP,51.564800970660000,0.204775716222766
Burger King,RM11 1PZ,51.565310133395900,0.193905000000000
Thai River Restaurant,RM11 1RL,51.562978000000000,0.219953000000000
MOTHER INDIA (HORNCHURCH) LTD,RM11 1SU,51.567647066201800,0.220281332715260
Tarantino LTD,RM11 1TP,51.563262383425500,0.215320705354070
Uraswamy's,RM11 1TP,51.563262383425500,0.215320705354070
Nes' CAFE,RM11 1TS,51.563287966637900,0.217298665446724
OLIMBOS LIMITED,RM11 1TS,51.563287966637900,0.217298665446724
Wimpy,RM11 1TX,51.562713986630500,0.219593713854368
Passage to india ,RM11 3XB,51.559380536819300,0.235070654122354
Tandoori Lounge,RM11 3XS,51.561791770034100,0.221280175146833
Tops cafe / asya top ltd,RM11 3XS,51.561791770034100,0.221280175146833
MANDARIN PALACE,RM11 3XT,51.561594246779900,0.223636750827375
Umberto restaurant ,RM11 3XT,51.561594246779900,0.223636750827375
Istanbul Grill Restaurant,RM12 4RS,51.550735000000000,0.198657000000000
COSTA COFFEE - ELM PARK,RM12 4RX,51.551146000000000,0.198345000000000
cardamom,RM12 4SY,51.564595373872400,0.201836687753324
cafe balti,RM12 4TQ,51.565029682424300,0.190646265065351
COSTA COFFEE - HORNCHURCH 1,RM12 4UH,51.562531061213300,0.218329538144713
The Rising Sun Pub,RM12 4UW,51.562673203306300,0.216994616106968
Burger Boyz ,RM12 5AS,51.549202233535400,0.200256685413161
Tea Island,RM12 6AF,51.561396174348400,0.221146000000000
Da Vinci's,RM12 6JL,51.560762087920100,0.221042430292671
vertigo lounge ,RM12 6JL,51.560762087920100,0.221042430292671
Fireaway Pizza ,RM12 6NB,51.560379316482300,0.220360104469899
ONYX RESTAURANT & BAR ,RM12 6NB,51.560379316482300,0.220360104469899
Pride Of Hornchurch Ltd,RM12 6NB,51.560379316482300,0.220360104469899
SUBWAY,RM12 6NJ,51.561321336860800,0.220478136712018
Taste of Bengal,RM12 6QP,51.561241722228900,0.222782730062887
COSTA COFFEE - HORNCHURCH 2,RM12 6QX,51.562023245963400,0.219978491099547
Starbucks Hornchurch,RM12 6QX,51.562023245963400,0.219978491099547
KFC,RM13 8TX,51.527836167780700,0.188182645770551
The Munch Up,RM13 8UG,51.516425097710800,0.173625535936206
Cauliflower,RM13 9AA,51.518729322123700,0.193800124041891
Can's Meze Bar ,RM14 1RQ,51.568719755711400,0.267636357543881
Upminster Garden Centre,RM14 1TS,51.594540338546000,0.255407853278674
Spice of India,RM14 1XJ,51.561546647835700,0.267466999097731
Ginger Lounge,RM14 2AA,51.552475734197800,0.247685976788800
Lefke ,RM14 2AD,51.553417849555400,0.247328511233127
Roots,RM14 2AD,51.553417849555400,0.247328511233127
Caffe Gelato,RM14 2AH,51.553254344414300,0.247883044849985
THE TEACOSY LIMITED,RM14 2AH,51.553254344414300,0.247883044849985
ACE CREAMS & TAPAS,RM14 2SJ,51.556882970507900,0.249057419824866
COSTA COFFEE - UPMINSTER 2,RM14 2SJ,51.556882970507900,0.249057419824866
Sorrento restaurant,RM14 2SJ,51.556882970507900,0.249057419824866
The Station Pantry,RM14 2SU,51.558581170820300,0.249602882220622
COSTA COFFEE - UPMINSTER 1,RM14 2TR,51.557724193976200,0.250209797851368
Barracuda Fish and Chips ,RM14 2TU,51.557973822824100,0.250323110121720
The Fete Lounge ltd,RM14 2UB,51.556725124410100,0.249785387455987
Masala Grill Original LTD,RM14 3BL,51.556426423770100,0.250823778798138
T&K COFFEE LTD,RM14 3BL,51.556426423770100,0.250823778798138
cafe le raj/raj essex ltd,RM14 3BL,51.556426423770100,0.250823778798138
SWEET ROSE CAKERY LIMITED,RM14 3BS,51.556059721134100,0.250719113786317
Samihah limited t/a kushoom bugh,RM14 3BT,51.556178023794900,0.252052184997454
The Jobber's Rest,RM14 3LT,51.557734941239200,0.273061000000000
Top Meadow Golf Centre ,RM14 3PR,51.541950914364900,0.298884381959023
The Old White Horse,RM14 3PS,51.540548818004900,0.296088032610312
Langdon Hills Golf & Country Club Ltd,RM14 3TY,51.544725850057200,0.395254568443249
MingLong Essex Limited,RM15 4BB,51.499007396879900,0.255831000000000
Sir Henry’s,RM15 4XB,51.513019000490800,0.251205341031324
The Raj Ockendon,RM15 5DX,51.510703758443900,0.282120357748826
Woody's,RM15 6DU,51.513124303760800,0.294031084845952
Subway,RM16 3BG,51.492288460581400,0.272268509511592
Voujon restaurant ,RM16 3BL,51.505437646017300,0.382745437100966
Cafe Sartoria,RM16 3HS,51.514726000000000,0.370921000000000
Garden Brasserie,RM16 3HS,51.514726000000000,0.370921000000000
The Whitmore Arms,RM16 3LB,51.512669319144000,0.369819722441500
kushi,RM16 6EW,51.486166594268500,0.288327437305697
pepes piri piri,RM17 5DD,51.478728801094200,0.323556961446836
New Delhi,RM17 5HJ,51.479404446717700,0.325883000000000
Village Indiya,RM17 5RY,51.488888382387000,0.340870165046263
Bombay Restaurant,RM17 5RZ,51.488880514155100,0.339011473152149
KFC Grays,RM17 6LU,51.477913236985100,0.322766000000000
Nagawa ,RM17 6LU,51.477913236985100,0.322766000000000
Izgara Meze,RM17 6LY,51.477499968063000,0.322486378504792
Subway,RM17 6NB,51.477402576084100,0.323316727721525
Gurkha Cookhouse ,RM17 6NQ,51.476011000000000,0.321919849889341
Break Bar,RM17 6QE,51.477089417324400,0.323804000000000
Burger King,RM17 6QE,51.477089417324400,0.323804000000000
The Snack Shack,RM17 6QE,51.477089417324400,0.323804000000000
Wimpy ,RM17 6QE,51.477089417324400,0.323804000000000
McDonald's Tilbury,RM18 7HZ,51.471080000000000,0.343256000000000
THE ROYAL HOTEL,RM19 1QA,51.483194763519000,0.230680407924606
Best Western Thurrock Hotel ,RM19 1YN,51.488786310583800,0.265496793399507
Scoffs (Essex) Ltd t/a Costa Coffee Gidea Park,RM2 5EL,51.586881000000000,0.200864000000000
The Ship PH,RM2 5EL,51.586881000000000,0.200864000000000
Razza,RM2 5EU,51.587072337454700,0.202591364058232
Zaafran Indian Cuisine,RM2 5HA,51.586564919566400,0.200877815264785
kushi,RM2 5HS,51.585953436889800,0.197458000000000
STEEP HOLM LIMITED,RM2 5QB,51.587279936422200,0.199194472150652
Ginger Spice,RM2 5TH,51.576656000000000,0.206605000000000
McDonald's 289 - West Thurrock,RM20 1TX,51.489032010334400,0.275563825514789
Partyman World Lakeside,RM20 1WN,51.485983834633000,0.276177000000000
Nickelodeon Adventure Lakeside,RM20 2AD,51.488105000000000,0.281726000000000
McDonald's 510 - Lakeside 2,RM20 2ZF,51.487419000000000,0.283085681112651
McDonald's 357 - Lakeside 1,RM20 2ZH,51.487426000000000,0.283781000000000
Chopstix Lakeside,RM20 2ZJ,51.487590017196800,0.283513000000000
KFC Lakeside,RM20 2ZJ,51.487590017196800,0.283513000000000
Shake Shack Lakeside,RM20 2ZJ,51.487590017196800,0.283513000000000
Thai Express Lakeside,RM20 2ZJ,51.487590017196800,0.283513000000000
Spreads cafe,RM20 2ZL,51.486802996922300,0.282365000000000
OO&O Lakeside Limited,RM20 2ZN,51.487290891800300,0.281397452525097
German Doner Kebab (GDK),RM20 2ZP,51.487106000000000,0.283549000000000
La Tasca - Lakeside,RM20 2ZP,51.487106000000000,0.283549000000000
Rock Up Lakeside,RM20 2ZP,51.487106000000000,0.283549000000000
Wimpy Lakeside ,RM20 2ZP,51.487106000000000,0.283549000000000
Creams Cafe Intu Lakeside,RM20 2ZQ,51.487672000000000,0.283159000000000
SPICY TOP LTD T/A SHAMPAAN,RM20 3HL,51.475984670556000,0.281106000000000
KFC Thurrock,RM20 3WE,51.483859413788400,0.277034700238529
the ship inn,RM20 4AR,51.476546869931000,0.290942151941371
McDonald's Gallows Corner,RM3 0AP,51.591605828364800,0.218246000000000
KUZINE,RM3 0BS,51.593880871341700,0.234410690633056
The Deers Rest,RM3 7LL,51.616064851729100,0.217414667085015
McDonald's Harold Hill,RM3 8XR,51.601275683685800,0.211004417783984
The Orange Tree,RM4 1PJ,51.614199083360800,0.181168622925687
Subway Collier Row,RM5 2BD,51.597966212229300,0.153951977958871
Scoffs Essex Ltd t/a Costa Coffee Collier Row,RM5 3ND,51.598418465293000,0.162969000000000
KFC Collier Row,RM5 3NP,51.598870956144200,0.162456483694947
RAJ OF INDIA ,RM5 3NR,51.598576151932000,0.161491000000000
BOLLYWOOD SPICE (ESSEX) LTD,RM5 3PJ,51.600123020759000,0.164783075286717
KFC Chadwell Heath,RM6 4AU,51.569658088758800,0.124791624588132
Indian Fusion,RM6 4BE,51.570083101893500,0.130612524789102
McDonald's Marks Gate,RM6 5QT,51.590898849342600,0.142602033019935
 CASA ITALIANA,RM6 6PU,51.571046867775100,0.130527714723250
SAFFRON,RM7 0LA,51.565509513475500,0.173065687892482
Burger King,RM7 7JJ,51.583165956689200,0.168985813711710
Cafe zone,RM8 1BB,51.563828492769900,0.146653271269989
Lara Grill,RM8 1BJ,51.562538897199300,0.147342796628481
Larex Ventures Limited,RM8 1YT,51.562046783386900,0.122993971829364
SANJHA CHULHA,RM8 1YT,51.562046783386900,0.122993971829364
Oak tree Cafe,RM8 2DA,51.551775200418200,0.115130202548742
turan cafe,RM8 3HD,51.559925286466300,0.146671424149080
Safwaan asan ltd,RM9 5AQ,51.542464710500000,0.147577000000000
KUSSAN 2 SISTERS LTD,RM9 5AW,51.541210772036100,0.147679725383532
KFC,RM9 6SJ,51.530849000000000,0.144928000000000
SOM Restaurants ltd,RM9 6UQ,51.532371000000000,0.136435000000000
Dagenham Restaurant Ltd,RM9 6UR,51.532241261763800,0.146897024089290
Pepeneros Restaurant,SE18 1BS,51.491589445100000,0.093471549200000
Grizzlys,SE18 1HF,51.486248972858800,0.098369186592145
Tiwa N Tiwa African Restaurant Ltd,SE18 1JQ,51.487137450083900,0.092432214761919
The Plumstead Pantry,SE18 1QJ,51.482081161958700,0.083472741967863
Red Lion Noodle Bar,SE18 1SB,51.488353051153300,0.089823016612234
Dosa & Sambal Express,SE18 1SE,51.487531270255800,0.092680000000000
AMBALA & KARAHI LTD,SE18 1SL,51.488601538418000,0.088380000000000
Malai Restaurant Ltd,SE18 1SN,51.489294101255200,0.085962318523276
Star Inn,SE18 2UL,51.480785760151200,0.078430529630655
BA Arsenal ,SE18 6SR,51.491421183859000,0.075557753690674
Taste nepal limited,SE18 7DZ,51.489298400690000,0.084709287010105
Bayleaf Indian Cuisine,SE2 0XJ,51.485121101287000,0.102595281656939
Abbey Arms,SE2 9RH,51.490300430233900,0.121099494955147
Paramount Tajmahal Restaurant (AbbeyWood) Ltd,SE2 9RH,51.490300430233900,0.121099494955147
McDonald's Restaurants,SE28 0FF,51.490852514700000,0.085370754200000
McDonald's Restaurants,SE28 8RD,51.505902000000000,0.103249000000000
Happy Days Cafe,SE9 2PH,51.450202905935900,0.081877121425545
Mahatma Tandoori LTD,SE9 2PH,51.450202905935900,0.081877121425545
Donut king,SS14 1AE,51.569261306664000,0.460762115644852
Muscovado Coffee Shop,SS14 1AE,51.569261306664000,0.460762115644852
McDonald's Restaurant Eastgate Shopping Centre,SS14 1AF,51.569261306664000,0.460762115644852
Subway,SS14 1AF,51.569261306664000,0.460762115644852
The Chef Bakery,SS14 1BZ,51.569040393934400,0.458859725058356
Towngate Theatre Café Bar,SS14 1DL,51.570784000000000,0.454668000000000
Burger King,SS14 1EB,51.569867226156900,0.461458681730662
ESQUIRES COFFEE HOUSE (BASILDON),SS14 1EB,51.569867226156900,0.461458681730662
HABIBA FOODS LIMITED T/A  Muffin Break ,SS14 1EB,51.569867226156900,0.461458681730662
James Breslaw,SS14 1EB,51.569867226156900,0.461458681730662
Papa's Crepes,SS14 1EB,51.569867226156900,0.461458681730662
Miracles cafe ,SS14 1EU,51.570038021573900,0.462319356693743
Poppins Restaurants,SS14 1EU,51.570038021573900,0.462319356693743
Jodhpur Indian Kitchen,SS14 1HH,51.570212086986600,0.460452688916091
Tasty Buds,SS14 2HB,51.577980534698100,0.473790631817692
The Coriander (Basildon) Ltd,SS14 2HB,51.577980534698100,0.473790631817692
Subway Whitmore Way,SS14 2NL,51.577759063676700,0.476189043593637
Campanile Basildon,SS14 3AE,51.584473357362900,0.442471073074551
Burger King,SS14 3AF,51.581150416301800,0.443548668265642
KFC Mayflower,SS14 3HZ,51.590773482353300,0.479539042720074
McDonald's Restaurant Mayflower Retail Park,SS14 3HZ,51.590773482353300,0.479539042720074
360 Play (Basildon) Limited,SS14 3WB,51.585222477918500,0.463154000000000
AROMA,SS14 3WB,51.585222477918500,0.463154000000000
Legends Basildon,SS14 3WB,51.585222477918500,0.463154000000000
Mr Mulligans Basildon,SS14 3WB,51.585222477918500,0.463154000000000
Sprinkles Gelato Basildon,SS14 3WB,51.585222477918500,0.463154000000000
Villagio,SS14 3WB,51.585222477918500,0.463154000000000
McDonald's Restaurant Festival Leisure Park,SS14 3WE,51.584046000000000,0.465964000000000
McDonald's Restaurant Laindon,SS15 4DP,51.585708616636400,0.426715256623849
KFC Laindon,SS15 6NE,51.570366000000000,0.421296000000000
Basildon Golf Course Ltd,SS16 5JP,51.558323939849400,0.459551143299196
Knosh cafe,SS16 5TL,51.563519569338500,0.448923087950030
Montys Curry Centre,SS17 0AH,51.514115117483100,0.428816948627059
efe's,SS17 0HF,51.515367563706200,0.427398956436987
railway tavern,SS17 0HL,51.515199083290700,0.425545023711477
Subway,SS17 0LD,51.514250306092400,0.420103944028732
Paulettes bakery,SS17 7NA,51.524672568307000,0.448308207636473
The Springhouse,SS17 7QT,51.524382238213100,0.450152399079105
Swan pub,SS17 8LD,51.524067000000000,0.405955426809221
The Bell Inn & Ostlers,SS17 8LD,51.524067000000000,0.405955426809221
swan pub,SS17 8LD,51.524067000000000,0.405955426809221
RT Inn Ltd,SS17 9AA,51.526603051820100,0.459628627940929
