name,postcode,lat,lon
Ozzie’s diner,BR5 2RG,51.40398500000000,0.10486900000000
McDonalds,BR5 3AE,51.40080261230470,0.11268799751997
Orpington Golf Centre,BR5 3HY,51.4055,0.1208
Bengal Lancer,BR7 6NR,51.41159800000000,0.07533600000000
Pizza Express,BR7 6NR,51.41159800000000,0.07533600000000
The Sydney Arms,BR7 6PL,51.41508400000000,0.08665400000000
Sidcup Family Golf,BR7 6RP,51.4315,0.0766
Principals By CH&Co @ St Pauls C Of E School,BR8 7PJ,51.40694700000000,0.19533500000000
Duke of York,CM11 2PR,51.61271900000000,0.43445500000000
copperfield bakeries ltd,CM11 2RB,51.6136,0.4301
The magic mushroom restaurant ,CM11 2UD,51.6012,0.4455
Tiptree Tea Rooms at Barleylands,CM11 2UF,51.5982,0.4460
The shepherd and dog public house,CM11 2YA,51.6035,0.4730
Wildwood Restaurants,CM12 9AB,51.62291200000000,0.41558300000000
Gandhi Restaurant,CM12 9AP,51.62479700000000,0.41618900000000
Costa Coffee,CM12 9BT,51.62470500000000,0.41713800000000
Giggling Squid,CM12 9BY,51.62398900000000,0.41655000000000
La Toscana Italian Restaurant,CM12 9BY,51.6240,0.4165
Wimpy Billericay,CM12 9BY,51.6240,0.4165
Pasha,CM12 9UN,51.5949,0.4285
Essex quality food and wine ltd TA Masons Restaurant & Bar,CM13 2AA,51.61278400000000,0.31891600000000
The Fat Turk,CM13 3AE,51.60109200000000,0.29192200000000
Warley Park Ltd,CM13 3DX,51.5906,0.3123
Virgin Active Clearview,CM13 3EN,51.57214400000000,0.31573600000000
Thatchers Arms,CM13 3HU,51.59307700000000,0.28422800000000
De Rougemont Manor,CM13 3JP,51.58804800000000,0.29079000000000
Chartwells (Compass Group) At Woodlands Preparatory School,CM13 3LA,51.57968200000000,0.30009700000000
Peri UK Ltd,CM13 3LB,51.5766,0.2995
Starbucks East Horndon,CM13 3LL,51.57991409301760,0.35553601384163
The Halfway House,CM13 3LL,51.57991300000000,0.35553600000000
Greene King @ The Boars Head,CM13 3PS,51.59485300000000,0.35448900000000
The Green Man,CM13 3PZ,51.59650000000000,0.35084900000000
Caffe Nero,CM14 4AB,51.62069900000000,0.30469900000000
Cafe Amoore,CM14 4AG,51.62021500000000,0.30461700000000
Starbucks Coffee Shop,CM14 4AJ,51.62022500000000,0.30269600000000
Las Tapas,CM14 4AN,51.61984100000000,0.30120300000000
WHITTAKERS,CM14 4AN,51.61984100000000,0.30120300000000
Zizzi,CM14 4AN,51.61984100000000,0.30120300000000
BALTI HOUSE,CM14 4AP,51.61949400000000,0.29917700000000
Lemongrass,CM14 4AP,51.61949400000000,0.29917700000000
ROOSTERS PIRI PIRI,CM14 4AP,51.61949400000000,0.29917700000000
Subway,CM14 4AP,51.61949400000000,0.29917700000000
Burger King,CM14 4AW,51.61974790000000,0.30055950000000
MEAT STOP,CM14 4BA,51.61920000000000,0.30088200000000
jehan curry hut ,CM14 4BJ,51.61931600000000,0.30139300000000
Hey Joe music & coffee,CM14 4BX,51.6195,0.3022
Harrys and Bonnies coffee shop,CM14 4DB,51.62038910000000,0.30408800000000
The Raj Restaurant Essex Ltd,CM14 4DJ,51.61813500000000,0.29830000000000
CKN Bar & Kitchen,CM14 4EG,51.61505126953130,0.29919800162315
The Spread Eagle,CM14 4HD,51.61819500000000,0.30351800000000
Marygreen Manor Hotel,CM14 4NR,51.61270100000000,0.27862600000000
Giggling Squid,CM14 4RG,51.62132644653320,0.30471700429916
Pizza Express,CM14 4RG,51.62132800000000,0.30471700000000
Rossi ,CM14 4RG,51.62132800000000,0.30471700000000
Wildwood,CM14 4RG,51.62132700000000,0.30471600000000
Nandos,CM14 4RR,51.62024900000000,0.30060200000000
cafe 89 Ltd t/a Eightea9,CM14 4RR,51.6202,0.3007
eastern oriental chinese restaurant ltd,CM14 4RW,51.62072420000000,0.30167790000000
Chick N Shack,CM14 4RX,51.61989100000000,0.29909600000000
California Steak House,CM14 4RZ,51.61955100000000,0.29809700000000
Prezzo,CM14 4RZ,51.61955100000000,0.29809700000000
Bardswell Social Club and Institute Limited,CM14 4TJ,51.62131900000000,0.29690000000000
Pizza Hut,CM14 5HA,51.61177200000000,0.29903300000000
The Essex Arms,CM14 5HA,51.61177200000000,0.29903300000000
Ubaid Limited,CM14 5HA,51.6119,0.2990
Juboraj Tandoori,CM14 5HR,51.61233200000000,0.29855240000000
dw cafe & sports bar ,CM14 5LF,51.6050,0.3007
The Bull Brentwood,CM14 5LZ,51.61195790000000,0.27435300000000
mizu ,CM14 5NA,51.60935900000000,0.26586400000000
THE BRENTWOOD KITCHEN,CM15 8AA,51.62140600000000,0.30713300000000
Woodland coffee shop,CM15 9AU,51.62204360961910,0.30531600117683
SOULSUB LIMITED,DA1 1AS,51.44643600000000,0.21681500000000
Dartford Dosahouse ,DA1 1BE,51.44496100000000,0.21680200000000
Le Tre Sorelle,DA1 1BX,51.44517600000000,0.21636600000000
The Coffee House,DA1 1DE,51.44415400000000,0.21956900000000
Efes Turkish Restaurant ,DA1 1DS,51.44388600000000,0.21944100000000
Esquires Coffee Dartford,DA1 1DT,51.44411087036130,0.21808399260044
Royal Victoria & Bull Hotel,DA1 1DU,51.44436100000000,0.21714700000000
The Royal Victoria and Bull Hotel,DA1 1DU,51.44436100000000,0.21714700000000
Costa Coffee,DA1 1DY,51.44746800000000,0.21644800000000
Pizza Hut Restaurant,DA1 1DY,51.44746800000000,0.21644800000000
Pizza Hut Delivery,DA1 1ET,51.44353100000000,0.21962400000000
Sedir Restaurant,DA1 1EW,51.44316100000000,0.21641200000000
New York Deli ,DA1 1EX,51.44381332397460,0.21890200674534
McDonalds,DA1 1EY,51.44383400000000,0.21837300000000
Emochi Cafe ,DA1 1HD,51.4436,0.2173
Principals By CH&Co @ West Hill Primary School,DA1 1HJ,51.44203400000000,0.21606900000000
Cafe in the Park,DA1 1JP,51.43892288208010,0.21741600334644
Hawley kitchen ,DA1 1PX,51.42770900000000,0.22553300000000
Olive Dining @ Dartford Primary Academy (Juniors),DA1 1SQ,51.44153213500980,0.22832000255585
Olive Dining @ Dartford Primary Academy (Infants),DA1 1TE,51.44407653808590,0.22792600095272
McDonald's,DA1 1YT,51.43769700000000,0.23706900000000
McDonalds,DA1 1YT,51.43769700000000,0.23706900000000
Time and Plaice,DA1 2DL,51.44434800000000,0.21644100000000
Caffe Pausa @ Dunelm,DA1 2DS,51.43898400000000,0.20232400000000
The Jafflong,DA1 2DT,51.44485600000000,0.21383200000000
Ena Sandwiches,DA1 2EF,51.44547400000000,0.20868100000000
Sunflower cafe,DA1 2HL,51.44401700000000,0.21632400000000
KFC,DA1 2HR,51.44402313232420,0.21607999503612
McDonald's,DA1 2HR,51.4440,0.2162
Dartford Priory KFC Store ,DA1 2HS,51.4437,0.2163
Principals By CH&Co @ Our Ladys R C Primary School,DA1 2HX,51.44700300000000,0.20822200000000
Olive Dining @ Dartford Grammar School For Girls,DA1 2NT,51.44341278076170,0.20394800603390
Principals By CH&Co @ Oakfield Primary School,DA1 2SW,51.43382200000000,0.21186000000000
Gill's Fish Bar,DA1 3JP,51.44344600000000,0.19119900000000
Spice Fusion ,DA1 3QA,51.44967100000000,0.18149400000000
British Raj,DA1 4EF,51.45332800000000,0.17681800000000
Assos Restaurant,DA1 4ES,51.45099300000000,0.17903900000000
Crayford KFC Store,DA1 4ES,51.4510,0.1791
T/A New Princess Garden,DA1 4JD,51.45266700000000,0.17895900000000
Nando's,DA1 4LD,51.45132700000000,0.18187500000000
CH&CO Catering Ltd @ Holy Trinity Church Of England School,DA1 5AF,51.45248031616210,0.20631000399589
KAANAA LTD,DA1 5FP,51.4615,0.2267
Principals By CH&Co @ Temple Hill Primary School,DA1 5ND,51.45282400000000,0.22995000000000
Europa Worldwide group,DA1 5PZ,51.4612,0.2472
Caffe Nero,DA10 1EB,51.44294500000000,0.32093600000000
COSTA COFFEE - GRAVESEND ,DA11 0AA,51.4427,0.3676
Coffee Republic Gravesend ,DA11 0AA,51.4427,0.3676
Costa Coffee,DA11 0AA,51.44273800000000,0.36771000000000
Sultan Sofrasi,DA11 0AB,51.44264800000000,0.36636700000000
Burger King,DA11 0AF,51.44227900000000,0.36775800000000
McDonald's,DA11 0AF,51.44227900000000,0.36775800000000
McDonalds,DA11 0AF,51.44227900000000,0.36775800000000
Pad Thai Live,DA11 0AZ,51.44318200000000,0.36977600000000
The sausage shop,DA11 0AZ,51.44318200000000,0.36977600000000
Marie's Tea Room,DA11 0BA,51.44378700000000,0.36964900000000
Northman Coffee Limited,DA11 0BB,51.44357210000000,0.36928880000000
Three Daws Riverside Inn,DA11 0BJ,51.44499700000000,0.36939500000000
Julius Caesar Italian ,DA11 0BQ,51.44446945190430,0.36975699663162
Gandhi restaurant ,DA11 0BS,51.4450,0.3673
Galms Ltd (McDonald's),DA11 0DQ,51.44424300000000,0.36040400000000
McDonalds @ Asda Gravesend,DA11 0DQ,51.44424300000000,0.36040400000000
Pizza Hut Restaurant,DA11 0DQ,51.44424400000000,0.36040500000000
Sie's Pie & Mash,DA11 0TA,51.44299800000000,0.36683100000000
Eastgate coffee shop limited,DA11 8AD,51.43312500000000,0.33177600000000
The Six Bells,DA11 8BT,51.4322,0.3471
KFC,DA11 8QU,51.43407400000000,0.35225500000000
Pizza Hut,DA11 8QU,51.43407400000000,0.35225500000000
Gingers Cafe and Sandwich Bar ,DA11 8RA,51.43395900000000,0.35308300000000
Northfleet Fishbar,DA11 8RA,51.43395900000000,0.35308300000000
Kimberley Clark,DA11 9AD,51.44457200000000,0.33994200000000
COSTA COFFEE - EBBSFLEET,DA11 9BJ,51.44933300000000,0.32079900000000
Costa Coffee,DA11 9BJ,51.44933300000000,0.32079900000000
White Eagle Pl Ltd,DA11 9EX,51.44340200000000,0.33641500000000
Hot Rod Diner Ltd,DA11 9HJ,51.44528700000000,0.32937300000000
Ye Olde Leather Bottel,DA11 9PH,51.44153000000000,0.33785900000000
The Marlin Plaice ,DA12 1AD,51.44166600000000,0.36961100000000
sukhothai restaurant ,DA12 1AD,51.44166600000000,0.36961100000000
Alto Gusto ,DA12 1AS,51.44055500000000,0.36938100000000
CHINA GARDEN,DA12 1AS,51.4404,0.3693
The invicta Bar,DA12 1AS,51.44055500000000,0.36938100000000
Twin Dynasty,DA12 1BA,51.43972200000000,0.36923700000000
The Pantry,DA12 1ER,51.44001900000000,0.37098000000000
Curry Mecca,DA12 1EW,51.44132090000000,0.37064320000000
Tufail Indian Restaurant,DA12 1EZ,51.43823700000000,0.37238400000000
prince of orange,DA12 1NJ,51.43269800000000,0.37054300000000
FirstPort - Nelson Court,DA12 1PL,51.4333,0.3738
No.84,DA12 1QF,51.43184800000000,0.37524700000000
PANTHEON GRAVESEND LTD,DA12 2EB,51.44243780000000,0.37055720000000
reliance fish restaurant,DA12 2EE,51.44277100000000,0.37143900000000
ESS Compass Group @ The Met Police Special Training Centre,DA12 2HN,51.44093900000000,0.40483000000000
SHIP AND LOBSTER,DA12 2QB,51.44219100000000,0.39728300000000
TNS Catering_Moove,DA12 2QX,51.43950271606450,0.39196199178696
Rasoighar,DA12 2RE,51.44213700000000,0.37165100000000
Creams,DA12 2RF,51.44147600000000,0.37450800000000
V's Punjabi Grill at the Canal Tavern,DA12 2RS,51.44175338745120,0.38432300090790
Rose & Crown Public House,DA12 3EA,51.41397300000000,0.43074000000000
Inn on the Lake hotel,DA12 3HB,51.40302700000000,0.40728300000000
Southern Valley Golf Course Ltd,DA12 4LT,51.41916400000000,0.40449200000000
KFC,DA12 5RT,51.42852700000000,0.38508700000000
Best Western Manor Hotel,DA12 5UQ,51.41141800000000,0.37687700000000
Kohinoor Restaurant ,DA13 9JF,51.40604700000000,0.35291500000000
Principals By CH&Co @ Sedley C Of E Primary School,DA13 9NQ,51.41306600000000,0.31658900000000
The Ship Inn Southfleet ,DA13 9NS,51.41588650000000,0.32034010000000
Millbrook Garden Centre - The Mill,DA13 9PA,51.42081100000000,0.31148600000000
Honeydale Farm Shop and Tea Room,DA14 5AW,51.41390200000000,0.13474800000000
RUXLEY MANOR GARDEN CENTRE LTD,DA14 5BQ,51.4114,0.1328
WHITE CROSS INN,DA14 5EL,51.43026900000000,0.13876300000000
Kelsey's Kitchen,DA14 5ET,51.43273200000000,0.13930900000000
SAL'S CAFE,DA14 5HB,51.4167,0.1231
ROYAL RADHUNY,DA14 5HF,51.42049500000000,0.13225100000000
Galms Ltd (McDonald's),DA14 5JA,51.40966400000000,0.14427200000000
McDonalds,DA14 5JA,51.40966400000000,0.14427200000000
Caffe Nero,DA14 6DJ,51.42667400000000,0.10135100000000
McDonalds,DA14 6DS,51.42620500000000,0.10187600000000
Costa Coffee,DA14 6ED,51.42622800000000,0.10363200000000
The Kitchen ,DA14 6ED,51.42622800000000,0.10363300000000
The Kitchen,DA14 6ED,51.42622800000000,0.10363300000000
COSTA COFFEE - SIDCUP HIGH STREET,DA14 6EH,51.4258,0.1039
KFC,DA14 6EP,51.42501400000000,0.10618000000000
Sidcup KFC Store,DA14 6EP,51.42501400000000,0.10618000000000
The Darjeeling ,DA14 6ES,51.42476800000000,0.10585300000000
Papadam,DA14 6HJ,51.42414300000000,0.10760800000000
Kitchen Brasserie,DA14 6LF,51.4192,0.1001
MOGHUL,DA14 6ND,51.42665200000000,0.10005600000000
Prezzo,DA14 6ND,51.42665200000000,0.10005500000000
Pizza Express,DA14 6NF,51.42628200000000,0.10013900000000
MOSTLIKE LTD,DA14 6QF,51.4307,0.0835
Appleyard,DA15 7AA,51.4352,0.1019
Jalsha tandoori restaurant ,DA15 7AA,51.43524400000000,0.10186000000000
KASPAS DESSERTS - SIDCUP ,DA15 7AX,51.4333,0.1024
The Elephant London,DA15 7AX,51.43310780000000,0.10238860000000
TOSCANA RESTAURANT LTD,DA15 7DH,51.43258300000000,0.10234200000000
Curry Mahal ,DA15 7DN,51.43211600000000,0.10227700000000
Hello Burger Sidcup,DA15 7DU,51.43137400000000,0.10254500000000
For 4Brothers Ltd T/A Maharani,DA15 8DJ,51.44112700000000,0.08717900000000
Shish restaurant 1993,DA15 8DJ,51.44112700000000,0.08717900000000
Chefs kitchen ,DA15 8PW,51.45057000000000,0.10172900000000
Sidcup Leisure Centre,DA15 9AE,51.43503200000000,0.10566300000000
Havard Catering Services at Sidcup Golf Club,DA15 9AW,51.4389,0.1122
El Iberico ,DA15 9ER,51.44509200000000,0.10232600000000
OVAL CAFE LIMITED,DA15 9ER,51.4451,0.1024
Oval spice ltd,DA15 9ER,51.4451,0.1024
PRIDE OF INDIA,DA15 9ER,51.4451,0.1024
The Banana Garden,DA15 9ER,51.44509200000000,0.10232600000000
Saffron Indian Diner ,DA15 9JN,51.44744300000000,0.11760300000000
Blackfen Cafe,DA15 9LU,51.45019200000000,0.10428800000000
COSTA COFFEE - BLACKEN ,DA15 9LU,51.4503,0.1043
Costa Coffee,DA15 9LU,51.45019200000000,0.10428800000000
Doan gia,DA15 9NB,51.45063500000000,0.10463900000000
Sidcup Dawat Ltd,DA15 9NB,51.45063500000000,0.10463900000000
HAPPY BELLYS,DA16 1ST,51.46171100000000,0.11431900000000
Noodle City,DA16 1TJ,51.46216800000000,0.10839500000000
Saray Restaurant,DA16 1TQ,51.46191000000000,0.11121800000000
Balseros Latino Bar and Restaurant,DA16 1TR,51.46186620000000,0.11367510000000
Luso Flavours,DA16 1TR,51.46208300000000,0.11262300000000
KOFFI POT LTD,DA16 1TY,51.46251200000000,0.10878400000000
UTKU CAFE LTD,DA16 1TY,51.4625,0.1088
Falcon Tandoori,DA16 2PL,51.45673500000000,0.09445500000000
Olive Dining At Eastcote Primary School,DA16 2ST,51.46402300000000,0.08413500000000
Pizza Hut,DA16 3AD,51.46402400000000,0.10872500000000
WELLING CHICKS LTD,DA16 3AX,51.46420200000000,0.09983600000000
Totlins,DA16 3DP,51.46689500000000,0.11009500000000
WIMPY,DA16 3HE,51.46292700000000,0.10773900000000
Chupitos Tapas Bar and Restaurant ,DA16 3HF,51.46335480000000,0.10791310000000
Mums cafe,DA16 3HF,51.46358800000000,0.10798500000000
pie and mash shop,DA16 3HF,51.46358800000000,0.10798500000000
The Green Man Sunset Restaurant,DA16 3NL,51.46691100000000,0.09215600000000
Maison Parisienne,DA16 3PA,51.46247500000000,0.10679600000000
Espresso Bar ,DA16 3PB,51.4628,0.1044
KFC,DA16 3PB,51.46282600000000,0.10435100000000
A&A ASSOCIATES (LONDON) LIMITED,DA16 3PG,51.4632,0.1023
New Ming Restaurant,DA16 3PG,51.46317800000000,0.10227900000000
New Ming,DA16 3PG,51.46317800000000,0.10227900000000
Cruffins,DA16 3PY,51.46321487426760,0.10423500090837
Galms Ltd (McDonald's),DA16 3PY,51.46322400000000,0.10419600000000
Sub Way,DA16 3QB,51.4634,0.1027
MKA Foods LTD T/A New Curry Centre,DA16 3QD,51.46356600000000,0.10167800000000
Akrbf Ltd,DA16 3QR,51.4639,0.0997
K’s Café ,DA16 3QR,51.46391600000000,0.09972200000000
CAFE DELUXE WELLING LTD,DA16 3RW,51.4663,0.0856
Starbucks,DA17 6FD,51.49694000000000,0.15652000000000
Compass Group At Lessness Heath Primary School,DA17 6HB,51.48396301269530,0.15029099583626
Miller & Carter,DA2 6NQ,51.43771500000000,0.24125700000000
Stone valley lodge Ltd,DA2 6PD,51.44705500000000,0.24663700000000
Thermo Fisher,DA2 6PT,51.45808600000000,0.25339700000000
COSTA COFFEE - DARTFORD ,DA2 6QE,51.45292663574220,0.25369000434876
Costa Coffee,DA2 6QE,51.45292663574220,0.25369000434876
Campanile Dartford,DA2 6QN,51.45825700000000,0.25526300000000
Laing O Rourke,DA2 6SN,51.45540700000000,0.25428700000000
The plough ,DA2 7BW,51.4273,0.2071
Principals By CH&Co @ Wilmington C P School,DA2 7DF,51.42729300000000,0.19799300000000
Birchwood Park Golf & Country Club,DA2 7HJ,51.41265900000000,0.16043200000000
Rowhill Grange Hotel and Spa,DA2 7QH,51.41811300000000,0.18876500000000
Principals By CH&Co @ Maypole Primary School,DA2 7UZ,51.43115500000000,0.17465500000000
Principals By CH&Co @ Bean Primary School,DA2 8AL,51.42634963989260,0.28964000940323
Costa Coffee,DA2 8DA,51.43507100000000,0.25814900000000
Green Spice ,DA2 8DP,51.41361000000000,0.27692300000000
Bexley Kitchen,DA5 1AA,51.44179100000000,0.14997800000000
Tanyard Lane Bar & Kitchen ,DA5 1AA,51.44179100000000,0.14997800000000
Melucci's Italian delicatessen ltd,DA5 1AB,51.44154800000000,0.14798100000000
Ferrari's Restaurant Bexley Village,DA5 1AD,51.44156300000000,0.14716200000000
COSTA COFFEE - BEXLEY,DA5 1AF,51.44155120849610,0.14724799990654
Costa Coffee,DA5 1AF,51.44155120849610,0.14724799990654
Coffee Mill and Kitchen,DA5 1AH,51.44131200000000,0.14904900000000
Greys tea and coffee house,DA5 1AH,51.4413,0.1491
Pizza Place,DA5 1BT,51.44797400000000,0.12152800000000
SAGGOR TANDOORI,DA5 1BT,51.44797400000000,0.12152800000000
Anchor,DA5 1JE,51.44527816772460,0.13384699821472
Baltizer ,DA5 1LA,51.44103100000000,0.15072000000000
ALBERELLO LIMITED,DA5 1LB,51.44147600000000,0.15048200000000
Bexley Greek Taverna,DA5 1LB,51.44147600000000,0.15048200000000
LILYCROSS LIMITED T/AS MAHARAJAH OF BEXLEY,DA5 1LB,51.4415,0.1505
Holiday Inn London Bexley,DA5 1ND,51.44639100000000,0.15408000000000
Riverside Cafe,DA5 1PQ,51.4480,0.1602
Fortune Inn,DA5 3HG,51.43598500000000,0.12759100000000
Ruchi Restaurant Limited,DA5 3HG,51.43598500000000,0.12759100000000
Beirut city Lebanese restaurant ,DA6 7AU,51.45776000000000,0.13827700000000
Masala Inn,DA6 7AU,51.45776000000000,0.13827700000000
Thai Bexleyheath,DA6 7BD,51.45759700000000,0.13936300000000
Bexleyheath KFC Store,DA6 7BT,51.4574,0.1405
KFC,DA6 7BT,51.45737800000000,0.14051900000000
Adels ,DA6 7DE,51.45669400000000,0.14542400000000
Tom Bells,DA6 7DE,51.45669400000000,0.14542500000000
Subway,DA6 7DQ,51.45696500000000,0.14438600000000
The Kings Arms,DA6 7DW,51.45704370000000,0.14301880000000
Nando's,DA6 7DZ,51.45678500000000,0.14688300000000
cafe Mojito,DA6 7EJ,51.45720000000000,0.13938800000000
Pizza Express,DA6 7ES,51.45694000000000,0.14083000000000
The Rose Public House,DA6 7ES,51.45694000000000,0.14083000000000
Delicio - Bexleyheath,DA6 7EY,51.4568,0.1415
Bexleyheath Conservative Club t/a 1V1 Club,DA6 7EZ,51.4568,0.1422
Creams,DA6 7EZ,51.45684500000000,0.14209200000000
TANDAG LIMITED TA ISTANBUL KITCHEN ,DA6 7EZ,51.45684500000000,0.14209200000000
TTH ENTERPRISE LTD,DA6 7EZ,51.4568,0.1422
Caffe Nero,DA6 7HF,51.45659000000000,0.14375000000000
FA Group Ltd T/A Muffin Break,DA6 7HF,51.45658874511720,0.14374999701977
Burger King,DA6 7JJ,51.45587300000000,0.14606300000000
Galms Ltd (McDonald's),DA6 7JN,51.45613300000000,0.14614700000000
Starbucks,DA6 7JN,51.45613300000000,0.14614700000000
Cast Iron Restaurant & Brew Bar,DA6 7JZ,51.45499700000000,0.15212400000000
The Prince Albert,DA6 7LE,51.45548248291020,0.15266600251198
Twin Palace,DA6 7LE,51.45548200000000,0.15266600000000
Buzz Bingo,DA6 7LL,51.45628738403320,0.15002621710300
Frank and Bennys,DA6 7LL,51.45628600000000,0.15002600000000
Zizzi,DA6 7LL,51.45628600000000,0.15002600000000
Tenpin Bowling,DA6 7LS,51.45498200000000,0.14609300000000
Hazine,DA6 8AJ,51.45824432373050,0.13442699611187
Aligor Restaurant,DA6 8BE,51.45806300000000,0.13549900000000
Cuore Food From The Earth Limited,DA6 8BE,51.45806200000000,0.13549800000000
Winiks Bakery Limited,DA6 8BE,51.4581,0.1355
Stuzzichini,DA6 8DB,51.45745300000000,0.13783000000000
THE M KITCHEN,DA6 8DB,51.45740000000000,0.13729600000000
Zingara,DA6 8DG,51.45778000000000,0.13524100000000
The Jasmine by Spice Nouv-Oh!,DA6 8DT,51.45781100000000,0.13301100000000
VIET VIAND,DA6 8DT,51.45802480000000,0.13409680000000
Elior At EDF Energy Bexleyheath,DA6 8ET,51.45743500000000,0.13735120000000
Fleur de The Ltd,DA6 8HL,51.45577900000000,0.12256600000000
Bexleyheath golf club ,DA6 8JS,51.45214900000000,0.12935000000000
Glasshouse restaurant ,DA7 4EG,51.46282958984380,0.13253900408745
Crook Log Leisure Centre,DA7 4HH,51.46025900000000,0.12448800000000
Spice of India,DA7 4QW,51.46444700000000,0.13309000000000
Zanz Cafe,DA7 4QW,51.46444700000000,0.13309000000000
Bombay Balti House ,DA7 5AE,51.46594300000000,0.14568600000000
Compass Group At Mayplace Primary School,DA7 6EQ,51.45688800000000,0.16668100000000
Jalsha 2(Tandoori Restaurant),DA7 6HJ,51.46718800000000,0.15819800000000
Spice onamika,DA7 6HJ,51.46718800000000,0.15819800000000
Elior At Tesco Fulfillment Centre Erith,DA8 1DE,51.49350100000000,0.16991400000000
Jade Garden,DA8 1HN,51.47346000000000,0.16094300000000
parkview cafe,DA8 1PP,51.4838,0.1658
De White Hart restaurant ltd,DA8 1QY,51.4817,0.1810
Starburger ,DA8 1RB,51.48014900000000,0.17898800000000
McDonald's Restaurants,DA8 1RN,51.47842500000000,0.18079200000000
The Exchange Erith Ltd,DA8 1RS,51.48137664794920,0.17779299616814
Mambocino cafe,DA8 1SE,51.48051500000000,0.18061800000000
Riverside Steak and Fish House,DA8 1SE,51.48048500000000,0.18024200000000
k's spice african restaurant ,DA8 1TA,51.48013000000000,0.17908800000000
Erith KFC Store,DA8 2AB,51.47826300000000,0.18275800000000
KFC Erith,DA8 2AB,51.47826300000000,0.18275800000000
Forest cafe,DA8 2NU,51.46836600000000,0.19073700000000
The Chefs Table,DA8 2PP,51.4737,0.1820
Erith Leisure Centre,DA8 3AT,51.47697800000000,0.17442900000000
ERITH SUBWAY,DA8 3EX,51.4733,0.1628
Pizza Hut Delivery,DA8 3EX,51.47333700000000,0.16275100000000
Compass Group At Barnehurst Infant & Junior School,DA8 3NL,51.46976800000000,0.16171800000000
Burger King,DA9 9AP,51.45181900000000,0.26497800000000
Subway Restaurant,DA9 9BT,51.45254800000000,0.27519000000000
McDonald's,DA9 9HY,51.44863510131840,0.27977401018143
McDonalds,DA9 9HY,51.44863510131840,0.27977401018143
Ori Caffe,DA9 9SA,51.44054031372070,0.27152800559998
Yo Sushi,DA9 9SA,51.44054100000000,0.27152800000000
Cafe Nero,DA9 9SB,51.43898300000000,0.26794000000000
Costa Coffee,DA9 9SE,51.43940900000000,0.26917000000000
Pizza Express,DA9 9SE,51.43940900000000,0.26917000000000
The Daily Grind,DA9 9SE,51.43975830078130,0.26925599575043
Zizzi,DA9 9SE,51.43940900000000,0.26917000000000
Bluewater KFC Store ,DA9 9SF,51.43933500000000,0.27249000000000
Costa Coffee,DA9 9SF,51.43933500000000,0.27249000000000
Galms Ltd (McDonald's),DA9 9SF,51.43933486938480,0.27248999476433
KFC,DA9 9SF,51.43933500000000,0.27249000000000
McDonalds,DA9 9SF,51.43933486938480,0.27248999476433
Nando's,DA9 9SF,51.43933500000000,0.27249000000000
SIZZLED,DA9 9SF,51.43933500000000,0.27249000000000
Shawa Bluewater,DA9 9SF,51.43933500000000,0.27248900000000
Tortilla,DA9 9SF,51.43933500000000,0.27249000000000
Wasabi Sushi And Bento,DA9 9SF,51.43933500000000,0.27249000000000
Wingstop Bluewater,DA9 9SF,51.4392,0.2733
Ask Italian,DA9 9SG,51.43774600000000,0.27143300000000
Costa at Showcase Cinema de Lux Bluewater,DA9 9SG,51.43774600000000,0.27143300000000
Five Guys,DA9 9SG,51.43774600000000,0.27143300000000
Gourmet Burger Kitchen (GBK),DA9 9SG,51.43701934814450,0.27093601226807
Nando's,DA9 9SG,51.43701934814450,0.27093601226807
Pizza Express,DA9 9SG,51.43701934814450,0.27093601226807
Rosa's Thai Cafe,DA9 9SG,51.43701934814450,0.27093601226807
Wagamama,DA9 9SG,51.43701934814450,0.27093601226807
Cocoba,DA9 9SH,51.43933500000000,0.27249000000000
Pret A Manger,DA9 9SH,51.43933500000000,0.27249000000000
Cafe Nero,DA9 9SP,51.43933500000000,0.27249000000000
Starbucks,DA9 9SP,51.43933500000000,0.27249000000000
Coffee Republic,DA9 9SQ,51.43835000000000,0.27090100000000
Costa Coffee,DA9 9SQ,51.43835000000000,0.27090100000000
Starbucks,DA9 9SS,51.43917300000000,0.27016500000000
Comptoir Bluewater,DA9 9ST,51.4394,0.2729
Gravity - Bluewater,DA9 9ST,51.4394,0.2729
SPUDULIKE BLUEWATER,DA9 9ST,51.4394,0.2729
Tapas Revolution Bluewater,DA9 9ST,51.4394,0.2729
Wasabi Sushi & Bento,DA9 9ST,51.4394,0.2729
Yangzte Blue Water,DA9 9ST,51.4394,0.2729
Zabardast,DA9 9ST,51.4394,0.2729
Pizza Hut Restaurant,DA9 9SX,51.43798700000000,0.27525800000000
Nandos Chickenland Limited,E6 7ER,51.51697700000000,0.08033900000000
SOM Restaurants ltd,E6 7ER,51.5172,0.0803
Costa Coffee,E6 7FB,51.51216888427730,0.07722300291061
McDonalds - Gallions,E6 7FD,51.51759000000000,0.07568200000000
McDonalds Restaurants Ltd,IG1 1NE,51.55993100000000,0.07701800000000
SOM Restaurants ltd,IG1 1NE,51.5599,0.0770
Halal Foods (UK) Ltd T/A Ali Curry House ,IG1 1NR,51.5607,0.0809
KFC Ilford,IG1 1QB,51.55953800000000,0.07691400000000
KFC,IG1 1QB,51.55953800000000,0.07691400000000
R 2 R LTD T/A BBQ EXPRESS ILFORD,IG1 1QB,51.55953800000000,0.07691400000000
Spice khazana Ltd,IG1 1QF,51.5600,0.0791
Indi Spices,IG1 1QW,51.56035900000000,0.08130800000000
Tabla Restaurant,IG1 1QW,51.56035900000000,0.08130800000000
Subhaan Caterers Ltd,IG1 1TH,51.56136900000000,0.08418200000000
Colony Restaurant,IG1 1UE,51.56249370000000,0.09125630000000
TAJ CATERING EVENTS LIMITED,IG1 1UE,51.56243400000000,0.09153200000000
Cakes and craves,IG1 1UF,51.56160710000000,0.08965640000000
The Secret garden steakhouse,IG1 1UF,51.56160710000000,0.08965640000000
Gymkhana,IG1 1XT,51.5597,0.0939
Franzos,IG1 2LT,51.54815000000000,0.07603000000000
AL FATH LTD,IG1 2LZ,51.5478,0.0760
Eden peri peri ,IG1 2SD,51.55023580000000,0.07510170000000
Chicken & Pizza 4U,IG1 2SN,51.54650000000000,0.07682500000000
APPACHI RESTAURANT LTD t/as Fireaway Pizza Ilford,IG1 4AA,51.56433500000000,0.08277400000000
Crave London,IG1 4AA,51.5643,0.0828
Fusion Exclusive Shisha Lounge,IG1 4BH,51.56153030000000,0.07613510000000
Dixy Chicken,IG1 4BL,51.56227600000000,0.07764500000000
Al Qasr Restaurant ,IG1 4BS,51.56362200000000,0.08241000000000
Adrian Teslaru ,IG1 4JB,51.5645,0.0793
Big Moe's Diner,IG11 0AD,51.52564500000000,0.07989800000000
Black&White Lounge restaurant,IG11 0AD,51.52564500000000,0.07989800000000
Mylahore,IG11 0AD,51.5244,0.0780
Bravewin Ltd,IG11 0BL,51.5273,0.0911
The Boat House Cafe and Bar,IG11 7BT,51.5315,0.0760
JULIENEST CATERING SERVICES LTD,IG11 8AG,51.53825800000000,0.07806500000000
CRISTINA'S STEAK LTD,IG11 8AW,51.53659700000000,0.07690800000000
Caffe Latte,IG11 8DG,51.53790500000000,0.08122100000000
COSTA COFFEE,IG11 8EA,51.53923970000000,0.08158130000000
Kebabish Hut,IG11 8EA,51.53929300000000,0.08161600000000
SBR Trading Limited T/A Costa Coffee,IG11 8EA,51.53923970000000,0.08158130000000
KFC,IG11 8EB,51.5391,0.0805
Lituanica Barking,IG11 8EQ,51.5376,0.0794
SOM Restaurants ltd,IG11 8ER,51.5368,0.0777
Nando's Chickenland Ltd,IG11 8RR,51.53993500000000,0.08242400000000
CHINA FRIEND LTD,IG11 8RT,51.5405,0.0832
Pizza Di legno,IG11 8SF,51.54151940000000,0.08487240000000
Popeyes,IG11 8SF,51.54135400000000,0.08455100000000
ariana Restaurant Barking,IG11 8SF,51.5413,0.0846
Caribiscus Carribean & Takeaway,IG11 8TB,51.5417,0.0845
Pizza Hut,IG11 8TB,51.54171500000000,0.08445200000000
Azan Grill ,IG11 8TG,51.54136600000000,0.08384500000000
The Big Friendly Coffee,IG11 8UD,51.54698181152340,0.09274099767208
RERHOU TRADE LIMITED,IG11 8UF,51.54645919799800,0.09189099818468
RITCHIES CAFE LTD T/A Ritchies Fresh Bake,IG11 8UN,51.54532900000000,0.09312700000000
Elior UK Ltd,IG11 9PH,51.53942600000000,0.09881100000000
Buon appetito cafe,IG11 9RS,51.53536200000000,0.09429900000000
VIJAYS VIRASAT LIMITED,IG2 6BE,51.57437800000000,0.08389700000000
Banana Leaf Restaurant Ltd,IG2 7DE,51.57294100000000,0.08375900000000
Mirage Restaurant,IG2 7HU,51.57330000000000,0.08431000000000
McDonald's Newbury Park,IG2 7RH,51.57390500000000,0.08419300000000
Newbury Park Hotels Ltd,IG2 7RH,51.5742,0.0854
Miller & Carter at the Dick Turpin,IG2 7TD,51.58607400000000,0.10270800000000
delhi o delhi,IG3 8BY,51.56322500000000,0.09762800000000
Pit-Stop,IG3 8EG,51.56281840000000,0.09271400000000
Kings grill restaurant ,IG3 8EZ,51.57142000000000,0.09598500000000
Masala 910,IG3 8JB,51.57218800000000,0.09519700000000
Chicken House,IG3 8RA,51.5645,0.0980
GRILLER,IG3 8RA,51.56449500000000,0.09801800000000
Kukus Piri Piri,IG3 8RA,51.56449500000000,0.09801800000000
AA Dream factory ltd T/A Subway,IG3 8RH,51.56492170000000,0.10081850000000
EXCELLENT FOOD LTD T/A Original Fried Chicken,IG3 8RH,51.56499800000000,0.10102800000000
McCaffertys Ilford,IG3 8RH,51.5650,0.1011
FUSION FOOD T/A GOURMET GRILL,IG3 8RL,51.56532100000000,0.10261600000000
Wok Wala Street Kitchen ,IG3 8RL,51.56532100000000,0.10261600000000
MUZIRIS,IG3 8RN,51.5655,0.1036
KFC Seven Kings,IG3 8RQ,51.5648,0.0998
McDonalds Restaurants Ltd,IG3 8RS,51.56538200000000,0.10469600000000
SOM Restaurants ltd,IG3 8RS,51.56538200000000,0.10469600000000
Peshawar Grill Ltd T/A Khyber Grill,IG3 8RW,51.56587500000000,0.10531100000000
a STAR eATERY,IG3 8TD,51.5665,0.1087
Mehak Grill House,IG3 8TH,51.56651800000000,0.11008800000000
Central Restaurant and Lounge,IG3 9TN,51.56037400000000,0.09510200000000
FAT CAFE DINER,IG3 9UB,51.5635,0.1105
GRILL HOUSE LONDON LTD T/A GRILLER,IG3 9UB,51.56349900000000,0.11043800000000
Amira’s Coffee House & Garden,IG3 9UD,51.56402800000000,0.11050600000000
Costa Coffee,IG3 9UH,51.56573510000000,0.11061010000000
Scoffs Essex Ltd t/a Costa Coffee Goodmayes,IG3 9UH,51.56573510000000,0.11061010000000
Yummy chicken ,IG3 9UN,51.56630700000000,0.11026600000000
Jericho,IG3 9UZ,51.56353500000000,0.10989200000000
Cafe 104 Ltd,IG6 1QE,51.58817900000000,0.08253600000000
ABSHAR INDIAN CUISINE ,IG6 2AD,51.58975500000000,0.08135300000000
BARKINGSIDE KEBABISH LIMITED,IG6 2AD,51.58975500000000,0.08135300000000
ksr bakers uk ltd t/a cakes & bakes,IG6 2AD,51.58975500000000,0.08135300000000
Dixy Fried Chicken & Pizza,IG6 2AF,51.59052800000000,0.08189300000000
Costa Coffee,IG6 2AH,51.59139500000000,0.08272700000000
Scoffs Essex Ltd t/a Costa Coffee Barkingside,IG6 2AH,51.59139500000000,0.08272700000000
Spice,IG6 2AH,51.59139500000000,0.08272700000000
C&C Barkingside Limited t/as Cookies & Cream,IG6 2AJ,51.59274100000000,0.08385700000000
KFC Barkingside,IG6 2AJ,51.5927,0.0838
Qubros Ltd T/As Rossi Bros,IG6 2AJ,51.5927,0.0838
Rowans Coffee Shop Ltd,IG6 2AJ,51.59274100000000,0.08385700000000
McDonald's Barkingside,IG6 2AW,51.58892200000000,0.08066500000000
McDonalds Restaurants Ltd,IG6 2AW,51.58892200000000,0.08066500000000
Papa Johns - BARKINGSIDE,IG6 2AW,51.58892200000000,0.08066400000000
Pizza Hut,IG6 2DF,51.58890100000000,0.08134200000000
Maison Fraise,IG6 2DQ,51.58954900000000,0.08182000000000
SUBWAY,IG6 2DQ,51.58954900000000,0.08182000000000
BELLAS COFFEE LTD,IG6 2DR,51.59107208251950,0.08313100039959
Danny's Pie and Mash,IG6 2DR,51.59107300000000,0.08313100000000
Sweet. Barkingside,IG6 2DU,51.59196080000000,0.08380270000000
Barkingside Buzz Bingo,IG6 2EF,51.59282500000000,0.08217100000000
Sharods Ltd,IG6 2EY,51.59349700000000,0.08436800000000
CAFE ILA,IG6 2LD,51.60232700000000,0.08387700000000
Monsoon Restaurant,IG6 2UE,51.60268600000000,0.08694000000000
New Old Parks Pavilion ,IG6 3HD,51.5961,0.0906
Powerleague,IG6 3HJ,51.59919200000000,0.10032500000000
Silantro Ltd,IG6 3SL,51.6041,0.1175
Indian Ocean,IG7 5QB,51.61308000000000,0.09110000000000
Lionsgate,IG7 5QB,51.6130,0.0910
The Two Brewers ,IG7 6ET,51.62169600000000,0.12057800000000
KASPAS DESSERTS - ROMFORD ,RM1 1AU,51.57596400000000,0.18071000000000
McDonald's Romford Brewery,RM1 1AU,51.57596400000000,0.18071000000000
McDonalds,RM1 1AU,51.57596400000000,0.18071000000000
Namco Funscape,RM1 1AU,51.57596400000000,0.18071000000000
Nandos,RM1 1AU,51.57596400000000,0.18071000000000
Patisserie Valerie,RM1 1AU,51.57596400000000,0.18071000000000
Pizza Express,RM1 1AU,51.57596400000000,0.18071000000000
Starbucks Coffee,RM1 1AU,51.57599200000000,0.18010500000000
TGI Fridays,RM1 1AU,51.57684610000000,0.18016020000000
Zizzi,RM1 1AU,51.57596400000000,0.18071000000000
Cafe Chateau,RM1 1BH,51.57926300000000,0.17978600000000
Ratik limited,RM1 1BH,51.5792,0.1798
OPERA RESTAURANT ,RM1 1DA,51.58070200000000,0.17832400000000
BESITO LIMITED T/A CAFE BUENO ,RM1 1HR,51.57814200000000,0.17914000000000
Jacksons Cafe,RM1 1JL,51.57718600000000,0.17832900000000
Market Cafe,RM1 1JL,51.57718600000000,0.17832900000000
Taste of East Ltd,RM1 1JL,51.5772,0.1784
Divan cafe,RM1 1JU,51.57808200000000,0.17996000000000
CREAM TOWN LTD,RM1 1NJ,51.57807922363280,0.18109600245953
Costa Coffee,RM1 1NL,51.57690700000000,0.18219900000000
KFC Romford,RM1 1NL,51.5770,0.1821
Ciao Bella,RM1 1NX,51.57596400000000,0.18310600000000
McDonald's Romford,RM1 1NX,51.57596400000000,0.18310600000000
Mcdonalds,RM1 1NX,51.57596400000000,0.18310600000000
Express Kebab House,RM1 1PS,51.57380100000000,0.18430100000000
BUNNO,RM1 1RA,51.57791110000000,0.18052550000000
Burger King,RM1 1RB,51.57695300000000,0.18120500000000
KFC,RM1 1RB,51.57695388793950,0.18120500445366
RODIZIO LIMITED,RM1 1RS,51.5763,0.1816
Remman Ltd,RM1 1RX,51.5759,0.1825
SUBWAY,RM1 1RX,51.57587100000000,0.18230800000000
JRL & Co Ltd c/o The brickyard,RM1 2AD,51.57090800000000,0.18514400000000
cafe shot,RM1 2EL,51.57203100000000,0.19095500000000
S J FOOD SERVICES LTD T/A DIXY CHICKEN,RM1 2EU,51.5719,0.1889
Asia Spice ,RM1 2JH,51.57455100000000,0.18604000000000
Delhi Live,RM1 2JH,51.57455100000000,0.18604000000000
Pearl dragon romford,RM1 2JH,51.57455100000000,0.18604000000000
jumeirah palm lounge ltd,RM1 2JH,51.57455100000000,0.18604000000000
Bekash Tandoori,RM1 2LA,51.57488300000000,0.18708100000000
Koko cafe ,RM1 2LX,51.57620900000000,0.19020400000000
The Hideout,RM1 3AB,51.5800,0.1823
BB's Coffee and Muffins Romford ,RM1 3EE,51.57929000000000,0.18509800000000
CAFFE Della Continental,RM1 3EE,51.57943710000000,0.18568680000000
Della Continental,RM1 3EE,51.57943710000000,0.18568680000000
McDonald's Romford 2,RM1 3EE,51.57929000000000,0.18509800000000
McDonalds,RM1 3EE,51.57929000000000,0.18509800000000
Mecca Bingo Ltd,RM1 3EE,51.57929000000000,0.18509800000000
Subway,RM1 3EE,51.57929000000000,0.18509800000000
NEGRO LIMITED T/A CAFE FINO ,RM1 3ER,51.57950200000000,0.18288600000000
Poppins cafe restaurant ,RM1 3LD,51.57703200000000,0.18321500000000
KK Foods Ltd,RM1 3RH,51.5776,0.1834
Super Sushi,RM1 3RJ,51.57698900000000,0.18271840000000
EL MEXICANA,RM1 3RL,51.5784,0.1837
Starbucks,RM1 3RR,51.57779300000000,0.18387200000000
Cafe Liberty ,RM1 3RT,51.57941400000000,0.18374800000000
Small Talk Tearooms,RM1 3RT,51.57940330000000,0.18394540000000
The Eastbrook,RM10 7UP,51.55233383178710,0.16448800265789
Ali’s Kitchen,RM10 7XJ,51.54581350000000,0.16505870000000
Starbucks,RM10 8RE,51.54109191894530,0.14897100627422
Gunay’s Cafe ,RM10 8YL,51.54271200000000,0.16592400000000
Pizza Hut,RM10 9HP,51.53658700000000,0.15083800000000
22 Ventidue LTD,RM10 9LH,51.53293609619140,0.15228100121021
Pietro's Cafe,RM10 9RR,51.54007600000000,0.15672800000000
Casa Mia,RM11 1DP,51.5648,0.2049
Burger King,RM11 1PZ,51.56532200000000,0.19343200000000
KORAL'S CATERING,RM11 1QJ,51.5653,0.1992
Thai River Restaurant,RM11 1RL,51.56312700000000,0.21974500000000
MOTHER INDIA (HORNCHURCH) LTD,RM11 1SU,51.56765000000000,0.22030790000000
KFC,RM11 1TP,51.56327400000000,0.21530900000000
Tarantino LTD,RM11 1TP,51.56327400000000,0.21530900000000
Uraswamy's,RM11 1TP,51.56327400000000,0.21530900000000
Nes' CAFE,RM11 1TS,51.56333500000000,0.21731700000000
OLIMBOS LIMITED,RM11 1TS,51.5633,0.2174
Nandos,RM11 1TX,51.56278520000000,0.21933530000000
Wimpy,RM11 1TX,51.56272600000000,0.21958200000000
Pizza Hut Delivery,RM11 2LG,51.58328400000000,0.22095900000000
Waterfall Elior @ Havering Sixth Form College,RM11 3SU,51.56133500000000,0.23079700000000
Passage to india ,RM11 3XB,51.55939200000000,0.23505900000000
Tandoori Lounge,RM11 3XS,51.56184500000000,0.22145800000000
Tops cafe / asya top ltd,RM11 3XS,51.56164160000000,0.22179010000000
MANDARIN PALACE,RM11 3XT,51.56160600000000,0.22362500000000
Prezzo,RM11 3XT,51.56160600000000,0.22362500000000
Umberto restaurant ,RM11 3XT,51.56160600000000,0.22362500000000
Sukhothai Hornchurch,RM11 3YD,51.56223900000000,0.22059700000000
Istanbul Grill Restaurant,RM12 4RS,51.55062000000000,0.19813400000000
COSTA COFFEE - ELM PARK,RM12 4RX,51.55129000000000,0.19838200000000
Costa Coffee,RM12 4RX,51.55129000000000,0.19838200000000
Parkside Brasserie,RM12 4SD,51.55106800000000,0.19969900000000
cardamom,RM12 4SY,51.56460700000000,0.20182500000000
cafe balti,RM12 4TQ,51.56504100000000,0.19063400000000
COSTA COFFEE - HORNCHURCH 1,RM12 4UH,51.56254300000000,0.21831700000000
Costa Coffee,RM12 4UH,51.56254300000000,0.21831700000000
The Rising Sun Pub,RM12 4UW,51.56268500000000,0.21698200000000
Burger Boyz ,RM12 5AS,51.54921400000000,0.20024500000000
Tea Island,RM12 6AF,51.56140800000000,0.22126300000000
Da Vinci's,RM12 6JL,51.56077400000000,0.22103000000000
vertigo lounge ,RM12 6JL,51.56077400000000,0.22103000000000
Zizzi,RM12 6JT,51.56023600000000,0.22093200000000
Fireaway Pizza ,RM12 6NB,51.56057120000000,0.22038880000000
ONYX RESTAURANT & BAR ,RM12 6NB,51.56039100000000,0.22034800000000
Pride Of Hornchurch Ltd,RM12 6NB,51.5604,0.2203
SUBWAY,RM12 6NJ,51.56128700000000,0.22050700000000
Mustard Rainham limited,RM12 6QP,51.5612,0.2227
Taste of Bengal,RM12 6QP,51.56125300000000,0.22277100000000
Wildwood,RM12 6QU,51.55061400000000,0.20761400000000
COSTA COFFEE - HORNCHURCH 2,RM12 6QX,51.56203500000000,0.21996600000000
Costa Coffee,RM12 6QX,51.56203500000000,0.21996600000000
Starbucks Hornchurch,RM12 6QX,51.5621,0.2200
Arya's Kitchen,RM12 6RJ,51.55196700000000,0.21879800000000
Elior UK @ Tesco Dagenham DC,RM13 8GJ,51.52254400000000,0.17208800000000
KFC,RM13 8TX,51.52784800000000,0.18817100000000
The Munch Up,RM13 8UG,51.51643700000000,0.17361300000000
Cauliflower,RM13 9AA,51.51874000000000,0.19378800000000
Alis cafe,RM13 9BU,51.51550400000000,0.18316800000000
Pizza Hut Delivery,RM13 9YS,51.51860300000000,0.19156200000000
Can's Meze Bar ,RM14 1RQ,51.56873100000000,0.26762400000000
Cranham Tandoori ,RM14 1RQ,51.56873100000000,0.26762400000000
Upminster Garden Centre,RM14 1TS,51.59443600000000,0.25534700000000
Spice of India,RM14 1XJ,51.56155800000000,0.26745500000000
Ginger Lounge,RM14 2AA,51.55248700000000,0.24767400000000
Lefke ,RM14 2AD,51.55342900000000,0.24731600000000
Roots,RM14 2AD,51.55342900000000,0.24731600000000
Caffe Gelato,RM14 2AH,51.55329200000000,0.24791500000000
THE TEACOSY LIMITED,RM14 2AH,51.5532,0.2479
Prezzo,RM14 2AJ,51.55407400000000,0.24838700000000
Pizza Express,RM14 2SH,51.55641200000000,0.24889200000000
ACE CREAMS & TAPAS,RM14 2SJ,51.55689400000000,0.24904500000000
COSTA COFFEE - UPMINSTER 2,RM14 2SJ,51.5569,0.2491
Costa Coffee,RM14 2SJ,51.55689400000000,0.24904500000000
Sorrento restaurant,RM14 2SJ,51.55689500000000,0.24904500000000
The Station Pantry,RM14 2SU,51.55859300000000,0.24959100000000
COSTA COFFEE - UPMINSTER 1,RM14 2TR,51.55773600000000,0.25019800000000
Costa Coffee,RM14 2TR,51.55773600000000,0.25019800000000
WIMPY,RM14 2TR,51.55773600000000,0.25019800000000
Barracuda Fish and Chips ,RM14 2TU,51.55804900000000,0.25030000000000
Caffe Nero,RM14 2UB,51.55673700000000,0.24977300000000
The Fete Lounge ltd,RM14 2UB,51.55673700000000,0.24977300000000
Masala Grill Original LTD,RM14 3BL,51.55643800000000,0.25081200000000
T&K COFFEE LTD,RM14 3BL,51.55643800000000,0.25081200000000
cafe le raj/raj essex ltd,RM14 3BL,51.5564,0.2508
SWEET ROSE CAKERY LIMITED,RM14 3BS,51.55607100000000,0.25070700000000
Samihah limited t/a kushoom bugh,RM14 3BT,51.55619000000000,0.25204000000000
Pizza Hut Delivery,RM14 3BU,51.55651400000000,0.25202700000000
The Jobber's Rest,RM14 3LT,51.55774700000000,0.27621000000000
Jaxons eating house,RM14 3NU,51.55958500000000,0.28480000000000
Top Meadow Golf Centre ,RM14 3PR,51.54196300000000,0.29887200000000
The Old White Horse,RM14 3PS,51.54056000000000,0.29607600000000
Langdon Hills Golf & Country Club Ltd,RM14 3TY,51.54473700000000,0.39524200000000
MingLong Essex Limited,RM15 4BB,51.4990,0.2558
Taste of Aveley,RM15 4BX,51.49887300000000,0.25461600000000
Sir Henry’s,RM15 4XB,51.51303100000000,0.25119300000000
Sam's cafe,RM15 4YD,51.49651718139650,0.22768500447273
Compass Group UK And Ireland - Chartwells,RM15 5AY,51.51280730000000,0.27674800000000
The Raj Ockendon,RM15 5DX,51.51071548461910,0.28210800886154
Woody's,RM15 6DU,51.51313600000000,0.29401900000000
hevsel meze restaurants ltd,RM16 2BD,51.4981,0.3295
Burger King,RM16 3BG,51.49230194091800,0.27225598692894
EDC Caffe & Costa Coffee,RM16 3BG,51.49230194091800,0.27225598692894
Subway,RM16 3BG,51.49230194091800,0.27225598692894
McDonald's Orsett Cock,RM16 3BJ,51.5060,0.3825
Voujon restaurant ,RM16 3BL,51.50544900000000,0.38273300000000
McDonalds,RM16 3BW,51.50990295410160,0.39638298749924
Cafe Sartoria,RM16 3HS,51.51472854614260,0.37095001339912
Garden Brasserie,RM16 3HS,51.51472854614260,0.37095001339912
The Whitmore Arms,RM16 3LB,51.51268100000000,0.36980800000000
kushi,RM16 6EW,51.48617800000000,0.28831500000000
pepes piri piri,RM17 5DD,51.47878200000000,0.32368880000000
MEMEL,RM17 5HF,51.47962951660160,0.32534700632095
Desi Indian Dining Club,RM17 5HJ,51.47941600000000,0.32575400000000
New Delhi,RM17 5HJ,51.47941600000000,0.32575400000000
Village Indiya,RM17 5RY,51.48890000000000,0.34085800000000
Bombay Restaurant,RM17 5RZ,51.48889160156250,0.33899900317192
Pizza Hut Delivery,RM17 5RZ,51.48889200000000,0.33899900000000
Orchard Cafe,RM17 5SY,51.48463100000000,0.34206500000000
the bull public house,RM17 6EY,51.47694778442380,0.34227699041367
THEOBALD ARMS,RM17 6HR,51.47398700000000,0.32243900000000
Feast,RM17 6LU,51.47778700000000,0.32263200000000
KFC Grays,RM17 6LU,51.47778701782230,0.32263201475143
KFC,RM17 6LU,51.47778701782230,0.32263201475143
Nagawa ,RM17 6LU,51.4779,0.3228
Izgara Meze,RM17 6LY,51.47751235961910,0.32247400283814
Subway,RM17 6NB,51.47741400000000,0.32330500000000
Gurkha Cookhouse ,RM17 6NQ,51.47615100000000,0.32211700000000
Break Bar,RM17 6QE,51.47744810000000,0.32434940000000
Burger King,RM17 6QE,51.47710100000000,0.32367700000000
Costa Coffee,RM17 6QE,51.47710100000000,0.32367700000000
The Snack Shack,RM17 6QE,51.4771,0.3238
Wimpy ,RM17 6QE,51.4771,0.3238
Right time African restaurant ,RM18 7BJ,51.46219100000000,0.35476600000000
THE DOCK CAFE & RESTAURANT,RM18 7BJ,51.46219100000000,0.35476600000000
Restaurant Zani,RM18 7BS,51.46307200000000,0.35381800000000
McDonald's Tilbury,RM18 7HZ,51.47089385986330,0.34221100807190
McDonalds,RM18 7HZ,51.47089385986330,0.34221100807190
THE ROYAL HOTEL,RM19 1QA,51.48320600000000,0.23066800000000
Compass Group UK And Ireland - Chartwells,RM19 1QY,51.47916412353520,0.23993100225925
Costa Coffee,RM19 1TS,51.48596100000000,0.24418400000000
Best Western Thurrock Hotel ,RM19 1YN,51.48879800000000,0.26548500000000
Costa Coffee,RM2 5EL,51.58702400000000,0.20049700000000
Scoffs (Essex) Ltd t/a Costa Coffee Gidea Park,RM2 5EL,51.5869,0.2005
The Ship PH,RM2 5EL,51.58702400000000,0.20049700000000
Razza,RM2 5EU,51.58708400000000,0.20257900000000
RADHUNI RESTAURANT,RM2 5HA,51.58657600000000,0.20086600000000
Zaafran Indian Cuisine,RM2 5HA,51.58657600000000,0.20086600000000
kushi,RM2 5HS,51.5860,0.1975
STEEP HOLM LIMITED,RM2 5QB,51.58729200000000,0.19918200000000
Ginger Spice,RM2 5TH,51.57660300000000,0.20658900000000
Waterfall Elior @ Dreywood Court,RM2 6EY,51.58266100000000,0.21394100000000
McDonald's 289 - West Thurrock,RM20 1TX,51.4890,0.2756
Costa Coffee,RM20 1WN,51.48650100000000,0.27819100000000
McDonalds,RM20 1WN,51.48649978637700,0.27819100022316
Nandos,RM20 1WN,51.48650100000000,0.27819100000000
Partyman World Lakeside,RM20 1WN,51.4864,0.2761
Pizza Hut Restaurant,RM20 1WN,51.48595750000000,0.27885290000000
Flip Out Lakeside,RM20 2AD,51.4884,0.2816
Hollywood Bowl,RM20 2AD,51.48842239379880,0.28158301115036
Nickelodeon Adventure Lakeside,RM20 2AD,51.48842239379880,0.28158301115036
Puttshack Lakeside,RM20 2AD,51.4884,0.2816
TGI Fridays,RM20 2AD,51.48842239379880,0.28158301115036
Zizzi,RM20 2AD,51.48842239379880,0.28158301115036
Caffe Nero,RM20 2ZF,51.48707199096680,0.28307399153709
Costa Coffee,RM20 2ZF,51.48707199096680,0.28307399153709
McDonald's 510 - Lakeside 2,RM20 2ZF,51.48707199096680,0.28307399153709
McDonalds,RM20 2ZF,51.48707199096680,0.28307399153709
Pret A Manger,RM20 2ZF,51.48707100000000,0.28307300000000
Starbucks,RM20 2ZF,51.48707199096680,0.28307399153709
Costa Coffee,RM20 2ZG,51.48707100000000,0.28307300000000
McDonald's 357 - Lakeside 1,RM20 2ZH,51.48661804199220,0.28414601087570
McDonalds,RM20 2ZH,51.48661804199220,0.28414601087570
Burger King,RM20 2ZJ,51.48707199096680,0.28307399153709
Chopstix Lakeside,RM20 2ZJ,51.48707100000000,0.28307300000000
Five Guys,RM20 2ZJ,51.48707100000000,0.28307300000000
KFC Lakeside,RM20 2ZJ,51.48707199096680,0.28307399153709
KFC,RM20 2ZJ,51.48707199096680,0.28307399153709
Nandos,RM20 2ZJ,51.48707199096680,0.28307399153709
Pizza Express,RM20 2ZJ,51.48707100000000,0.28307300000000
Pizza Hut Express,RM20 2ZJ,51.48707100000000,0.28307300000000
Shake Shack Lakeside,RM20 2ZJ,51.48707100000000,0.28307300000000
Thai Express Lakeside,RM20 2ZJ,51.4875,0.2835
Tortilla,RM20 2ZJ,51.48707100000000,0.28307300000000
Wasabi Co,RM20 2ZJ,51.48707100000000,0.28307300000000
Spreads cafe,RM20 2ZL,51.48681400000000,0.28288700000000
Ask Italian,RM20 2ZN,51.48730200000000,0.28138500000000
GBK (Gourmet Burger Kitchen),RM20 2ZN,51.48730200000000,0.28138500000000
Nandos,RM20 2ZN,51.48730200000000,0.28138500000000
OO&O Lakeside Limited,RM20 2ZN,51.4872,0.2814
Prezzo,RM20 2ZN,51.48730200000000,0.28138500000000
Wagamama,RM20 2ZN,51.48730200000000,0.28138500000000
Caffe Rizzoli Prosecco Bar,RM20 2ZP,51.4871,0.2835
Chiktopia,RM20 2ZP,51.4871,0.2835
German Doner Kebab (GDK),RM20 2ZP,51.4871,0.2835
La Tasca - Lakeside,RM20 2ZP,51.4871,0.2835
Rock Up Lakeside,RM20 2ZP,51.48779000000000,0.28447800000000
Wasabi Sushi & Bento,RM20 2ZP,51.4871,0.2835
Wimpy Lakeside ,RM20 2ZP,51.4871,0.2835
Costa Coffee,RM20 2ZQ,51.48751449584960,0.28249099850655
Creams Cafe Intu Lakeside,RM20 2ZQ,51.48751400000000,0.28249000000000
Pizza Hut Restaurant,RM20 2ZQ,51.48751449584960,0.28249099850655
Taco Bell,RM20 2ZT,51.4857,0.2844
SPICY TOP LTD T/A SHAMPAAN,RM20 3HL,51.47597700000000,0.28106500000000
Burger King Lakeside Retail Park,RM20 3LP,51.48593200000000,0.27134900000000
Costa Coffee,RM20 3LP,51.48580460000000,0.27144140000000
Dunelm Mill - Caffe Pausa,RM20 3LP,51.48593200000000,0.27134900000000
Starbucks Coffee Company,RM20 3LP,51.48593200000000,0.27134900000000
KFC Thurrock,RM20 3WE,51.48387100000000,0.27702200000000
KFC,RM20 3WE,51.48387100000000,0.27702200000000
TGI Fridays Restaurant,RM20 3WE,51.48387145996090,0.27702298760414
the ship inn,RM20 4AR,51.47658200000000,0.29067200000000
McDonald's Gallows Corner,RM3 0AP,51.59161700000000,0.21779900000000
Mcdonalds,RM3 0AP,51.59161700000000,0.21779900000000
BONAR LIMITED,RM3 0BP,51.5936,0.2336
KUZINE,RM3 0BS,51.59389200000000,0.23439800000000
Costa Coffee @ Tesco Romford Gallows Extra,RM3 0LL,51.59374600000000,0.21843700000000
The Deers Rest,RM3 7LL,51.61607600000000,0.21740200000000
kervan saray,RM3 7PB,51.59477200000000,0.21216300000000
McDonald's Harold Hill,RM3 8XR,51.60128700000000,0.21099200000000
McDonalds,RM3 8XR,51.60128700000000,0.21099200000000
CAFE ESPRESSO,RM3 9AA,51.61257800000000,0.22168100000000
Cafe Espresso ,RM3 9AA,51.61257800000000,0.22168100000000
INCO RESTAURANT,RM3 9PB,51.6056,0.2323
The Orange Tree,RM4 1PJ,51.61421100000000,0.18115600000000
Subway Collier Row,RM5 2BD,51.5979,0.1540
EAST COAST DINNER,RM5 2BH,51.5955,0.1475
Pannas Restaurant,RM5 2BH,51.59551600000000,0.14745600000000
Wong's Oriental,RM5 3BD,51.58955500000000,0.16841100000000
Costa Coffee,RM5 3ND,51.59843000000000,0.16308600000000
Scoffs Essex Ltd t/a Costa Coffee Collier Row,RM5 3ND,51.59843000000000,0.16308600000000
KFC Collier Row,RM5 3NP,51.59884740000000,0.16235210000000
KFC,RM5 3NP,51.59884740000000,0.16235210000000
LIGHT OF INDIA,RM5 3NR,51.59858800000000,0.16136200000000
RAJ OF INDIA ,RM5 3NR,51.59858800000000,0.16136200000000
Chookys Peri Peri,RM5 3PH,51.59975200000000,0.16310600000000
Veyso's Restaurant,RM5 3PH,51.59986160000000,0.16322500000000
BOLLYWOOD SPICE (ESSEX) LTD,RM5 3PJ,51.60013500000000,0.16477100000000
Pizza Hut Delivery,RM5 3PJ,51.60013500000000,0.16477100000000
KFC Chadwell Heath,RM6 4AU,51.56967000000000,0.12477900000000
Indian Fusion,RM6 4BE,51.57009500000000,0.13060000000000
Nando's,RM6 4HX,51.56734910000000,0.11826120000000
Dunelm Residential Care Home,RM6 4XJ,51.57737600000000,0.12080900000000
McDonald's Marks Gate,RM6 5QT,51.59091000000000,0.14259000000000
Roadhouse grill ltd,RM6 6AP,51.57218100000000,0.14292100000000
THE KITCHEN ILFORD LTD,RM6 6LS,51.57193400000000,0.14119200000000
Yummy chicken ,RM6 6LS,51.57193400000000,0.14119200000000
 CASA ITALIANA,RM6 6PU,51.57117880000000,0.13084910000000
Pizza Hut Restaurant,RM7 0AF,51.56912200000000,0.18546200000000
SAFFRON,RM7 0LA,51.56552100000000,0.17305400000000
Burger King,RM7 7JJ,51.58317565917970,0.16897399723530
KFC,RM7 7JJ,51.58317565917970,0.16897399723530
Dunelm Mill,RM7 7PH,51.57293100000000,0.16653900000000
Chick'n shack Ltd,RM7 8JB,51.59168900000000,0.15749700000000
ROSILE CAFE RESTAURANT ,RM7 9QH,51.57421700000000,0.17062500000000
Desserts Box ,RM7 9RB,51.5760,0.1764
Pizza Hut Delivery,RM7 9RB,51.57592900000000,0.17626300000000
Cafe zone,RM8 1BB,51.5638,0.1467
Lara Grill,RM8 1BJ,51.56255000000000,0.14733100000000
Larex Ventures Limited,RM8 1YT,51.5620,0.1230
SANJHA CHULHA,RM8 1YT,51.56203900000000,0.12305300000000
Grubs Hut ,RM8 2AJ,51.55140600000000,0.11525900000000
Grubs hut,RM8 2AJ,51.55140600000000,0.11525900000000
Oak tree Cafe,RM8 2DA,51.55178700000000,0.11511800000000
turan cafe,RM8 3HD,51.55998100000000,0.14670500000000
Pizza Hut,RM8 3RA,51.56035100000000,0.13037600000000
bengal pride restaurant ltd,RM9 4TP,51.5398,0.1279
Safwaan asan ltd,RM9 5AQ,51.5424,0.1476
KUSSAN 2 SISTERS LTD,RM9 5AW,51.5412,0.1477
Elior UK,RM9 5UN,51.55273100000000,0.13891900000000
KFC,RM9 6SJ,51.5306,0.1456
Mecca Bingo Club,RM9 6UQ,51.53257300000000,0.13576900000000
SOM Restaurants ltd,RM9 6UQ,51.5324,0.1364
Dagenham Restaurant Ltd,RM9 6UR,51.5322,0.1469
Hollywood Bowl Dagenham,RM9 6XW,51.53266800000000,0.13053900000000
Pepeneros Restaurant,SE18 1BS,51.49115630000000,0.09430310000000
Grizzlys,SE18 1HF,51.48597000000000,0.09950720000000
Tiwa N Tiwa African Restaurant Ltd,SE18 1JQ,51.48703510000000,0.09274290000000
Gurkha Club Ltd,SE18 1PR,51.48651680000000,0.09104820000000
The Plumstead Pantry,SE18 1QJ,51.48177270000000,0.08374500000000
Punjabi Dhaba Ltd,SE18 1SB,51.48788180000000,0.09115390000000
Red Lion Noodle Bar,SE18 1SB,51.48836517333980,0.08981099724770
Dosa & Sambal Express,SE18 1SE,51.48768670000000,0.09200930000000
AMBALA & KARAHI LTD,SE18 1SL,51.48859340000000,0.08856480000000
Malai Restaurant Ltd,SE18 1SN,51.48931500000000,0.08591840000000
Timbercroft School (Waterfall Elior Ltd),SE18 2SG,51.47684097290040,0.09011899679899
Star Inn,SE18 2UL,51.48081207275390,0.07850600033998
BA Arsenal ,SE18 6SR,51.49143218994140,0.07554599642754
Taste nepal limited,SE18 7DZ,51.4893,0.0847
CH&Co Group Ltd,SE2 0GB,51.48268730000000,0.11811930000000
Bayleaf Indian Cuisine,SE2 0XJ,51.4851,0.1026
Abbey Arms,SE2 9RH,51.49069790000000,0.12107230000000
Paramount Tajmahal Restaurant (AbbeyWood) Ltd,SE2 9RH,51.4903,0.1216
McDonald's Restaurants,SE28 0FF,51.4909,0.0854
Pizza Hut,SE28 8RA,51.50684580000000,0.10683670000000
KFC Drive Thru,SE28 8RD,51.50567980000000,0.10465340000000
McDonald's Restaurants,SE28 8RD,51.50614340000000,0.10501660000000
Cafe BigBoyz,SE9 2BJ,51.43955840000000,0.07521760000000
Happy Days Cafe,SE9 2PH,51.4502,0.0819
Mahatma Tandoori LTD,SE9 2PH,51.45013440000000,0.08128170000000
Donut king,SS14 1AE,51.56969410000000,0.46006460000000
Muscovado Coffee Shop,SS14 1AE,51.5694,0.4609
Starbucks Coffee Company,SS14 1AE,51.56927300000000,0.46075000000000
McDonald's Restaurant Eastgate Shopping Centre,SS14 1AF,51.56951500000000,0.46037300000000
McDonalds,SS14 1AF,51.56951500000000,0.46037300000000
Nando's,SS14 1AF,51.56951500000000,0.46037300000000
Subway,SS14 1AF,51.56951500000000,0.46037300000000
Costa Coffee,SS14 1BA,51.57080800000000,0.45790300000000
The Chef Bakery,SS14 1BZ,51.56905200000000,0.45884800000000
Buzz Bingo,SS14 1DH,51.56860700000000,0.45472500000000
Towngate Theatre Café Bar,SS14 1DL,51.57045100000000,0.45433400000000
Burger King,SS14 1EB,51.56987900000000,0.46144700000000
ESQUIRES COFFEE HOUSE (BASILDON),SS14 1EB,51.5699,0.4615
HABIBA FOODS LIMITED T/A  Muffin Break ,SS14 1EB,51.5699,0.4615
James Breslaw,SS14 1EB,51.5699,0.4615
Papa's Crepes,SS14 1EB,51.56986999511720,0.46148800849915
Miracles cafe ,SS14 1EU,51.57005000000000,0.46230700000000
Poppins Restaurants,SS14 1EU,51.57005000000000,0.46230700000000
Cafe Cinco,SS14 1HH,51.57022400000000,0.46044100000000
Jodhpur Indian Kitchen,SS14 1HH,51.57022300000000,0.46044000000000
Tasty Buds,SS14 2HB,51.5780,0.4738
The Coriander (Basildon) Ltd,SS14 2HB,51.57799200000000,0.47377800000000
Subway Whitmore Way,SS14 2NL,51.57777100000000,0.47617700000000
Atalian Servest Food Co,SS14 3AD,51.58656692504880,0.47196298837662
Campanile Basildon,SS14 3AE,51.58448500000000,0.44245900000000
Burger King,SS14 3AF,51.58116149902340,0.44353601336479
Costa Coffee,SS14 3AF,51.58116200000000,0.44353600000000
Costa Coffee,SS14 3HZ,51.59078500000000,0.47952600000000
KFC Mayflower,SS14 3HZ,51.59071130000000,0.47887110000000
KFC,SS14 3HZ,51.59071130000000,0.47887110000000
McDonald's Restaurant Mayflower Retail Park,SS14 3HZ,51.59078500000000,0.47952700000000
McDonalds,SS14 3HZ,51.59078500000000,0.47952700000000
Nando's,SS14 3HZ,51.59078500000000,0.47952600000000
Pizza Express,SS14 3HZ,51.59078500000000,0.47952700000000
Nando's,SS14 3TJ,51.58272800000000,0.46326700000000
360 Play (Basildon) Limited,SS14 3WB,51.58513700000000,0.46245800000000
AROMA,SS14 3WB,51.58513700000000,0.46245900000000
Hollywood Bowl,SS14 3WB,51.58513700000000,0.46245900000000
Legends Basildon,SS14 3WB,51.5852,0.4632
McDonalds,SS14 3WB,51.58513700000000,0.46245900000000
Mr Mulligans Basildon,SS14 3WB,51.58513700000000,0.46245800000000
Pizza Hut Restauant,SS14 3WB,51.58513700000000,0.46245900000000
Sprinkles Gelato Basildon,SS14 3WB,51.5852,0.4632
Team Sport Indoor Karting,SS14 3WB,51.58513641357420,0.46245899796486
Villagio,SS14 3WB,51.5852,0.4632
Wagamama,SS14 3WB,51.58521270751950,0.46318298578262
McDonald's Restaurant Festival Leisure Park,SS14 3WE,51.5840,0.4660
McDonald's Restaurant Laindon,SS15 4DP,51.5857,0.4267
McDonalds,SS15 4DR,51.58424700000000,0.42404100000000
Baxterstorey Catering Services,SS15 5FS,51.57940100000000,0.44088700000000
B & D's Cafe & Grill,SS15 5HL,51.57323000000000,0.44181200000000
KFC,SS15 6BN,51.57844970000000,0.42223070000000
Costa Coffee,SS15 6EE,51.58137700000000,0.40528100000000
KFC Laindon,SS15 6NE,51.5704,0.4213
stay and play,SS15 6PH,51.5697,0.4191
Basildon Golf Course Ltd,SS16 5JP,51.55903200000000,0.45889800000000
Doorsteps Cafe,SS16 5SA,51.56373500000000,0.44475200000000
Knosh cafe,SS16 5TL,51.5635,0.4489
Miller & Carter,SS16 6HU,51.55280100000000,0.42127200000000
Montys Curry Centre,SS17 0AH,51.51412700000000,0.42880500000000
efe's,SS17 0HF,51.51537900000000,0.42738700000000
Green Palace Ltd T/A Panahar Restaurant  ,SS17 0HL,51.51521100000000,0.42553300000000
railway tavern,SS17 0HL,51.51520919799800,0.42553299665451
Subway,SS17 0LD,51.5143,0.4203
Selekt Chicken,SS17 7LJ,51.52502900000000,0.44768000000000
Paulettes bakery,SS17 7NA,51.52468400000000,0.44829600000000
STANFORD CURRY LTD,SS17 7NA,51.5246,0.4480
The Springhouse,SS17 7QT,51.52439400000000,0.45014000000000
Swan pub,SS17 8LD,51.52421200000000,0.40594300000000
The Bell Inn & Ostlers,SS17 8LD,51.52421200000000,0.40594300000000
RT Inn Ltd,SS17 9AA,51.52661500000000,0.45961700000000
Hireco Tl Ltd,SS17 9LE,51.5203,0.4853
