name,postcode,lat,lon
Pheasant and Tree warbler,BR5 2ND,51.406738230000000,0.103641882000000
goanna and Minke whale,BR5 2SQ,51.404677580000000,0.096185609000000
blindworm and blind snake,BR5 2TF,51.406751200000000,0.091362841000000
brown snake and skink,BR5 3BB,51.402207000000000,0.114167253000000
harlequin snake and Bronzewing pigeon,BR5 3BE,51.407618110000000,0.105724121000000
Ground sloth and Masked owl,BR5 3BG,51.408248280000000,0.106687739000000
horned toad and caiman,BR5 3BJ,51.406804090000000,0.109482778000000
mountain devil and king snake,BR5 3BW,51.406183620000000,0.110978375000000
River dolphin and Mink,BR5 3DT,51.412871650000000,0.105131439000000
Wallaby and skink,BR5 3HP,51.404751460000000,0.117583980000000
monitor and leathery turtle,BR5 3SA,51.400489020000000,0.109594732000000
anole and River dolphin,BR7 5QB,51.408433710000000,0.079188311000000
loggerhead and Capuchin,BR7 5QE,51.406012860000000,0.078273286000000
Boto and Siskin,BR7 6BF,51.411885000000000,0.080395000000000
Tit-tyrant and Philippine hawk-owl,BR7 6QH,51.400695890000000,0.090022685000000
constrictor and cobra,BR7 6RR,51.423068150000000,0.087619901000000
thorny devil and Petrel,BR8 7ET,51.401927790000000,0.162383344000000
Myna and White ibis,BR8 7HL,51.401315340000000,0.159507730000000
chameleon and adder,BR8 7LD,51.402331250000000,0.182818756000000
blind snake and Partridge,BR8 7LY,51.409148550000000,0.184236330000000
turtle and saltwater crocodile,BR8 7NQ,51.404882140000000,0.193580377000000
Black jay and Quetzal,BR8 7NR,51.404632180000000,0.193597000000000
frilled lizard and agama,BR8 7PP,51.411046000000000,0.180861074000000
iguana and diamondback turtle,BR8 7QQ,51.402143560000000,0.151150208000000
tortoise and Prion,BR8 7RF,51.412882670000000,0.178331137000000
Badger and king cobra,BR8 7TD,51.403806830000000,0.170193072000000
Towhee and grass snake,BR8 7UB,51.405633080000000,0.163348983000000
Gull and gavial,BR8 7XL,51.403253970000000,0.167995816000000
Buzzard and Mockingbird,CM11 1NS,51.623297178059000,0.478913838532015
boa and Chickadee,CM11 1PJ,51.624155476944200,0.481430000000000
sand viper and Eagle,CM11 2PG,51.617664501201900,0.431338162880835
caiman and rat snake,CM11 2PN,51.614084446917900,0.432677983502717
snapping turtle and Argus,CM11 2PR,51.612707354694600,0.434342000000000
Fulmarine petrel and iguana,CM11 2QT,51.609624000000000,0.437994879434980
gecko and Viscacha,CM11 2SW,51.610114825580500,0.427208104803119
cerastes and giant tortoise,CM11 2TD,51.611836468214700,0.430058864935412
indigo snake and Gull,CM11 2UP,51.604225325550900,0.476228224269419
Old World vulture and New World blackbird,CM11 2YH,51.594693013718700,0.472792885610840
bearded lizard and boomslang,CM11 2ZD,51.602012125790400,0.467731729855432
milk snake and soft-shelled turtle,CM12 2BU,51.622868837920000,0.416691619338557
Greenbul and Marmoset,CM12 2DH,51.622868837920000,0.416691619338557
Nukupuʻu and Parrotbill,CM12 2DW,51.622868837920000,0.416691619338557
monitor and rock python,CM12 2FQ,51.622864000000000,0.416720000000000
Old World warbler and leathery turtle,CM12 9AJ,51.624823285144400,0.416521021368690
Moluccan boobook and Guillemot,CM12 9ES,51.623283959436800,0.406527826458656
Condor and brown snake,CM12 9ET,51.623681698530400,0.406478000000000
gecko and green turtle,CM12 9JU,51.623404011644700,0.409004807814575
Old World warbler and cayman,CM12 9LP,51.622602173466400,0.417385437348915
hoop snake and Ice seal,CM12 9PL,51.615005122995000,0.404587448908979
carpet snake and Crow,CM12 9SY,51.610373760242500,0.412907914523238
sand lizard and moloch,CM12 9UT,51.594330452077700,0.427275965565585
Fulmarine petrel and Tit-tyrant,CM13 2JD,51.619539268284900,0.343601625822157
Tattler and terrapin,CM13 2TR,51.614743080967600,0.332462824876104
gopher snake and Thicketbird,CM13 3DA,51.600932323567400,0.295855211655498
New World blackbird and diamond snake,CM13 3ED,51.568803122487700,0.333097367695631
Egret and Towhee,CM13 3EZ,51.581318246960000,0.308708974921619
worm lizard and Moluccan boobook,CM13 3FF,51.592275516107900,0.285586316450652
Booted eagles and pit viper,CM13 3FY,51.565855000000000,0.357491000000000
Jackal and fer-de-lance,CM13 3GR,51.620304357388900,0.303594168293544
leathery turtle and Kestrel,CM13 3HT,51.596250150835200,0.288327237443949
cerastes and harlequin snake,CM13 3RE,51.602730636024800,0.342735858417836
Warbler and Old World vulture,CM13 3TL,51.568463833875200,0.341550698799238
Herring gull and Darwin's finches,CM13 3TW,51.569143910950200,0.343072015716825
Jackal and chuckwalla,CM14 4AU,51.614544939504900,0.296097000000000
turtle and moloch,CM14 4AZ,51.619555876171000,0.300160000000000
python and Wallaby,CM14 4BU,51.618711151830800,0.303210097447648
Nukupuʻu and Crow,CM14 4DZ,51.618511000000000,0.298951000000000
diamondback turtle and coral snake,CM14 4GA,51.619032182724100,0.302188000000000
box turtle and Hawk,CM14 4GH,51.613364000000000,0.287612000000000
flying lizard and ringhals,CM14 4HF,51.618615312114400,0.305343303213735
black snake and Elephant,CM14 4HH,51.614053337854300,0.300431949084075
gavial and Puffleg,CM14 4HW,51.615865709233700,0.301563682696975
amethystine python and cobra,CM14 4HY,51.614348751131200,0.301876942166333
snake and Maya,CM14 4JY,51.614246398648600,0.290268000000000
goanna and indigo snake,CM14 4LH,51.614877473762800,0.297539000000000
amphisbaena and frilled lizard,CM14 4PH,51.611923266618000,0.278239075406308
milk snake and cayman,CM14 4QT,51.616487294857200,0.285863827865783
Asiatic leopard and Vole,CM14 4WT,51.621320000000000,0.303846000000000
wall lizard and snapping turtle,CM14 4XQ,51.622238637178100,0.300802652250485
Masked owl and Scimitar babbler,CM14 5BU,51.612798252499500,0.302982932067599
Solitaire and leguaan,CM14 5DF,51.610287068580000,0.306755609483531
bearded lizard and box turtle,CM14 5DR,51.613486357435400,0.297239886164659
Scimitar babbler and Logrunners,CM14 5EZ,51.613354410133300,0.299385477120944
ringhals and Duck,CM14 5FN,51.606542000000000,0.293261586496555
frilled lizard and Old World quail,CM14 5GA,51.608410023773700,0.291601000000000
hawksbill and Ground sloth,CM14 5LL,51.599696000000000,0.277670000000000
monitor and hawksbill,CM14 5NH,51.603221180546700,0.266004779321781
garter snake and Civet,CM14 5NS,51.613164640284000,0.276355000000000
saltwater crocodile and monitor,CM14 5QR,51.617738758481800,0.263983249470867
constrictor and anaconda,CM14 5UZ,51.609594448352600,0.292537005278578
Capuchin and Perching duck,CM14 5WH,51.610203806103000,0.290805586943424
Parakeet and Triller,CM14 9LB,51.620305111665700,0.303594158951214
horned viper and chameleon,CM14 9QR,51.620308000000000,0.303622000000000
carpet snake and Pitohui,CM14 9SH,51.618596033253300,0.307697080279048
whip snake and Linsang,CM14 9SJ,51.618596033253300,0.307697080279048
diamondback and king snake,CM15 8AB,51.621771447512400,0.307193637996534
garter snake and agamid,CM15 8BX,51.618990762708200,0.318696438785206
crocodile and amphisbaena,CM15 8FG,51.618354000000000,0.307900000000000
gopher snake and king snake,CM15 8LT,51.623610454314600,0.325650305614080
Jackal and Myna,DA1 1AT,51.439804000000000,0.230766000000000
python and Old World quail,DA1 1EW,51.443026000000000,0.216424167433331
Polecat and Grosbeak,DA1 1JP,51.438912705907800,0.217427733397055
Goose and Logrunners,DA1 1PG,51.432924177843000,0.216907504492437
Pheasant and indigo snake,DA1 1QA,51.438815975064300,0.236244269370275
mountain devil and giant tortoise,DA1 1TJ,51.444322522057100,0.225230723835877
Francolin and thorn lizard,DA1 1UN,51.446761463079000,0.225367000000000
racer and Grouse,DA1 1XW,51.445798422066100,0.229907768016699
gaboon viper and crocodile,DA1 1YB,51.442385371008300,0.236289140504118
Civet and flying lizard,DA1 1YS,51.438189102423300,0.237048216756946
Guillemot and gopher snake,DA1 2AS,51.446747372602800,0.214482822603333
rat snake and Flameback,DA1 2DA,51.446657559886900,0.215428332520443
blue tongue and anole,DA1 2DS,51.438972445185900,0.202670000000000
leathery turtle and rock snake,DA1 2FE,51.441267167985100,0.203741680901582
anaconda and Solitaire,DA1 2FJ,51.445363000000000,0.215034000000000
Snipe and Bronzewing pigeon,DA1 2HY,51.449272636629500,0.209812298865024
leathery turtle and skink,DA1 2JJ,51.442279912260700,0.212467880053035
Pratincole and Pratincole,DA1 2LY,51.440947583751600,0.210633518290894
Grouse and Magpie,DA1 2PA,51.442839744475800,0.198967839537087
terrapin and Flameback,DA1 2PJ,51.439246283071600,0.194857000000000
Cloud rat and rock snake,DA1 2TE,51.431462678324400,0.203802155334625
agamid and flying dragon,DA1 2TG,51.451333687387800,0.214013902144416
horned toad and king snake,DA1 2UT,51.442661719122500,0.209867266513614
Warbler and fer-de-lance,DA1 3AL,51.449221644451900,0.203923285825520
cycling lizard and Minke whale,DA1 3BD,51.450786190259700,0.199148191039895
flying dragon and Parrotlet,DA1 3BF,51.450311519465400,0.203831849009855
water snake and anole,DA1 3DP,51.444278000000000,0.199080000000000
taipan and Nukupuʻu,DA1 3EE,51.446263303940900,0.204860189583487
Magpie and Wallaby,DA1 3EH,51.445840288428000,0.203443837148577
deaf adder and giant tortoise,DA1 3HD,51.447067615373600,0.205129209732385
Towhee and Grosbeak,DA1 3NP,51.448814103999500,0.185826816132696
moloch and tokay,DA1 3NT,51.447436179927100,0.186897965043318
Mamo and hognose snake,DA1 3NX,51.446240618586400,0.183976915162038
Condor and Warbler,DA1 3NZ,51.447154959382200,0.185099937398691
Vulture and Piping shrike,DA1 3QG,51.447414576933500,0.180334214642244
Ice seal and hawksbill,DA1 3RJ,51.444617631859100,0.173077411396689
Nukupuʻu and American sparrow,DA1 4AB,51.449953411637200,0.189349885897998
Kākāriki and Duck,DA1 4DD,51.452530557810100,0.175065270055509
Polecat and lizard,DA1 4DJ,51.453445072038800,0.174245115386352
Elephant and kabaragoya,DA1 4ER,51.450116662836300,0.180995000000000
horned toad and Hawaiian honeycreeper,DA1 4JX,51.454774497306300,0.187378258521641
gavial and blind snake,DA1 4ND,51.453208429695100,0.191779849176186
Bunting and Cuscus,DA1 4PQ,51.457498902462200,0.189811738680866
Buzzard and elapid,DA1 4QP,51.459052000000000,0.193399000000000
Fulmarine petrel and Jerboa,DA1 4RX,51.456040383448400,0.189900267432214
habu and Goose,DA1 4SG,51.463090573340800,0.186062713225195
Solitaire and tree snake,DA1 5AD,51.450441000000000,0.229861000000000
Cuscus and slowworm,DA1 5AF,51.452458920381200,0.206324608759229
grass snake and hoop snake,DA1 5DF,51.448888268288100,0.233411782914790
Stint and Scimitar babbler,DA1 5EQ,51.452919100964800,0.228585113543194
rattlesnake and Parakeet,DA1 5EU,51.455475757900400,0.227500508915023
Mamo and Polecat,DA1 5FQ,51.460973283924700,0.225507950122295
Pitohui and horned toad,DA1 5FS,51.449803947897800,0.214729000000000
adder and deaf adder,DA1 5GF,51.462967575465000,0.228887534891368
Parakeet and carpet snake,DA1 5HN,51.454093538182800,0.226411230715506
Quetzal and Gull,DA1 5HS,51.458272210619500,0.221360266775685
diamondback and goanna,DA1 5JF,51.451947966834000,0.228106009590651
Jay and Guillemot,DA1 5LQ,51.456776321505900,0.228154027542514
Ibex and Shearwater,DA1 5NS,51.455078000000000,0.237125000000000
gecko and Wader,DA1 5RR,51.463079000000000,0.223580000000000
crocodile and box turtle,DA1 5SH,51.447829228016000,0.226682136147206
python and Rabbit,DA1 5WX,51.448260000000000,0.220686000000000
Mole and bearded lizard,DA1 9GT,51.444700000000000,0.209620000000000
Mink and water snake,DA1 9QB,51.444701000000000,0.209648000000000
goanna and Capuchin,DA1 9SX,51.446600272638400,0.219455196061865
anole and lizard,DA1 9SY,51.446600272638400,0.219455196061865
Condor and constrictor,DA1 9TF,51.446600272638400,0.219455196061865
gaboon viper and cerastes,DA10 0BQ,51.442428795762100,0.311913622506841
asp and Flameback,DA10 0BT,51.442455129147700,0.309209511687102
Old World warbler and Kākāriki,DA10 0BX,51.440346458449400,0.308513140292314
rock snake and Solitaire,DA10 0DN,51.444450515090000,0.301035216701349
Pitohui and Philippine hawk-owl,DA10 0HL,51.443346000000000,0.310630914355239
Philippine hawk-owl and dukite,DA10 0HY,51.445291033551400,0.309510910298948
whip snake and terrapin,DA10 0JA,51.445294322486700,0.306603986941017
Pratincole and gaboon viper,DA10 0JS,51.442215749097900,0.304923437917467
Shearwater and Nukupuʻu,DA10 0JU,51.442135608533600,0.305797224543975
Mouse and Quetzal,DA10 0ND,51.448144650042200,0.302055729673269
wall lizard and bandy-bandy,DA10 1AS,51.435115000000000,0.314854000000000
Siskin and rat snake,DA10 1BS,51.437705000000000,0.311646000000000
rattlesnake and Moluccan boobook,DA10 1BX,51.437749000000000,0.301188000000000
Thrasher and chameleon,DA10 1DT,51.432490000000000,0.313412000000000
Bronzewing pigeon and leathery turtle,DA11 0AH,51.444844462702200,0.365269659645399
Solitaire and Black jay,DA11 0DE,51.442664269390700,0.365459193501883
Linsang and amethystine python,DA11 0EX,51.440240323189700,0.358556203148863
adder and Greenbul,DA11 0GA,51.438297669470300,0.356093000000000
elapid and amethystine python,DA11 0HE,51.441615508339200,0.362167128371055
Argus and Chicken,DA11 0JB,51.437359388286100,0.358709937573967
python and skink,DA11 0LZ,51.435425800221300,0.358264987195130
Minke whale and Peafowl,DA11 0PW,51.438464946683100,0.367659620914617
flying lizard and gecko,DA11 0QP,51.436547074796000,0.366438090632705
Thicketbird and Vole,DA11 0RF,51.437588678142900,0.350879631045398
Piping shrike and Night heron,DA11 0SZ,51.434513867788400,0.363800656807034
carpet snake and perentie,DA11 7AB,51.429555642712700,0.355013376641349
lizard and Mole,DA11 7HA,51.427303323396400,0.355660001603650
Siskin and Viscacha,DA11 7HJ,51.429031328689300,0.360064855241401
Treepie and Gull,DA11 7HP,51.426804696834100,0.358094328297721
puff adder and blue racer,DA11 7JB,51.424565492047900,0.354958155873273
Partridge and Elephant,DA11 7JF,51.425569758929000,0.356448341068208
rock snake and horned viper,DA11 7NB,51.430782317424900,0.359752268609412
Crow and agamid,DA11 7PR,51.432329807759200,0.367745194028929
rattlesnake and New World blackbird,DA11 7RZ,51.415142513292600,0.371358423729925
hognose snake and blindworm,DA11 8AW,51.428948415738000,0.334121762449223
python and bearded dragon,DA11 8BE,51.429199207539500,0.346780316160628
Snipe and cycling lizard,DA11 8FJ,51.433743813172400,0.329085807811165
pit viper and Logrunners,DA11 8HD,51.434360000000000,0.331132000000000
brown snake and Night heron,DA11 8HH,51.435186876375400,0.331101704073211
gopher snake and Kite,DA11 8HJ,51.435047000000000,0.332778000000000
Mink and iguana,DA11 8JT,51.426568820298700,0.350587208552359
whip snake and Songlark,DA11 8PD,51.421242757511100,0.353377675725679
Duck and thorny devil,DA11 8PP,51.422896000000000,0.348155000000000
garter snake and Parrotlet,DA11 8PU,51.425010215029500,0.350277046700282
cerastes and Mouse,DA11 8QU,51.434062467981000,0.352266861255613
Tree warbler and Argus,DA11 8RB,51.433729772062300,0.352264155677633
sand lizard and Darwin's finches,DA11 8TB,51.423023558378200,0.347542713539570
Polecat and Hawk,DA11 8TF,51.422149631041700,0.348519209122874
Siskin and Polecat,DA11 9BG,51.453465555955300,0.320906247085502
rock python and cerastes,DA11 9BX,51.438148191179700,0.344533826296268
Skunk and Viscacha,DA11 9ER,51.439520531506900,0.344230029888293
Snipe and Argus,DA11 9HS,51.442861107589600,0.329592964427143
Masked owl and caiman,DA11 9JU,51.441171996119100,0.349782934222937
diamondback turtle and cobra de capello,DA11 9JW,51.440953058042000,0.348591693184564
Vulture and king cobra,DA11 9JY,51.442390359249200,0.350018173602015
hognose snake and Hawaiian honeycreeper,DA11 9NU,51.443256993542800,0.354782917708221
Diving bird and Mockingbird,DA11 9PR,51.439061561031900,0.339745734026178
galliwasp and Duck,DA11 9WZ,51.441219430536000,0.373313625984923
jew lizard and puff adder,DA12 1DH,51.437388851068900,0.368841431955244
dukite and Petrel,DA12 1DP,51.441189938541800,0.372549406171970
galliwasp and Shearwater,DA12 1HQ,51.437336230405800,0.371228000000000
Piping shrike and Francolin,DA12 1JA,51.440642004342400,0.374737097183990
moloch and Recurvebill,DA12 1JZ,51.434722695602200,0.372602716342122
Puffleg and Elephant,DA12 1LJ,51.434131671352500,0.370255592403819
caiman and sand viper,DA12 1NQ,51.431845000000000,0.371317000000000
American sparrow and dukite,DA12 1PF,51.432509800598200,0.385034088293710
blue racer and cobra de capello,DA12 1PZ,51.435563180175400,0.375063563997285
cobra de capello and Buzzard,DA12 1QY,51.434227058002000,0.382404176077308
Hawk and Quetzal,DA12 2BD,51.444351003146600,0.373663110358697
Jackal and bearded dragon,DA12 2FB,51.434902000000000,0.403620000000000
moloch and Polecat,DA12 2HA,51.442343362489000,0.372436508401116
chuckwalla and Macaw,DA12 2HS,51.436754368052700,0.389902883939999
cycling lizard and Jerboa,DA12 2LH,51.437087405641200,0.394294570293804
Argus and Masked owl,DA12 2NG,51.431857613946200,0.398481197992359
Tahr and Argus,DA12 2NJ,51.432847917454900,0.401942992569119
fer-de-lance and massasauga,DA12 2NY,51.432402697847500,0.419213664020834
slowworm and constrictor,DA12 2SE,51.442235317326100,0.379744000000000
thorny devil and Ground sloth,DA12 2SN,51.441400129905300,0.383022170139119
chuckwalla and king snake,DA12 2SW,51.441666427451200,0.383194331418465
Recurvebill and Mink,DA12 3DU,51.415245142957400,0.431726233587013
Shearwater and Parrotbill,DA12 3DZ,51.415245319684900,0.430417447700949
Herring gull and Perching duck,DA12 3EP,51.408829511473300,0.432320468763649
crocodile and tuatara,DA12 3HU,51.435650000000000,0.437458000000000
Cloud rat and python,DA12 3JH,51.422434307412200,0.426354075577275
fer-de-lance and diamondback,DA12 3JU,51.408113949809500,0.441212552006504
Goose and horned toad,DA12 3LW,51.406267759359300,0.432687779661496
Flameback and fer-de-lance,DA12 4AN,51.423048660335800,0.386368220493094
Booted eagles and crocodile,DA12 4BQ,51.423426383966100,0.387250991851769
Chicken and boa constrictor,DA12 4LT,51.419307000000000,0.404540271479470
Marmoset and Solitaire,DA12 4NA,51.420273479596700,0.397198512482161
Bunting and Vole,DA12 4TB,51.429151782389300,0.412006803679097
Vole and Treepie,DA12 4TF,51.430854278805900,0.402241246842142
diamondback turtle and giant tortoise,DA12 4TN,51.431720115824300,0.395970576075995
cayman and Dorcopsis,DA12 4TQ,51.430417582465700,0.412116645574014
Egret and Partridge,DA12 4UL,51.431457229473000,0.409668007227650
carpet snake and Old World warbler,DA12 4XJ,51.430266711287000,0.411273000000000
Shearwater and python,DA12 5BW,51.420850000000000,0.370725360460259
diamond snake and Treepie,DA12 5DF,51.417805026308700,0.381089739745108
River dolphin and garter snake,DA12 5HJ,51.430143257121900,0.372250321084181
Mouse and Elephant,DA12 5HQ,51.429204660489300,0.374633033051291
perentie and Rat,DA12 5HU,51.424964867906300,0.377045694503476
American sparrow and Marsh harrier,DA12 5HW,51.427063983900600,0.376420970848700
Elephant and Masked owl,DA12 5JX,51.420656220735100,0.375757673158972
Tit-tyrant and milk snake,DA12 5LQ,51.422839082289700,0.371886362098082
thorn lizard and Old World warbler,DA12 5LX,51.420156308519800,0.378690000000000
blind snake and Fox,DA12 5QJ,51.429968854578000,0.384829797636592
Ground sloth and moloch,DA12 5UA,51.412844745904900,0.386196243532278
Pitohui and Jay,DA12 9NA,51.441222000000000,0.373329000000000
diamondback turtle and saltwater crocodile,DA12 9NB,51.441222000000000,0.373329000000000
krait and Dorcopsis,DA12 9SA,51.440032000000000,0.368518000000000
Tahr and Jerboa,DA12 9ZZ,51.440041000000000,0.368518000000000
Kestrel and python,DA13 9AR,51.405497722355700,0.372886793378388
Rat and Stint,DA13 9JG,51.403381000000000,0.352144000000000
Black jay and Greenbul,DA13 9LN,51.421571100403600,0.307020142958598
bushmaster and White ibis,DA13 9PX,51.411779000000000,0.329269812754178
Quetzal and blindworm,DA14 4AA,51.426479643362900,0.105037585500700
galliwasp and Boto,DA14 4BW,51.428129765826500,0.103789946594382
Grackle and gavial,DA14 4DA,51.427599525618900,0.104772576499763
gecko and bearded dragon,DA14 4DH,51.429719846244600,0.104884412466600
jew lizard and glass snake,DA14 4DW,51.430757666981800,0.106183742787944
Hawk and boomslang,DA14 4EU,51.428384466420800,0.110131389765256
bull snake and Badger,DA14 4EX,51.427651021846100,0.109910584411008
Capuchin and ringhals,DA14 4EY,51.426796695892400,0.109410897864570
Tahr and Marmoset,DA14 4HL,51.425507000000000,0.107668000000000
Siskin and tree snake,DA14 4JT,51.433205803511100,0.112065655588747
tokay and carpet snake,DA14 4NT,51.434741545377600,0.123128775467818
anole and snapping turtle,DA14 4QS,51.424353129335400,0.111269041219559
agamid and python,DA14 4QT,51.423399555187200,0.111786073307765
krait and wall lizard,DA14 4QW,51.424851732010100,0.111047484482851
boa and Peafowl,DA14 4RQ,51.431266408903100,0.122349019925800
Ibex and gaboon viper,DA14 5BY,51.417515262263000,0.116433606616651
Black cockatoo and B,DA14 5DE,51.417062031165300,0.115636028797349
rattlesnake and indigo snake,DA14 5HU,51.417701000000000,0.122123000000000
Skunk and water snake,DA14 5JN,51.417430306047400,0.126094632441351
Crow and ringhals,DA14 5JS,51.416981000000000,0.127656000000000
goanna and Logrunners,DA14 6AU,51.422069081805000,0.094723099908396
Puffleg and tokay,DA14 6BB,51.422340375367500,0.097655428988846
worm lizard and Siskin,DA14 6BS,51.423438000000000,0.103733000000000
Hawaiian honeycreeper and Thicketbird,DA14 6FB,51.425051562000000,0.096973992300000
Ground sloth and garter snake,DA14 6FF,51.425051562000000,0.096973992300000
Cuscus and crocodile,DA14 6HF,51.423049749429600,0.109238342829892
Dorcopsis and tiger snake,DA14 6LQ,51.421689060566800,0.109391444594242
Mouse and taipan,DA14 6NJ,51.426877839868200,0.097374140110412
Stilt and Hawk,DA15 0HN,51.435945000000000,0.101355000000000
Crow and amphisbaena,DA15 7AA,51.435232613170500,0.101871777302728
Argus and bearded dragon,DA15 7LX,51.432721635593400,0.100476061326726
Linsang and Mink,DA15 8AJ,51.436005186422200,0.094382237631240
constrictor and Fulmarine petrel,DA15 8BQ,51.439235186691400,0.086227460003530
Ground sloth and Chickadee,DA15 8BW,51.440562402819800,0.084920935928236
tiger snake and Asiatic leopard,DA15 8JS,51.444705264086700,0.092146780530989
king cobra and Mockingbird,DA15 8PF,51.454132053413300,0.096550492834667
hognose snake and hawksbill,DA15 8PT,51.451187575933400,0.097768520885982
harlequin snake and Greenbul,DA15 8RF,51.450282437755900,0.090041357725631
dukite and Boto,DA15 8RN,51.452833444347000,0.098261385886061
turtle and skink,DA15 8WJ,51.437665612253700,0.098084141836850
gecko and Kangaroo,DA15 9AS,51.435518748100900,0.115956402959281
Myna and blindworm,DA15 9DR,51.442589703257300,0.104828609451053
Pratincole and boomslang,DA15 9DW,51.440875747795200,0.105123932681681
bicycle lizard and Polecat,DA15 9EB,51.443786526827700,0.105286582342648
Magpie and flying lizard,DA15 9HU,51.446563377754800,0.108897056468365
Francolin and galliwasp,DA15 9LH,51.443605204163600,0.118344885720717
thorny devil and Parrotlet,DA15 9PA,51.449650106921600,0.113270689715680
Stilt and Tree warbler,DA16 1BJ,51.477320798313200,0.120266807579088
Crow and iguana,DA16 1BN,51.476186541573100,0.115850746635152
Ground sloth and Minke whale,DA16 1DL,51.474022917650500,0.120128271424155
Greenbul and box turtle,DA16 1DR,51.473915592313900,0.119100885014793
king snake and Civet,DA16 1EJ,51.471963434360400,0.125101412755815
Vulture and rock python,DA16 1ER,51.470406271405200,0.122696401640478
copperhead and Rat,DA16 1HJ,51.472206074273800,0.122003000000000
giant tortoise and Tree warbler,DA16 1JE,51.464776492712200,0.123702067954199
giant tortoise and jew lizard,DA16 1JZ,51.467496584291600,0.114512799945161
gavial and Schneider python,DA16 1LF,51.468321949036400,0.117113871883674
River dolphin and Snipe,DA16 1NR,51.465877559483100,0.117519031585665
Goose and agamid,DA16 1NS,51.465921555433200,0.117074742553147
Grackle and Stint,DA16 1QG,51.463422330213400,0.111545858275985
bushmaster and jew lizard,DA16 1QY,51.471065880625000,0.113065134321522
Stilt and goanna,DA16 1RD,51.470958492378800,0.112037829337360
Prion and Meadowlark,DA16 1SY,51.460437565022700,0.115985969310072
boa constrictor and Macaw,DA16 2BH,51.457383733957300,0.108791213572776
rock python and indigo snake,DA16 2DP,51.459531822523100,0.101346952547861
Mockingbird and lizard,DA16 2HR,51.456111926143500,0.101492159796752
Meadowlark and sand viper,DA16 2JH,51.458571188593000,0.103764417960611
Macaw and Mole,DA16 2LD,51.461970970750700,0.106742459913138
copperhead and Buzzard,DA16 2QA,51.459464396701900,0.092044338345618
king snake and Siskin,DA16 2QU,51.460469242999100,0.084604457547830
Chickadee and worm lizard,DA16 2ZT,51.463200296615900,0.134728802182446
Peafowl and massasauga,DA16 3EB,51.468448783917600,0.110078925064307
Capuchin and blue racer,DA16 3EL,51.469354464307500,0.108724043094653
Night heron and Komodo dragon,DA16 3HW,51.466665110254900,0.105749269929582
River dolphin and Chipmunk,DA16 3HX,51.465504879578500,0.101247038009354
Rat and diamondback,DA16 3JL,51.467463385699800,0.108867214619672
carpet snake and wall lizard,DA16 3JT,51.467936219052500,0.099558971170340
Night heron and cobra,DA16 3LU,51.469019244232200,0.096829773860578
Ibex and cobra,DA16 3PL,51.463380586374400,0.107368860111623
Marmoset and Coati,DA16 3RG,51.465429744354000,0.093886505605261
blue tongue and Greenbul,DA16 3RL,51.465821599183800,0.085525085808167
deaf adder and mountain devil,DA17 5BG,51.485484728059700,0.145074394320497
lizard and diamond python,DA17 5DB,51.491153691772600,0.147342896211805
Night heron and Prion,DA17 5EQ,51.483834151349100,0.145832319797480
Peafowl and mamba,DA17 5JJ,51.482759647006500,0.146069933703699
mud turtle and Fox,DA17 5JU,51.481055522651900,0.144567000000000
Grosbeak and caiman,DA17 5LU,51.483110646921200,0.143104974955660
Viscacha and sand viper,DA17 5NL,51.481394710170200,0.140057597998217
python and Marmoset,DA17 5PJ,51.480838137301400,0.142465540027645
Diving bird and constrictor,DA17 5QP,51.485930505952200,0.149704592214487
bushmaster and Condor,DA17 5QX,51.491207082975400,0.140488320235953
rattlesnake and green turtle,DA17 5RX,51.490723501975700,0.136432133825059
Puffleg and Bronzewing pigeon,DA17 6AU,51.492645650452800,0.159197162401588
bandy-bandy and Siskin,DA17 6DN,51.488858637523500,0.151369257357061
Boto and saltwater crocodile,DA17 6DZ,51.490042717775100,0.162286601656393
milk snake and Mamo,DA17 6EH,51.489250550334100,0.151574973991144
Linsang and diamondback terrapin,DA17 6EX,51.485144587401500,0.150387812325157
Warbler and Puffleg,DA17 6HD,51.483520650230800,0.150181778431140
asp and habu,DA17 6HZ,51.486756912723400,0.154165571412266
sidewinder and green turtle,DA17 6JG,51.484864443581900,0.156337746580698
gecko and diamond snake,DA17 6JP,51.492590358430600,0.150406881155347
Partridge and Darwin's finches,DA17 6LD,51.494770000000000,0.153232000000000
diamondback terrapin and Treepie,DA17 6NH,51.483012758408700,0.152375958524884
Macaw and krait,DA18 4AE,51.493609067187200,0.143885506429405
Myna and hognose snake,DA18 4AP,51.496539002389000,0.148402827773351
Old World warbler and Argus,DA18 4BY,51.494559498518700,0.130719174911120
Logrunners and Old World quail,DA18 4DB,51.494115998997300,0.131865421106004
thorn lizard and Piping shrike,DA18 4DQ,51.492794634403000,0.130348750102800
Fulmarine petrel and iguana,DA18 4DS,51.497941165361700,0.129709872058127
Buzzard and leathery turtle,DA18 4DT,51.498350303312100,0.129959472083338
loggerhead and soft-shelled turtle,DA18 4DU,51.498263655200300,0.128788397229091
cobra and Condor,DA18 4HQ,51.493904861329700,0.137041899339949
Chipmunk and leathery turtle,DA18 4HU,51.492431054511100,0.141914230892661
Tahr and rock snake,DA18 4YZ,51.476453844038000,0.195702336454363
gopher snake and Argus,DA2 6AW,51.443279746567300,0.243907000000000
agama and anaconda,DA2 6BH,51.443829931891100,0.246807531585556
worm lizard and hognose snake,DA2 6EG,51.439316000000000,0.247334000000000
Kite and Vulture,DA2 6FA,51.444794000000000,0.238440330624826
Argus and horned toad,DA2 6FB,51.446330784348500,0.244974000000000
rattlesnake and Pheasant,DA2 6FD,51.446625348872600,0.245519931464874
death adder and Vole,DA2 6HB,51.443392693342400,0.248973469049150
Stilt and perentie,DA2 6HG,51.442680181441800,0.250017752374384
Ice seal and Lemming,DA2 6JG,51.437637628868500,0.250820299775634
diamondback terrapin and gavial,DA2 6LT,51.437061544636000,0.253655350238650
bearded dragon and Petrel,DA2 6QR,51.457643000000000,0.260010000000000
Buzzard and Solitaire,DA2 6RD,51.447252584718900,0.238541854454750
American sparrow and Rat,DA2 7AH,51.426264672258900,0.199495363156304
Vulture and viper,DA2 7BH,51.427998204953200,0.204872616511302
boa constrictor and crocodile,DA2 7BU,51.426908432309200,0.200173628469426
Jackal and bushmaster,DA2 7GB,51.433889053366700,0.169676269145000
Rabbit and pit viper,DA2 7HF,51.426040642250100,0.179719317789771
Songlark and Chipmunk,DA2 7HL,51.419713592671400,0.169810277256043
blue racer and Peafowl,DA2 7HZ,51.420005107256400,0.257677713951878
python and bandy-bandy,DA2 7NN,51.423038062368800,0.168025886037558
Mockingbird and Night heron,DA2 7NY,51.422657718834800,0.162815223322100
blue tongue and Black jay,DA2 7PA,51.420255422348700,0.169203073962021
Macaw and cerastes,DA2 7RQ,51.422695177317600,0.230854162354130
ringhals and brown snake,DA2 7RW,51.421753602309800,0.231656958128845
green turtle and garter snake,DA2 7RY,51.422456670974800,0.227318423450457
American sparrow and milk snake,DA2 7SD,51.421301045852600,0.223838000000000
Chipmunk and loggerhead,DA2 7SP,51.422813836826600,0.219870353045588
diamond python and Snipe,DA2 7ST,51.421676336360300,0.204381310005435
viper and Coati,DA2 7WA,51.434698894574300,0.172563449510653
hognose snake and Chickadee,DA2 8AE,51.428011541322400,0.295504847658559
racer and Bunting,DA2 8AX,51.424849000000000,0.282961000000000
copperhead and Guillemot,DA2 8BA,51.427029395689400,0.282249504851112
Argus and ringhals,DA2 8BS,51.424727896352800,0.287284649295086
diamond snake and Parrotlet,DA2 8BT,51.426161184093400,0.267720051356799
Snipe and Asiatic leopard,DA2 8DS,51.414125810382500,0.273840587493845
Chipmunk and Marsh harrier,DA4 9AB,51.403682951493600,0.243142340257241
Petrel and wall lizard,DA4 9AD,51.404849403090600,0.247973149383904
blue racer and Gull,DA4 9AP,51.404505507212300,0.251364005826857
Thicketbird and viper,DA4 9BH,51.403274576194800,0.250368961006781
Jackal and jew lizard,DA4 9EQ,51.405756352809300,0.235824279475977
Mole and tuatara,DA5 1DU,51.448956869555600,0.126738633112016
Jay and chuckwalla,DA5 1EH,51.446874460875700,0.133449110449324
diamondback turtle and whip snake,DA5 1HZ,51.444231023365600,0.141150000000000
Chicken and tiger snake,DA5 1LQ,51.442067296142800,0.150450065226243
cerastes and Ice seal,DA5 1LS,51.444701000000000,0.209648000000000
cobra and Tattler,DA5 1NE,51.446558319300300,0.150747430075247
Bronzewing pigeon and Cuscus,DA5 1NG,51.445588444437600,0.150673070478392
rat snake and Minke whale,DA5 1NU,51.443831300175000,0.150374644227562
Rat and tree snake,DA5 1NW,51.445339725940500,0.149524478159244
boa constrictor and Schneider python,DA5 1PJ,51.450697306598200,0.165766653371710
agamid and Piping shrike,DA5 1QD,51.448923507531500,0.149923000000000
galliwasp and Boto,DA5 2AP,51.437778248251200,0.154335018033143
leguaan and bull snake,DA5 2AZ,51.435653455517900,0.166177222366634
elapid and Ibex,DA5 2DT,51.438333511222500,0.161785879177173
Bronzewing pigeon and Solitaire,DA5 2EX,51.424220486633500,0.167305086148936
Puffleg and Kākāriki,DA5 2FD,51.438386000000000,0.152601792501357
diamondback and Gila monster,DA5 2JB,51.427913956603300,0.176183262079475
Mouse and bearded lizard,DA5 2JE,51.429008001570300,0.176350340117767
green turtle and Crow,DA5 2JH,51.429789513756000,0.171064528231641
Siskin and diamondback,DA5 2JS,51.427562336743600,0.170412290041485
grass snake and Scimitar babbler,DA5 2LA,51.444700000000000,0.209620000000000
Komodo dragon and Fulmarine petrel,DA5 3BY,51.445138762594900,0.126028744008030
blue racer and Wader,DA5 3EA,51.439909039509100,0.117353646872139
dukite and Ground sloth,DA5 3JS,51.439808784284900,0.137738810203907
Myna and Perching duck,DA5 3NL,51.441782716169700,0.142910686374541
soft-shelled turtle and whip snake,DA5 3QH,51.439235632331300,0.142532447745021
worm lizard and Diving bird,DA5 9DA,51.444700000000000,0.209620000000000
gavial and dugite,DA6 7BT,51.457365994968000,0.140531225807305
turtle and Kangaroo,DA6 7LL,51.456089000000000,0.150038204891082
Ice seal and Flameback,DA6 7LX,51.453647773527200,0.147640538442401
diamond python and mud turtle,DA6 7NA,51.453579163056500,0.149911537188020
Eagle and Songlark,DA6 7PT,51.451855376901200,0.151716060933046
soft-shelled turtle and Dolphin,DA6 8DT,51.458057000000000,0.132805000000000
Guillemot and Tahr,DA6 8EQ,51.458968000000000,0.127218000000000
Chipmunk and indigo snake,DA6 8HZ,51.454375724021100,0.128933692222319
Bunting and gaboon viper,DA6 8JH,51.455203129770100,0.131404823014394
water snake and cerastes,DA6 8JQ,51.453969788819800,0.131476914295353
boomslang and leathery turtle,DA6 8JY,51.450809593872100,0.128710205966323
Stilt and Viscacha,DA6 8LU,51.451770142932000,0.133749326665384
death adder and Egret,DA6 8PH,51.457288400921300,0.135417392483387
green turtle and racer,DA7 4AD,51.464436411637400,0.135491957584441
Magpie and Bronzewing pigeon,DA7 4AQ,51.460265000000000,0.132052766149859
thorny devil and Marmoset,DA7 4JX,51.461850224637000,0.144153007242027
Vole and turtle,DA7 4PA,51.465646603471200,0.140141288531476
Crow and monitor,DA7 4PY,51.468071962695100,0.135359355519796
frill-necked lizard and Logrunners,DA7 5BZ,51.467383023075200,0.149437350933908
Fulmarine petrel and sand lizard,DA7 5EZ,51.471569557411300,0.144263147245250
goanna and Eagle,DA7 5JD,51.470678037901100,0.137928907425608
goanna and diamond snake,DA7 5LA,51.472807981408200,0.135537327655496
Wallaby and Buzzard,DA7 5NQ,51.473067649582000,0.136586248755376
Pheasant and terrapin,DA7 5NT,51.475727664774200,0.135702505483100
puff adder and asp,DA7 5QZ,51.476777414219800,0.131388021074437
Shearwater and Old World vulture,DA7 5RN,51.475961045301700,0.127317737271357
terrapin and python,DA7 5SE,51.477685157112400,0.123984848193277
grass snake and diamond snake,DA7 5SJ,51.476988131620000,0.126717479243958
American sparrow and grass snake,DA7 5ST,51.475929122870200,0.123125623864103
bearded lizard and krait,DA7 6AA,51.455246905598900,0.159475767540144
Flameback and Towhee,DA7 6AQ,51.455809654249300,0.155774150603449
leathery turtle and Tahr,DA7 6EW,51.458810803945700,0.166640198028856
amphisbaena and Solitaire,DA7 6HD,51.465511196203000,0.157829541814522
frill-necked lizard and saltwater crocodile,DA7 6JZ,51.455476573441500,0.168468727008815
Snipe and water snake,DA7 6PT,51.467376833671300,0.160048496862668
chuckwalla and green turtle,DA7 6PY,51.468754348135800,0.161913387997256
harlequin snake and Eagle,DA7 6QN,51.468956670617300,0.166055370682126
Bronzewing pigeon and Pratincole,DA7 6RS,51.466102451650400,0.171103386268071
garter snake and Chicken,DA7 9GN,51.463200296615900,0.134728802182446
Shearwater and Diving bird,DA7 9LB,51.463202000000000,0.134756000000000
Fox and Mouse,DA7 9SG,51.455154768421400,0.150791654778595
skink and tokay,DA7 9SW,51.455154768421400,0.150791654778595
anaconda and diamond python,DA8 1DB,51.484544915856900,0.164892797984214
water snake and python,DA8 1DY,51.478990839351200,0.154937328648885
thorny devil and Schneider python,DA8 1EA,51.478101015901700,0.156378740770115
Eagle and thorny devil,DA8 1EJ,51.477326534280900,0.160345768486880
Kestrel and python,DA8 1EY,51.475894955038000,0.160926158454682
leathery turtle and rat snake,DA8 1HN,51.473448354592200,0.160954525275486
Logrunners and chameleon,DA8 1HQ,51.474244347748000,0.160704140551509
Asiatic leopard and boa constrictor,DA8 1JZ,51.471342846554000,0.157111172514787
smooth snake and diamond snake,DA8 1LP,51.473589712167600,0.151802735221040
Ice seal and cayman,DA8 1LZ,51.474713984286200,0.146397877479664
Grosbeak and leguaan,DA8 1NB,51.484355411559000,0.171250182214939
flying lizard and Tahr,DA8 1NT,51.486482222414200,0.172950094096172
wall lizard and Treepie,DA8 1NY,51.484168276821700,0.169700120028556
Peafowl and death adder,DA8 1PD,51.485515302606300,0.169317548560568
frill-necked lizard and Towhee,DA8 1PE,51.484928808957400,0.169909069912399
Elephant and copperhead,DA8 1PU,51.483757066052600,0.162752593315247
Argus and mud turtle,DA8 1PX,51.483681053328800,0.161803000000000
Diving bird and B,DA8 1RF,51.480164000000000,0.181499532478565
Warbler and snapping turtle,DA8 1TA,51.480117990527200,0.179099735012190
amethystine python and habu,DA8 1UA,51.476453844038000,0.195702336454363
Treepie and Rabbit,DA8 1YH,51.474911067704800,0.153304976283606
Mockingbird and milk snake,DA8 2DG,51.467996097595100,0.186311603816574
horned viper and Skunk,DA8 2JJ,51.473614078200300,0.197034777639845
Gila monster and Parrotlet,DA8 2JZ,51.477953000000000,0.213114000000000
Peafowl and dukite,DA8 2LG,51.479760000000000,0.212208000000000
frill-necked lizard and tokay,DA8 2NS,51.469603891218700,0.190751348013490
Capuchin and puff adder,DA8 3AD,51.465672677623800,0.178756934831068
viper and Argus,DA8 3BL,51.475939638479900,0.168733542219577
python and Booted eagles,DA8 3DG,51.478104181653100,0.172767856503092
rat snake and rattlesnake,DA8 3DX,51.479871005087700,0.171570047898444
coral snake and Komodo dragon,DA8 3EH,51.478325178043800,0.166657666477033
Fox and goanna,DA8 3EN,51.473150068776000,0.163474824985073
Minke whale and hognose snake,DA8 3EX,51.473325073908200,0.162763103719106
worm lizard and Francolin,DA8 3FJ,51.474308000000000,0.176819000000000
Wader and snake,DA8 3JJ,51.472488233214300,0.171060996765812
sea snake and skink,DA8 3NL,51.469755939788400,0.161730357913299
agama and Wallaby,DA8 3NZ,51.471754123502600,0.170882144454455
Moluccan boobook and horned viper,DA8 3PD,51.469853804389000,0.173945301262706
soft-shelled turtle and crocodile,DA8 3PQ,51.471942178265900,0.180668371873065
snake and carpet snake,DA8 3SL,51.479942111852500,0.169672342844507
Asiatic leopard and Rat,DA8 9FD,51.476455000000000,0.195730000000000
Towhee and frilled lizard,DA9 9BB,51.450934989214000,0.254741599662867
gaboon viper and gaboon viper,DA9 9BP,51.450719972019600,0.266821236651294
Buzzard and moloch,DA9 9GZ,51.453092965382600,0.292103000000000
tree snake and sea snake,DA9 9JA,51.443704197561200,0.269668530865980
gecko and cayman,DA9 9LE,51.449918787462800,0.295509828070870
hognose snake and Polecat,DA9 9PF,51.449808984094000,0.274850506552850
cobra de capello and Pratincole,DA9 9PP,51.449738072775100,0.266441558949241
Thicketbird and wall lizard,DA9 9PW,51.450103480930700,0.265682438616791
Chickadee and sand lizard,DA9 9QL,51.451141028802900,0.283120915971529
Thicketbird and Flameback,DA9 9TR,51.444370849983700,0.277026693035224
Diving bird and Linsang,DA9 9WR,51.445920000000000,0.278356000000000
Snipe and blind snake,DA9 9XT,51.444027000000000,0.279527000000000
Booted eagles and monitor,DA9 9YH,51.444100000000000,0.273890000000000
pit viper and Towhee,E6 7ER,51.517193000000000,0.080351145826776
whip snake and hognose snake,IG1 1BF,51.561202818502200,0.085312829497389
White ibis and lizard,IG1 1FB,51.560421000000000,0.087439000000000
Vulture and Scimitar babbler,IG1 1HW,51.556534558283500,0.075736704895922
Komodo dragon and Gull,IG1 1HY,51.554766144267900,0.084181715378755
taipan and monitor,IG1 1PD,51.552913430187200,0.078110642045594
Crow and wall lizard,IG1 1PG,51.554061902793300,0.083327274538262
turtle and Partridge,IG1 1PR,51.552591922659900,0.080014500670824
bandy-bandy and Masked owl,IG1 1PU,51.552006968150000,0.078516493645930
Parrotlet and Cloud rat,IG1 1XT,51.559691970911700,0.093900015718384
monitor and monitor,IG1 1XW,51.559027908880300,0.089657000000000
habu and Pitohui,IG1 1YB,51.554692779301700,0.093353037725455
Meadowlark and Thrasher,IG1 1YT,51.559788000000000,0.078467000000000
Kestrel and Pratincole,IG1 2LT,51.549090949758500,0.075094948666854
cobra de capello and Armadillo,IG1 2LX,51.548436090942400,0.075512279833947
Pratincole and chameleon,IG1 2PE,51.545799577967300,0.076113426112346
American sparrow and Triller,IG1 2PL,51.546742981293300,0.080728482446526
cayman and king snake,IG1 2QF,51.547174267381900,0.077704867336032
thorny devil and crocodile,IG1 2RE,51.547839977813400,0.085293063579845
loggerhead and blue racer,IG1 2TF,51.552872399071900,0.089028500238537
bicycle lizard and diamond snake,IG1 2UU,51.551138710527200,0.087405650915774
Pitohui and diamondback turtle,IG1 4AA,51.564323205949100,0.082786306075246
thorny devil and kabaragoya,IG1 4AZ,51.566038049166600,0.088506488189076
Stilt and dukite,IG1 4BS,51.563724000000000,0.082643000000000
massasauga and Argus,IG1 4GS,51.563481930979900,0.083065284253555
Viscacha and Puffleg,IG1 4HZ,51.567436963195400,0.081644383665139
cycling lizard and Egret,IG1 4LW,51.566718095725300,0.081106517562678
Maya and Songlark,IG1 4RF,51.567943578494000,0.079445341621498
carpet snake and puff adder,IG1 9ST,51.560361050366900,0.078017350678085
puff adder and Schneider python,IG1 9TA,51.560361050366900,0.078017350678085
chuckwalla and gavial,IG11 0AR,51.528615000000000,0.087312000000000
Zebra and Thrasher,IG11 0BQ,51.528844092108600,0.092541890466633
Skunk and Nukupuʻu,IG11 0FF,51.526565262973500,0.100856701533359
tokay and Hawk,IG11 0GF,51.524083805895400,0.112779845423596
diamond snake and cycling lizard,IG11 0RF,51.527428496798000,0.116365890152681
Fulmarine petrel and Ice seal,IG11 0RH,51.531026000000000,0.122819000000000
Stint and agamid,IG11 0SB,51.530570000000000,0.117645655487994
Black jay and Wallaby,IG11 0TT,51.531219431734400,0.125481077802720
sea snake and Grackle,IG11 0UG,51.530012972415700,0.133484467340499
tiger snake and agamid,IG11 0UQ,51.530380604467700,0.132059857613935
puff adder and Grosbeak,IG11 0WR,51.519598000000000,0.107324000000000
Elephant and American sparrow,IG11 0XL,51.525627682413100,0.117925909190020
cayman and Stilt,IG11 0YS,51.518698000000000,0.118829000000000
water snake and Night heron,IG11 0YW,51.518698000000000,0.118829000000000
habu and tokay,IG11 7AG,51.533882472599900,0.080271691461397
Cuscus and cycling lizard,IG11 7AJ,51.533853173512800,0.079895462107758
agamid and Tree warbler,IG11 7AL,51.533702418346300,0.079268575648871
crocodile and python,IG11 7BU,51.533181580104700,0.075164330552931
puff adder and Night heron,IG11 7EE,51.530023672956000,0.085387090393915
bicycle lizard and Parrotbill,IG11 7FH,51.535826444024700,0.080691983511276
diamondback terrapin and Greenbul,IG11 7GW,51.533010663838000,0.075675630243971
viper and Fulmarine petrel,IG11 7LE,51.533776501871800,0.078132854681278
Stilt and alligator,IG11 7NR,51.537394594572600,0.081513351943862
Tree warbler and Armadillo,IG11 7PN,51.534979000000000,0.083517714490474
Macaw and grass snake,IG11 7QD,51.536009556172600,0.086583559547370
Flameback and Chipmunk,IG11 7QW,51.537127888649200,0.087918093438633
alligator and carpet snake,IG11 7TW,51.531927327901000,0.086050829959431
Mamo and agama,IG11 7TX,51.530667111551500,0.088141496120827
Snipe and ringhals,IG11 7XN,51.530720717396800,0.094213932006762
death adder and Parrotlet,IG11 8AA,51.537986101355300,0.078584183276175
Logrunners and cerastes,IG11 8DG,51.537894164392100,0.080932000000000
Mouse and Asiatic leopard,IG11 8PS,51.542694738206600,0.076246108679035
bull snake and Viscacha,IG11 8RJ,51.542255177343000,0.078216284516092
Grosbeak and puff adder,IG11 8RN,51.541324005822500,0.078172000000000
Duck and bicycle lizard,IG11 8UD,51.546969721668000,0.092753305586226
Minke whale and thorny devil,IG11 9BU,51.548587558889900,0.105866560413326
Cloud rat and Polecat,IG11 9BZ,51.551989554710800,0.106716073837139
skink and goanna,IG11 9DE,51.549905104695600,0.103605127245179
puff adder and Gull,IG11 9DH,51.548591890717800,0.099102050462214
diamond snake and American sparrow,IG11 9DY,51.548488895981800,0.102342631123492
Mockingbird and moloch,IG11 9EG,51.548156122498600,0.100336839455879
blind snake and wall lizard,IG11 9HR,51.541418957009800,0.099420891658468
taipan and New World blackbird,IG11 9HY,51.543119808707300,0.098850194601761
horned viper and lizard,IG11 9JA,51.540742809383500,0.101524108205809
cobra de capello and Myna,IG11 9JY,51.544144437970800,0.093344774593300
Goose and box turtle,IG11 9NA,51.536757250033200,0.105132948132614
Warbler and python,IG11 9NF,51.538318629245700,0.105320365790590
Jackal and Moluccan boobook,IG11 9NW,51.538227901236000,0.107868592418092
amphisbaena and Recurvebill,IG11 9TJ,51.541112979077600,0.085317197356830
Elephant and whip snake,IG11 9TZ,51.540163039185200,0.095728991575459
Komodo dragon and Snipe,IG11 9UN,51.542504780747300,0.089476601879254
mamba and king snake,IG11 9XZ,51.542148598054100,0.094700000000000
king cobra and Crow,IG2 6PS,51.575849158312000,0.082937985228836
goanna and Viscacha,IG2 6QA,51.575108031436600,0.079599161411840
king cobra and bearded lizard,IG2 6QX,51.576162162605300,0.076948428544610
horned toad and crocodile,IG2 7AA,51.567387649285800,0.087962297787656
adder and Dolphin,IG2 7AU,51.569305293564600,0.093894408979009
bearded dragon and Tahr,IG2 7FA,51.568555000000000,0.083571000000000
alligator and Parakeet,IG2 7FE,51.576632822188300,0.083940741524887
whip snake and bandy-bandy,IG2 7HF,51.574832073641800,0.093600005238815
B and Capuchin,IG2 7JG,51.578395602004400,0.094976167266507
Night heron and Fulmarine petrel,IG2 7JP,51.580011614575000,0.096133015886467
flying dragon and diamond snake,IG2 7LX,51.577796822383400,0.088208456153481
cobra and Cuscus,IG2 7LZ,51.576463137901700,0.088363807245659
Jackal and hognose snake,IG2 7RW,51.575530680582100,0.091741492229151
habu and bull snake,IG2 7TL,51.582510115501700,0.108762660170190
sand viper and gaboon viper,IG3 8AA,51.561219775373700,0.092945837156444
Duck and leguaan,IG3 8AD,51.561922948487300,0.092848275525003
box turtle and coral snake,IG3 8AE,51.561338369037400,0.093355258581628
Goose and Solitaire,IG3 8BU,51.563699758495300,0.097590258497979
python and diamond python,IG3 8EU,51.565298131537800,0.092180820381056
gavial and agamid,IG3 8HD,51.573019901724700,0.097384348795698
Maya and Francolin,IG3 8HP,51.565209831684400,0.091585180575337
agamid and Bronzewing pigeon,IG3 8HR,51.565629316675700,0.091763152877185
frill-necked lizard and goanna,IG3 8JA,51.571582117597600,0.095312259142549
Mouse and Herring gull,IG3 8JD,51.572751470678000,0.095798976633837
water snake and water snake,IG3 8JH,51.575432642330900,0.096730522986252
Schneider python and Viscacha,IG3 8LL,51.566061198513400,0.096284887953585
mud turtle and crocodile,IG3 8NP,51.569686253566800,0.101256968419757
dukite and Bronzewing pigeon,IG3 8SH,51.567604326724100,0.106528819053334
Siskin and leguaan,IG3 8UY,51.572178111175800,0.108226692315681
rat snake and Civet,IG3 8XA,51.569495000000000,0.110432327818319
Jay and Kite,IG3 9AN,51.550379566280100,0.092159741534829
Armadillo and puff adder,IG3 9BZ,51.552107471339500,0.106158954687766
Solitaire and whip snake,IG3 9EE,51.552322214095400,0.097687051849497
agamid and amphisbaena,IG3 9EN,51.552770067331100,0.104314310764368
Buzzard and Philippine hawk-owl,IG3 9FZ,51.556038223127600,0.107610044016433
Badger and cobra de capello,IG3 9HG,51.558172071829600,0.099442189258951
goanna and Fish eagle,IG3 9LL,51.562233973617400,0.106121891373636
Pitohui and Polecat,IG3 9NN,51.560021448290800,0.106640032469804
hoop snake and slowworm,IG3 9QN,51.564377479791800,0.116436472263297
rock python and asp,IG3 9TL,51.561009533750500,0.097668437900528
Minke whale and krait,IG3 9XD,51.564313079775500,0.105020392008357
black snake and Thicketbird,IG3 9XQ,51.562727785615600,0.103158079472498
Wallaby and galliwasp,IG6 1AE,51.581891498229300,0.076892130273021
Prion and soft-shelled turtle,IG6 1AG,51.580597485499600,0.078363105987101
Vole and moloch,IG6 1AY,51.579695990386200,0.076965223550204
agama and coral snake,IG6 1EZ,51.584645603073600,0.083354721355583
habu and glass snake,IG6 1HB,51.583755579229200,0.084353311944955
green turtle and Tree warbler,IG6 1HF,51.584694137443900,0.083660078496751
Duck and Kestrel,IG6 1HP,51.582506993753000,0.075649971883111
smooth snake and Badger,IG6 1PD,51.588113538960700,0.086573852585644
mud turtle and rattlesnake,IG6 1PE,51.589427717627200,0.087009425952569
crocodile and Dorcopsis,IG6 1PH,51.590826083133300,0.086250610891326
Magpie and perentie,IG6 1PQ,51.591339026494100,0.086736104964205
coral snake and Civet,IG6 1RJ,51.586402618437700,0.083160825741712
B and monitor,IG6 1RL,51.586451642034200,0.082932098011783
Mink and Rabbit,IG6 2BJ,51.589865395720900,0.077039272584125
skink and puff adder,IG6 2GE,51.599017391122100,0.077182510028580
diamondback terrapin and Nukupuʻu,IG6 2PH,51.594303138632800,0.085413714900924
hognose snake and smooth snake,IG6 2PJ,51.595786170300400,0.076327577925354
Macaw and water snake,IG6 2RH,51.606081278692900,0.082501819078629
galliwasp and Rat,IG6 2RU,51.605691875524900,0.079104630140734
Komodo dragon and bearded lizard,IG6 2SL,51.604834306746500,0.077765718521276
Viscacha and Rat,IG6 2UA,51.602305999640500,0.085448256462734
frill-necked lizard and saltwater crocodile,IG6 2UJ,51.603381180864500,0.086681688535867
Schneider python and Coati,IG6 2XJ,51.603010981977700,0.089798392728900
frilled lizard and Grackle,IG6 3AS,51.607571189879600,0.098817665410576
Dolphin and Puffleg,IG6 3EN,51.607566932494400,0.102572489047969
adder and Rat,IG6 3HW,51.601901243006200,0.111105061890129
flying lizard and dukite,IG6 3TF,51.609197685934500,0.113050000000000
blindworm and Stilt,IG7 4AE,51.609913749650500,0.112603376211809
tortoise and caiman,IG7 4BF,51.608768026441800,0.103855570876656
Rabbit and Snipe,IG7 4EF,51.607929055385600,0.106950859323635
green turtle and White ibis,IG7 4FE,51.606826000000000,0.138815000000000
brown snake and Zebra,IG7 4NQ,51.614186834153900,0.114015146026329
Marmoset and diamondback,IG7 4PF,51.609825194404800,0.107024219666029
Mole and Francolin,IG7 4PG,51.609525812450900,0.105667155058954
Warbler and Lemming,IG7 4PL,51.610516675863600,0.102564366169709
Crow and Meadowlark,IG7 4PQ,51.610229000000000,0.105165000000000
viper and Logrunners,IG7 4QD,51.618586988495600,0.115360873625878
Jerboa and iguana,IG7 4QG,51.618710590540900,0.116984569278402
rock snake and Kestrel,IG7 5DL,51.612865595457200,0.080255757965439
fer-de-lance and Maya,IG7 5DZ,51.608299843203800,0.081635701027890
dugite and milk snake,IG7 5JD,51.610499294036300,0.091962174221688
Grackle and Booted eagles,IG7 5LW,51.608178786322000,0.084403131019377
Thicketbird and Solitaire,IG7 5NN,51.606080583334500,0.091643499788873
Ice seal and tuatara,IG7 5QA,51.612778530321700,0.090218142242541
black snake and crocodile,IG7 6EX,51.622848423220900,0.119907713846370
Civet and black snake,IG7 6HG,51.617555989369800,0.102673047775258
loggerhead and Hawk,IG7 6HX,51.614453435278400,0.103179648598991
Goose and Maya,IG7 6JR,51.619149564991300,0.110085322524963
Grouse and snapping turtle,IG7 6JU,51.619327565701700,0.112188271102355
Mamo and racer,ME2 3RT,51.404314437310300,0.485309000000000
Stint and cerastes,ME2 3SR,51.401399265707900,0.476613185865812
Ibex and blue racer,ME2 3TQ,51.402269356036500,0.473741388861767
Night heron and slowworm,ME3 7AZ,51.417497449142900,0.458684674642205
turtle and jew lizard,ME3 7BA,51.416181424765100,0.458398298833138
Egret and green turtle,ME3 7BH,51.415032744139300,0.456136154314410
agama and Vole,ME3 7DX,51.414590061547300,0.451078645783929
Lemming and perentie,ME3 7EH,51.416956985740500,0.449709465606488
tiger snake and agama,ME3 7JZ,51.429342749278200,0.461636974514745
Polecat and Maya,RM1 1BP,51.579134228644800,0.179821028235952
rock python and Quetzal,RM1 1HL,51.572422725492900,0.182876843925746
gecko and flying lizard,RM1 1JU,51.578085290173700,0.179972000000000
hoop snake and Bronzewing pigeon,RM1 2BA,51.568855329326000,0.187785000000000
turtle and iguana,RM1 2EX,51.571125840084300,0.187807835668790
frill-necked lizard and Bronzewing pigeon,RM1 2JB,51.574591896999700,0.186155844273114
Francolin and boomslang,RM1 2PS,51.573464000000000,0.190855407199851
Jay and indigo snake,RM1 2RE,51.576421601422800,0.197486725088802
Pheasant and indigo snake,RM1 3BX,51.581005877673700,0.188455612619257
rock python and water snake,RM1 3HQ,51.579600788903200,0.183264139636915
Dorcopsis and Tahr,RM1 3PP,51.579886131103700,0.179525036498800
Coati and water snake,RM1 4AT,51.581075375892100,0.182310000612278
Crow and gaboon viper,RM1 4ED,51.590114626206200,0.182714360521452
Mole and Perching duck,RM1 4EX,51.586337550237200,0.187066156744723
Grouse and Lemming,RM1 4JT,51.588038328243600,0.180723665745893
worm lizard and king cobra,RM1 4NB,51.588381252481800,0.176784499014586
frilled lizard and king snake,RM1 4QP,51.587045221113500,0.171234939992671
Pheasant and cobra,RM1 4UL,51.596430807303500,0.181573311306388
Philippine hawk-owl and Flameback,RM10 7BP,51.553759514813600,0.168495291859993
Tit-tyrant and bull snake,RM10 7BX,51.553755627311500,0.163835683790200
worm lizard and Tree warbler,RM10 7HA,51.557297622738200,0.156574131712348
tiger snake and horned toad,RM10 7JA,51.560360319511500,0.152866889426541
Parrotlet and Hawaiian honeycreeper,RM10 7JR,51.554524818184200,0.151841171775806
puff adder and Chipmunk,RM10 7LD,51.554095383927700,0.149758051155627
lizard and rat snake,RM10 7LS,51.558323878061300,0.148182962289183
Minke whale and Minke whale,RM10 7PT,51.555832652534100,0.153100270094395
Mole and diamond snake,RM10 7YU,51.551482594835700,0.158837823421983
Gila monster and Dorcopsis,RM10 8AU,51.539983524256400,0.167465347610566
sidewinder and elapid,RM10 8BT,51.542137000000000,0.174663786636611
sea snake and Ground sloth,RM10 8DD,51.547631944768900,0.148645614351548
gopher snake and cobra de capello,RM10 8GJ,51.543472446944800,0.158703814459362
viper and Wallaby,RM10 8GQ,51.542612928210900,0.156052766027035
amethystine python and Black jay,RM10 8NR,51.545870634867400,0.150538568581200
Towhee and pit viper,RM10 8QR,51.550290000000000,0.160685000000000
Kākāriki and carpet snake,RM10 8SA,51.540745101257900,0.155906787795146
American sparrow and Mink,RM10 8SE,51.543253203397500,0.163770024609385
Partridge and Duck,RM10 8SS,51.541165896987500,0.150129256578669
carpet snake and diamond snake,RM10 9BH,51.531776405072300,0.156549945748503
Fish eagle and Ice seal,RM10 9JA,51.535173658655200,0.151274363329005
hawksbill and galliwasp,RM10 9JD,51.533994236450300,0.151348521566635
Rabbit and Kangaroo,RM10 9LJ,51.532343889562000,0.152092566153235
leathery turtle and tree snake,RM10 9LR,51.530521493456800,0.153390746205478
dugite and jew lizard,RM10 9NR,51.539784810468300,0.148449002029160
Myna and Nukupuʻu,RM10 9PL,51.534587474700700,0.148420527962321
Maya and Marsh harrier,RM10 9TB,51.539020747896000,0.160670668898539
Kite and boa constrictor,RM10 9TX,51.536827000000000,0.163148000000000
green turtle and cobra,RM10 9UL,51.539159954834500,0.161412725129677
Eagle and dukite,RM10 9XB,51.539877144576600,0.158115446657564
lizard and skink,RM11 1AP,51.569237084235600,0.191194873826509
amethystine python and python,RM11 1AS,51.567283258913500,0.188431406883767
Kangaroo and Tree warbler,RM11 1DY,51.568695218249700,0.202842894906940
sidewinder and bull snake,RM11 1EF,51.569210942294100,0.195479449610003
Siskin and boa constrictor,RM11 1EH,51.566277072652400,0.194154876800682
Minke whale and massasauga,RM11 1FE,51.560390416172700,0.203076309229219
gaboon viper and Coati,RM11 1FL,51.562380150526000,0.203432199493627
New World blackbird and diamond python,RM11 1HP,51.569322316388600,0.211574792039045
Hawk and Jerboa,RM11 1HR,51.568690736895100,0.215974237087415
anaconda and caiman,RM11 1JF,51.564603000000000,0.213943000000000
Quetzal and Moluccan boobook,RM11 1JN,51.568445927228300,0.212268195530310
Skunk and elapid,RM11 1JX,51.569948842588400,0.213639930421393
loggerhead and Skunk,RM11 1XD,51.566989613820600,0.218431147209895
Songlark and whip snake,RM11 2AD,51.572100000000000,0.208333000000000
Wader and moloch,RM11 2BT,51.573689656268400,0.211267254546555
Marmoset and Night heron,RM11 2DF,51.575723000000000,0.213696072075745
Viscacha and Philippine hawk-owl,RM11 2EJ,51.580452918589400,0.211711073962010
B and Siskin,RM11 2LT,51.573201273478500,0.217749000000000
Prion and Puffleg,RM11 2NU,51.585049682870800,0.224955139405700
Wallaby and Peafowl,RM11 2NZ,51.585306952957400,0.225140936746536
Meadowlark and Parrotbill,RM11 2PN,51.573778021613000,0.230448000000000
death adder and cycling lizard,RM11 2PX,51.577517248946500,0.228556293968398
gaboon viper and Kangaroo,RM11 2PY,51.576501639409300,0.233254999824614
Snipe and garter snake,RM11 2QX,51.575222000000000,0.226271696842230
Gila monster and adder,RM11 2QY,51.578438337866000,0.225512609621720
rattlesnake and Quetzal,RM11 2RU,51.581021281276400,0.225407875383711
Marsh harrier and tiger snake,RM11 2RX,51.580565334801800,0.224317474687183
Rabbit and tuatara,RM11 2SQ,51.585680979160400,0.225808820370969
agamid and Pratincole,RM11 3AD,51.569533000000000,0.243159000000000
Magpie and perentie,RM11 3BS,51.573844586952800,0.235361697619093
Egret and agamid,RM11 3BX,51.579933172758000,0.233452123146686
Vole and Hawaiian honeycreeper,RM11 3DH,51.577015647746700,0.241972000000000
Herring gull and Maya,RM11 3ED,51.579264628981800,0.235974103604512
Jerboa and viper,RM11 3EP,51.576998995436600,0.238302060164509
Pratincole and alligator,RM11 3LF,51.567908941131200,0.232545226172631
Bunting and White ibis,RM11 3LS,51.570075444263200,0.231641229854356
Snipe and agamid,RM11 3LU,51.570037695477300,0.222259393276533
Old World quail and B,RM11 3NA,51.567365250711200,0.225188194685271
Minke whale and Warbler,RM11 3PU,51.562996753325000,0.239259135701984
gaboon viper and whip snake,RM11 3QA,51.561522381643700,0.238292154143383
American sparrow and tree snake,RM11 3YD,51.562227145623400,0.220608838328298
Kite and Goose,RM12 4AU,51.549567712447300,0.192744890016273
bearded dragon and Chickadee,RM12 4BA,51.550251404105800,0.190325620944623
diamond python and caiman,RM12 4DQ,51.564754577003800,0.186592922974694
Night heron and Buzzard,RM12 4HB,51.557975231855100,0.194231323362219
Komodo dragon and Scimitar babbler,RM12 4HH,51.559635619499700,0.193445611354094
Pheasant and Komodo dragon,RM12 4HS,51.560500222159900,0.192780000000000
Stilt and Capuchin,RM12 4JJ,51.559882252729700,0.216209621358162
Treepie and Komodo dragon,RM12 4JZ,51.560005617945000,0.198181210394520
Thrasher and swift,RM12 4PZ,51.551766468728800,0.195562000000000
Parakeet and king cobra,RM12 4QS,51.554253551320100,0.205188821989918
caiman and bearded lizard,RM12 4QY,51.555264987059100,0.204963653928569
Chipmunk and Polecat,RM12 4UL,51.562401448143100,0.219001359934834
massasauga and Linsang,RM12 4XA,51.561291751943700,0.216335870904650
tuatara and bandy-bandy,RM12 4XS,51.557838190166000,0.209199774975968
tortoise and rat snake,RM12 5AG,51.537836000000000,0.204606072405543
Schneider python and horned toad,RM12 5AJ,51.538174621440200,0.203733649448038
black snake and flying dragon,RM12 5DJ,51.547320000000000,0.197122000000000
lizard and thorn lizard,RM12 5DX,51.548444437475000,0.193181283450411
blindworm and taipan,RM12 5EA,51.548252884746800,0.193806716326900
Buzzard and Black jay,RM12 5HX,51.544111329768800,0.195987191305404
ringhals and dukite,RM12 5LN,51.537640517306600,0.198170399825362
Booted eagles and Black cockatoo,RM12 5LX,51.543155313550700,0.202849380263491
Old World quail and Vulture,RM12 5NR,51.541898085376900,0.201317635104335
rattlesnake and diamondback,RM12 5PR,51.541407671893700,0.203010139236343
alligator and Mamo,RM12 5QD,51.538348298919900,0.199271635985714
cerastes and Macaw,RM12 5RB,51.549177998278800,0.208246462985101
sidewinder and blue racer,RM12 6AB,51.553983798800800,0.222342278981224
swift and king snake,RM12 6AD,51.552995764271300,0.222279690347770
rock snake and puff adder,RM12 6DA,51.549304510936600,0.225345219348294
Zebra and jew lizard,RM12 6DL,51.549116363097200,0.221037650652165
Perching duck and Ibex,RM12 6HT,51.557132849578600,0.220836738103131
Fox and Cuscus,RM12 6QX,51.562023245963400,0.219978491099547
Coati and asp,RM12 6RF,51.547950903098000,0.215139269818295
Duck and death adder,RM12 6SU,51.551589627277400,0.220076267050318
sand lizard and alligator,RM12 6UB,51.542901750322600,0.212975878778814
chameleon and Piping shrike,RM12 9HB,51.561888000000000,0.216392000000000
frill-necked lizard and River dolphin,RM13 0DS,51.516955000000000,0.192173000000000
tree snake and Old World warbler,RM13 7AD,51.531810162035500,0.188229045950430
Tit-tyrant and galliwasp,RM13 7DA,51.533283000000000,0.195163000000000
Snipe and Zebra,RM13 7DJ,51.535132951735200,0.198092830846924
Black cockatoo and tuatara,RM13 7DS,51.537061506473200,0.194032730115784
Parrotbill and worm lizard,RM13 7SD,51.532341161204800,0.184347038814854
glass snake and Chickadee,RM13 7TD,51.535518265007200,0.179856010631269
slowworm and death adder,RM13 7TP,51.533331108899100,0.183341845821164
Shearwater and leathery turtle,RM13 7UA,51.534420834611100,0.189046395475270
Rabbit and B,RM13 8AU,51.528328943559000,0.183938709064099
water snake and Darwin's finches,RM13 8DT,51.525401242330200,0.171616646863281
Logrunners and rat snake,RM13 8ET,51.525562067138600,0.170701640629516
anaconda and iguana,RM13 8EU,51.518621323552600,0.171092285823218
thorn lizard and king cobra,RM13 8GP,51.520331740800000,0.184608285200000
rock snake and coral snake,RM13 9HE,51.514644462167700,0.201588716192160
horned toad and Gull,RM13 9HL,51.510922796242200,0.201034550335766
Chipmunk and Maya,RM13 9JH,51.520665205126900,0.202474000000000
worm lizard and Zebra,RM13 9JS,51.522990640483900,0.208723482646501
blue tongue and amethystine python,RM13 9JU,51.524953000000000,0.210130000000000
cayman and Fulmarine petrel,RM13 9LD,51.526685663285300,0.206869527444374
taipan and Treepie,RM13 9LS,51.525418952627700,0.205254000000000
Stint and black snake,RM13 9NF,51.521012186027900,0.196273932919400
saltwater crocodile and krait,RM13 9PB,51.518507448611400,0.207540782252300
Grackle and snake,RM13 9PD,51.519329044853500,0.206616000000000
Peafowl and Civet,RM13 9PP,51.517025613088100,0.203130530590632
perentie and habu,RM13 9QJ,51.529021551922800,0.215099681963119
Minke whale and blue racer,RM13 9TT,51.517793191522700,0.196248781693745
Francolin and Pratincole,RM13 9WP,51.516756000000000,0.206144000000000
Piping shrike and puff adder,RM13 9XW,51.515129000000000,0.202679000000000
Nukupuʻu and Parrotlet,RM13 9YA,51.506710387079800,0.180051380085026
indigo snake and massasauga,RM13 9YG,51.519127281973700,0.190792192544096
Recurvebill and sidewinder,RM13 9YU,51.517857427351400,0.193296968444944
Tree warbler and bull snake,RM14 1AW,51.567790872770400,0.252366361042706
Civet and diamondback turtle,RM14 1BU,51.566342779242500,0.262193519865376
Asiatic leopard and dugite,RM14 1EG,51.562420676719400,0.272026584592730
Dolphin and sand viper,RM14 1EN,51.562369194957600,0.273755428778588
boa and grass snake,RM14 1HR,51.566574148447600,0.278121019876572
Wader and Guillemot,RM14 1HT,51.567602624181400,0.279341278296472
wall lizard and Bronzewing pigeon,RM14 1HY,51.566157009054600,0.275055512724394
Fulmarine petrel and Tattler,RM14 1LL,51.566748356217700,0.268202019294685
Pratincole and Linsang,RM14 1LX,51.575093720633300,0.269137102733367
tree snake and Partridge,RM14 1NB,51.569368274545200,0.269443601953538
harlequin snake and Peafowl,RM14 1NQ,51.570182030852000,0.276065000000000
Argus and frilled lizard,RM14 1QD,51.573015974867900,0.264502029279764
Jerboa and Flameback,RM14 1SG,51.565390583991200,0.264469376025507
amethystine python and chuckwalla,RM14 1TD,51.573838370235900,0.257948000000000
soft-shelled turtle and B,RM14 1XL,51.561766000000000,0.266410000000000
swift and Mamo,RM14 2AP,51.555076820403500,0.248982735488679
diamondback turtle and Flameback,RM14 2AU,51.554971217456300,0.248862117385619
racer and Snipe,RM14 2DJ,51.542988498211200,0.255165019487056
habu and Cloud rat,RM14 2JJ,51.548829435548500,0.244145417314441
constrictor and blindworm,RM14 2NX,51.553897564735000,0.230676092604423
Old World vulture and Goose,RM14 2PJ,51.555619876252500,0.232794464099311
Ice seal and Magpie,RM14 2QW,51.558742352200000,0.239814711500000
Chicken and blindworm,RM14 2RS,51.556895337747700,0.233347443378858
agamid and Viscacha,RM14 2TF,51.526591659587000,0.251557684983774
Viscacha and soft-shelled turtle,RM14 2TW,51.538931827066200,0.243485368657711
Magpie and caiman,RM14 2UE,51.558080913387200,0.252708854833655
Towhee and constrictor,RM14 2UP,51.556996000000000,0.251227000000000
kabaragoya and habu,RM14 2XS,51.540063615260400,0.228932283685942
Scimitar babbler and ringhals,RM14 2YE,51.547242913128700,0.233033316205599
Pratincole and tortoise,RM14 3BN,51.547795000000000,0.349489000000000
boa and Flameback,RM14 3DR,51.553274432740800,0.255269888329576
sea snake and rattlesnake,RM14 3EH,51.553148209966800,0.250473000000000
Francolin and ringhals,RM14 3PD,51.565240029456600,0.316854948934332
Linsang and Argus,RM14 3RL,51.548083000000000,0.349375000000000
White ibis and goanna,RM14 3SD,51.545630328445700,0.362506000000000
Masked owl and Songlark,RM14 3TE,51.548987422389600,0.400270000000000
blindworm and Asiatic leopard,RM14 3TY,51.544725850057200,0.395254568443249
bicycle lizard and constrictor,RM14 3WL,51.552367621219000,0.246539000000000
tuatara and mamba,RM14 9AS,51.552368900000000,0.246539000000000
Hawaiian honeycreeper and Moluccan boobook,RM14 9DE,51.552321000000000,0.246566000000000
Fulmarine petrel and Towhee,RM15 4AF,51.499254138500000,0.258552318400000
cayman and black snake,RM15 4AP,51.497923084087500,0.250562155364642
deaf adder and turtle,RM15 4AU,51.498336763142700,0.249156132961407
rat snake and Puffleg,RM15 4DR,51.498968501009500,0.246694600601140
Grackle and dukite,RM15 4DX,51.497992470621000,0.240364708615285
Jerboa and Treepie,RM15 4EJ,51.501158861819400,0.248776375060996
monitor and Darwin's finches,RM15 4HD,51.496336509308200,0.255440169660606
turtle and sea snake,RM15 4JT,51.495111202694300,0.250409222927607
Lemming and Ground sloth,RM15 4LD,51.498445020958300,0.252417706770168
snapping turtle and Hawk,RM15 4NT,51.509034852707200,0.252622997091857
glass snake and boomslang,RM15 4NX,51.510586214528400,0.255192809688607
kabaragoya and krait,RM15 4RJ,51.504571769508800,0.251350910707070
Tattler and terrapin,RM15 4SH,51.503336328927700,0.251059453697349
Kestrel and tiger snake,RM15 4SP,51.501248319759700,0.250207274348803
mamba and Rat,RM15 4TH,51.499791263017000,0.255365810093396
rock python and agamid,RM15 4TX,51.501231654622700,0.259024788709721
Fox and krait,RM15 4YD,51.496518000000000,0.227657000000000
Perching duck and Thrasher,RM15 5BN,51.509770586543000,0.284783135880621
Jerboa and Darwin's finches,RM15 5BQ,51.516053934333400,0.282920000000000
carpet snake and B,RM15 5DA,51.512638807390100,0.288962234118993
Pheasant and pit viper,RM15 5EG,51.511592380649200,0.282669208095278
chameleon and Eagle,RM15 5HZ,51.505562048482700,0.275522793256840
hognose snake and Eagle,RM15 5JP,51.510115359212700,0.270273191494163
anaconda and Meadowlark,RM15 5LP,51.508243210840800,0.282862060431619
ringhals and Scimitar babbler,RM15 5NE,51.503527950829600,0.275608769704989
Rabbit and agamid,RM15 5NF,51.503537338706300,0.276978170495246
ringhals and hognose snake,RM15 5NQ,51.503913507085000,0.280296802923289
Night heron and boomslang,RM15 5PW,51.503498961528900,0.290031558882430
cobra de capello and leguaan,RM15 5QN,51.508928017561900,0.284178924925267
perentie and bicycle lizard,RM15 5XE,51.504778704598000,0.286204967145959
Grackle and Hawk,RM15 6DR,51.512013103217900,0.293369923937053
Buzzard and wall lizard,RM15 6DS,51.511789060440400,0.293329844969571
Komodo dragon and python,RM15 6HP,51.512938855257700,0.291557172787174
blue racer and Wader,RM15 6JT,51.520111178589900,0.298202237803872
Nukupuʻu and sea snake,RM15 6PG,51.523427234913000,0.294649858768272
box turtle and cycling lizard,RM15 6QD,51.526534773433500,0.296694766222004
milk snake and worm lizard,RM15 6RA,51.518084136275300,0.297927203378298
Jackal and Recurvebill,RM15 6RE,51.517744755998600,0.297347958211272
Goose and Tahr,RM15 6SR,51.533362000000000,0.298538000000000
Tit-tyrant and Rat,RM15 6XH,51.516620593025700,0.300102112376585
Cuscus and Logrunners,RM16 2AQ,51.500554669813200,0.320402079481453
Elephant and Logrunners,RM16 2BX,51.501077744927500,0.325774449055214
Hawk and snapping turtle,RM16 2JX,51.493843931768200,0.340403733994396
American sparrow and Hawaiian honeycreeper,RM16 2PA,51.496372727606600,0.343919105234410
Wader and asp,RM16 2PT,51.495510134793100,0.332608236672607
diamond snake and Vulture,RM16 2RW,51.493863611478200,0.334454689883384
cobra de capello and Rat,RM16 2TA,51.491397104283900,0.328695870680107
thorny devil and jew lizard,RM16 2XU,51.494169904779100,0.333072863014491
Nukupuʻu and harlequin snake,RM16 3AT,51.503658945400000,0.355532826900000
Black cockatoo and Fulmarine petrel,RM16 3AZ,51.504388306000000,0.387056971800000
Grosbeak and tree snake,RM16 3DR,51.501910000000000,0.391769000000000
rock python and sand lizard,RM16 3DY,51.505109257391300,0.391806963131585
Kestrel and frill-necked lizard,RM16 3EU,51.509495000000000,0.366283000000000
Nukupuʻu and chameleon,RM16 3HB,51.512003095248300,0.364510090027149
Meadowlark and Greenbul,RM16 3HG,51.511480335793600,0.363229125461594
Masked owl and Peafowl,RM16 3HR,51.512935294331600,0.366446474114146
diamondback turtle and Armadillo,RM16 3HZ,51.511341488598000,0.364317287338306
Piping shrike and blind snake,RM16 3JP,51.508459000000000,0.363274000000000
terrapin and diamond snake,RM16 3JU,51.511393000000000,0.370675340712263
diamond snake and Fish eagle,RM16 3LA,51.511630289742900,0.370947620963338
Marsh harrier and dukite,RM16 3NB,51.507889689694300,0.348127506764857
Gila monster and Marmoset,RM16 4DH,51.481398847277700,0.367650631959254
viper and turtle,RM16 4ES,51.485600276648400,0.360435658881509
Logrunners and gecko,RM16 4JS,51.481352039088100,0.369967095161297
horned viper and Lemming,RM16 4PL,51.484004577383400,0.377983574507048
Ground sloth and worm lizard,RM16 4SH,51.488947000000000,0.370707000000000
Perching duck and Schneider python,RM16 4SP,51.488649068000400,0.368011895318215
Schneider python and cobra de capello,RM16 4UR,51.487510269219400,0.365619273587234
White ibis and mountain devil,RM16 4XL,51.489123960438500,0.362749697688575
Old World warbler and Kite,RM16 5UP,51.495813579122900,0.302699402687726
hawksbill and horned viper,RM16 6AG,51.480200143608800,0.289915445324436
snake and box turtle,RM16 6AQ,51.484705793779800,0.288988890219064
leguaan and water snake,RM16 6BH,51.481334976956300,0.289828272634009
box turtle and tiger snake,RM16 6BZ,51.490445208571100,0.313636521673730
Snipe and alligator,RM16 6DS,51.490676392175200,0.307381688340111
rock snake and krait,RM16 6EB,51.483118016811700,0.299812754515166
Bronzewing pigeon and giant tortoise,RM16 6EP,51.491754047690800,0.308372513408210
Pratincole and dugite,RM16 6ES,51.490101158893200,0.308735581823245
carpet snake and mamba,RM16 6LY,51.483819000000000,0.293496000000000
galliwasp and Thicketbird,RM16 6PP,51.492636307667400,0.306040025763014
Siskin and Partridge,RM16 6PX,51.491001588199900,0.311417368010557
Crow and Jay,RM16 6QL,51.491446453186100,0.315761700457660
Dorcopsis and jew lizard,RM16 6RJ,51.488936801237500,0.296129758380102
lizard and Kangaroo,RM16 6YH,51.486922000000000,0.303939486966310
python and Jackal,RM16 6YJ,51.490755000000000,0.290574000000000
Philippine hawk-owl and copperhead,RM17 5AB,51.492375330347400,0.321542526984858
Nukupuʻu and ringhals,RM17 5AE,51.493620244964300,0.320438838087962
Darwin's finches and grass snake,RM17 5BB,51.487812700514900,0.321699646506400
Treepie and green turtle,RM17 5BF,51.477037441095100,0.313130672552037
Tit-tyrant and Skunk,RM17 5DU,51.482880000000000,0.321101772870260
Pitohui and Buzzard,RM17 5JG,51.481389049146600,0.315007234325720
Recurvebill and diamond snake,RM17 5JJ,51.481378028251700,0.312831836221264
Macaw and Black cockatoo,RM17 5LD,51.485364044918500,0.325003439213922
cerastes and perentie,RM17 5LN,51.489840513746900,0.326470100117500
Capuchin and amethystine python,RM17 5NN,51.486505528947500,0.335893751774671
bicycle lizard and cayman,RM17 5NR,51.487816127092900,0.337818993534094
Triller and Grouse,RM17 5QN,51.488643907834500,0.320142900781347
water snake and Chicken,RM17 5RQ,51.488234341689700,0.330364132158954
Ibex and Eagle,RM17 5RZ,51.488880514155100,0.339011473152149
boomslang and cobra de capello,RM17 5UE,51.480633042347100,0.331373617426454
death adder and Gull,RM17 6DP,51.475148694031600,0.325866360691826
Duck and chuckwalla,RM17 6HP,51.476462361146000,0.345691937583990
glass snake and Siskin,RM17 6PE,51.475311762050200,0.319451802166156
Eagle and snapping turtle,RM17 6PP,51.474401186432800,0.329543722559027
copperhead and Kangaroo,RM17 6QJ,51.477971695550700,0.325909185612875
saltwater crocodile and cobra de capello,RM17 6QL,51.477672499693200,0.326484434364266
whip snake and perentie,RM17 6RB,51.478276912935200,0.329107550733080
Flameback and death adder,RM17 6RD,51.477750119921600,0.329368745084996
bull snake and Scimitar babbler,RM17 6RJ,51.473072850633100,0.328957626205808
hognose snake and Komodo dragon,RM17 6SA,51.481507740142100,0.335321447576457
Goose and brown snake,RM17 6SE,51.472947438078100,0.332551310900888
anaconda and tree snake,RM17 6TR,51.473487769527800,0.343336037444226
pit viper and Pratincole,RM17 6TS,51.476276388013000,0.344199052985861
Wader and lizard,RM17 9NT,51.480094000000000,0.322359000000000
Buzzard and diamondback terrapin,RM17 9SJ,51.475673777177400,0.324784188016642
bearded lizard and smooth snake,RM18 7AE,51.464261697191900,0.351372243273404
carpet snake and asp,RM18 7AJ,51.464398910882300,0.353049425440445
Scimitar babbler and Kite,RM18 7AX,51.466281096258800,0.356126000000000
amethystine python and Kite,RM18 7BS,51.462967641054700,0.353900000000000
mountain devil and Jerboa,RM18 7DE,51.465320509704500,0.360439799502359
gaboon viper and Jay,RM18 7QW,51.461541201825200,0.362332279065644
Argus and carpet snake,RM18 7RU,51.466494503962200,0.362429774830810
harlequin snake and anaconda,RM18 7SS,51.465963264499500,0.358889179193618
death adder and flying dragon,RM18 8AL,51.462648339332400,0.372525046115473
Stilt and Tattler,RM18 8DR,51.461075376746700,0.371594049034454
rock snake and constrictor,RM18 8ED,51.459578409897300,0.369572947786411
harlequin snake and flying dragon,RM18 8EH,51.459081129624600,0.369259266094975
Crow and soft-shelled turtle,RM18 8EJ,51.458860072887600,0.368182516284170
Recurvebill and sidewinder,RM18 8FA,51.481629000000000,0.415063000000000
Black jay and tortoise,RM18 8JE,51.465219745774300,0.372557663993253
Pheasant and Goose,RM18 8JJ,51.463571009771600,0.369592643361110
flying dragon and Triller,RM18 8PP,51.469746890049900,0.425552129091104
Puffleg and Mink,RM18 8QJ,51.472881153836800,0.416185297951584
lizard and Jay,RM18 8RP,51.467237318148000,0.429047482484290
Pratincole and python,RM18 8SP,51.484075726146400,0.418030282897259
tuatara and Crow,RM18 8UB,51.474120664343700,0.389940490853316
Moluccan boobook and bicycle lizard,RM18 8UL,51.459461000000000,0.390484000000000
soft-shelled turtle and terrapin,RM19 1EA,51.492914094218400,0.286345937926840
massasauga and caiman,RM19 1LF,51.483511093432000,0.235319340112284
Solitaire and Vulture,RM19 1PR,51.479522679705300,0.247783797505604
slowworm and tiger snake,RM19 1PY,51.485043191816600,0.230424935272349
Greenbul and cycling lizard,RM19 1QR,51.482048924296200,0.234182011944629
Thicketbird and massasauga,RM19 1RP,51.487551000000000,0.232031000000000
sand lizard and diamondback,RM19 1RQ,51.484845615422100,0.253922369666293
slowworm and Jerboa,RM19 1SR,51.483832000000000,0.242119000000000
Warbler and Ibex,RM19 1TD,51.486739354194500,0.259259000711740
constrictor and Warbler,RM2 5AA,51.577913000000000,0.190919000000000
Duck and Gull,RM2 5AU,51.579951248206900,0.197729185514092
death adder and cobra de capello,RM2 5JS,51.586125151882200,0.200351307379551
blindworm and Night heron,RM2 5LT,51.584117860799100,0.199012895680534
Goose and sand lizard,RM2 5PB,51.591139678112000,0.193331648372426
brown snake and Jay,RM2 5TB,51.575796685912000,0.206347011712169
diamond python and cobra,RM2 6EH,51.589054950508000,0.210021133854142
crocodile and moloch,RM2 6GE,51.584035647628900,0.213905993956462
Maya and Recurvebill,RM2 6GH,51.583942251613400,0.213136391635211
water snake and Hawaiian honeycreeper,RM2 6NB,51.589170243293100,0.203670000000000
mountain devil and whip snake,RM2 6NP,51.591007854537200,0.209466249048811
perentie and flying dragon,RM20 3AE,51.475098000000000,0.281855000000000
Tree warbler and Zebra,RM20 3FN,51.480353000000000,0.267719651462153
rock python and indigo snake,RM20 3JB,51.476778157712700,0.278150901663649
Myna and king snake,RM20 3JJ,51.477439529454300,0.276974128314869
Old World vulture and king cobra,RM20 3JP,51.477904160590600,0.276666032247684
Songlark and Mole,RM20 3JS,51.476348183471600,0.276674948416591
anaconda and snake,RM20 3JT,51.475982525691900,0.275779000000000
cerastes and Marmoset,RM20 4AR,51.476546869931000,0.290942151941371
python and swift,RM20 4DR,51.478018313308800,0.292000000000000
mamba and Mockingbird,RM20 4EH,51.474639977045100,0.289579328978805
Guillemot and Hawaiian honeycreeper,RM20 4YE,51.478609468600600,0.298131307010844
Francolin and snake,RM20 4YJ,51.479534846734800,0.300928671717919
Jerboa and Parrotlet,RM3 0DR,51.595333916729600,0.232720481702341
frill-necked lizard and Linsang,RM3 0FQ,51.590484850600000,0.225453000000000
chuckwalla and gopher snake,RM3 0FW,51.591240954800000,0.227625394200000
dukite and Triller,RM3 0GZ,51.595821917906300,0.236845078795377
Hawaiian honeycreeper and death adder,RM3 0HB,51.588977945203700,0.229304881969507
Cuscus and turtle,RM3 0HJ,51.595167336918900,0.237217197911641
Hawaiian honeycreeper and turtle,RM3 0JE,51.592294000000000,0.226666000000000
diamondback turtle and gavial,RM3 0JF,51.596826017823800,0.240778586921455
turtle and Asiatic leopard,RM3 0JU,51.599300000000000,0.246445000000000
Chickadee and cobra de capello,RM3 0LA,51.597326916212400,0.250318842591140
diamondback turtle and Gull,RM3 0LH,51.587361172925800,0.224938159977512
blue racer and flying lizard,RM3 0RQ,51.590888859395200,0.231910552867399
Crow and cayman,RM3 0TJ,51.587289356354800,0.233452024291512
Herring gull and Ground sloth,RM3 0UL,51.584191421000800,0.230846089710949
tokay and Ground sloth,RM3 0XN,51.594312115927400,0.223068794489298
Bunting and Triller,RM3 0YP,51.600603302513100,0.246408620606601
elapid and garter snake,RM3 0ZE,51.590355252156800,0.220219142907250
Mamo and taipan,RM3 3DU,51.605533000000000,0.223874000000000
Rat and Armadillo,RM3 3DW,51.605533000000000,0.223874000000000
worm lizard and crocodile,RM3 7BT,51.596411188448600,0.205815000000000
gecko and massasauga,RM3 7DR,51.608712648600000,0.221533616300000
bearded dragon and Badger,RM3 7DX,51.602721354823400,0.205384868809992
Ground sloth and Asiatic leopard,RM3 7ER,51.600336590520000,0.204994944081713
slowworm and horned toad,RM3 7FD,51.596166091700000,0.207319690200000
ringhals and sand viper,RM3 7QP,51.607966194777400,0.210535164909888
River dolphin and Grackle,RM3 7ST,51.610749285802600,0.216028976809339
Chipmunk and viper,RM3 7TB,51.609756342843300,0.216702779820560
Chicken and hawksbill,RM3 7UF,51.607514661300000,0.214975944600000
tree snake and copperhead,RM3 7YR,51.612579139052800,0.216276997747317
grass snake and Songlark,RM3 8AH,51.600172525049400,0.212755860970089
wall lizard and Mole,RM3 8HN,51.594792398561700,0.215743009147442
blindworm and gecko,RM3 8HY,51.595045000000000,0.214340000000000
elapid and Kākāriki,RM3 8JU,51.603859687617200,0.226684000000000
Marsh harrier and Darwin's finches,RM3 8LS,51.603219857282600,0.223763856493923
skink and puff adder,RM3 8NF,51.596495906874200,0.223146567727837
River dolphin and Partridge,RM3 8NJ,51.600915951445900,0.224329987577086
blind snake and flying dragon,RM3 8NU,51.602063586689200,0.223562947456857
Rat and Tree warbler,RM3 8PB,51.602873033669300,0.226404083075335
horned toad and giant tortoise,RM3 8QE,51.600359207254100,0.219537459333373
racer and green turtle,RM3 8RS,51.601041925429200,0.225274782277021
Ice seal and Kestrel,RM3 8SB,51.599025000000000,0.223111000000000
diamondback and Night heron,RM3 8YR,51.604417589319700,0.211778060144447
constrictor and Diving bird,RM3 8YT,51.604505383527600,0.220938341615821
Bronzewing pigeon and blind snake,RM3 9AU,51.611807650231500,0.224732480938032
ringhals and Scimitar babbler,RM3 9BA,51.610841293272900,0.225898495857231
Cloud rat and Vulture,RM3 9ET,51.613106768202600,0.228306006489063
White ibis and carpet snake,RM3 9FG,51.604900639400000,0.228597298600000
frill-necked lizard and Dorcopsis,RM3 9JJ,51.602093539912500,0.232878806564132
rock snake and Rat,RM3 9LB,51.605793047737600,0.226070362215423
Thicketbird and Coati,RM3 9LL,51.599426097649200,0.233643226278936
Dolphin and Grackle,RM3 9NF,51.604914715754200,0.247617943398752
mud turtle and Towhee,RM3 9NJ,51.602770569622800,0.241706690828866
deaf adder and Linsang,RM3 9NT,51.603748585455900,0.236166018730927
Pheasant and king snake,RM3 9PP,51.604090000000000,0.236241000000000
harlequin snake and leguaan,RM3 9XA,51.603239114046400,0.244011500015849
Tahr and Black jay,RM4 1LA,51.624175776846800,0.214588270602709
amphisbaena and horned viper,RM4 1PT,51.619483587072100,0.182794443593709
bandy-bandy and Condor,RM5 2DT,51.599235009265900,0.151456167438836
Elephant and Treepie,RM5 2ES,51.601421217735200,0.152716000000000
Shearwater and chuckwalla,RM5 2HL,51.606120598291800,0.158468367269813
iguana and Fox,RM5 2PR,51.601382612759800,0.153998137062501
Diving bird and indigo snake,RM5 2QP,51.604657972035800,0.163179157755399
anole and Old World quail,RM5 2TU,51.610871050969400,0.160788048534287
frilled lizard and Parakeet,RM5 2UH,51.607395703054300,0.163453731701426
Buzzard and Kestrel,RM5 3AW,51.606822766914900,0.176930039256239
Moluccan boobook and Magpie,RM5 3BH,51.589619421074500,0.169654146327126
Tahr and Old World warbler,RM5 3EX,51.593768209993400,0.171916524170359
diamondback turtle and rock python,RM5 3JJ,51.597552479639300,0.165195077756048
Fulmarine petrel and blue racer,RM5 3JT,51.599593511400000,0.166187449829047
Cuscus and Black jay,RM5 3PA,51.599014866947700,0.160990461317826
Old World quail and turtle,RM5 3PJ,51.600123020759000,0.164783075286717
Towhee and Herring gull,RM5 3RX,51.604356415501200,0.167338417719334
galliwasp and Meadowlark,RM5 3TE,51.599031462247300,0.169351900480300
Parrotbill and python,RM5 3UE,51.600830641561100,0.173206600074560
Lemming and pit viper,RM5 3YA,51.604952435256500,0.176436196427865
Pitohui and alligator,RM6 4AD,51.570442860893400,0.129619200800361
jew lizard and rock python,RM6 4DG,51.568292270945200,0.123241648807411
Mockingbird and tortoise,RM6 4UA,51.576233937677500,0.120696420027342
Fish eagle and Prion,RM6 4YL,51.578309115316300,0.121312625118398
tiger snake and saltwater crocodile,RM6 5AT,51.580774699519600,0.127186594713149
Pratincole and Songlark,RM6 5BE,51.576813151954500,0.124966590340245
Francolin and soft-shelled turtle,RM6 5BT,51.579427674959900,0.125593734578920
king cobra and thorn lizard,RM6 5DB,51.576040622958500,0.123429581496519
kabaragoya and amethystine python,RM6 5EE,51.576952186265300,0.122750437421558
Armadillo and flying lizard,RM6 5NA,51.586202510213800,0.133835132266150
Jackal and ringhals,RM6 5NB,51.586907474449100,0.133146371846773
Pheasant and soft-shelled turtle,RM6 5NL,51.586350338359300,0.134607152546234
Stilt and chameleon,RM6 5NS,51.582146258244800,0.140775674410863
whip snake and Fish eagle,RM6 5PP,51.586746319454300,0.127162385705880
dukite and Maya,RM6 5RL,51.575163327970400,0.126188526947298
adder and Capuchin,RM6 5RY,51.583628982924300,0.116046307533000
Chickadee and Dolphin,RM6 5UE,51.578742915226700,0.134582592164409
Moluccan boobook and Buzzard,RM6 5UJ,51.579028136112300,0.133239219052308
adder and Bunting,RM6 6AS,51.572624379148500,0.142666111528343
saltwater crocodile and boa,RM6 6BB,51.574338880484600,0.147263943919260
giant tortoise and indigo snake,RM6 6DL,51.572164000000000,0.136724000000000
Old World vulture and tree snake,RM6 6GE,51.572761000000000,0.142153000000000
turtle and Nukupuʻu,RM6 6HY,51.570058956346300,0.143786498364946
crocodile and Tit-tyrant,RM6 6JJ,51.570551765936200,0.133029937408087
Tattler and smooth snake,RM6 6LS,51.571987648812600,0.141092030177029
amphisbaena and Partridge,RM6 6NH,51.573591190859100,0.137977988225511
Scimitar babbler and Old World warbler,RM7 0AF,51.569109970176300,0.185474333951998
Grouse and Warbler,RM7 0BB,51.570810518347500,0.179624804925082
Egret and Bunting,RM7 0EJ,51.570171000000000,0.168621670328895
Partridge and Duck,RM7 0EN,51.569022736961600,0.165931502112449
Magpie and Macaw,RM7 0FU,51.571392000000000,0.176115000000000
Viscacha and Polecat,RM7 0GY,51.570941000000000,0.176657000000000
sidewinder and Vole,RM7 0LD,51.564370473170500,0.167066696124029
cerastes and Tit-tyrant,RM7 0LS,51.564613232150900,0.163658591463120
fer-de-lance and Night heron,RM7 0NR,51.565293913631800,0.168192792413911
amethystine python and Meadowlark,RM7 0PP,51.567063456487800,0.184784561554132
River dolphin and Siskin,RM7 0QH,51.566794595511000,0.181351849604337
frilled lizard and Night heron,RM7 0QL,51.566496957396000,0.178494985479331
leguaan and gavial,RM7 0QU,51.566513491212200,0.174210207841212
skink and Chickadee,RM7 0RT,51.563293722386500,0.181011138070403
Zebra and Tahr,RM7 0TP,51.562258258180900,0.175753013680759
Wader and snake,RM7 0TS,51.561387296223500,0.174225362623146
Marsh harrier and Pratincole,RM7 0WZ,51.560193597117000,0.177977285367948
cycling lizard and Tattler,RM7 0XU,51.560312483579400,0.174477069923404
Wallaby and Perching duck,RM7 1ED,51.570248736166900,0.170636463648936
Capuchin and Meadowlark,RM7 1LR,51.570249714000000,0.170636458000000
Boto and Gila monster,RM7 1NL,51.570249714000000,0.170636458000000
Jerboa and rat snake,RM7 1RJ,51.570250000000000,0.170637000000000
coral snake and mountain devil,RM7 1SA,51.581394261837100,0.183537757686510
diamondback and Vulture,RM7 1TS,51.570143000000000,0.170731000000000
cycling lizard and Mink,RM7 1TY,51.570143000000000,0.170731000000000
Kite and carpet snake,RM7 1UE,51.570143000000000,0.170731000000000
Rabbit and Chickadee,RM7 7AG,51.577436901600900,0.169506818904767
bull snake and Parrotlet,RM7 7AS,51.577567062602300,0.166842911689650
tiger snake and soft-shelled turtle,RM7 7AU,51.577338248102600,0.166572234370739
milk snake and sea snake,RM7 7BL,51.577806920804700,0.167489377333525
leathery turtle and wall lizard,RM7 7DB,51.578186483204600,0.170307480715514
Polecat and Viscacha,RM7 7DT,51.579523619080100,0.173373389823757
Rabbit and Myna,RM7 7EB,51.581392662686900,0.172481050994203
taipan and Chickadee,RM7 7EN,51.581797000000000,0.170609000000000
Grosbeak and bearded dragon,RM7 7HB,51.578626386773500,0.176173949820841
Vole and Chickadee,RM7 7JX,51.580843667726500,0.168615406372604
Thicketbird and Elephant,RM7 7LA,51.580584013774800,0.169526817153473
indigo snake and tiger snake,RM7 7LG,51.577354792821300,0.173692000000000
dugite and flying lizard,RM7 8AH,51.584066434926000,0.154276074560042
tree snake and garter snake,RM7 8ER,51.586980421883200,0.159639751806588
blue racer and Buzzard,RM7 8HH,51.592566523161300,0.161507318755817
glass snake and Jay,RM7 8HJ,51.592881636269100,0.162951627318685
giant tortoise and rattlesnake,RM7 8QA,51.591855704925600,0.163480387765964
Prion and Cloud rat,RM7 8QD,51.590792025270900,0.161177641435886
cycling lizard and cobra de capello,RM7 9AT,51.574563838055500,0.175085090031487
hoop snake and turtle,RM7 9BJ,51.575627500800000,0.167226869300000
snake and Piping shrike,RM7 9DF,51.574701000000000,0.173690000000000
sand viper and alligator,RM7 9HP,51.571431182220500,0.158700590688780
diamondback turtle and Pheasant,RM7 9JB,51.573217395063400,0.161325189773113
tiger snake and water snake,RM7 9JU,51.574333665173100,0.163701695633210
Perching duck and Asiatic leopard,RM7 9JX,51.574396082961100,0.163242836405264
thorn lizard and harlequin snake,RM8 1BF,51.563626469400000,0.135798000000000
Recurvebill and asp,RM8 1JX,51.562540670267700,0.156071947299053
Magpie and Schneider python,RM8 1NS,51.566390877613000,0.150121601319302
alligator and Old World quail,RM8 1PR,51.564085858378600,0.141427781912338
Perching duck and dugite,RM8 1QP,51.562373525045100,0.139659234794985
blue tongue and king cobra,RM8 1TL,51.565529556335400,0.129303013243440
Prion and tortoise,RM8 1UF,51.565625420091900,0.125007610156134
Fulmarine petrel and kabaragoya,RM8 1YX,51.562757445994000,0.119997150064759
viper and Scimitar babbler,RM8 2DJ,51.552709930956300,0.112663613083594
Condor and harlequin snake,RM8 2FP,51.549554963000000,0.110642257000000
rock python and leguaan,RM8 2FQ,51.549609224000000,0.110125503700000
cobra de capello and gavial,RM8 2FY,51.550307053600000,0.109826039800000
snake and Goose,RM8 2JG,51.561543234769500,0.122494398450204
carpet snake and Bunting,RM8 2NR,51.549427930120500,0.118627315794157
flying dragon and pit viper,RM8 2QA,51.559120513924500,0.120708045615105
bandy-bandy and Condor,RM8 2QJ,51.558435399014800,0.122291978089660
Prion and Old World quail,RM8 2RD,51.554912245724900,0.123671515665260
jew lizard and wall lizard,RM8 2XR,51.548419617180300,0.122573000000000
Armadillo and sea snake,RM8 3BP,51.553104302640200,0.131131664634645
Shearwater and Meadowlark,RM8 3BX,51.558762927982600,0.127041000000000
sand viper and Thrasher,RM8 3DA,51.556429886813500,0.142582877679549
viper and Civet,RM8 3DJ,51.557797163772900,0.142070075650323
Masked owl and thorn lizard,RM8 3EB,51.556125542428800,0.144389000000000
Boto and boomslang,RM8 3HD,51.559925286466300,0.146671424149080
copperhead and Civet,RM8 3HP,51.559363426140600,0.141076000000000
fer-de-lance and diamond snake,RM9 4AD,51.541346000000000,0.123049552043943
Black cockatoo and saltwater crocodile,RM9 4DL,51.537182801427200,0.115967657243257
Tree warbler and Civet,RM9 4ER,51.536495433028100,0.118675554404256
sand viper and Partridge,RM9 4EU,51.536843498164400,0.122801422221840
cycling lizard and Mole,RM9 4HB,51.539319241073300,0.126622781331927
blindworm and Gull,RM9 4NX,51.542040451549600,0.126821766573358
kabaragoya and Piping shrike,RM9 4QH,51.534891429469600,0.111376954814365
Kangaroo and Ice seal,RM9 4UN,51.533343291747900,0.126387478543021
Bunting and Chicken,RM9 4UT,51.538237038050300,0.128148000000000
Guillemot and Peafowl,RM9 4UU,51.534520771451400,0.125923264110003
Kākāriki and Skunk,RM9 4XH,51.534576718889900,0.113871344191315
Masked owl and box turtle,RM9 4XR,51.534267200557300,0.112083444253725
blindworm and Linsang,RM9 4XS,51.533747936371300,0.112953384594835
box turtle and Night heron,RM9 5EP,51.545020000000000,0.145479000000000
Fulmarine petrel and Thrasher,RM9 5HL,51.551122514854100,0.141193924750974
gaboon viper and Black cockatoo,RM9 5LJ,51.551394094501900,0.137643789094516
alligator and swift,RM9 5LR,51.550427132992800,0.135434804407990
Nukupuʻu and Thrasher,RM9 5PP,51.542629409039000,0.143376693791101
boomslang and American sparrow,RM9 5QB,51.546914249063700,0.137722249167906
Cloud rat and Wader,RM9 5QT,51.548746000000000,0.132500000000000
moloch and bicycle lizard,RM9 5RH,51.542861793830800,0.144930764785677
Booted eagles and mud turtle,RM9 5ST,51.553527762616700,0.139979755415161
Partridge and worm lizard,RM9 5YJ,51.547829402585500,0.130423582190740
deaf adder and bull snake,RM9 5YW,51.548374880595600,0.130593303681858
Philippine hawk-owl and indigo snake,RM9 5YX,51.547063493236900,0.126046399342968
Fox and bull snake,RM9 6AL,51.535946595111800,0.133574493277948
Tit-tyrant and coral snake,RM9 6DS,51.538247657826600,0.134129152368325
lizard and B,RM9 6EL,51.536575094983100,0.138074074215576
boa constrictor and Komodo dragon,RM9 6HD,51.539861588592900,0.145236731041381
Linsang and Parrotlet,RM9 6PG,51.521318016200000,0.147276885500000
constrictor and Towhee,RM9 6XD,51.533772991577300,0.139846073469180
jew lizard and caiman,RM9 6YF,51.532261335759600,0.139400292771942
perentie and Thicketbird,SE18 1BB,51.485984485990600,0.092033734548997
boa and snake,SE18 1BF,51.486445822554800,0.090369580909866
bearded dragon and bushmaster,SE18 1DG,51.491532000000000,0.093181000000000
Gila monster and Asiatic leopard,SE18 1EB,51.489388125405300,0.095315426967102
slowworm and Shearwater,SE18 1JB,51.486661000000000,0.098057000000000
Black jay and smooth snake,SE18 1LQ,51.483734897661600,0.101163208978754
blue tongue and Diving bird,SE18 1LW,51.483972789326600,0.098927235409300
Fish eagle and Songlark,SE18 1NX,51.485668639526600,0.095620224297309
cobra and hoop snake,SE18 1NZ,51.485911021163100,0.094637471277658
frill-necked lizard and dugite,SE18 1PB,51.483947784589400,0.095800581010205
Masked owl and Parakeet,SE18 1QB,51.481823643759700,0.088343472262754
amethystine python and Prion,SE18 1RG,51.485978808342400,0.088821409352995
agamid and Rabbit,SE18 1SB,51.488353051153300,0.089823016612234
Petrel and Triller,SE18 1SQ,51.489320898110700,0.094044709460060
swift and monitor,SE18 2BH,51.479080777753100,0.102936722549713
Mouse and Ice seal,SE18 2BZ,51.475083265526300,0.093651758933862
flying lizard and Fulmarine petrel,SE18 2LE,51.475893931658700,0.087021357616114
water snake and Kite,SE18 2LW,51.474099793333800,0.084750643477927
rat snake and dugite,SE18 2PH,51.478327861052400,0.084669820661827
crocodile and diamondback,SE18 2QU,51.478887509930900,0.081008524540337
hawksbill and puff adder,SE18 2RU,51.478630633864900,0.086354207621083
Treepie and Minke whale,SE18 2TN,51.478598037149400,0.079583997258025
mamba and Hawk,SE18 6SF,51.493461095180900,0.075131793690909
death adder and diamondback terrapin,SE18 7EA,51.489708890628300,0.084683000000000
swift and Tattler,SE18 7QB,51.485462464802100,0.082460179282552
Stint and Fox,SE18 9LD,51.490736000000000,0.084954610200000
Viscacha and Grouse,SE2 0AP,51.481538000000000,0.125847456773664
Scimitar babbler and rat snake,SE2 0AX,51.484861000000000,0.114695000000000
Hawaiian honeycreeper and Pratincole,SE2 0EZ,51.485991813134000,0.103686824802605
Philippine hawk-owl and puff adder,SE2 0JE,51.487946864359000,0.103087000000000
Mockingbird and Scimitar babbler,SE2 0JX,51.485965874265000,0.114128468755317
sand viper and leguaan,SE2 0LZ,51.487515927883700,0.116937014384566
Quetzal and leathery turtle,SE2 0PB,51.477038209845500,0.109510472292439
flying dragon and garter snake,SE2 0QG,51.488396282372700,0.124943598172105
Quetzal and frill-necked lizard,SE2 0QS,51.486450401746700,0.113689952104209
Chickadee and Macaw,SE2 0QU,51.484362615970700,0.111274448471583
horned viper and worm lizard,SE2 0SG,51.480211663475100,0.128970161820656
Kākāriki and rat snake,SE2 9DE,51.495071744340900,0.107850645454563
Zebra and mountain devil,SE2 9DQ,51.494723069973500,0.106235418421915
Kākāriki and cerastes,SE2 9DR,51.492259383200000,0.120743793600000
Kangaroo and Rat,SE2 9DX,51.490338444500600,0.119992050045301
moloch and sand viper,SE2 9ER,51.489924580023300,0.115521648285090
cobra and water snake,SE2 9HB,51.490514120979600,0.122708410953154
Prion and Mole,SE2 9HJ,51.488606105862900,0.103331813097613
soft-shelled turtle and Grosbeak,SE2 9HN,51.489198213561100,0.107248000000000
Kestrel and Chickadee,SE2 9JL,51.492432373642900,0.115090329764575
flying dragon and goanna,SE2 9NR,51.491241900739300,0.118766273453443
Magpie and diamond python,SE2 9NX,51.491448334407200,0.120778233238464
Tree warbler and Eagle,SE2 9PP,51.491564883148100,0.120798048374009
Thrasher and Linsang,SE2 9QG,51.491501201425900,0.122826294573170
python and green turtle,SE2 9RN,51.491484000000000,0.120931974915411
bicycle lizard and Crow,SE2 9RX,51.492573138184400,0.125209873325915
tuatara and Partridge,SE2 9UJ,51.496545725544100,0.123348834224969
Polecat and tokay,SE2 9XZ,51.496104305595000,0.113934867286387
swift and tiger snake,SE28 0AJ,51.492434092106400,0.084866754889933
B and Fox,SE28 0AX,51.493870000000000,0.097221000000000
Treepie and bearded lizard,SE28 0DB,51.497328150345900,0.085882000000000
alligator and elapid,SE28 0EJ,51.492376776489200,0.080499157257342
diamondback terrapin and asp,SE28 0NE,51.502056901543900,0.087870740866259
cerastes and Hawaiian honeycreeper,SE28 8BE,51.505644087300600,0.109463000000000
Thicketbird and Pratincole,SE28 8BS,51.504035922037500,0.114935979951966
Buzzard and Tattler,SE28 8BW,51.504413407892600,0.114449118926552
Pheasant and wall lizard,SE28 8DB,51.502006071789300,0.111801694888837
cycling lizard and Hawaiian honeycreeper,SE28 8EN,51.501412421177500,0.109310345023339
Fox and Kākāriki,SE28 8FZ,51.508867573321700,0.113300708134470
Snipe and Buzzard,SE28 8GE,51.506964828429300,0.108096913417547
Kite and Pheasant,SE28 8LB,51.507345427058200,0.115925064583737
agamid and Pitohui,SE28 8NZ,51.512114379068700,0.130673552690925
gecko and mamba,SE28 8QW,51.510935744771200,0.130705024951778
goanna and thorn lizard,SE28 8SP,51.502941445628100,0.103790161078340
Philippine hawk-owl and slowworm,SE28 8TD,51.503210000000000,0.098889000000000
Zebra and Badger,SE28 9DF,51.498497240400000,0.104449903100000
Hawaiian honeycreeper and mamba,SE9 2JE,51.449137069490100,0.087196947556765
tortoise and gecko,SE9 2LJ,51.446735144300600,0.083705403451893
Darwin's finches and coral snake,SE9 2NF,51.452051214500300,0.083127059264380
kabaragoya and flying dragon,SE9 2RA,51.455674075250200,0.077116844563620
Parakeet and Hawk,SE9 2RG,51.457513900582000,0.082900750173051
glass snake and Chickadee,SE9 3RF,51.432937741749200,0.079279276803847
king cobra and Booted eagles,SE9 3RQ,51.433870628772100,0.080933033416346
Crow and Tree warbler,SE9 3RR,51.434779987758500,0.076816306611033
Darwin's finches and Meadowlark,SS14 0LF,51.570841000000000,0.459678000000000
diamondback turtle and Parakeet,SS14 0QE,51.570844000000000,0.459708000000000
Cloud rat and Tahr,SS14 0QL,51.570844000000000,0.459708000000000
alligator and Old World vulture,SS14 0SR,51.570438936010300,0.454346020391633
New World blackbird and rock python,SS14 1BA,51.570481000000000,0.457915406515794
gecko and lizard,SS14 1EU,51.570038021573900,0.462319356693743
gavial and wall lizard,SS14 1FZ,51.569877974494900,0.475904960032678
Songlark and soft-shelled turtle,SS14 1JE,51.571478734087800,0.458803723671505
diamond snake and Hawaiian honeycreeper,SS14 1JY,51.572353803322800,0.469804875996323
agama and Greenbul,SS14 1NP,51.570415536141600,0.468747316042903
taipan and Egret,SS14 1NY,51.571578593775600,0.485219332890933
bandy-bandy and Magpie,SS14 1PA,51.572201161678300,0.485123410139948
iguana and Zebra,SS14 1PB,51.570883424908700,0.484921638519695
Stint and Old World warbler,SS14 1PL,51.568947878907900,0.477788165165255
hoop snake and Black jay,SS14 1PY,51.570319369055600,0.476722677753529
Black jay and cobra de capello,SS14 1QT,51.571634229499800,0.479189852106225
Condor and Peafowl,SS14 1QZ,51.571914641082900,0.481240016955477
Mole and krait,SS14 2BD,51.575232236849100,0.456927999802673
Eagle and Fish eagle,SS14 2DD,51.574845402079100,0.459938024990951
Pitohui and caiman,SS14 2DP,51.575865784636300,0.461883876519235
Fox and skink,SS14 2FJ,51.581950162027900,0.471508960855308
Solitaire and Asiatic leopard,SS14 2FY,51.572764000000000,0.455641000000000
Eagle and Black cockatoo,SS14 2JW,51.576658627630700,0.464813412744743
tortoise and flying dragon,SS14 2LP,51.574133142808200,0.467303484227604
Egret and boa constrictor,SS14 2NN,51.578618234858100,0.476813120136635
crocodile and box turtle,SS14 2NS,51.580745363847700,0.477015420275340
Nukupuʻu and Parrotbill,SS14 2PR,51.574830333925200,0.477747332276934
terrapin and thorn lizard,SS14 2QG,51.576977711092200,0.478268292701063
Stint and garter snake,SS14 2TQ,51.582736609492400,0.487201000000000
diamondback turtle and diamondback,SS14 3BX,51.583161000000000,0.458424000000000
Prion and python,SS14 3XX,51.586553381006500,0.471975426555503
Logrunners and sea snake,SS15 4AX,51.587915129715100,0.442164858061702
Nukupuʻu and Mink,SS15 4DH,51.585766654859500,0.426083156993986
