name,postcode,lat,lon
adder and horned toad,BR5 2JP,51.402717040000000,0.108719582000000
Puffleg and Skunk,BR5 2JT,51.401442050000000,0.106605000000000
Kite and Ibex,BR5 2PZ,51.402557160000000,0.103104938000000
Buzzard and Herring gull,BR5 2RE,51.406653610000000,0.105349093000000
Peafowl and Night heron,BR5 2RL,51.406021810000000,0.096951643000000
gavial and diamondback,BR5 2RS,51.406210970000000,0.098441313000000
Crow and Chipmunk,BR5 3AJ,51.401168780000000,0.111796977000000
loggerhead and Stint,BR5 3BG,51.408248280000000,0.106687739000000
elapid and soft-shelled turtle,BR5 3BP,51.405865500000000,0.111165026000000
White ibis and Warbler,BR5 3DS,51.412172070000000,0.105027397000000
chuckwalla and glass snake,BR5 3DT,51.412871650000000,0.105131439000000
dukite and B,BR5 3EA,51.411629740000000,0.106181686000000
Bronzewing pigeon and Old World quail,BR7 6LG,51.415376320000000,0.079690299000000
mountain devil and rat snake,BR7 6RT,51.415976110000000,0.076294649000000
Treepie and Flameback,BR8 7AL,51.400370670000000,0.174602320000000
thorn lizard and Meadowlark,BR8 7AZ,51.400736290000000,0.173800162000000
glass snake and Towhee,BR8 7BP,51.401461360000000,0.177371402000000
Thrasher and blind snake,BR8 7EP,51.401734270000000,0.163610682000000
B and Diving bird,BR8 7ER,51.400924540000000,0.163629973000000
B and snapping turtle,BR8 7HA,51.401854190000000,0.164421485000000
tree snake and Badger,BR8 7JT,51.400038130000000,0.179431602000000
Songlark and asp,BR8 7QG,51.402056910000000,0.151951287000000
rat snake and Fish eagle,BR8 7QU,51.411835510000000,0.174671795000000
Nukupuʻu and cerastes,BR8 7RT,51.414009080000000,0.184971377000000
python and rat snake,BR8 7SB,51.413489830000000,0.185809492000000
Hawaiian honeycreeper and harlequin snake,BR8 7TA,51.403874420000000,0.168485265000000
Greenbul and wall lizard,BR8 7UB,51.405633080000000,0.163348983000000
Parrotbill and horned toad,BR8 7UE,51.404956070000000,0.162511830000000
lizard and Petrel,BR8 7XS,51.400565090000000,0.183007823000000
tree snake and elapid,BR8 7YT,51.402830380000000,0.171929699000000
monitor and whip snake,BR8 8DX,51.402497060000000,0.204580000000000
frill-necked lizard and bull snake,CM11 1WW,51.622868269051600,0.416691633467451
agamid and Marsh harrier,CM11 1ZY,51.622864000000000,0.416720000000000
Cloud rat and Marmoset,CM11 2EX,51.624874361238300,0.430596692403186
black snake and Shearwater,CM11 2HN,51.622805016957600,0.433679080240402
gecko and anole,CM11 2HS,51.623716470907400,0.431791795493310
Vulture and leguaan,CM11 2LE,51.622865693594200,0.440285070451619
swift and asp,CM11 2NJ,51.614514108452900,0.431473108918314
Komodo dragon and Prion,CM11 2PP,51.613131062959600,0.434851511350637
bull snake and Magpie,CM11 2QT,51.609624000000000,0.437994879434980
Perching duck and tree snake,CM11 2RG,51.612675843210500,0.431215952867636
Gull and New World blackbird,CM11 2SJ,51.610415144845800,0.433983939566624
python and milk snake,CM11 2XH,51.603004417078800,0.471006061906742
Minke whale and perentie,CM11 2XR,51.602673000152700,0.471975000000000
leguaan and Stilt,CM11 2YJ,51.595350013139500,0.473622744772195
Piping shrike and hoop snake,CM12 2ES,51.622864000000000,0.416720000000000
Mockingbird and sidewinder,CM12 2FA,51.622864000000000,0.416720000000000
Prion and Fish eagle,CM12 2FH,51.622864000000000,0.416720000000000
Vole and Vole,CM12 2FP,51.622864000000000,0.416720000000000
flying dragon and cobra de capello,CM12 9FL,51.623743746401400,0.404502000000000
Egret and cobra de capello,CM12 9FU,51.617154000000000,0.417529000000000
Diving bird and Zebra,CM12 9JT,51.623177543294000,0.409960828780379
cayman and White ibis,CM12 9LJ,51.619159628879500,0.418170375311139
River dolphin and cycling lizard,CM12 9NX,51.619055951976200,0.405843000000000
elapid and jew lizard,CM12 9NY,51.619374430337500,0.406407619190262
puff adder and cycling lizard,CM12 9PN,51.614794884328400,0.405630846459644
agamid and Tree warbler,CM12 9XE,51.623163297666400,0.417212995888221
worm lizard and jew lizard,CM13 1SP,51.624646707681500,0.381604088122594
Thrasher and Old World quail,CM13 2HZ,51.618052030134100,0.335651782077686
Black cockatoo and wall lizard,CM13 2JA,51.619297906867000,0.335860232315279
carpet snake and snake,CM13 2JJ,51.624433169354400,0.329058826362840
Herring gull and Bronzewing pigeon,CM13 2TS,51.615275517965400,0.331464507989147
green turtle and thorn lizard,CM13 2TT,51.614606211005100,0.333466966153854
Herring gull and asp,CM13 3AP,51.603952002028300,0.294115702052296
tokay and Stilt,CM13 3BY,51.600551273353300,0.296485815292517
boa constrictor and grass snake,CM13 3PH,51.595268519599600,0.351174021550655
Hawaiian honeycreeper and Marsh harrier,CM13 3SW,51.573115000000000,0.385273000000000
sand viper and leathery turtle,CM13 3TX,51.571106000000000,0.347993000000000
cerastes and monitor,CM14 4BB,51.614389053350700,0.296606559855827
Mink and Magpie,CM14 4BD,51.617863275934800,0.301505858836604
tree snake and Partridge,CM14 4EL,51.614405500440000,0.297604094655919
Vole and Prion,CM14 4HQ,51.622946000000000,0.289974000000000
boomslang and Cloud rat,CM14 4LF,51.614076423943900,0.297876370778890
Gull and copperhead,CM14 4LT,51.617220809485200,0.300332123242023
Magpie and Bunting,CM14 4NS,51.612791069928200,0.278008091618317
crocodile and rat snake,CM14 4PR,51.613116797121100,0.279295522437487
Cloud rat and king cobra,CM14 4SA,51.619334183831400,0.297116305745683
mountain devil and Capuchin,CM14 4SR,51.620222418239100,0.297681256724070
Thrasher and caiman,CM14 4SU,51.621210543991500,0.298655799016206
anole and death adder,CM14 4YT,51.617521025496700,0.299697237502682
green turtle and cobra,CM14 5BZ,51.612355000000000,0.302649429983902
Tree warbler and goanna,CM14 5DA,51.611794590214200,0.302802124650747
Grackle and Tit-tyrant,CM14 5ER,51.611339658110800,0.299861402806303
leathery turtle and alligator,CM14 5GA,51.608410023773700,0.291601000000000
Nukupuʻu and Gull,CM14 5HT,51.613168000000000,0.298823600480065
Crow and Myna,CM14 5JH,51.610209487034500,0.296496671130590
tree snake and water snake,CM14 5JS,51.610496125645900,0.293795716335412
Parakeet and hoop snake,CM14 5LB,51.606944196435200,0.299754761506260
diamondback turtle and Komodo dragon,CM14 5LT,51.610478335100100,0.275306864680196
king cobra and blue tongue,CM14 5QP,51.617366104939300,0.269309669436181
Rat and Old World quail,CM14 5UF,51.606519340182600,0.302159626825325
deaf adder and White ibis,CM14 5WS,51.606443434072200,0.289951908294654
Vole and rock python,CM14 9GD,51.620304357388900,0.303594168293544
mountain devil and smooth snake,CM14 9QA,51.620308000000000,0.303622000000000
king snake and jew lizard,CM14 9QN,51.620308000000000,0.303622000000000
garter snake and perentie,CM14 9RP,51.620399000000000,0.303583000000000
horned toad and iguana,CM14 9SN,51.618596033253300,0.307697080279048
Treepie and Fish eagle,CM15 8AS,51.619942000000000,0.307448000000000
Nukupuʻu and Condor,CM15 8BN,51.617481870473400,0.313130029239092
Dolphin and Tree warbler,CM15 9AX,51.622517457073100,0.304009675022154
copperhead and deaf adder,DA1 1AL,51.433671000000000,0.227906000000000
hoop snake and rat snake,DA1 1AT,51.439804000000000,0.230766000000000
jew lizard and king snake,DA1 1LH,51.435920000000000,0.215979456920704
frill-necked lizard and Minke whale,DA1 1LU,51.440806770329500,0.224728838989431
cobra de capello and Night heron,DA1 1NE,51.433492328913800,0.229150111612341
Buzzard and Scimitar babbler,DA1 1NR,51.433471938034600,0.215524040385612
Black cockatoo and agamid,DA1 1NU,51.433984116085200,0.216973213396576
puff adder and diamond snake,DA1 1QJ,51.436880353996700,0.236825988425946
Petrel and indigo snake,DA1 1SU,51.439700020185000,0.231855457698372
diamondback and loggerhead,DA1 1XL,51.445232136253100,0.234614928663836
gavial and amphisbaena,DA1 2BF,51.446878494691900,0.212301610660820
leathery turtle and Kangaroo,DA1 2BT,51.452639615550300,0.211529420415612
Wader and thorny devil,DA1 2EZ,51.448550632030100,0.210425088770645
green turtle and Parrotlet,DA1 2HA,51.445853789398300,0.207027965866515
mamba and rat snake,DA1 2HY,51.449272636629500,0.209812298865024
Pitohui and rat snake,DA1 2JH,51.444351854476700,0.212280216371180
puff adder and diamondback,DA1 2NB,51.443990297126800,0.206175388320282
Mink and Lemming,DA1 2PN,51.439807486992700,0.188965330994853
loggerhead and Grosbeak,DA1 2PS,51.440319753182600,0.192831879334280
horned toad and chameleon,DA1 2QL,51.438409696596500,0.204525078249474
python and swift,DA1 2QY,51.435578490477400,0.205395926432401
python and Flameback,DA1 2RF,51.433572867245700,0.209701932742418
bearded dragon and Komodo dragon,DA1 2RG,51.435771321520500,0.211865569127465
Diving bird and Recurvebill,DA1 2RL,51.437017774815800,0.212055288637581
Quetzal and Diving bird,DA1 2TA,51.432528411779800,0.209291845266764
Triller and Night heron,DA1 2TX,51.437784091996100,0.199530769489279
Lemming and blue racer,DA1 3JR,51.443174143957400,0.190234411294613
Towhee and leathery turtle,DA1 3NR,51.445435467255700,0.184715624403969
Asiatic leopard and goanna,DA1 3QJ,51.443750818802800,0.176173441148146
Shearwater and kabaragoya,DA1 3RN,51.443661592594300,0.175651132650452
Solitaire and blind snake,DA1 4DB,51.453095886646200,0.173192176467798
cobra de capello and Old World quail,DA1 4DT,51.455185730490100,0.169606489359839
chuckwalla and viper,DA1 4DZ,51.453955000000000,0.172009000000000
puff adder and Parakeet,DA1 4LT,51.454986752550100,0.192383236340918
boa constrictor and Tattler,DA1 4LY,51.459374414143800,0.191470651217380
Buzzard and monitor,DA1 4NF,51.455193879645200,0.190924933826404
kabaragoya and Marmoset,DA1 4PA,51.456380316468900,0.190477934801951
tuatara and Snipe,DA1 4PD,51.457875493280700,0.188908470472516
elapid and blindworm,DA1 4QS,51.461134765342900,0.179534120060823
bushmaster and iguana,DA1 4RS,51.455173691584100,0.183053000000000
Cuscus and giant tortoise,DA1 4RY,51.455974398383900,0.181864908156673
thorn lizard and Warbler,DA1 4TH,51.461737593397900,0.186761061626071
jew lizard and Thrasher,DA1 5BA,51.454188345646900,0.206177700004912
python and goanna,DA1 5BN,51.454837345685400,0.208008284276024
New World blackbird and massasauga,DA1 5DD,51.448450241487200,0.235160665090150
Minke whale and gavial,DA1 5DG,51.449730804113000,0.232143163781250
green turtle and harlequin snake,DA1 5DH,51.450520623842100,0.234192000000000
Elephant and king snake,DA1 5DN,51.450354040169800,0.236246773519293
massasauga and water snake,DA1 5DP,51.451666806559800,0.238192000000000
deaf adder and Old World warbler,DA1 5EB,51.451339835668500,0.232825000000000
rat snake and Ice seal,DA1 5ET,51.454732335438100,0.229234815594767
Komodo dragon and horned viper,DA1 5FH,51.451896773509900,0.200828018410479
bearded dragon and hognose snake,DA1 5FW,51.460034168153600,0.226971000000000
Buzzard and snake,DA1 5GF,51.462967575465000,0.228887534891368
king snake and garter snake,DA1 5GZ,51.454088589377700,0.227145089993322
Parrotlet and Herring gull,DA1 5HA,51.456330465345400,0.226534486580517
deaf adder and Perching duck,DA1 5HB,51.456214812830000,0.225521222798570
Francolin and python,DA1 5HY,51.451002691356500,0.227685758160251
turtle and sand lizard,DA1 5LR,51.449552619303600,0.221167241194871
blindworm and chuckwalla,DA1 5NZ,51.455792993439300,0.234929207751727
Old World vulture and Condor,DA1 5RU,51.463683000000000,0.223068760255625
Kestrel and perentie,DA1 5SR,51.448328721423800,0.228318378969365
Wader and Kite,DA1 5UD,51.450915000000000,0.225738000000000
Ground sloth and agama,DA1 5UZ,51.462263000000000,0.232941000000000
Jay and Coati,DA1 5WH,51.447776000000000,0.222044000000000
Egret and Marmoset,DA1 5XQ,51.448639000000000,0.220647000000000
goanna and Treepie,DA1 9EP,51.444700000000000,0.209620000000000
Duck and Black cockatoo,DA1 9NY,51.444701000000000,0.209648000000000
boomslang and Argus,DA1 9QR,51.444701000000000,0.209648000000000
box turtle and Philippine hawk-owl,DA1 9SF,51.446601000000000,0.219455000000000
Siskin and copperhead,DA1 9SN,51.446601000000000,0.219455000000000
blue racer and Grackle,DA1 9ZZ,51.446601000000000,0.219455000000000
puff adder and smooth snake,DA10 0AF,51.448794560444700,0.308334825206259
Solitaire and Armadillo,DA10 0BH,51.443231034361000,0.311364119748021
rattlesnake and anole,DA10 0BN,51.442739540782800,0.310749278798030
whip snake and Lemming,DA10 0BZ,51.441495669293100,0.312715519936086
grass snake and viper,DA10 0DN,51.444450515090000,0.301035216701349
Mink and worm lizard,DA10 0ED,51.443979842606300,0.302105276457695
Parakeet and Capuchin,DA10 0EN,51.441936737587600,0.302189589526485
moloch and Mouse,DA10 0JQ,51.444532559934100,0.305097682813476
cycling lizard and Partridge,DA10 0LU,51.447142929658400,0.304063408312986
Asiatic leopard and Grouse,DA10 0ND,51.448144650042200,0.302055729673269
Pitohui and flying lizard,DA10 1BN,51.438228000000000,0.312041100139573
gopher snake and diamondback,DA10 1DJ,51.433616000000000,0.306505000000000
tokay and blue tongue,DA10 1DW,51.432970000000000,0.310990000000000
taipan and Vole,DA10 9BY,51.444700000000000,0.209620000000000
Buzzard and tokay,DA11 0AF,51.442266867976700,0.367769949851616
adder and goanna,DA11 0BG,51.445360533326600,0.367325560172946
gavial and gavial,DA11 0DQ,51.444231836296200,0.360571000000000
kabaragoya and Jay,DA11 0DT,51.443611089641600,0.363550936493838
leathery turtle and Maya,DA11 0EQ,51.441761000000000,0.363484000000000
fer-de-lance and boa constrictor,DA11 0JB,51.437359388286100,0.358709937573967
bearded lizard and Kākāriki,DA11 0JY,51.437706775504600,0.356641395151309
diamondback and New World blackbird,DA11 0LU,51.435692529804200,0.354839847070269
diamond python and Moluccan boobook,DA11 0PN,51.438573061963700,0.367204747457160
Perching duck and Badger,DA11 0PU,51.439078554814600,0.364439285964062
swift and Solitaire,DA11 0QB,51.437727722613000,0.366758132227774
Kangaroo and carpet snake,DA11 0RT,51.441920045973700,0.365794885552169
Tahr and tortoise,DA11 7BG,51.418170632536500,0.372088000000000
Egret and Pitohui,DA11 7DA,51.432587000000000,0.360412824610972
Wader and Dolphin,DA11 7DY,51.430400552904900,0.357272423540728
bicycle lizard and Darwin's finches,DA11 7ER,51.428226777931600,0.350427747379948
coral snake and habu,DA11 7FL,51.420669000000000,0.356960000000000
agama and Badger,DA11 7GQ,51.421087000000000,0.356262000000000
rat snake and lizard,DA11 7HS,51.423661157608200,0.357443386689573
Fox and hawksbill,DA11 7LR,51.429131055966100,0.363148720922356
Recurvebill and ringhals,DA11 7NU,51.414827103525900,0.367832867576533
Ibex and diamondback,DA11 8AP,51.429993000000000,0.335009000000000
Bronzewing pigeon and Greenbul,DA11 8BB,51.430465476668000,0.345521615828933
gavial and Petrel,DA11 8BL,51.429668000000000,0.346315000000000
king snake and Tit-tyrant,DA11 8BY,51.432911844641200,0.329316850975951
gopher snake and coral snake,DA11 8DB,51.434608349733100,0.344323812441658
grass snake and green turtle,DA11 8DH,51.437115327404900,0.343531297404599
grass snake and sea snake,DA11 8FJ,51.433743813172400,0.329085807811165
rattlesnake and Pratincole,DA11 8HY,51.433339393160800,0.338518085279454
cobra and turtle,DA11 8JN,51.431918645099700,0.335352231531846
Ibex and Lemming,DA11 8QX,51.434062467981000,0.352266861255613
milk snake and tokay,DA11 8RX,51.433483712783900,0.349287603571509
Thrasher and Coati,DA11 8SP,51.428334600102600,0.345944760125960
Rat and tiger snake,DA11 9DY,51.446294848666300,0.324241272656453
racer and Pratincole,DA11 9NE,51.443853658957400,0.354180405469287
Jerboa and diamondback,DA11 9PT,51.439699447802200,0.338425695015282
grass snake and River dolphin,DA11 9QR,51.441922000000000,0.342403412519076
smooth snake and soft-shelled turtle,DA11 9QS,51.441784790248000,0.339381274863269
Solitaire and Parrotlet,DA12 1BJ,51.438135650151200,0.369268592527396
Treepie and bearded lizard,DA12 1EB,51.440094953444600,0.373773361892882
viper and Moluccan boobook,DA12 1EF,51.439213996852500,0.373310372470030
anaconda and hawksbill,DA12 1HN,51.438220000000000,0.370928000000000
amethystine python and alligator,DA12 1JG,51.439106979501800,0.374153818045728
Mockingbird and River dolphin,DA12 1NS,51.432845000000000,0.377967107186682
chameleon and Dorcopsis,DA12 1QF,51.431836006437000,0.375258677158103
loggerhead and pit viper,DA12 1QZ,51.434505986875800,0.383281989823026
Buzzard and pit viper,DA12 2FJ,51.444183000000000,0.370072000000000
Piping shrike and Badger,DA12 2HR,51.441301391995500,0.401954885943192
cayman and king snake,DA12 2NZ,51.432415932182900,0.421185483454643
bull snake and diamondback,DA12 2PD,51.433648052944600,0.401078522378664
Dorcopsis and Fish eagle,DA12 2PG,51.440522000000000,0.375393000000000
Vole and Asiatic leopard,DA12 2RN,51.443230000000000,0.382441000000000
swift and Linsang,DA12 2RU,51.442725427993000,0.389694000000000
Pratincole and wall lizard,DA12 2SW,51.441666427451200,0.383194331418465
flying dragon and Prion,DA12 3HQ,51.424288432299600,0.435385521988989
sidewinder and adder,DA12 3LA,51.405497867474700,0.437277049285936
Thrasher and wall lizard,DA12 4DT,51.430190438667800,0.394250414653475
Tit-tyrant and Macaw,DA12 4HD,51.427486403998200,0.398942771150206
tokay and chameleon,DA12 4HF,51.427118900278300,0.397125266081589
Parrotbill and hognose snake,DA12 4JG,51.430591468206300,0.392228416530712
Chicken and Mouse,DA12 4JS,51.428381893432600,0.393853735517902
Pheasant and Philippine hawk-owl,DA12 4LL,51.417007020626200,0.399487040571150
habu and blue racer,DA12 4LT,51.419307000000000,0.404540271479470
Grackle and Capuchin,DA12 4QS,51.417126229503800,0.387929458090091
Badger and White ibis,DA12 4QU,51.416293180595300,0.389971510658189
taipan and anole,DA12 4RF,51.418088447004200,0.391460342880274
Perching duck and crocodile,DA12 4RU,51.418338957471400,0.395486347920852
deaf adder and bandy-bandy,DA12 4SF,51.418391633421700,0.394669256239619
Komodo dragon and crocodile,DA12 4TH,51.429631048526700,0.407068591366358
Stilt and Old World warbler,DA12 4TT,51.429761211525500,0.400284834043246
Night heron and amphisbaena,DA12 4UZ,51.430623608368200,0.404718118850239
sidewinder and Cloud rat,DA12 4XH,51.429824397659100,0.409912974130065
soft-shelled turtle and diamond snake,DA12 5AU,51.419235762905400,0.379754482275389
sidewinder and Old World vulture,DA12 5BF,51.412337084139400,0.374031912730718
Kestrel and Francolin,DA12 5DB,51.414926079871400,0.379372452197500
smooth snake and worm lizard,DA12 5DW,51.416271724007400,0.382635273794746
taipan and Flameback,DA12 5FB,51.420641091471700,0.376979476372781
agama and Nukupuʻu,DA12 5HH,51.430625954013900,0.369728819908798
mountain devil and dugite,DA12 5JG,51.411155954149400,0.379910095187768
skink and Old World quail,DA12 5JY,51.422665689440000,0.376005752457158
Grosbeak and B,DA12 5LS,51.424372753134800,0.379633051859691
Thicketbird and giant tortoise,DA12 5LZ,51.420993113854600,0.381313006274573
Capuchin and chameleon,DA12 5NN,51.418508056210300,0.376212000000000
diamondback turtle and asp,DA12 5NR,51.420941680768500,0.380303449586258
adder and Parakeet,DA12 5PS,51.427073151912900,0.379514427838144
Asiatic leopard and tortoise,DA12 5SB,51.424730470582700,0.385923600928847
Komodo dragon and Grouse,DA12 5UA,51.412844745904900,0.386196243532278
Pheasant and Quetzal,DA12 9PQ,51.441222000000000,0.373329000000000
Peafowl and worm lizard,DA12 9SG,51.438606903594900,0.368645453926430
galliwasp and gecko,DA12 9SN,51.438606903594900,0.368645453926430
Siskin and Argus,DA13 9JT,51.404531056520800,0.349902497246935
Old World warbler and Treepie,DA13 9PA,51.420799372283600,0.311497796584516
giant tortoise and constrictor,DA13 9PP,51.417353971126000,0.329259262791898
Guillemot and tokay,DA13 9QF,51.412806935903600,0.321377214917034
Elephant and Gila monster,DA14 4DG,51.429364600305000,0.106637572930269
Cuscus and Warbler,DA14 4DJ,51.430533084681100,0.105669887750956
frilled lizard and Meadowlark,DA14 4EU,51.428384466420800,0.110131389765256
cobra de capello and Old World quail,DA14 4JF,51.433864759006200,0.117908608748323
flying lizard and Fox,DA14 4JL,51.432895430727900,0.110324874745507
Greenbul and bicycle lizard,DA14 4JU,51.432102153194500,0.113424672555944
Mink and cobra de capello,DA14 4LE,51.429583933882000,0.109942093014287
harlequin snake and moloch,DA14 4LL,51.431960448681600,0.114799276574818
Prion and swift,DA14 4QF,51.433345245265100,0.126732812268752
hognose snake and death adder,DA14 4TA,51.427918304778800,0.105549665160439
coral snake and green turtle,DA14 5AH,51.414055000000000,0.125334000000000
tokay and Piping shrike,DA14 5AU,51.429762000000000,0.139874000000000
bull snake and mamba,DA14 5EB,51.427861000000000,0.136157000000000
chuckwalla and snapping turtle,DA14 5ED,51.420350460097500,0.118290583161894
Egret and Civet,DA14 5EY,51.426580000000000,0.143235000000000
cerastes and boa,DA14 5LU,51.416751072626500,0.131801597890058
Mole and boa constrictor,DA14 5LZ,51.421028592434200,0.130490385087329
tiger snake and coral snake,DA14 5RH,51.418104724861900,0.121135173822852
Hawaiian honeycreeper and tree snake,DA14 6AP,51.423480959511300,0.099246773014041
agamid and Armadillo,DA14 6AZ,51.423563000323700,0.092144717775944
racer and Badger,DA14 6BN,51.423540711967000,0.100429019341597
Marsh harrier and Condor,DA14 6DZ,51.426983871317200,0.101996684902489
New World blackbird and thorn lizard,DA14 6JD,51.421463534654200,0.111926958908780
bearded dragon and copperhead,DA14 6LF,51.417701522273600,0.105094473499926
Chipmunk and Booted eagles,DA14 6LN,51.422666091003100,0.107953000000000
River dolphin and ringhals,DA14 6LU,51.416170374291600,0.102219646466462
Cuscus and blind snake,DA14 6RE,51.427949745373800,0.095265385513928
puff adder and Myna,DA14 6RN,51.428582787643400,0.089022133757309
Fox and agama,DA14 6SJ,51.418499088708500,0.116234550248006
diamond python and rock snake,DA14 6TL,51.428338709170200,0.092621819117857
Greenbul and Komodo dragon,DA15 0BX,51.435848562341500,0.101329000000000
brown snake and brown snake,DA15 0FJ,51.435849670212900,0.101329000000000
Duck and anaconda,DA15 0GU,51.435945000000000,0.101355000000000
Greenbul and Francolin,DA15 7DS,51.431443782389900,0.102028759989223
alligator and Parrotlet,DA15 7HY,51.432112133426900,0.100865324175963
garter snake and Kite,DA15 7JB,51.431664517973200,0.098744315998751
agamid and Shearwater,DA15 7LN,51.433315401555200,0.090403409790748
indigo snake and fer-de-lance,DA15 7ND,51.433404917700900,0.087904102470648
Jerboa and rat snake,DA15 7NE,51.433089118483000,0.087458086235230
Marmoset and Perching duck,DA15 7NF,51.432447872951400,0.089126522127069
flying dragon and Warbler,DA15 7YF,51.435848562341500,0.101329000000000
leguaan and Grackle,DA15 8AD,51.434950390132800,0.099053194621075
blind snake and Armadillo,DA15 8DP,51.442988660263600,0.083506071604100
sidewinder and Condor,DA15 8DX,51.443773295295400,0.084390830752767
horned viper and Recurvebill,DA15 8EP,51.442935335029000,0.095474000000000
blind snake and Boto,DA15 8JZ,51.448574117275900,0.096569313321096
Guillemot and death adder,DA15 8RE,51.449804396780100,0.089616535288636
Eagle and Parakeet,DA15 8RF,51.450282437755900,0.090041357725631
indigo snake and moloch,DA15 8SB,51.453574247193400,0.093545442381052
Piping shrike and bearded lizard,DA15 8TA,51.453542599690900,0.088261520856112
American sparrow and Capuchin,DA15 8TE,51.453777805562400,0.095238823938029
chuckwalla and Goose,DA15 9AX,51.436548277633800,0.115716216478154
leathery turtle and Grouse,DA15 9DG,51.445382862405100,0.107533069123049
Gila monster and sidewinder,DA15 9DL,51.440402075039100,0.102454472742735
bicycle lizard and thorny devil,DA15 9HQ,51.446670292274000,0.103447593418115
puff adder and frill-necked lizard,DA15 9NU,51.449277000000000,0.111066000000000
python and agamid,DA16 1AT,51.477573044912900,0.120739347839953
goanna and elapid,DA16 1DL,51.474022917650500,0.120128271424155
python and Snipe,DA16 1JU,51.466978780603900,0.119283374937851
habu and bicycle lizard,DA16 1LA,51.468101653825700,0.111877092571905
Jay and sea snake,DA16 1NT,51.464667759065600,0.116786351333118
Petrel and Bronzewing pigeon,DA16 1QG,51.463422330213400,0.111545858275985
turtle and Civet,DA16 1SA,51.461550620900400,0.121076141055099
Black cockatoo and Pratincole,DA16 1TA,51.461079101469400,0.114820770249783
python and Peafowl,DA16 1TB,51.461031740185800,0.115452007657588
Badger and tree snake,DA16 2AL,51.460659606833700,0.108654307966028
crocodile and Hawk,DA16 2BE,51.460776214051600,0.111668442594558
python and Pheasant,DA16 2BL,51.456497738314400,0.107051809449086
grass snake and cerastes,DA16 2BN,51.455358164139300,0.104408361122900
Tattler and perentie,DA16 2EA,51.458316221196500,0.106444594131927
Skunk and whip snake,DA16 2HQ,51.461966146341500,0.096477650751661
Egret and Rabbit,DA16 2JE,51.459346097167500,0.102677203825401
sand lizard and Grouse,DA16 2JQ,51.457458417656500,0.102129806475807
Mole and wall lizard,DA16 2JT,51.454682539950100,0.105975025834719
Night heron and Grouse,DA16 2NB,51.457536870873900,0.091711481490992
crocodile and Schneider python,DA16 2PU,51.456957000000000,0.094943560388301
adder and Nukupuʻu,DA16 2QG,51.458168457303700,0.085032236417225
Komodo dragon and Elephant,DA16 2QW,51.461522592539200,0.093117407803657
Coati and B,DA16 2SH,51.464661083325100,0.089589755596261
bearded lizard and Kākāriki,DA16 3AU,51.464748000000000,0.101903000000000
Viscacha and Stint,DA16 3BS,51.468715867095700,0.103223177510086
Greenbul and Chipmunk,DA16 3DJ,51.472309388839600,0.106930766675820
jew lizard and Cuscus,DA16 3EL,51.469354464307500,0.108724043094653
Ibex and cayman,DA16 3HS,51.466262481044700,0.104132587695981
Kangaroo and krait,DA16 3JS,51.467131648500200,0.099291667164977
Flameback and gavial,DA17 5BW,51.486889494829500,0.148410103146185
Zebra and iguana,DA17 5DP,51.490572549164000,0.124943961958392
American sparrow and turtle,DA17 5DY,51.490433364694400,0.127660102479578
Gull and ringhals,DA17 5EZ,51.486532342863700,0.142372370479897
Fish eagle and Boto,DA17 5HQ,51.490314343003500,0.140129583436845
cayman and Rat,DA17 5JD,51.482873390580600,0.148206921113699
elapid and B,DA17 5NB,51.481879728093600,0.147958582679000
boa and leguaan,DA17 5NN,51.482212155299600,0.140599968537074
rock python and Kite,DA17 5PL,51.479936198289300,0.142610493827782
copperhead and American sparrow,DA17 5PQ,51.477978120360900,0.137060566217953
bushmaster and Wader,DA17 6BF,51.496339000000000,0.155928000000000
Kite and Argus,DA17 6DR,51.488532275473800,0.152981636706630
diamond snake and hawksbill,DA17 6DU,51.489358616135500,0.164270944232913
Pitohui and Darwin's finches,DA17 6EJ,51.490451656423800,0.152279773061912
Bronzewing pigeon and king snake,DA17 6FQ,51.495753000000000,0.160482000000000
thorny devil and Gila monster,DA17 6HY,51.486898037917300,0.153336774093553
fer-de-lance and amphisbaena,DA17 6JG,51.484864443581900,0.156337746580698
glass snake and Grosbeak,DA17 6JL,51.492579535253400,0.154425671423122
cerastes and gaboon viper,DA17 6LZ,51.477520094899700,0.148344192601067
gopher snake and Boto,DA17 6NP,51.483284943736200,0.151265329798284
Diving bird and Schneider python,DA18 4HJ,51.493620870043200,0.135847292398282
Armadillo and giant tortoise,DA2 6AD,51.445869000000000,0.243232441853574
wall lizard and puff adder,DA2 6AJ,51.441849918654800,0.242191781220829
puff adder and blue tongue,DA2 6AS,51.442311154012800,0.243293000000000
anaconda and bandy-bandy,DA2 6BF,51.443504000000000,0.244647000000000
slowworm and Jerboa,DA2 6BU,51.441004990557900,0.248741031954142
snapping turtle and tokay,DA2 6DE,51.442789512782800,0.239143831878791
pit viper and Black cockatoo,DA2 6EU,51.439713753458500,0.250418745740713
Parrotlet and Marmoset,DA2 6FL,51.445019195901500,0.246132000000000
horned viper and king snake,DA2 6FQ,51.447882646584500,0.245610410280681
Hawk and monitor,DA2 6FX,51.447486809900200,0.244209346405015
Mole and smooth snake,DA2 6HA,51.440787509813400,0.251637124508109
agama and giant tortoise,DA2 6NB,51.432549535538200,0.258195491796845
cobra de capello and bearded lizard,DA2 6ND,51.431998667368800,0.259247366520253
puff adder and Fox,DA2 6NW,51.451786000000000,0.250307000000000
python and Greenbul,DA2 6QR,51.457643000000000,0.260010000000000
green turtle and Crow,DA2 6QU,51.444700000000000,0.209620000000000
Tit-tyrant and Bronzewing pigeon,DA2 6RB,51.447252387094000,0.238081301021030
Linsang and glass snake,DA2 6SE,51.447076683681200,0.236921353328090
Stint and flying lizard,DA2 7AL,51.426326751216500,0.184638318409605
kabaragoya and Songlark,DA2 7AP,51.432227114510200,0.186516791510639
whip snake and Mockingbird,DA2 7AX,51.432224685596900,0.188574038759006
Grackle and Myna,DA2 7DY,51.432058019348000,0.214678719441251
Diving bird and Darwin's finches,DA2 7HQ,51.423473000000000,0.175636274239790
Meadowlark and elapid,DA2 7HR,51.425345793510200,0.249324279733760
Chickadee and Vulture,DA2 7JT,51.420153886133100,0.254840000000000
Recurvebill and agamid,DA2 7NA,51.425008000000000,0.174362000000000
Tit-tyrant and kabaragoya,DA2 7PJ,51.424613599530200,0.202652651758304
moloch and iguana,DA2 7QG,51.416824942770200,0.182502470449550
Hawk and box turtle,DA2 7QS,51.419737176777000,0.246819447918555
chuckwalla and Komodo dragon,DA2 7RB,51.422924000000000,0.230721000000000
Macaw and Darwin's finches,DA2 7RW,51.421753602309800,0.231656958128845
Cloud rat and python,DA2 7SN,51.420305135644200,0.222697392043229
pit viper and ringhals,DA2 7WD,51.434667000000000,0.173396000000000
python and Parakeet,DA2 7WE,51.434814053890900,0.171202059986283
sand viper and Mouse,DA2 7WG,51.434795000000000,0.174741000000000
chameleon and slowworm,DA2 7WR,51.433462912666700,0.175684444134402
Egret and indigo snake,DA2 7WS,51.432106165361400,0.175619977937733
Perching duck and milk snake,DA2 8AG,51.427942845217100,0.293501744189860
sea snake and blind snake,DA2 8BW,51.426677800195100,0.287827990686855
Peafowl and Ground sloth,DA2 8DA,51.434952000000000,0.258645000000000
king snake and gopher snake,DA2 8DN,51.414666156437300,0.277506007184338
chuckwalla and rat snake,DA2 8DX,51.406898000000000,0.281635000000000
king snake and Macaw,DA4 9AE,51.403854799220900,0.246845990385704
chuckwalla and elapid,DA4 9EA,51.406916054919400,0.234903062894553
diamond snake and Schneider python,DA4 9JA,51.401076759463600,0.222756952554557
Pitohui and tortoise,DA5 1AL,51.442230741890500,0.147421407287455
Night heron and soft-shelled turtle,DA5 1AN,51.442660000000000,0.146161000000000
whip snake and king cobra,DA5 1BB,51.444965690654700,0.143923173858585
diamondback and Black jay,DA5 1DF,51.449674581030100,0.121374796069761
Minke whale and blue tongue,DA5 1DU,51.448956869555600,0.126738633112016
dugite and Rat,DA5 1EB,51.442156000000000,0.151114000000000
puff adder and Tattler,DA5 1HJ,51.449128087988800,0.140059522242598
Parrotbill and giant tortoise,DA5 1HY,51.443128042035600,0.142124630759317
glass snake and Gull,DA5 1JH,51.445484869771900,0.134693936085433
sand lizard and Hawk,DA5 1NR,51.443942995529000,0.148206886992028
perentie and Songlark,DA5 1RQ,51.447505167273400,0.139796536440321
agama and Schneider python,DA5 2BX,51.432175229249400,0.161682159658531
Thrasher and Prion,DA5 2DG,51.436124014690600,0.169422474351935
Piping shrike and Buzzard,DA5 2DT,51.438333511222500,0.161785879177173
blue tongue and Petrel,DA5 2DU,51.438968650817900,0.160017219472883
Tahr and iguana,DA5 2EF,51.425940104418700,0.167199452638056
Black cockatoo and Herring gull,DA5 2EH,51.426550397212600,0.166293285195733
Kākāriki and bearded dragon,DA5 2ER,51.424488812941200,0.166411548146011
Bronzewing pigeon and Flameback,DA5 2ES,51.424355411258200,0.165844237575037
Asiatic leopard and racer,DA5 2ET,51.423491242777300,0.165889681272822
worm lizard and Cloud rat,DA5 2GA,51.435201868131000,0.171984000000000
boomslang and boa,DA5 2HY,51.428108475808500,0.172970078637836
perentie and New World blackbird,DA5 3AH,51.440885960676800,0.125485867516444
River dolphin and dukite,DA5 3BD,51.441716532880900,0.121336941794203
Mole and Ground sloth,DA5 3DY,51.439275086967600,0.120087057329585
tuatara and Jerboa,DA5 3EJ,51.442021495231500,0.116904535901527
Macaw and water snake,DA5 3HY,51.436868605958800,0.123860506983308
Jerboa and River dolphin,DA5 3JD,51.438749792847100,0.121285801374420
puff adder and Mouse,DA5 3JF,51.437782612631200,0.120564714903137
Stilt and Jerboa,DA5 3JN,51.441293513664500,0.145564309333620
Lemming and Maya,DA5 3NA,51.437086036881500,0.149913918999159
Elephant and Ibex,DA5 3PQ,51.440751264936600,0.131911815226554
Quetzal and Linsang,DA5 3PU,51.444892621402800,0.131658589105283
Asiatic leopard and Kite,DA5 9DT,51.444700000000000,0.209620000000000
Ibex and Chickadee,DA6 7LE,51.455470869827100,0.152677785914104
Stint and Gila monster,DA6 7NW,51.452217632169800,0.149617270813847
Kangaroo and water snake,DA6 7QA,51.452968629822900,0.159641719601101
Night heron and coral snake,DA6 7RB,51.455980000000000,0.150514000000000
snapping turtle and copperhead,DA6 8HH,51.455991544045300,0.124632949966417
amethystine python and American sparrow,DA6 8JA,51.463202000000000,0.134729000000000
milk snake and terrapin,DA6 8LL,51.453676840430500,0.135220046810853
Ice seal and boa,DA6 8NS,51.455851356076800,0.135810942136580
frill-necked lizard and Chipmunk,DA7 4AF,51.462843210595400,0.136065424661478
green turtle and kabaragoya,DA7 4AL,51.461835136811700,0.135125774210095
saltwater crocodile and diamondback turtle,DA7 4AR,51.463280867505000,0.136229831788942
Parrotlet and snake,DA7 4AS,51.461902640289200,0.135863140796591
Chicken and Francolin,DA7 4DT,51.464419580811800,0.137895500935660
Myna and Polecat,DA7 4HB,51.460937713146400,0.127108461337597
Partridge and crocodile,DA7 4HG,51.460301490069400,0.129136000000000
saltwater crocodile and Songlark,DA7 4HS,51.459135020566700,0.146573750212536
Fox and loggerhead,DA7 4JB,51.456901474492300,0.147735695705481
Puffleg and Peafowl,DA7 4JQ,51.457109569179700,0.150610050919666
cycling lizard and Fish eagle,DA7 4LY,51.460445461407100,0.151126781388370
whip snake and mountain devil,DA7 4NL,51.465817138984600,0.143604700282627
Capuchin and Tit-tyrant,DA7 4NX,51.462156069881300,0.139718832082680
amethystine python and cerastes,DA7 4QU,51.465331309142500,0.132769428875902
B and terrapin,DA7 4RX,51.466818845063600,0.134048225066339
cayman and Hawaiian honeycreeper,DA7 4TT,51.467923697721700,0.128182091880021
elapid and hoop snake,DA7 4UA,51.469388979639000,0.127717530403346
Booted eagles and Zebra,DA7 4UU,51.462252501263300,0.125024527661583
glass snake and Fox,DA7 4UW,51.464534487607200,0.126138353753182
chameleon and Jay,DA7 5BS,51.468721085594400,0.152480746153314
Parrotbill and chameleon,DA7 5HR,51.473021412281000,0.138628872959218
box turtle and Warbler,DA7 5LX,51.476365827850400,0.137201213468957
Grackle and bull snake,DA7 5NR,51.475031532777500,0.135410777719665
Asiatic leopard and rock python,DA7 5QZ,51.476777414219800,0.131388021074437
green turtle and Elephant,DA7 5RN,51.475961045301700,0.127317737271357
sea snake and agamid,DA7 5SB,51.475115570147800,0.125838344713483
asp and Solitaire,DA7 5SE,51.477685157112400,0.123984848193277
Mink and mamba,DA7 6AD,51.455340772116800,0.158285465461033
Puffleg and smooth snake,DA7 6AH,51.456818384528000,0.154713281393131
skink and Cloud rat,DA7 6AP,51.456620402471600,0.157065000000000
Civet and green turtle,DA7 6AU,51.454908403679800,0.163202292198060
hoop snake and kabaragoya,DA7 6DF,51.461694657616600,0.156555369651968
Darwin's finches and goanna,DA7 6DR,51.459175409220500,0.154176499894435
rock snake and Solitaire,DA7 6EG,51.457592746107100,0.164423246115126
Triller and python,DA7 6ER,51.459714337726400,0.163976590054716
adder and sand viper,DA7 6NQ,51.463892198360900,0.168565359241909
Songlark and Old World quail,DA7 6PS,51.467646652362200,0.160046843001355
boa constrictor and Mamo,DA7 6QD,51.466979301766800,0.164536307402426
taipan and giant tortoise,DA7 6QJ,51.467104945815300,0.166010859075488
Recurvebill and Goose,DA7 6QP,51.469079169104600,0.171100723719101
death adder and Treepie,DA7 6RQ,51.465115314178200,0.174871856904451
Myna and amethystine python,DA7 6RS,51.466102451650400,0.171103386268071
coral snake and Wallaby,DA7 6RT,51.467507992046900,0.169989459157831
Schneider python and horned viper,DA7 6ST,51.466920414728900,0.175490427902137
Greenbul and Viscacha,DA7 9HN,51.463201346105800,0.134728797196793
River dolphin and Mouse,DA7 9LA,51.463202000000000,0.134756000000000
Bronzewing pigeon and tiger snake,DA7 9LR,51.463202000000000,0.134756000000000
gopher snake and perentie,DA7 9ZX,51.455154768421400,0.150791654778595
king snake and Coati,DA8 1BZ,51.485115442306500,0.165164687134925
chameleon and Fox,DA8 1DB,51.484544915856900,0.164892797984214
Myna and king cobra,DA8 1DT,51.478744960446900,0.158526172250925
Pitohui and slowworm,DA8 1DU,51.479039174106300,0.156221369862034
hoop snake and Dorcopsis,DA8 1FA,51.485356000000000,0.173061404860540
iguana and Marsh harrier,DA8 1LY,51.474889019972400,0.148134155047907
Solitaire and Francolin,DA8 1NZ,51.484707313376300,0.168270941917596
king cobra and Partridge,DA8 1QG,51.484709398410600,0.163777105742622
tortoise and Grackle,DA8 1QS,51.482129000000000,0.167241000000000
leathery turtle and Maya,DA8 1RY,51.477495029751000,0.181840581059910
Nukupuʻu and diamond snake,DA8 1TB,51.480293000000000,0.180865000000000
diamondback turtle and Peafowl,DA8 2AZ,51.476336558079300,0.185615967860492
Ice seal and swift,DA8 2DG,51.467996097595100,0.186311603816574
gavial and blind snake,DA8 2FG,51.473589000000000,0.190265000000000
hawksbill and blue racer,DA8 2HD,51.474536379569400,0.196287071058265
king snake and Tahr,DA8 2HW,51.475709806309000,0.196055425230908
crocodile and Francolin,DA8 2JE,51.471518796873700,0.189820727021469
bull snake and harlequin snake,DA8 2JL,51.473960268190400,0.196316997296558
tortoise and Vole,DA8 2NL,51.466796350856700,0.192287026594513
White ibis and bull snake,DA8 3AH,51.466675462341200,0.180446078248103
Grouse and Piping shrike,DA8 3BJ,51.475634065004500,0.167264567853860
Francolin and Argus,DA8 3BS,51.475036672131000,0.163578499969380
Kākāriki and Greenbul,DA8 3DD,51.472383848182000,0.179163059336604
rock snake and Ibex,DA8 3DY,51.478947099119100,0.169985161780091
turtle and soft-shelled turtle,DA8 3EP,51.477990016358800,0.164841591441193
Treepie and tortoise,DA8 3FE,51.473411816436800,0.180293000000000
Masked owl and gaboon viper,DA8 3HF,51.474749496425500,0.162571276135489
constrictor and viper,DA8 3HQ,51.476272980737500,0.162859355489955
hoop snake and Crow,DA8 3HU,51.472363470631700,0.175850193317925
tortoise and Duck,DA8 3JR,51.473427778412000,0.172286417633272
milk snake and sidewinder,DA8 3LB,51.472507000000000,0.174475000000000
tree snake and Snipe,DA8 3LG,51.472553908622000,0.171884904794360
blue racer and Ice seal,DA8 3QH,51.465247269313000,0.180838708652791
indigo snake and leguaan,DA8 9DR,51.476453844038000,0.195702336454363
anaconda and Tahr,DA8 9EW,51.476454792012300,0.195702330280098
Grouse and Thrasher,DA8 9GT,51.476455000000000,0.195730000000000
crocodile and anaconda,DA8 9HG,51.476455000000000,0.195730000000000
gavial and cayman,DA9 9AP,51.451807576243400,0.266055000000000
Asiatic leopard and Mockingbird,DA9 9BL,51.449729645981100,0.263620146636514
Fish eagle and gaboon viper,DA9 9DX,51.441524624959900,0.262394106884595
Partridge and bearded dragon,DA9 9FX,51.452120969652200,0.291431760121436
Thicketbird and soft-shelled turtle,DA9 9GD,51.453354644600200,0.285822300772049
Wader and Capuchin,DA9 9HD,51.448523314878100,0.290531977260246
tortoise and kabaragoya,DA9 9HT,51.444492436812100,0.289250890727219
Duck and saltwater crocodile,DA9 9JA,51.443704197561200,0.269668530865980
Stilt and bearded dragon,DA9 9JP,51.443659003832400,0.283107433067699
Armadillo and saltwater crocodile,DA9 9JS,51.447195647361200,0.265840703442804
Thrasher and Flameback,DA9 9PX,51.448432178304700,0.264678573772969
Francolin and pit viper,DA9 9QQ,51.449965546308400,0.271878954740819
Egret and Puffleg,DA9 9RW,51.447677994506700,0.274830925029440
Armadillo and Ice seal,DA9 9TY,51.444255807984800,0.275078166493845
wall lizard and hawksbill,DA9 9UW,51.453898626157400,0.293463961561771
python and Stilt,DA9 9UX,51.451643513819600,0.278137013177324
Snipe and habu,E16 2FU,51.507665000000000,0.078096000000000
rattlesnake and dugite,IG1 1EX,51.553919189396900,0.077175563044791
tuatara and Black jay,IG1 1NH,51.560373559555000,0.077310979949223
chuckwalla and chameleon,IG1 1QF,51.559956000000000,0.079110000000000
habu and Coati,IG1 1QY,51.560440114612300,0.086230144617127
coral snake and Flameback,IG1 1SE,51.556928023885900,0.083977600906925
blindworm and gavial,IG1 1SQ,51.554736136152500,0.084858346579500
bearded lizard and ringhals,IG1 1YH,51.558853251757100,0.084945657716202
Black cockatoo and Rat,IG1 2FU,51.546128000000000,0.081593000000000
Partridge and garter snake,IG1 2QB,51.545636365221900,0.079235722376558
Pheasant and Moluccan boobook,IG1 2RH,51.547507534884600,0.085782677459436
Masked owl and Marsh harrier,IG1 2UE,51.550040009843000,0.079393246390647
Boto and Parakeet,IG1 2UR,51.551794407289300,0.088964684806921
Thicketbird and Grosbeak,IG1 2XD,51.549848405952800,0.081576962985421
Macaw and Pitohui,IG1 4AG,51.565240341524300,0.085324424434808
Kākāriki and Magpie,IG1 4BN,51.563338259079500,0.080519334213702
deaf adder and Warbler,IG1 4HE,51.565407312571000,0.081998971539977
Guillemot and thorn lizard,IG1 4SR,51.566494836388400,0.078989642385477
brown snake and B,IG1 4TX,51.569971847582400,0.075612832214844
gecko and Bunting,IG1 9SR,51.560361050366900,0.078017350678085
milk snake and coral snake,IG11 0AG,51.531311417291400,0.106424436681557
frilled lizard and pit viper,IG11 0BL,51.527259594309600,0.091128461177462
thorn lizard and Kangaroo,IG11 0DR,51.521190000000000,0.099197000000000
Fish eagle and Pitohui,IG11 0EH,51.526925470462800,0.095740948786270
amethystine python and Black cockatoo,IG11 0FS,51.523374310243500,0.104284916528234
terrapin and dukite,IG11 0FU,51.522938000000000,0.105029000000000
Recurvebill and krait,IG11 0GJ,51.522547424151800,0.110704975527164
Stint and Parrotbill,IG11 0GP,51.522567809420000,0.111570846750075
boa constrictor and rock snake,IG11 0LQ,51.527855728763600,0.107562463390658
boa constrictor and alligator,IG11 0PD,51.523718277282700,0.104661170878521
Quetzal and bearded dragon,IG11 0PP,51.528969133547700,0.107657139204290
cerastes and Mole,IG11 0QG,51.528403338882200,0.105612583164721
soft-shelled turtle and deaf adder,IG11 0RB,51.529201045821000,0.111762440543624
Pitohui and thorny devil,IG11 0SL,51.532261000000000,0.112277000000000
Tree warbler and Quetzal,IG11 0WU,51.526337000000000,0.108154000000000
gopher snake and Meadowlark,IG11 0XH,51.526923000000000,0.117481000000000
Pheasant and Ibex,IG11 0XR,51.527730000000000,0.120590000000000
taipan and Eagle,IG11 0YB,51.528528000000000,0.117814000000000
monitor and Eagle,IG11 0YR,51.518698000000000,0.118829000000000
Siskin and perentie,IG11 0YS,51.518698000000000,0.118829000000000
Ibex and diamond snake,IG11 1HJ,51.534526000000000,0.088230000000000
Schneider python and Egret,IG11 7DU,51.531140840978900,0.083246592327456
Scimitar babbler and boa constrictor,IG11 7EQ,51.530794373174300,0.085537657364601
Macaw and python,IG11 7FG,51.535428000000000,0.079881000000000
death adder and frilled lizard,IG11 7GP,51.530618854064800,0.076677008817947
Tattler and Grouse,IG11 7JH,51.535131314883200,0.081857089826358
Snipe and water snake,IG11 7LU,51.536014449909800,0.078710644785551
tortoise and Hawaiian honeycreeper,IG11 7ND,51.537902303450900,0.080267535240065
horned viper and Black cockatoo,IG11 7NN,51.537186101648100,0.081100077804181
diamond snake and Grouse,IG11 7NY,51.535826299480500,0.082220455130677
tiger snake and tortoise,IG11 7RN,51.533534000000000,0.084335000000000
alligator and hawksbill,IG11 7SA,51.532295000000000,0.075598000000000
thorny devil and River dolphin,IG11 7XN,51.530720717396800,0.094213932006762
cycling lizard and Night heron,IG11 7XP,51.531290804135200,0.096532591026722
diamondback turtle and Polecat,IG11 7XW,51.531403948288200,0.097748921910937
Boto and Coati,IG11 7ZD,51.533744000000000,0.091756000000000
Armadillo and Francolin,IG11 8PQ,51.543143104603000,0.077333740666890
ringhals and caiman,IG11 8PT,51.543473781128200,0.077449755958719
habu and Old World vulture,IG11 8QA,51.543502000000000,0.077956000000000
Stint and Kangaroo,IG11 8UA,51.546762193812600,0.095311092377745
green turtle and bearded lizard,IG11 9AP,51.547664726174200,0.105174890792485
Grouse and python,IG11 9AU,51.546675904826500,0.108158092590678
Francolin and Stint,IG11 9BN,51.542207596651100,0.104591305547179
fer-de-lance and hoop snake,IG11 9DH,51.548591890717800,0.099102050462214
Towhee and Gila monster,IG11 9DU,51.546894471275800,0.098475837716934
Old World warbler and chuckwalla,IG11 9HU,51.544822615053000,0.095654654665970
taipan and pit viper,IG11 9HY,51.543119808707300,0.098850194601761
American sparrow and Hawk,IG11 9QT,51.537139928758300,0.103852801063335
Tahr and Viscacha,IG11 9SP,51.535048721791000,0.100612934403459
Gull and Pratincole,IG11 9UG,51.541689400461300,0.087795200718818
giant tortoise and Pheasant,IG2 6AH,51.570842509365300,0.079260164882440
Kangaroo and king snake,IG2 6PG,51.574184491101700,0.078431328278784
Rat and python,IG2 6PL,51.574778249379000,0.077910003184530
Argus and gecko,IG2 6PN,51.574384852623100,0.079669000000000
adder and blindworm,IG2 6PW,51.574269395145000,0.080744285678373
Mamo and Jackal,IG2 6QH,51.576223366123800,0.075522412579963
deaf adder and cycling lizard,IG2 6QU,51.577185833881900,0.078048687644027
bearded lizard and perentie,IG2 7AJ,51.567824530420300,0.093220316733072
Moluccan boobook and thorny devil,IG2 7DF,51.572485375653400,0.084992174872222
rat snake and Flameback,IG2 7DH,51.573626321525700,0.087584348035436
king cobra and Viscacha,IG2 7DU,51.571319067610600,0.084837787603214
Puffleg and New World blackbird,IG2 7EQ,51.572545376981700,0.094750445519006
Hawk and Songlark,IG2 7FA,51.568555000000000,0.083571000000000
Bronzewing pigeon and carpet snake,IG2 7HE,51.575127747139700,0.095172257566517
coral snake and habu,IG2 7HG,51.574566663518900,0.092346665153198
Polecat and anole,IG2 7HQ,51.574777710356000,0.091605896047964
American sparrow and Myna,IG2 7HR,51.574966432957900,0.088583836928136
boa constrictor and Peafowl,IG2 7JB,51.576677958246100,0.097495037185697
Cloud rat and coral snake,IG2 7JN,51.581126698909700,0.093615084756175
dugite and tokay,IG2 7LZ,51.576463137901700,0.088363807245659
Wader and Black jay,IG2 7NL,51.577785014796300,0.088871828641603
Grouse and Night heron,IG2 7NX,51.575220809086000,0.085911129818728
tiger snake and Petrel,IG2 7NY,51.575718635375400,0.088257516424834
Minke whale and Moluccan boobook,IG2 7PQ,51.578465303211000,0.091573153403598
Hawk and adder,IG2 7PX,51.580406124607500,0.092167456066495
Pratincole and indigo snake,IG2 7PY,51.581685848071400,0.093525313884123
loggerhead and cycling lizard,IG2 7RX,51.576684211372500,0.096138662930954
Cloud rat and Lemming,IG2 7RY,51.577611876976600,0.098072056074589
carpet snake and Black cockatoo,IG2 7TF,51.589024231118200,0.107072090911000
gaboon viper and viper,IG2 7TP,51.582230383684200,0.102802754514031
caiman and gavial,IG2 7TQ,51.582827549081700,0.104605774372186
snake and Stint,IG3 8FD,51.572744068036600,0.111759700192337
Piping shrike and Minke whale,IG3 8LF,51.565388173874800,0.094190583504094
Flameback and Armadillo,IG3 8NF,51.567233969257600,0.099094887483820
Argus and amethystine python,IG3 8NP,51.569686253566800,0.101256968419757
Chicken and moloch,IG3 8QP,51.572459666383300,0.101052956417195
copperhead and Prion,IG3 8TR,51.567376870093300,0.108715000000000
Mole and kabaragoya,IG3 8UG,51.570601885020800,0.096320618946491
dukite and blue tongue,IG3 8UL,51.572061874974000,0.106186524078273
mountain devil and Ice seal,IG3 8YU,51.568641538459600,0.110862493649240
Greenbul and Petrel,IG3 9AA,51.558731051393000,0.093827021398112
giant tortoise and taipan,IG3 9AG,51.553760579184900,0.094190178985622
deaf adder and tiger snake,IG3 9BB,51.548300381369500,0.097300106710540
Old World quail and death adder,IG3 9BZ,51.552107471339500,0.106158954687766
Siskin and Masked owl,IG3 9DF,51.550818679572700,0.102305806452938
Guillemot and skink,IG3 9LB,51.559991404672400,0.100290631793477
Tree warbler and whip snake,IG3 9LH,51.561821439097200,0.104054069081392
terrapin and Perching duck,IG3 9LU,51.560569397519700,0.107675282020141
Quetzal and horned toad,IG3 9PR,51.553774368894000,0.107981424510776
fer-de-lance and Siskin,IG3 9QD,51.565277012677200,0.115424930384617
perentie and Black cockatoo,IG3 9QR,51.563635585983500,0.112693900767835
Piping shrike and cycling lizard,IG3 9QX,51.560247099785600,0.115090488715052
puff adder and blind snake,IG3 9RA,51.560736496552800,0.115877859437945
diamondback and leguaan,IG5 0SQ,51.591264611263500,0.075211834429834
Diving bird and Diving bird,IG6 1AL,51.578385801613500,0.081884896361952
Triller and Grouse,IG6 1DF,51.580121342946200,0.083407584992015
bearded lizard and Ground sloth,IG6 1EB,51.581691490986700,0.079553323193876
whip snake and boa constrictor,IG6 1ET,51.583420599336100,0.080426182163262
Rat and water snake,IG6 1JF,51.586135220215000,0.077446555740910
Myna and rat snake,IG6 1NB,51.585747000000000,0.091226632012903
Flameback and hawksbill,IG6 1RB,51.586105844686200,0.083161685446797
Solitaire and Boto,IG6 2EB,51.591852062189800,0.082154100351732
habu and hognose snake,IG6 2EG,51.593187873176800,0.079342074170994
fer-de-lance and gaboon viper,IG6 2HY,51.597264720670000,0.080178053354932
Solitaire and tuatara,IG6 2JG,51.594810690552000,0.077077192899054
asp and hoop snake,IG6 2JW,51.594326733661900,0.084591821298038
hognose snake and Grouse,IG6 2LR,51.595942809864800,0.079670049634823
wall lizard and blind snake,IG6 2PH,51.594303138632800,0.085413714900924
Black jay and Duck,IG6 2PJ,51.595786170300400,0.076327577925354
copperhead and jew lizard,IG6 2RB,51.602032632540400,0.080583692202732
Mouse and Philippine hawk-owl,IG6 2RN,51.605744389061200,0.080765000000000
Moluccan boobook and habu,IG6 2SD,51.604207837759900,0.077087259381746
leathery turtle and Rabbit,IG6 2TA,51.605508327727400,0.083876443879209
anaconda and Warbler,IG6 2XJ,51.603010981977700,0.089798392728900
Rat and blindworm,IG6 3EE,51.605581925667200,0.109456145817277
brown snake and Quetzal,IG6 3FE,51.611545000000000,0.117474000000000
Rat and Tahr,IG6 3HH,51.598308450138700,0.097827403810970
blue tongue and Jerboa,IG6 3HJ,51.598945000000000,0.100008000000000
viper and bushmaster,IG6 3JP,51.606175463892400,0.122423669419060
blue tongue and soft-shelled turtle,IG6 3SR,51.608680049663900,0.118684272797900
dukite and Elephant,IG6 3XE,51.610202052579100,0.126020109032325
Fish eagle and Herring gull,IG7 4AF,51.610860094295500,0.113485038182641
American sparrow and dukite,IG7 4AP,51.613719231709500,0.114513414183363
bearded lizard and Tattler,IG7 4EN,51.609231094105800,0.096511151508287
Shearwater and boomslang,IG7 4HB,51.610914653362900,0.107450202667778
Towhee and sand viper,IG7 4LS,51.613329759546100,0.109670935765412
horned toad and Pratincole,IG7 4PB,51.610041084525300,0.110023957043070
bicycle lizard and brown snake,IG7 4PE,51.610289491237700,0.107710111049806
Peafowl and Diving bird,IG7 4QY,51.614609073088800,0.117530373832038
Chickadee and Prion,IG7 5DX,51.608802793328100,0.082178648684256
bushmaster and python,IG7 5EP,51.613306000000000,0.086429000000000
dukite and dukite,IG7 5JR,51.610176144760200,0.086877756887167
Hawaiian honeycreeper and Shearwater,IG7 5ND,51.607057726560500,0.087269101574016
bearded dragon and snapping turtle,IG7 5PS,51.610817862024500,0.083151910516949
bearded dragon and fer-de-lance,IG7 6EP,51.621118216416900,0.118613540800597
Philippine hawk-owl and Buzzard,IG7 6ES,51.620720611018100,0.121209855017801
Tattler and Kite,ME3 7AE,51.413871021137700,0.457497688635032
Cloud rat and rattlesnake,ME3 7AL,51.413752614225200,0.458426164492195
Schneider python and monitor,ME3 7BB,51.416650000000000,0.457560000000000
Warbler and hawksbill,ME3 7HU,51.429181787553800,0.464160401636286
Peafowl and Marmoset,ME3 7JX,51.429228059654800,0.459818067722553
Thicketbird and sea snake,ME3 7LS,51.440871063955600,0.468962947181534
American sparrow and leathery turtle,ME3 7PB,51.416314185493900,0.476009955585697
Fish eagle and jew lizard,RM1 1AR,51.577387688404800,0.179925076142370
Cuscus and Maya,RM1 1DR,51.582763964847800,0.176126262864803
sea snake and iguana,RM1 1DS,51.583952000000000,0.175187000000000
boa and White ibis,RM1 1EQ,51.582065067370100,0.174533947835579
American sparrow and Mamo,RM1 1QL,51.572398575176000,0.184174513077885
Rat and Tattler,RM1 1RA,51.577879048944200,0.180583649275189
mamba and Masked owl,RM1 2AJ,51.569279309903500,0.186521446491447
gavial and Tit-tyrant,RM1 2DL,51.573358561254400,0.186226545410531
cerastes and Greenbul,RM1 2DQ,51.573224136519900,0.187648830161335
viper and Thrasher,RM1 2EB,51.572786739788800,0.189402905973635
flying lizard and death adder,RM1 2ED,51.575689955193900,0.188517733299319
Cuscus and Diving bird,RM1 2EW,51.573272000000000,0.193970000000000
blind snake and bicycle lizard,RM1 2NQ,51.577120063889200,0.193320438887886
Parrotbill and Parrotlet,RM1 2QD,51.573949511915200,0.191666869556800
jew lizard and Macaw,RM1 2QJ,51.574950418431000,0.192003668038453
Macaw and Scimitar babbler,RM1 3FD,51.577471000000000,0.185801000000000
iguana and Fulmarine petrel,RM1 3HG,51.580372000000000,0.184874000000000
diamond python and flying lizard,RM1 3HP,51.579047602514700,0.184478905667069
saltwater crocodile and Hawk,RM1 3HQ,51.579600788903200,0.183264139636915
elapid and Asiatic leopard,RM1 3WF,51.570143000000000,0.170731000000000
perentie and Stilt,RM1 4BT,51.584205000000000,0.179472000000000
elapid and puff adder,RM1 4BU,51.588430712740700,0.182835748444597
Hawk and Skunk,RM1 4DD,51.580711271677100,0.180127449492315
Linsang and indigo snake,RM1 4GR,51.582236132594600,0.184689578866188
Greenbul and Petrel,RM1 4LS,51.601965125598400,0.184755628702191
rat snake and Macaw,RM1 4LZ,51.603093363255700,0.181632740819457
blind snake and Boto,RM1 4NH,51.587947572249200,0.176893693356976
Capuchin and whip snake,RM1 4QE,51.588695583356000,0.172439687491646
Diving bird and bull snake,RM1 4QX,51.588130000000000,0.172918000000000
Greenbul and Komodo dragon,RM1 4SS,51.593246782191000,0.178215490694427
Komodo dragon and cycling lizard,RM1 4UL,51.596430807303500,0.181573311306388
anaconda and whip snake,RM1 4WG,51.605775498478600,0.179089561013253
tuatara and Mockingbird,RM1 4YJ,51.599013856482500,0.180007653906325
diamond snake and pit viper,RM10 7DU,51.552022363578100,0.156382300100451
swift and carpet snake,RM10 7EL,51.555545403994500,0.158943660759854
Kākāriki and mountain devil,RM10 7FE,51.554448675700000,0.158487751800000
indigo snake and Warbler,RM10 7LJ,51.556333183331500,0.149344235181287
Puffleg and Pratincole,RM10 7LP,51.557384697801100,0.149379387954346
dukite and agama,RM10 7NH,51.552964554477000,0.159152000000000
agama and Fish eagle,RM10 7PH,51.554088489150500,0.153566066734566
hoop snake and Petrel,RM10 7SE,51.553805978861100,0.148113000000000
puff adder and blue racer,RM10 7UL,51.552110882286000,0.165733839355241
Solitaire and Viscacha,RM10 7YU,51.551482594835700,0.158837823421983
dukite and bearded dragon,RM10 8BA,51.540692360591800,0.170469825413992
perentie and Jackal,RM10 8BF,51.540802459200000,0.165052580000000
alligator and Parrotlet,RM10 8BG,51.549884826504800,0.152804974801735
pit viper and puff adder,RM10 8BU,51.542109798816300,0.176479055261418
Mouse and smooth snake,RM10 8BW,51.547154176454100,0.151652002957500
Eagle and Civet,RM10 8DY,51.541734294554800,0.159818543280184
jew lizard and Black jay,RM10 8EX,51.545948183217100,0.160998874957744
soft-shelled turtle and Recurvebill,RM10 8GT,51.542483761150600,0.154156000000000
loggerhead and Pratincole,RM10 8HJ,51.544492078434600,0.157050221729158
Towhee and Treepie,RM10 8HU,51.549410956829500,0.154614456966138
Cloud rat and American sparrow,RM10 8LH,51.549317956982400,0.153802316893909
Parrotbill and diamond python,RM10 8LN,51.546120359229300,0.152612835491811
Tit-tyrant and caiman,RM10 8ND,51.544611891690700,0.154445408637655
Black jay and Puffleg,RM10 8PE,51.541045360317700,0.148364163742874
wall lizard and Triller,RM10 8RE,51.541090000000000,0.148943000000000
Gull and elapid,RM10 8SH,51.541981812674100,0.156769000000000
Rat and loggerhead,RM10 8SJ,51.541840480544300,0.155723000000000
blue tongue and Wallaby,RM10 8SN,51.541714233666300,0.153573028941547
leathery turtle and diamond snake,RM10 8US,51.542420372901100,0.159187627184074
racer and agamid,RM10 8UX,51.541862000000000,0.165141022145806
kabaragoya and Petrel,RM10 8YD,51.544514556149100,0.163642376860858
cycling lizard and Logrunners,RM10 9AL,51.533410600396600,0.157175112418378
Asiatic leopard and Jerboa,RM10 9PB,51.536177327293900,0.149504790624439
Zebra and Capuchin,RM10 9QU,51.538606217778900,0.151421822745108
alligator and king cobra,RM10 9TD,51.538796461482400,0.159665015864602
Civet and smooth snake,RM10 9TP,51.536980089379000,0.160631692807963
Stilt and Logrunners,RM10 9XT,51.536824463755900,0.165656934432274
Triller and Jerboa,RM10 9XY,51.536136000000000,0.166561000000000
Marmoset and Cloud rat,RM11 1AN,51.570854882593400,0.191243816096955
Hawk and alligator,RM11 1BY,51.572134691565100,0.193498933278361
cobra de capello and Rabbit,RM11 1DX,51.566522421061300,0.204094237823157
flying dragon and amphisbaena,RM11 1ED,51.567333668229500,0.195360139482019
lizard and frilled lizard,RM11 1FF,51.559639435216400,0.202361922710028
Logrunners and kabaragoya,RM11 1PD,51.567782914728100,0.210706425446603
black snake and brown snake,RM11 1PG,51.568920121856600,0.210011221900876
Pheasant and tortoise,RM11 1QL,51.565122320856800,0.200592384234838
Skunk and Maya,RM11 1UX,51.568228932753200,0.218996540971128
Old World vulture and thorny devil,RM11 2AH,51.571974402977600,0.211140707776357
Scimitar babbler and Mole,RM11 2DE,51.575723000000000,0.213661000000000
Perching duck and Black jay,RM11 2EQ,51.586096901756800,0.218091544947280
Towhee and Songlark,RM11 2HZ,51.581963431503100,0.218395432185104
Pratincole and wall lizard,RM11 2JU,51.576623319363100,0.217832264904002
gaboon viper and Viscacha,RM11 2LF,51.582173010906100,0.220152225230978
copperhead and Treepie,RM11 2LG,51.583153000000000,0.220720000000000
Thicketbird and puff adder,RM11 2LN,51.574105983194900,0.218272557185880
Meadowlark and Quetzal,RM11 2NJ,51.581847627320500,0.224986350192195
Gull and anaconda,RM11 2QU,51.574522368961200,0.222405997658409
snapping turtle and cerastes,RM11 2SD,51.584132741190200,0.220190025241926
bearded dragon and frilled lizard,RM11 3BL,51.571875544039400,0.237227748424429
Badger and fer-de-lance,RM11 3BU,51.576773889675900,0.235014728747979
Coati and swift,RM11 3DD,51.576719000000000,0.239356000000000
Stilt and Jackal,RM11 3DL,51.575442937059500,0.237374083515190
krait and Schneider python,RM11 3HD,51.577900806637300,0.240525799440027
Dorcopsis and sea snake,RM11 3HU,51.569292046883500,0.220794405905485
harlequin snake and Komodo dragon,RM11 3JA,51.571163922873000,0.224046057870035
Mole and worm lizard,RM11 3JB,51.572384857460500,0.222258430352167
Peafowl and Black cockatoo,RM11 3JG,51.572371435719900,0.231493929147027
Stilt and Meadowlark,RM11 3JX,51.568299544710600,0.222867269565175
asp and Badger,RM11 3LR,51.570066973896200,0.235392816235013
lizard and krait,RM11 3NP,51.567277888071000,0.234043875606590
Mamo and blindworm,RM11 3PS,51.563915824949200,0.236808107427881
Marmoset and Boto,RM11 3PY,51.560361998312300,0.239721222064099
giant tortoise and brown snake,RM11 3XN,51.560220560573000,0.230624847464209
Gila monster and Boto,RM12 4AP,51.561057150575200,0.196774713302258
tokay and swift,RM12 4AQ,51.559306123149400,0.196156510778212
Lemming and slowworm,RM12 4ED,51.560453386710900,0.186732834090405
Old World vulture and rattlesnake,RM12 4EH,51.564679742862000,0.186748050926046
iguana and iguana,RM12 4FH,51.552909280164000,0.197752488161112
Piping shrike and Myna,RM12 4HE,51.558208386819900,0.193304796577172
saltwater crocodile and Boto,RM12 4HY,51.560235357429400,0.218103000000000
Fish eagle and frill-necked lizard,RM12 4NU,51.554638399356500,0.211497099886740
leguaan and Mink,RM12 4PE,51.551341832979200,0.191647382949809
blue tongue and Pratincole,RM12 4QW,51.552691744981000,0.201680079850935
crocodile and constrictor,RM12 4TF,51.564954677992200,0.195777000000000
Komodo dragon and asp,RM12 4TL,51.564521000000000,0.196272134504725
hognose snake and green turtle,RM12 4TX,51.560900168929900,0.219923787646672
boa and rock python,RM12 4XJ,51.561120467080600,0.213023553103616
Partridge and blind snake,RM12 5EH,51.546098743137600,0.191179042964680
rattlesnake and terrapin,RM12 5HA,51.543864870033700,0.209590076142540
Old World warbler and adder,RM12 5HE,51.538695463304700,0.199461423581952
cayman and ringhals,RM12 5HX,51.544111329768800,0.195987191305404
Pratincole and whip snake,RM12 5LW,51.539203812858600,0.199687828998068
Rat and Wallaby,RM12 5NR,51.541898085376900,0.201317635104335
whip snake and python,RM12 5PJ,51.540076899970500,0.203479448061541
diamondback and adder,RM12 5QS,51.545934518258100,0.208089395832803
Tattler and Dolphin,RM12 5QT,51.547072680587200,0.209731086508533
Grosbeak and Pheasant,RM12 5RJ,51.546760651612200,0.205763972379368
sidewinder and moloch,RM12 5RR,51.543237596911100,0.206127196845605
Macaw and tree snake,RM12 5SS,51.548370390465700,0.207197682330594
Goose and cobra de capello,RM12 6AJ,51.552359000000000,0.222188719564566
Goose and Wallaby,RM12 6BN,51.559851367307700,0.221171180980716
mountain devil and chuckwalla,RM12 6BP,51.554129682655300,0.223186081196945
amethystine python and Treepie,RM12 6HD,51.557859000000000,0.222911518786856
Flameback and gopher snake,RM12 6HT,51.557132849578600,0.220836738103131
Scimitar babbler and saltwater crocodile,RM12 6LT,51.555357747745900,0.219596172129273
Gila monster and soft-shelled turtle,RM12 6NJ,51.561321336860800,0.220478136712018
king snake and Ice seal,RM12 6PH,51.558358000000000,0.229329676358555
boomslang and gavial,RM12 6RL,51.551211221699400,0.218687488100956
jew lizard and cobra de capello,RM12 6TR,51.542457936312400,0.212189978779914
thorn lizard and cycling lizard,RM12 6TS,51.542054150343800,0.211665628512147
Tattler and Badger,RM12 9GR,51.561888000000000,0.216392000000000
alligator and caiman,RM13 0DN,51.516955000000000,0.192173000000000
Tattler and Kestrel,RM13 0DQ,51.516955000000000,0.192173000000000
brown snake and soft-shelled turtle,RM13 0DR,51.516955000000000,0.192173000000000
diamond python and Jerboa,RM13 7AP,51.533017342740700,0.192929846515647
bearded lizard and dukite,RM13 7AS,51.534990596314100,0.189837972042990
dugite and Armadillo,RM13 7BB,51.536509000000000,0.188512000000000
bicycle lizard and Tree warbler,RM13 7DP,51.533930020885300,0.196059434889824
Tattler and White ibis,RM13 7JD,51.541884962549200,0.197221218241156
Scimitar babbler and habu,RM13 7JH,51.541286059277400,0.196067483317160
Boto and Siskin,RM13 7TB,51.535387681111500,0.181075443417039
Greenbul and gopher snake,RM13 7TU,51.534863364893200,0.184121733054561
saltwater crocodile and anole,RM13 8DD,51.526982595516700,0.171691899215046
cycling lizard and krait,RM13 8EA,51.526842000000000,0.169652000000000
gecko and Wader,RM13 8FH,51.529179000000000,0.170167000000000
Wallaby and habu,RM13 8GY,51.529518300300000,0.170788864800000
Mamo and Eagle,RM13 8JE,51.524060000000000,0.189760000000000
B and Jerboa,RM13 8LT,51.524336788453900,0.180518439187154
Pheasant and Linsang,RM13 8NN,51.524377466436500,0.175594000000000
Partridge and Francolin,RM13 8NR,51.528441062376100,0.175971209659846
racer and Treepie,RM13 8SJ,51.523394323330500,0.180572000000000
hoop snake and Darwin's finches,RM13 8TR,51.525269785190700,0.184988877530259
Snipe and Chickadee,RM13 8UA,51.515155000000000,0.175727000000000
blind snake and sand viper,RM13 8UG,51.516425097710800,0.173625535936206
puff adder and alligator,RM13 9AB,51.519362000000000,0.197074000000000
frilled lizard and Jerboa,RM13 9BU,51.515630067750300,0.183504119414766
jew lizard and puff adder,RM13 9DY,51.506719311520000,0.214132996398863
American sparrow and Peafowl,RM13 9FF,51.518619000000000,0.208397000000000
anole and hawksbill,RM13 9FQ,51.515205429200000,0.199540196400000
River dolphin and turtle,RM13 9HD,51.513341578649800,0.202967163767327
iguana and Chickadee,RM13 9HT,51.514267035965100,0.201094884930226
Myna and Fish eagle,RM13 9PD,51.519329044853500,0.206616000000000
rattlesnake and Night heron,RM13 9PH,51.520221472108300,0.205821811358059
jew lizard and goanna,RM13 9QH,51.529458990699800,0.211934567858027
Warbler and deaf adder,RM13 9SL,51.528182442199400,0.218101035586320
chameleon and Old World warbler,RM13 9SZ,51.525617000000000,0.218347140857719
Crow and Thrasher,RM13 9UB,51.516734512009200,0.194194328014570
gecko and Peafowl,RM14 1AR,51.570064143265900,0.254340315885188
Gull and cycling lizard,RM14 1AT,51.571827000000000,0.257218513754639
Warbler and Philippine hawk-owl,RM14 1BJ,51.562623797897800,0.263379615907857
Komodo dragon and tree snake,RM14 1DU,51.561334252309600,0.252350247082174
Grouse and alligator,RM14 1EX,51.562520063851600,0.269679699477257
moloch and agama,RM14 1FA,51.571608000000000,0.272859000000000
Badger and rat snake,RM14 1HG,51.567414767675800,0.274656550835616
blind snake and rock python,RM14 1HJ,51.568769713246600,0.278981179468910
Puffleg and amphisbaena,RM14 1NS,51.571871381158700,0.270679510455768
Komodo dragon and Parakeet,RM14 1NX,51.569569225017100,0.271142003115209
tortoise and Peafowl,RM14 1QY,51.571500166388700,0.260097297162354
skink and Tahr,RM14 1RP,51.568448237719100,0.264000830754246
Tree warbler and Argus,RM14 1TJ,51.573803099847600,0.274484831630004
grass snake and jew lizard,RM14 1XA,51.563305324764600,0.249724000000000
Asiatic leopard and frilled lizard,RM14 2AP,51.555076820403500,0.248982735488679
Skunk and Fox,RM14 2BS,51.544325055151600,0.248784183957461
Eagle and frill-necked lizard,RM14 2DD,51.544785208368700,0.250580879778051
Siskin and carpet snake,RM14 2DR,51.542511864449000,0.250483115695609
Mink and giant tortoise,RM14 2EF,51.548117000000000,0.241061521066618
Chicken and Old World vulture,RM14 2ET,51.545201615097300,0.241514987146051
Kangaroo and Asiatic leopard,RM14 2HD,51.556151275774800,0.240769423711878
bandy-bandy and Mouse,RM14 2HH,51.549814187732400,0.245318987767825
Eagle and Siskin,RM14 2NP,51.551794926301700,0.232477312510243
Solitaire and sidewinder,RM14 2QD,51.557724682773900,0.239375228808516
bull snake and amethystine python,RM14 2RA,51.558513096625000,0.240943238925831
Partridge and tuatara,RM14 2TD,51.558419173516000,0.250547076849211
Grouse and Vole,RM14 2XR,51.533133000000000,0.235933000000000
glass snake and coral snake,RM14 2YD,51.552367621219000,0.246539000000000
diamondback terrapin and carpet snake,RM14 3AA,51.552401807149100,0.249196979182485
blue racer and Kākāriki,RM14 3DB,51.552032691764900,0.264642490071928
sand viper and Condor,RM14 3DL,51.555013015108000,0.254649023435129
Mockingbird and White ibis,RM14 3EU,51.551285223109700,0.258633458443370
Pratincole and Civet,RM14 3NA,51.557016762609000,0.270588654367150
cerastes and terrapin,RM14 3NB,51.556423071845500,0.271525659255066
bushmaster and puff adder,RM14 3PJ,51.566975364246000,0.302253479000834
habu and Piping shrike,RM14 3QJ,51.543133651310700,0.284377404470442
diamond python and blind snake,RM14 3QR,51.542249155856600,0.280381452528528
boa and glass snake,RM14 3SA,51.545266357130500,0.361503707781503
cerastes and smooth snake,RM14 3TR,51.544494044436400,0.361449289163321
Grouse and dukite,RM14 3UU,51.547000488615600,0.251829671842765
Thrasher and Viscacha,RM14 9DZ,51.552321000000000,0.246566000000000
Macaw and Skunk,RM15 4AY,51.498983114296000,0.250153316432093
alligator and anole,RM15 4BF,51.503063813800000,0.256391941800000
flying lizard and cerastes,RM15 4BH,51.499043815994500,0.257288440942128
amphisbaena and Songlark,RM15 4BQ,51.509359000000000,0.249488241774725
tokay and death adder,RM15 4DW,51.502497549600000,0.255441761200000
copperhead and box turtle,RM15 4HD,51.496336509308200,0.255440169660606
pit viper and Booted eagles,RM15 4HR,51.494661147300900,0.250430274387349
Meadowlark and Hawk,RM15 4LA,51.496472962082100,0.254423971118416
smooth snake and soft-shelled turtle,RM15 4QH,51.507139518488000,0.253912946487668
gavial and Pitohui,RM15 4QR,51.506804586390600,0.263364319526180
python and Pratincole,RM15 4SJ,51.500144892941500,0.251939592232295
Moluccan boobook and elapid,RM15 4SW,51.502227468900000,0.248857808123957
Mamo and New World blackbird,RM15 5AQ,51.516428202227800,0.283718195245629
Tree warbler and Coati,RM15 5DG,51.513139385365000,0.289578259900955
Macaw and Bronzewing pigeon,RM15 5ER,51.510806794211600,0.277283033811720
Peafowl and Prion,RM15 5FA,51.516602000000000,0.288253000000000
Zebra and Ibex,RM15 5HQ,51.510718421184500,0.274886219286033
Thicketbird and Masked owl,RM15 5LR,51.508917635438900,0.278240854559711
jew lizard and Night heron,RM15 5LZ,51.508811747073900,0.277673523173063
Parakeet and Chicken,RM15 5NF,51.503537338706300,0.276978170495246
tuatara and Moluccan boobook,RM15 5NL,51.504742890192800,0.280655240283220
anole and krait,RM15 5NW,51.505888379975400,0.280294000000000
adder and amphisbaena,RM15 5PQ,51.506802092954300,0.289894576426940
Thrasher and Civet,RM15 5QB,51.503416952425800,0.282707265275781
fer-de-lance and Gull,RM15 5QE,51.503961469903400,0.273195089342233
New World blackbird and bandy-bandy,RM15 5RN,51.503126036254700,0.281482309455030
Siskin and Kākāriki,RM15 5TT,51.515252696429400,0.286354721031497
Pheasant and king cobra,RM15 6AL,51.501272286825300,0.288925682662906
jew lizard and Grosbeak,RM15 6BT,51.511307315377000,0.292671505149902
Triller and Old World vulture,RM15 6DH,51.516021910220200,0.298529668078262
Vulture and Grouse,RM15 6EH,51.506755981409800,0.291794499013186
Kestrel and tiger snake,RM15 6ET,51.510013064945700,0.291712978372153
harlequin snake and galliwasp,RM15 6JF,51.519987520757800,0.292574137338043
Perching duck and diamond snake,RM15 6QT,51.518613318438400,0.295243893914839
Warbler and Stilt,RM15 6TT,51.520208179220800,0.303800197944926
Gila monster and racer,RM16 2BD,51.498127699816100,0.329413602385895
Lemming and diamondback terrapin,RM16 2BP,51.498414314328400,0.326301613352253
Mamo and mud turtle,RM16 2DZ,51.498762443339300,0.324619149302114
Magpie and Mink,RM16 2ET,51.496863493239200,0.333743525191571
frill-necked lizard and hognose snake,RM16 2GB,51.490435916905000,0.349376868181730
diamondback turtle and thorn lizard,RM16 2JX,51.493843931768200,0.340403733994396
Polecat and Coati,RM16 2LL,51.500679007935600,0.337684833589850
Lemming and diamond python,RM16 2RL,51.491297910040200,0.334136314145174
hognose snake and caiman,RM16 2UU,51.497771465104600,0.320620895908729
sand viper and tree snake,RM16 2YA,51.489967737291300,0.355230324706275
sidewinder and Philippine hawk-owl,RM16 3BW,51.511629000000000,0.399918000000000
soft-shelled turtle and skink,RM16 3DF,51.505264204285600,0.389941696959942
giant tortoise and Puffleg,RM16 3DL,51.511185254523300,0.369829163027487
Scimitar babbler and king snake,RM16 3EL,51.527606000000000,0.367251000000000
lizard and death adder,RM16 3GS,51.511590676500000,0.365339071786577
Triller and Wader,RM16 3GY,51.509578081101100,0.363462138831317
Mole and Vulture,RM16 3HR,51.512935294331600,0.366446474114146
Masked owl and glass snake,RM16 3HT,51.514787978026900,0.375781628676598
tokay and Mockingbird,RM16 3JX,51.511154692077400,0.371340883206990
Vulture and bearded dragon,RM16 4DS,51.480529382833200,0.375066230303650
Solitaire and hoop snake,RM16 4ES,51.485600276648400,0.360435658881509
Linsang and harlequin snake,RM16 4HH,51.482267809506000,0.364368000000000
Crow and bandy-bandy,RM16 4JF,51.484257585986100,0.369930522405298
kabaragoya and sidewinder,RM16 4LG,51.481391570560300,0.379115086370353
American sparrow and snapping turtle,RM16 4RL,51.488522170213800,0.374286029103812
Vole and Nukupuʻu,RM16 4ST,51.489724001717500,0.366886340962249
Piping shrike and boa constrictor,RM16 4TH,51.490881209582200,0.373702722821202
slowworm and tortoise,RM16 4TJ,51.491395953651900,0.373153217901872
Goose and thorn lizard,RM16 4XH,51.491136860076800,0.365417000000000
ringhals and Egret,RM16 5UF,51.498372229229500,0.307381000000000
goanna and Francolin,RM16 6LY,51.483819000000000,0.293496000000000
tree snake and Songlark,RM16 6ND,51.485759358319700,0.293060445305635
Eagle and Vulture,RM16 6PD,51.488323264914300,0.312247025081103
grass snake and mamba,RM16 6QW,51.487520648871200,0.310535449363160
bandy-bandy and pit viper,RM16 6RB,51.488809445271300,0.309937976853413
rattlesnake and racer,RM16 6RE,51.493786811137400,0.314742191074403
wall lizard and rattlesnake,RM17 5AX,51.487537203240400,0.323803165675615
tree snake and skink,RM17 5BT,51.479183000000000,0.321146000000000
Mole and flying dragon,RM17 5DS,51.479009018487800,0.324392130655669
Kākāriki and copperhead,RM17 5DX,51.479373942802500,0.324583515613804
Grosbeak and Recurvebill,RM17 5EW,51.481296770197300,0.316946950796801
flying dragon and black snake,RM17 5EY,51.481640491352200,0.325476555668153
Nukupuʻu and Parrotlet,RM17 5HR,51.484069692103600,0.311326024675839
gecko and Egret,RM17 5HZ,51.482198254827200,0.315926815802910
Rabbit and snake,RM17 5JU,51.482794000000000,0.327229542868858
Magpie and gecko,RM17 5SE,51.488886096960300,0.335122318581214
Ibex and Warbler,RM17 5SH,51.484965832292600,0.340496382258902
Puffleg and blind snake,RM17 5TN,51.484322761262400,0.338922230179294
black snake and Darwin's finches,RM17 5UT,51.481853267674500,0.331968775484416
habu and Capuchin,RM17 5YP,51.476593063884500,0.311495229753451
Triller and carpet snake,RM17 6AD,51.481267178469100,0.342870697238122
thorn lizard and terrapin,RM17 6BG,51.472648101825300,0.332404000000000
Peafowl and gaboon viper,RM17 6DF,51.478073635347800,0.334353890803430
Chickadee and Towhee,RM17 6DQ,51.478266100525600,0.333269169477519
giant tortoise and grass snake,RM17 6DS,51.474418680629800,0.326851673514993
snake and blindworm,RM17 6HS,51.476697728612200,0.338863301746730
Macaw and Kangaroo,RM17 6HU,51.475116043778700,0.322523676365595
diamondback and perentie,RM17 6NZ,51.475298207296000,0.311487361704694
Mole and Tree warbler,RM17 6PE,51.475311762050200,0.319451802166156
thorny devil and agama,RM17 6PW,51.473404279651900,0.319499031764515
coral snake and galliwasp,RM17 6RF,51.476746000000000,0.328388013352714
alligator and Chicken,RM17 6SG,51.471919770021600,0.331318083627979
boa and dugite,RM17 6SJ,51.481340391651400,0.336047447299548
Pratincole and diamond snake,RM17 6TU,51.474367717841500,0.346102887960972
loggerhead and Eagle,RM17 6UD,51.474450646821500,0.346452763064507
saltwater crocodile and Tree warbler,RM17 9AW,51.479917514025200,0.320751297688438
taipan and chameleon,RM17 9LP,51.479919000000000,0.320780000000000
Old World warbler and alligator,RM17 9SN,51.475673777177400,0.324784188016642
Grouse and Ibex,RM18 7AB,51.465286155096500,0.351410520071982
indigo snake and tokay,RM18 7BF,51.463756444986900,0.360402264580188
Meadowlark and boa constrictor,RM18 7BH,51.463170677062500,0.357334206819718
diamondback terrapin and dugite,RM18 7HD,51.467442000000000,0.346640000000000
tree snake and grass snake,RM18 7QU,51.461826653637200,0.362894103684360
moloch and king cobra,RM18 8AU,51.463388281946400,0.374622257274768
Rabbit and Elephant,RM18 8BL,51.462578866349900,0.374623422316054
Pitohui and diamondback turtle,RM18 8BN,51.479917514025200,0.320751297688438
Condor and agamid,RM18 8DR,51.461075376746700,0.371594049034454
Diving bird and Mockingbird,RM18 8EB,51.460987000000000,0.366124831130805
Philippine hawk-owl and bushmaster,RM18 8ET,51.467190066561300,0.369405815379329
bearded dragon and Tahr,RM18 8HY,51.465937152863900,0.373631000000000
sand viper and leguaan,RM18 8JD,51.466100086044100,0.369939666034156
tokay and Kākāriki,RM18 8LD,51.464249682715300,0.363595199403324
alligator and Rat,RM18 8ND,51.469805089987700,0.366834240316360
swift and Cuscus,RM18 8NG,51.469216325243700,0.362584799487916
carpet snake and Chickadee,RM18 8NP,51.470096122006000,0.364890976903745
Scimitar babbler and Gull,RM18 8PN,51.468236088604000,0.427286262185372
bushmaster and green turtle,RM18 8PQ,51.468443946284800,0.427671673034568
Grosbeak and Marsh harrier,RM18 8QJ,51.472881153836800,0.416185297951584
death adder and New World blackbird,RM18 8RT,51.482800265404500,0.422744795641823
Chicken and agamid,RM18 8SH,51.483515068145700,0.415998485458997
Schneider python and Fox,RM18 8SU,51.481251666046300,0.423699727673532
Linsang and rat snake,RM18 8TA,51.483031517554100,0.423304395414681
bearded dragon and carpet snake,RM19 1LD,51.483358422898100,0.234836562271849
Asiatic leopard and Asiatic leopard,RM19 1RA,51.479892337449400,0.239275821672989
Wader and Mole,RM19 1RG,51.485138766103600,0.255045932986431
python and Vulture,RM19 1TX,51.479636447954400,0.243252695701489
agamid and racer,RM19 1UA,51.471281000000000,0.254175000000000
frilled lizard and bull snake,RM2 5AN,51.585863750902600,0.193436000000000
Black jay and Parrotbill,RM2 5DL,51.582606995784700,0.200455583218148
Herring gull and Egret,RM2 5JB,51.584880273442300,0.194314903927961
Parrotlet and Fox,RM2 5JR,51.586181494087700,0.200224107591626
hawksbill and Kite,RM2 5NT,51.588485588201000,0.192915066299328
viper and whip snake,RM2 5QU,51.593754925737700,0.190050233996728
alligator and gopher snake,RM2 5UX,51.578897394202100,0.200218631495292
Vulture and hognose snake,RM2 6AF,51.580947642500000,0.209844170900000
Armadillo and Parakeet,RM2 6AH,51.584324106797500,0.202400696981302
harlequin snake and Stint,RM2 6BY,51.581908000000000,0.204360000000000
giant tortoise and Chicken,RM2 6DH,51.580128000000000,0.208928805448350
Linsang and Kangaroo,RM2 6EL,51.586464589368600,0.204785096562916
Tit-tyrant and Grosbeak,RM2 6JL,51.583228083213000,0.211903588341193
Badger and Pratincole,RM2 6JT,51.582926989105300,0.213087053226190
asp and diamondback,RM20 2AD,51.488105000000000,0.281726000000000
Jerboa and blind snake,RM20 3BP,51.475802559795200,0.283920320659511
Fulmarine petrel and amethystine python,RM20 3BW,51.482320000000000,0.276295000000000
rattlesnake and boomslang,RM20 3HB,51.476554150900000,0.279075774700000
dukite and New World blackbird,RM20 3HD,51.475833962380200,0.282769801853699
black snake and harlequin snake,RM20 3HX,51.475782884765300,0.277785000000000
fer-de-lance and black snake,RM20 3JQ,51.476908802700100,0.267517000000000
cycling lizard and massasauga,RM20 3JS,51.476348183471600,0.276674948416591
Dolphin and Parakeet,RM20 3NL,51.477457000000000,0.264071000000000
Warbler and Komodo dragon,RM20 3ZD,51.478775696724700,0.267895000000000
diamondback turtle and diamond python,RM20 4EH,51.474639977045100,0.289579328978805
Condor and Boto,RM20 4XT,51.478436186348300,0.298713075081169
boomslang and Fox,RM3 0AP,51.591605828364800,0.218246000000000
monitor and Boto,RM3 0BS,51.593880871341700,0.234410690633056
Parrotbill and flying lizard,RM3 0FB,51.591623048101000,0.232552925394267
Wallaby and cobra de capello,RM3 0FU,51.591738000000000,0.228949000000000
Tahr and horned viper,RM3 0GQ,51.591294331687900,0.223816558834365
cobra and Kangaroo,RM3 0JL,51.590594348000000,0.224735177400000
smooth snake and bearded dragon,RM3 0JW,51.591708000000000,0.226248000000000
Scimitar babbler and worm lizard,RM3 0JX,51.600092454359400,0.247726356660825
chuckwalla and Eagle,RM3 0NT,51.589832636271700,0.234486316800594
death adder and tree snake,RM3 0QH,51.592089000000000,0.235117023895495
giant tortoise and bushmaster,RM3 0RA,51.593637411432300,0.238009000000000
Linsang and terrapin,RM3 0RG,51.590002668664600,0.229802606155030
carpet snake and tuatara,RM3 0RR,51.590802000000000,0.237469340073471
flying dragon and Chipmunk,RM3 0TA,51.598467923656200,0.235791051549310
flying lizard and Moluccan boobook,RM3 0WZ,51.590639407679400,0.221835536989267
Elephant and skink,RM3 3DN,51.605512000000000,0.223861000000000
Peafowl and cobra,RM3 3DZ,51.605533000000000,0.223874000000000
Kākāriki and king snake,RM3 7AL,51.598017339311700,0.203510829520390
Pheasant and Goose,RM3 7AP,51.598267732170200,0.202627692914870
Badger and milk snake,RM3 7BH,51.597064694421800,0.203479151544293
Recurvebill and deaf adder,RM3 7BL,51.595748627325900,0.207472764078289
frill-necked lizard and cayman,RM3 7BT,51.596411188448600,0.205815000000000
chuckwalla and horned viper,RM3 7BX,51.596213860149300,0.203293574786512
Condor and Vole,RM3 7JP,51.602041788236400,0.209958572086207
blue tongue and anaconda,RM3 7LL,51.616064851729100,0.217414667085015
Nukupuʻu and anole,RM3 7LU,51.620051171576000,0.226782617500585
Boto and Grackle,RM3 7QJ,51.607379423306900,0.209221270365515
anole and krait,RM3 8BS,51.602251000000000,0.217045000000000
frilled lizard and Rabbit,RM3 8DB,51.607209004741400,0.219207217781781
soft-shelled turtle and Pratincole,RM3 8EB,51.606071258114600,0.218501831530027
Thicketbird and Capuchin,RM3 8FU,51.599125231400000,0.213214000000000
Thicketbird and Maya,RM3 8HP,51.606029552276800,0.219756265498996
Komodo dragon and Towhee,RM3 8JN,51.599685180340800,0.212847688506228
tokay and Piping shrike,RM3 8NB,51.600884461666000,0.223144325129730
Rat and chuckwalla,RM3 8NH,51.600897200734700,0.223895855124170
alligator and boa constrictor,RM3 8NL,51.601144626653200,0.224601094978489
hoop snake and copperhead,RM3 8NS,51.601903702581200,0.224407146053259
Chipmunk and cycling lizard,RM3 8PN,51.598370050391300,0.227223473018032
thorn lizard and terrapin,RM3 8QF,51.606956000000000,0.220711713000000
massasauga and Towhee,RM3 8QG,51.607050000000000,0.221114892400000
diamond snake and rat snake,RM3 8RH,51.599984980171900,0.222205093524589
saltwater crocodile and Philippine hawk-owl,RM3 8UF,51.597772596628900,0.222212595668248
elapid and Prion,RM3 8UG,51.596981819895600,0.224497000000000
Grouse and Jay,RM3 8YW,51.605371057718300,0.222713626551565
Dolphin and giant tortoise,RM3 9BA,51.610841293272900,0.225898495857231
Old World warbler and Fox,RM3 9BE,51.609732321179900,0.228891786430071
cayman and Argus,RM3 9BS,51.610321000000000,0.225902000000000
Mamo and Ice seal,RM3 9FE,51.606532000000000,0.227493000000000
Ground sloth and Mockingbird,RM3 9HL,51.602212943032600,0.229909825496573
Myna and Badger,RM3 9LF,51.600031388557000,0.234914796490805
Kestrel and tokay,RM3 9PB,51.605583432075700,0.232371276567272
Coati and Crow,RM3 9QH,51.604438649127500,0.236763154509880
Magpie and Lemming,RM3 9RP,51.610380000000000,0.234643000000000
Wader and Pheasant,RM3 9TF,51.604753695200000,0.236793032400000
Linsang and Jerboa,RM3 9TX,51.606908913319300,0.241621718636044
wall lizard and Solitaire,RM3 9XT,51.608933437747100,0.241393000000000
gaboon viper and boomslang,RM3 9YU,51.609808691107100,0.221543853820794
Grosbeak and caiman,RM4 1PE,51.609669572588500,0.176170766764900
indigo snake and Parrotbill,RM4 1QH,51.617007294683200,0.196947838120968
Dorcopsis and Scimitar babbler,RM5 2BG,51.593203600563300,0.144428612397937
jew lizard and gopher snake,RM5 2DQ,51.599625603908100,0.148788796267288
adder and frilled lizard,RM5 2HJ,51.605655692146800,0.159298387332345
Eagle and bicycle lizard,RM5 2HT,51.608012350889800,0.159756846019762
diamondback and chameleon,RM5 2NR,51.600891384844600,0.161151760611754
goanna and leguaan,RM5 2QP,51.604657972035800,0.163179157755399
Fish eagle and Duck,RM5 2RA,51.601987331275100,0.163167743736202
slowworm and Jay,RM5 2RU,51.609237188585800,0.169896236703920
cobra de capello and rock snake,RM5 2TS,51.608713247296900,0.161739903727776
brown snake and carpet snake,RM5 3BL,51.589194380641700,0.170269107365199
massasauga and Pitohui,RM5 3DE,51.607217108610000,0.171662975452779
Schneider python and Parrotbill,RM5 3DJ,51.608434006906000,0.174421862111260
viper and frill-necked lizard,RM5 3EH,51.592269157955700,0.164467358748996
hoop snake and Cuscus,RM5 3ES,51.592086439841600,0.171922918481860
Bronzewing pigeon and Old World warbler,RM5 3JA,51.594837038251600,0.164199612317395
loggerhead and racer,RM5 3JB,51.594715116673300,0.164959053421672
Parrotlet and puff adder,RM5 3LL,51.594550759708800,0.168503081779501
boa constrictor and Tahr,RM5 3PH,51.599766466165500,0.163148831898521
Peafowl and Marmoset,RM5 3PJ,51.600123020759000,0.164783075286717
tuatara and garter snake,RM5 3QX,51.605177042880100,0.166727622562123
Coati and Herring gull,RM5 3SS,51.601177962861600,0.175331499585611
Maya and Snipe,RM5 3YD,51.605741261511000,0.177542630546156
hoop snake and Bronzewing pigeon,RM5 3YH,51.606183889459600,0.176466211668373
diamond python and Grosbeak,RM5 3YP,51.604177542030600,0.173120923030555
anole and Minke whale,RM6 4AB,51.570384675343400,0.129356729569905
diamond python and River dolphin,RM6 4AJ,51.569920326181400,0.129176293613146
Fox and amphisbaena,RM6 4BY,51.573416744901400,0.121330155741777
worm lizard and loggerhead,RM6 4DQ,51.573667177035300,0.118917296168838
Pheasant and tokay,RM6 4LX,51.570631445785700,0.127651005933345
Parrotbill and Triller,RM6 4NU,51.570988364821200,0.125820526286842
tiger snake and racer,RM6 4QA,51.572143509838700,0.114646960803479
mud turtle and slowworm,RM6 4SH,51.573147432480300,0.116324316521496
python and asp,RM6 4UQ,51.576938565944800,0.120022020771447
Black jay and Partridge,RM6 4XE,51.574649399609300,0.121791648692517
Francolin and water snake,RM6 4XF,51.575908646599800,0.120782303496595
whip snake and Myna,RM6 4YB,51.577746677755000,0.122080245816251
Chickadee and king snake,RM6 4YU,51.576470378335100,0.122540362391106
American sparrow and Old World vulture,RM6 5AR,51.578289475090500,0.126868470450193
Nukupuʻu and tortoise,RM6 5DH,51.580694415942600,0.123675405488973
giant tortoise and Snipe,RM6 5EP,51.582390578983800,0.136745505744841
Vulture and viper,RM6 5ET,51.581949272468000,0.132827533493460
sand lizard and Puffleg,RM6 5HP,51.584708555771800,0.133404250541912
thorny devil and Elephant,RM6 5JG,51.584212084254800,0.127563673824271
diamond python and python,RM6 5QD,51.588667618329900,0.138714684345998
chameleon and Philippine hawk-owl,RM6 5QH,51.588934892216300,0.139838852826845
Grouse and king cobra,RM6 5UA,51.576931521469700,0.130341083827991
bearded dragon and Mouse,RM6 5UQ,51.586893180647200,0.134921317074074
Ice seal and ringhals,RM6 6AX,51.573037091757800,0.146654189976676
racer and lizard,RM6 6ED,51.570994430883200,0.139833163374591
diamond python and gopher snake,RM6 6HH,51.571204244229000,0.143118839225561
Rat and boomslang,RM6 6NU,51.571703950807100,0.136922545146340
Asiatic leopard and Hawaiian honeycreeper,RM6 6RS,51.575630730126300,0.140050935832994
River dolphin and flying lizard,RM6 6SH,51.578081462634300,0.139300086662201
Towhee and Vole,RM6 6TD,51.580392945680600,0.138787997837894
diamond python and rat snake,RM6 6UB,51.573056325015500,0.133767750639596
coral snake and Cuscus,RM6 6XA,51.577345065209800,0.137764483495762
sand lizard and Old World quail,RM6 6XS,51.577822762124600,0.134741534815529
Tit-tyrant and Black cockatoo,RM7 0BF,51.570125911700000,0.175378247300000
Masked owl and agama,RM7 0EJ,51.570171000000000,0.168621670328895
boa constrictor and taipan,RM7 0EU,51.567467717639500,0.153678846107850
Mink and Parrotbill,RM7 0FU,51.571392000000000,0.176115000000000
Grosbeak and asp,RM7 0GW,51.570632539800000,0.175214835500000
giant tortoise and Dolphin,RM7 0HJ,51.569127857709400,0.148475824833531
Armadillo and Darwin's finches,RM7 0LS,51.564613232150900,0.163658591463120
cerastes and Darwin's finches,RM7 0PR,51.566798487403700,0.183559768638041
dukite and Quetzal,RM7 0QD,51.566502116250100,0.181121405839128
Recurvebill and moloch,RM7 0YH,51.557814011579900,0.179724639628524
Night heron and hoop snake,RM7 1RR,51.570252000000000,0.170664000000000
amphisbaena and snake,RM7 1TJ,51.570143000000000,0.170731000000000
Dolphin and Tree warbler,RM7 1TN,51.570143000000000,0.170731000000000
jew lizard and Komodo dragon,RM7 1TX,51.570143000000000,0.170731000000000
Moluccan boobook and dukite,RM7 7BD,51.579906596363200,0.164818015538086
Moluccan boobook and perentie,RM7 7BX,51.578563292198100,0.168896535239181
rattlesnake and amphisbaena,RM7 7JE,51.579083616486600,0.168964612055127
leathery turtle and moloch,RM7 7JT,51.581734238429000,0.168600073890108
Thrasher and Logrunners,RM7 8DU,51.585516672936600,0.159527026539482
chameleon and viper,RM7 8EP,51.587281702819700,0.159394191601167
Hawaiian honeycreeper and whip snake,RM7 8QR,51.589243742513800,0.160772107403769
chuckwalla and alligator,RM7 9BQ,51.574061999300000,0.165319544000000
Parrotbill and Parrotbill,RM7 9EJ,51.573749528769000,0.164655314208482
goanna and American sparrow,RM7 9HJ,51.571588773236600,0.160887152730298
Hawaiian honeycreeper and swift,RM7 9HT,51.571227374455200,0.162442989603965
copperhead and soft-shelled turtle,RM7 9NH,51.574867969244900,0.162141000000000
Kite and bicycle lizard,RM7 9PA,51.572998735395500,0.155123686467887
Fulmarine petrel and Mamo,RM7 9PH,51.572675151175500,0.157561723102792
sand viper and Rat,RM8 1AD,51.561632462526300,0.147242378937085
Civet and Stint,RM8 1BB,51.563828492769900,0.146653271269989
Piping shrike and River dolphin,RM8 1LT,51.564514310125400,0.148489179005406
New World blackbird and Piping shrike,RM8 1NS,51.566390877613000,0.150121601319302
agama and amethystine python,RM8 1RH,51.562055267390700,0.134839000000000
Pitohui and tree snake,RM8 1ST,51.564437113240500,0.131026709271295
amphisbaena and Civet,RM8 1UA,51.562890969228200,0.128516035911892
copperhead and blind snake,RM8 1UH,51.563473106948700,0.125671961559108
Siskin and Goose,RM8 1YD,51.563186151369800,0.124634164320237
adder and Darwin's finches,RM8 2AD,51.550415517224400,0.121702306945839
mud turtle and Jackal,RM8 2AJ,51.551394961198400,0.115271234052376
viper and Macaw,RM8 2AN,51.546930328662500,0.124958450156062
agamid and Black cockatoo,RM8 2EN,51.545091000000000,0.121325000000000
Lemming and bicycle lizard,RM8 2EW,51.543412450269600,0.116098023183850
sea snake and horned viper,RM8 2GU,51.555186000000000,0.123610000000000
slowworm and wall lizard,RM8 2HT,51.549497808361300,0.116250601419424
cycling lizard and Marmoset,RM8 2JF,51.551899236311800,0.117227547445179
Kite and flying lizard,RM8 2JL,51.545958417049600,0.113547925006288
Pitohui and blue tongue,RM8 2JT,51.560167540735700,0.123974069098411
rock snake and Mamo,RM8 2NQ,51.549167319007100,0.116624708574131
Booted eagles and Masked owl,RM8 2TP,51.557826319824600,0.123648579744502
taipan and Prion,RM8 2YH,51.547527071380100,0.122793901204519
krait and Tree warbler,RM8 2YS,51.548039152120800,0.114855941012600
Perching duck and Puffleg,RM8 3AJ,51.555830116669400,0.137996053566533
Warbler and Old World warbler,RM8 3BX,51.558762927982600,0.127041000000000
Polecat and Darwin's finches,RM8 3DU,51.558009320386100,0.145715588339632
Argus and Thrasher,RM8 3LF,51.554203230070800,0.137458140657497
fer-de-lance and rock python,RM8 3NA,51.552440164964800,0.132543117911257
tuatara and Songlark,RM8 3PL,51.560412876385600,0.142135291722967
River dolphin and Bunting,RM8 3QL,51.556195464667800,0.129775849519269
moloch and mountain devil,RM8 3QU,51.557455480618400,0.129719305978051
massasauga and Jerboa,RM8 3UB,51.558423434179200,0.129403858482169
blue racer and pit viper,RM8 3UD,51.558245544736900,0.127808600454335
galliwasp and B,RM8 3XA,51.552590111676900,0.127256152011983
Old World warbler and moloch,RM8 3YL,51.552265078894600,0.124846453308577
Mink and sidewinder,RM9 4DX,51.536645872028500,0.112828046997928
adder and smooth snake,RM9 4HN,51.537903388054600,0.121379868664215
Argus and Siskin,RM9 4JD,51.536001469845100,0.123613005799158
boa constrictor and Asiatic leopard,RM9 4NA,51.542804225743300,0.117411039148771
sand lizard and Flameback,RM9 4QD,51.535976223029700,0.112061627665795
Goose and deaf adder,RM9 4QX,51.537074504475900,0.111997115227473
monitor and jew lizard,RM9 5AY,51.553945209076300,0.146663917041365
Coati and water snake,RM9 5DT,51.545873260505400,0.143024350174990
bushmaster and thorn lizard,RM9 5ES,51.544910481611400,0.146988594495213
Black jay and frill-necked lizard,RM9 5QT,51.548746000000000,0.132500000000000
Parrotlet and tortoise,RM9 5RX,51.541793524383200,0.135463210780704
diamondback turtle and alligator,RM9 5TR,51.553763608228600,0.141346813974293
Moluccan boobook and thorn lizard,RM9 5UN,51.552719532244500,0.138932063960934
Eagle and Triller,RM9 6AB,51.537689000000000,0.128840000000000
crocodile and New World blackbird,RM9 6BG,51.532428137003300,0.147987217653674
Old World quail and Siskin,RM9 6ES,51.538852683989300,0.136955069869382
amphisbaena and bushmaster,RM9 6TP,51.536983487268500,0.128475021584473
Grackle and flying lizard,RM9 6XN,51.533104000000000,0.136749236028748
Polecat and loggerhead,RM9 6XT,51.533959000000000,0.133655000000000
Chicken and Civet,RM9 9JU,51.553494000000000,0.141982000000000
Mouse and Mamo,RM9 9LF,51.553492752900000,0.141954327800000
carpet snake and rattlesnake,SE18 1AD,51.486395847898200,0.085095428828351
goanna and Macaw,SE18 1DF,51.488301202862000,0.091722054572159
Badger and Pheasant,SE18 1EB,51.489388125405300,0.095315426967102
Warbler and blue tongue,SE18 1ET,51.488126087253900,0.093975555612128
rock snake and diamondback terrapin,SE18 1HE,51.486793347653900,0.096089517103749
tree snake and New World blackbird,SE18 1HJ,51.487277596656200,0.099683995097487
Logrunners and Marsh harrier,SE18 1JL,51.486360480477900,0.096660228530631
Greenbul and thorny devil,SE18 1LR,51.485227075088300,0.100022000000000
saltwater crocodile and Ice seal,SE18 1NR,51.485509670031200,0.096966887134423
glass snake and Flameback,SE18 1PG,51.482990454801700,0.095526237893004
Boto and Dolphin,SE18 1SH,51.488233408810300,0.093505121429560
Kangaroo and diamondback terrapin,SE18 2AW,51.478151147921200,0.103124381886389
kabaragoya and Snipe,SE18 2AY,51.475718668369100,0.105374195081307
bushmaster and Boto,SE18 2BJ,51.478955813420900,0.099343000000000
Magpie and Piping shrike,SE18 2BL,51.479155811944500,0.098749264956309
Old World quail and Elephant,SE18 2DL,51.475139482611900,0.094028745449749
chuckwalla and tiger snake,SE18 2JD,51.472453000000000,0.090435000000000
Komodo dragon and Coati,SE18 2PP,51.475473750285300,0.083848455131492
boomslang and water snake,SE18 2TW,51.478452511715500,0.077647578648216
Boto and Kite,SE18 6SH,51.492785648658100,0.075187553780714
Polecat and Pheasant,SE18 7DD,51.490756128348000,0.076331000000000
Francolin and moloch,SE18 7DW,51.490535807327300,0.080861902169371
cycling lizard and Thicketbird,SE18 7PT,51.485787948822000,0.081855646258864
Jay and Badger,SE18 7QD,51.486656880604600,0.084070244176873
Magpie and Coati,SE18 7TJ,51.483986197240700,0.081528723346448
blindworm and Hawaiian honeycreeper,SE18 9JP,51.490736000000000,0.084954610200000
Viscacha and Lemming,SE2 0BW,51.487474580379300,0.111749514519291
bearded lizard and worm lizard,SE2 0DT,51.480868536643500,0.135870679370659
Chicken and Vulture,SE2 0DX,51.484526978086600,0.136949064092423
flying dragon and Myna,SE2 0ET,51.485961400399900,0.106883091918724
Black jay and Bunting,SE2 0HZ,51.486303870059500,0.102332808031193
Vulture and Jay,SE2 0JR,51.486504112292600,0.117192631945163
Rabbit and Elephant,SE2 0LZ,51.487515927883700,0.116937014384566
Boto and rattlesnake,SE2 0NG,51.488424129043200,0.114948022411083
thorny devil and green turtle,SE2 0NH,51.488573022669000,0.113672890752632
saltwater crocodile and bicycle lizard,SE2 0NS,51.476008000000000,0.110341000000000
viper and Armadillo,SE2 0RH,51.482828891328400,0.104045351327443
Parrotlet and Grosbeak,SE2 0RZ,51.480324000000000,0.124311750564947
king snake and Kākāriki,SE2 0YP,51.487273680193300,0.120886988521117
king cobra and box turtle,SE2 8BZ,51.498489000000000,0.104477000000000
Kangaroo and Treepie,SE2 9AB,51.499676817300000,0.121333080100000
Crow and Dorcopsis,SE2 9AH,51.494316073992700,0.111864023240745
Night heron and wall lizard,SE2 9AR,51.505805000000000,0.133982000000000
B and milk snake,SE2 9BY,51.496424782341100,0.110621628173594
thorny devil and gopher snake,SE2 9DA,51.496139378945500,0.108490595492708
Flameback and blue racer,SE2 9DN,51.494497383616600,0.104280123556726
puff adder and Mole,SE2 9JN,51.492727273641700,0.114196399167821
indigo snake and deaf adder,SE2 9JS,51.493338536969300,0.114210277326780
Chickadee and Recurvebill,SE2 9LX,51.491367261300700,0.102810656990170
brown snake and flying dragon,SE2 9NQ,51.491235137754900,0.119140505394362
swift and tiger snake,SE2 9PB,51.495336863906800,0.111608663968409
Scimitar babbler and Jay,SE2 9SQ,51.494813515683100,0.119681052168954
dugite and hognose snake,SE2 9UW,51.497930677249400,0.126323566740756
mountain devil and anaconda,SE2 9UX,51.499278652253700,0.124887863969303
Siskin and Jackal,SE28 0DL,51.496515564059100,0.084937749528398
chameleon and Condor,SE28 0EX,51.492244974352500,0.082351509168740
python and flying lizard,SE28 0FQ,51.498567000000000,0.090548000000000
diamond snake and carpet snake,SE28 0JR,51.498992126512500,0.091808122678550
Prion and galliwasp,SE28 0LN,51.502521324538800,0.094102292495894
chuckwalla and chameleon,SE28 8AA,51.503257182957500,0.117724159952346
Skunk and Prion,SE28 8AE,51.502726435218600,0.119226929287203
horned toad and Grosbeak,SE28 8AY,51.502326833633000,0.113963478894964
Zebra and tiger snake,SE28 8GF,51.507073170467700,0.108073093486269
Thrasher and anole,SE28 8HE,51.505711774297100,0.122723025220608
Herring gull and Mole,SE28 8LT,51.509313562904700,0.118984988304432
Viscacha and Night heron,SE28 8NE,51.508455334530200,0.125660708887783
deaf adder and python,SE28 8NH,51.506649623380600,0.127046528526744
bandy-bandy and Condor,SE28 8PY,51.510357520344700,0.124408974925741
mud turtle and Towhee,SE28 8QL,51.511255796801700,0.129422885147349
Night heron and racer,SE28 8QW,51.510935744771200,0.130705024951778
hognose snake and anaconda,SE28 8QY,51.510135352183500,0.129716511981885
harlequin snake and boa constrictor,SE28 9EH,51.498489000000000,0.104477000000000
Flameback and taipan,SE9 2BG,51.438210000104900,0.075590574316374
wall lizard and death adder,SE9 2EP,51.446105532900400,0.077632393384171
harlequin snake and Jay,SE9 2EX,51.443412493431600,0.080402634998461
giant tortoise and Coati,SE9 2HW,51.439060979006600,0.076794670719188
Chicken and Hawaiian honeycreeper,SE9 2LA,51.449984823425000,0.083522340409638
Old World quail and anole,SE9 2PH,51.450202905935900,0.081877121425545
king cobra and Zebra,SS14 0QT,51.570844000000000,0.459708000000000
fer-de-lance and deaf adder,SS14 0QY,51.570844000000000,0.459708000000000
Bronzewing pigeon and blue tongue,SS14 1DJ,51.568650000000000,0.453024861950944
horned viper and Grouse,SS14 1HP,51.570027156464100,0.459836586718731
coral snake and ringhals,SS14 1JT,51.572118877182000,0.472418759495577
New World blackbird and skink,SS14 1LX,51.569753262030500,0.467311597944317
rat snake and diamond python,SS14 1ND,51.570300366020500,0.472507671472844
Wader and tokay,SS14 1PA,51.572201161678300,0.485123410139948
Scimitar babbler and racer,SS14 1PL,51.568947878907900,0.477788165165255
B and Komodo dragon,SS14 1PU,51.568086256844700,0.484509316452427
coral snake and anaconda,SS14 1QF,51.571034505541000,0.479056191736258
Kestrel and Bunting,SS14 1RF,51.573077746478700,0.478546801925990
slowworm and wall lizard,SS14 1RS,51.572246441640000,0.477029501498630
gopher snake and Tree warbler,SS14 1SQ,51.567622461995800,0.487297990035849
Goose and dugite,SS14 2AU,51.573414085042500,0.454852698290840
Mole and gavial,SS14 2DF,51.575232707780500,0.460767187286968
Mouse and cobra,SS14 2DT,51.576172736986500,0.463112860744209
milk snake and Tahr,SS14 2EW,51.572569674223100,0.454807192086026
diamond python and rattlesnake,SS14 2EY,51.578579048511200,0.473981916656292
Tattler and alligator,SS14 2GA,51.581609983588900,0.468848937657735
Grackle and bicycle lizard,SS14 2JY,51.576294969556200,0.464144234532800
Prion and Night heron,SS14 2QW,51.575348359132800,0.473229111825778
Elephant and giant tortoise,SS14 2RQ,51.576696190135500,0.483925323613505
mud turtle and Dorcopsis,SS14 2ST,51.581118323748100,0.481496078265845
Peafowl and Wallaby,SS14 2TT,51.580074299658400,0.463612568272462
