name,id,postcode,lat,lon
Komodo dragon and amethystine python,1352072,DA2 8BL,51.425939961298300,0.288309005593315
Zebra and loggerhead,460016,RM15 5XE,51.504778704598000,0.286204967145959
copperhead and Gull,283380,SS14 2PW,51.575063123114800,0.479073392790431
cycling lizard and Rat,1357449,DA1 3BW,51.449422742968000,0.198003222076689
Ice seal and Prion,456157,RM5 3LH,51.595515636274200,0.166412117330591
Polecat and Maya,457968,RM2 5AN,51.585863750902600,0.193436000000000
Maya and Parrotbill,1351446,DA4 9BE,51.402163232111600,0.241256362562086
cerastes and Chickadee,1354064,DA15 7JU,51.427341266887300,0.101624680980330
bushmaster and hognose snake,1028256,IG2 7QG,51.580713056797900,0.098647919760099
Guillemot and bushmaster,389909,SE18 1PL,51.486070484289900,0.090237182263682
Buzzard and Greenbul,1355671,DA12 2BE,51.444426448772200,0.372602059351834
Partridge and alligator,1437997,CM11 2XA,51.604921000000000,0.480735684274974
Schneider python and galliwasp,1030665,IG1 2UQ,51.551335758068900,0.083909512955008
Fox and Rabbit,1351002,DA6 8AS,51.457838891368400,0.137285661717834
Old World warbler and Wallaby,459448,RM16 2QA,51.495504341453000,0.336512351014959
hawksbill and Jackal,1028860,IG11 9DB,51.551374109075700,0.105432699064958
Bronzewing pigeon and Philippine hawk-owl,804896,ME3 7HJ,51.430145200260800,0.470513817048145
Badger and Vole,2593183,RM1 3FD,51.577471000000000,0.185801000000000
hognose snake and Skunk,387127,SE2 0SG,51.480211663475100,0.128970161820656
Black cockatoo and leguaan,1029494,IG11 0RD,51.529396390100400,0.108902372003989
smooth snake and Fish eagle,1531735,BR8 7PF,51.413772230000000,0.207682655000000
dukite and garter snake,1026563,IG6 3TW,51.609815416234800,0.116065161103178
Meadowlark and gaboon viper,453945,RM9 5UL,51.552367934318800,0.143906607505452
Tahr and glass snake,460463,RM14 2RT,51.556256330649800,0.231483983704965
Jerboa and thorny devil,462083,RM11 2SE,51.587864727087900,0.223042724957540
Bunting and gavial,1358116,DA1 1DS,51.443874515624600,0.219765000000000
tortoise and snapping turtle,456277,RM5 2ET,51.603157085392200,0.155309616715946
pit viper and amphisbaena,1028617,IG11 9TF,51.539905599593900,0.085449472076442
diamondback and Minke whale,1353111,DA16 3RT,51.465619714720400,0.089791924965251
deaf adder and Parrotlet,454230,RM9 5AY,51.553945209076300,0.146663917041365
Siskin and Warbler,281285,SS17 9ED,51.532068035999600,0.460197239240634
thorn lizard and Petrel,1357189,DA1 5JW,51.455582198632400,0.222366824225090
Kestrel and green turtle,1355822,DA12 2QE,51.442608701447100,0.398281862411091
king snake and snake,1349571,DA8 3BH,51.475371118356700,0.169325803598906
Kangaroo and Hawaiian honeycreeper,1027782,IG3 9BY,51.554249216950100,0.105075005979376
Herring gull and tortoise,1350246,DA7 5HY,51.469484350442900,0.140263297251838
king snake and American sparrow,1765437,DA10 1BJ,51.438474000000000,0.311872000000000
Boto and Petrel,1350057,DA7 6HR,51.464447315745400,0.155043874487225
Old World quail and chameleon,1806786,RM8 1BF,51.563626469400000,0.135798000000000
terrapin and frill-necked lizard,1531643,BR8 7JZ,51.401056020000000,0.179825052000000
cerastes and agamid,461149,RM13 7PT,51.543124902114500,0.194396523359395
indigo snake and Towhee,389603,SE18 2HT,51.475358491977100,0.091331475392660
mountain devil and horned viper,1031149,IG1 1QE,51.559626490269100,0.077232000000000
mamba and horned toad,460768,RM13 9RH,51.524184758874600,0.213596284896791
alligator and Fox,1349958,DA8 1DN,51.478179822774400,0.160890147501778
skink and slowworm,457994,RM2 5ED,51.586421000000000,0.196165000000000
Goose and Tit-tyrant,454204,RM9 6RJ,51.519269565960500,0.133116000000000
diamond python and Myna,1806493,RM14 2BF,51.553733000000000,0.248801000000000
death adder and brown snake,281477,SS17 8DU,51.525560150818600,0.433751243297612
Linsang and smooth snake,2591746,DA1 9NJ,51.444701000000000,0.209648000000000
rock python and Chickadee,455698,RM7 0EH,51.570194724904100,0.169667035287978
boa constrictor and kabaragoya,1353282,DA16 2QQ,51.459529303690900,0.083856244536116
Vole and Rat,1352226,DA2 7BL,51.426838350705500,0.207247925983554
deaf adder and Skunk,1353130,DA16 2AX,51.461912014424800,0.108021017935365
Linsang and Duck,1806616,RM3 0FJ,51.593812496400000,0.227173696100000
sidewinder and Siskin,283681,SS14 2EX,51.579478624378500,0.471836768685392
anaconda and water snake,456772,RM3 9JE,51.615196432824900,0.221489177971287
tuatara and giant tortoise,1357860,DA1 1SB,51.442665015770300,0.228690209716324
amethystine python and horned viper,1355819,DA12 2PZ,51.440095833905100,0.389660038334177
White ibis and Kākāriki,1027076,IG6 2DS,51.591016471966800,0.083126484593003
king snake and Tattler,1355964,DA12 1HE,51.436811235668800,0.373387245857498
fer-de-lance and hoop snake,2377255,RM16 2EN,51.486493000000000,0.355483000000000
Civet and Maya,461019,RM13 9DN,51.507291255997300,0.211941454262354
leathery turtle and frilled lizard,382783,SE28 0JG,51.500002757204400,0.096148078989728
Black cockatoo and New World blackbird,1027790,IG3 9DH,51.553553989089300,0.100715327455505
Dorcopsis and loggerhead,2636773,RM8 3BF,51.555764000000000,0.134875000000000
Capuchin and horned viper,458405,RM18 8AT,51.464017038869500,0.372884002752747
Tree warbler and ringhals,1355411,DA12 4UJ,51.432333840755400,0.409023535415668
Recurvebill and Siskin,1806835,RM9 4BU,51.533509852900000,0.117239149200000
Marmoset and Kangaroo,1352940,DA16 3BL,51.473647797396500,0.096984429180473
harlequin snake and brown snake,1350172,DA7 6QS,51.466884023962400,0.168232088962778
constrictor and green turtle,455361,RM7 0SD,51.561333986167900,0.177584515567182
gavial and Francolin,1026581,IG7 5PY,51.610565630828600,0.080641671674482
Greenbul and Thrasher,2647304,SS15 6NE,51.570366000000000,0.421296000000000
blind snake and taipan,387032,SE2 9RZ,51.492553263458400,0.122831954967527
Lemming and deaf adder,1357693,DA1 2PB,51.442867286554700,0.204682204580163
brown snake and Wallaby,804919,ME3 7JQ,51.426527666281000,0.466348105904906
Kangaroo and Jerboa,457197,RM3 7UT,51.609317724439900,0.217071376039419
Jackal and anole,1436419,CM14 4XD,51.623691280915900,0.302393187178587
moloch and habu,387380,SE2 0AE,51.482490104494500,0.122839849178091
bicycle lizard and Armadillo,1026478,IG7 5JG,51.605221627392500,0.089885466996962
black snake and diamond python,1355049,DA12 5EE,51.413200568194100,0.381526369866835
Fulmarine petrel and gopher snake,1353887,DA15 8QT,51.450619291168600,0.093338287987634
copperhead and White ibis,1436544,CM13 3XD,51.568413000000000,0.338750594534013
gavial and hoop snake,456429,RM3 9TB,51.604078536436800,0.237727480836082
bull snake and snapping turtle,1028226,IG2 6DS,51.572751608869000,0.075046765154637
Jackal and Fox,457682,RM2 5UN,51.576518338433500,0.200002688980052
Condor and Kangaroo,1352309,DA2 7LD,51.418780085487000,0.259645354298985
racer and box turtle,457353,RM3 0TR,51.587602646235100,0.230219216886755
Schneider python and Schneider python,1533939,BR5 3DN,51.410080500000000,0.107318406000000
anaconda and mud turtle,1350006,DA8 1HW,51.473139444703900,0.160637525860910
tortoise and Triller,457688,RM2 5UU,51.579975937261800,0.203604950973498
milk snake and constrictor,455956,RM6 4JH,51.567407199074400,0.121959455875384
Parrotbill and diamondback turtle,454479,RM9 4HB,51.539319241073300,0.126622781331927
blindworm and swift,463100,RM1 4YX,51.599669877752700,0.183418047107648
leguaan and python,2639537,CM12 2FL,51.622864000000000,0.416720000000000
diamondback terrapin and cayman,458487,RM17 6RR,51.473046307321800,0.329388283687669
black snake and Egret,458376,RM18 7RA,51.462839805284100,0.362600915699247
alligator and Grackle,2624726,DA10 1AB,51.437536000000000,0.306544000000000
Guillemot and Myna,457238,RM3 0EZ,51.591274515166800,0.216308106182771
gopher snake and Chicken,1350958,DA6 7PA,51.451161104375500,0.150344861687172
water snake and rattlesnake,1350868,DA6 7AY,51.458135865104100,0.138753451651801
monitor and Lemming,1356494,DA11 0SP,51.435498908122000,0.364009792728094
boomslang and Komodo dragon,283347,SS14 2NB,51.580722048768200,0.471298003252286
Parrotbill and Civet,1357052,DA1 5AY,51.452494092361600,0.209708795315519
tiger snake and flying lizard,1357372,DA1 4NW,51.455007409202700,0.188872009487843
sand lizard and Meadowlark,1437227,CM12 9NQ,51.620353235684500,0.408669827030257
rattlesnake and Kestrel,1355316,DA12 5TT,51.414081569827800,0.383312374069207
Dolphin and Grackle,1350872,DA6 7BH,51.458152644377900,0.139805086604166
bull snake and Petrel,457527,RM2 5NP,51.587529690682500,0.194500323450439
Parakeet and cobra de capello,1349232,DA8 3NN,51.469749004186700,0.165516945120350
ringhals and Skunk,459017,RM17 5NP,51.488246226198300,0.336544536654077
bandy-bandy and indigo snake,463208,RM10 7LT,51.557568371335800,0.150643165426129
Tahr and sea snake,2646145,RM12 9HA,51.561888000000000,0.216392000000000
Puffleg and flying dragon,459173,RM16 3HH,51.514366954031400,0.365351000000000
amphisbaena and Skunk,454439,RM9 4AJ,51.540976593511600,0.125978986857617
sidewinder and chameleon,1357917,DA1 1XD,51.446423051634700,0.234414027580804
Quetzal and Grosbeak,463148,RM10 7DA,51.553945573598800,0.161825127590756
New World blackbird and glass snake,456219,RM5 3TE,51.599031462247300,0.169351900480300
Rat and Kite,460265,RM14 3SP,51.553581858550200,0.361295000000000
Bronzewing pigeon and Chicken,1354428,DA13 9JR,51.404667990112200,0.354280691611795
viper and Ibex,1436303,CM14 5WG,51.608868991599000,0.292384904363877
cerastes and carpet snake,1352664,DA17 6LX,51.478869092100500,0.146376941706777
Partridge and Bronzewing pigeon,1350665,DA6 8JF,51.455560844369000,0.129535823960438
Mockingbird and slowworm,463132,RM1 3HE,51.579870000000000,0.184836000000000
Vulture and Black jay,1436455,CM14 4YS,51.624880013125200,0.289435442817071
Jay and diamondback turtle,1028739,IG11 8PY,51.543917470561300,0.075753729403330
horned viper and slowworm,1437119,CM13 2UE,51.619013072281200,0.332999633912613
Skunk and Boto,458350,RM17 6LN,51.474122780539200,0.321364366631196
American sparrow and Pratincole,387481,SE2 0JT,51.487026363546900,0.115661165827438
hoop snake and racer,460527,RM14 1EU,51.562521352066800,0.271007182457858
Stint and Ice seal,1354086,DA15 7LY,51.432733227618200,0.099829172094063
terrapin and Stint,1028808,IG11 9AJ,51.547000001736000,0.103629769776044
ringhals and brown snake,1436911,CM13 3RU,51.604130907005800,0.326142097155812
Schneider python and Greenbul,1353036,DA16 3JZ,51.467919412149300,0.096980921125167
Myna and Parakeet,1351022,DA6 8DS,51.457368243309300,0.133996018646006
Snipe and pit viper,1356169,DA11 9EN,51.445601500890500,0.325645225630949
fer-de-lance and box turtle,456399,RM5 2QJ,51.605536363489300,0.163336448443963
Grouse and Stint,1806532,RM15 6DT,51.510696837400000,0.293577589800000
Old World vulture and Philippine hawk-owl,1027025,IG6 1RN,51.586509394575900,0.082718204681198
cobra de capello and bandy-bandy,1349576,DA8 3BS,51.475036672131000,0.163578499969380
Boto and Hawaiian honeycreeper,1026884,IG6 2UY,51.603950002249300,0.092614225724937
Capuchin and Boto,458765,RM16 6RU,51.483928077994500,0.289670120960353
Tit-tyrant and Bunting,459996,RM15 4JH,51.496524796683100,0.249383885681605
Stilt and fer-de-lance,1356340,DA11 8DJ,51.435257637799400,0.345134037657300
sand lizard and Greenbul,1028752,IG11 8QT,51.542086843678900,0.076550133135253
Eagle and Hawk,1351061,DA5 2JF,51.428377599382800,0.178334410771081
Linsang and dukite,281435,SS17 8AF,51.523451597483200,0.430481578546909
Logrunners and New World blackbird,459718,RM16 2AJ,51.498717847195600,0.330942174491092
brown snake and dugite,1353908,DA15 8RY,51.453013790002600,0.094714459994870
diamondback terrapin and gecko,283115,SS15 5HY,51.575079574987100,0.443569359828005
Skunk and slowworm,461218,RM13 7YL,51.534634179007400,0.182423685734098
death adder and grass snake,1350652,DA6 8HP,51.453145804283300,0.123363714105226
Kangaroo and boa constrictor,1765782,DA8 9EU,51.476454792012300,0.195702330280098
iguana and gecko,1436548,CM13 3YD,51.601432747079300,0.346481461618414
rock python and Stint,1349296,DA9 9SR,51.438305000000000,0.270840000000000
Scimitar babbler and Tit-tyrant,1436854,CM13 3NG,51.568165374979900,0.346586008659821
Parrotlet and asp,457980,RM2 5BN,51.577924010218600,0.191684902122972
Chipmunk and fer-de-lance,463155,RM10 7DJ,51.553377395177600,0.162057000000000
indigo snake and smooth snake,1030539,IG1 4BW,51.562509431703900,0.079081979131378
Scimitar babbler and Night heron,462967,RM10 8GF,51.543278570676800,0.157181000000000
Diving bird and Linsang,1350857,DA6 7AA,51.449761000000000,0.138952000000000
Ice seal and tortoise,382697,SE28 8TB,51.501909000000000,0.099276000000000
Towhee and amethystine python,1350577,DA7 5AB,51.463474275508600,0.152205025616505
White ibis and Night heron,804848,ME3 7BD,51.416720296443100,0.457147141043483
Minke whale and Petrel,1349168,DA9 9NF,51.449101687467100,0.280241377632690
River dolphin and fer-de-lance,1349318,DA9 9UB,51.443312000000000,0.276053000000000
Kite and horned toad,282189,SS16 6TW,51.568803459231700,0.402148197146644
turtle and milk snake,1026801,IG7 4NH,51.612487771521300,0.111986258402419
Puffleg and Badger,389719,SE18 2RE,51.477419670009300,0.082641046424172
racer and Black jay,1349282,DA9 9RY,51.446700975331200,0.275127764021334
Badger and turtle,1436144,CM14 5HL,51.609511618493300,0.298151326620075
Booted eagles and Greenbul,2624001,CM14 9QN,51.620308000000000,0.303622000000000
brown snake and bushmaster,2593960,RM3 0LN,51.592575000000000,0.229492000000000
galliwasp and Fox,454324,RM9 5QS,51.549600856265500,0.132410324459483
alligator and snake,388605,SE18 7DZ,51.489298400690000,0.084709287010105
carpet snake and crocodile,2615550,RM18 7DH,51.467156000000000,0.362796000000000
blindworm and Armadillo,1353423,DA16 3AH,51.463981727824500,0.096411668428555
smooth snake and Old World warbler,1356824,DA11 0LL,51.433666973089900,0.367195000000000
Greenbul and flying lizard,1356318,DA11 8BL,51.429668000000000,0.346315000000000
boomslang and python,1357300,DA1 4JU,51.454699272824200,0.186107970256676
Booted eagles and moloch,1356254,DA11 7PB,51.417033756590700,0.364106722704589
tuatara and Meadowlark,460090,RM15 4TU,51.500708716405800,0.257226631605234
asp and Parrotlet,283850,SS14 1LA,51.572097598486000,0.468304491910548
turtle and Towhee,1435890,CM15 8DG,51.622424467388900,0.320142905330811
Towhee and Mouse,1435876,CM15 8BN,51.617481870473400,0.313130029239092
snake and Myna,281887,SS17 0LJ,51.512132798331600,0.421173545306902
Moluccan boobook and New World blackbird,1438314,CM11 2JZ,51.621986011563700,0.438475236927796
diamond snake and Darwin's finches,389331,SE18 2TY,51.480121000000000,0.078968148782644
Snipe and snake,281508,SS17 8HP,51.533101830513200,0.444304939856091
black snake and cobra de capello,1026461,IG7 5GT,51.612546206242000,0.089629710713663
Herring gull and Civet,463799,RM1 1AU,51.575952007434300,0.180118000000000
Bronzewing pigeon and adder,1353883,DA15 8QP,51.449483998992300,0.095473999092405
Marmoset and perentie,1355540,DA12 3EH,51.414216588827400,0.432205000000000
Diving bird and Moluccan boobook,1030647,IG1 2TP,51.552604470680200,0.083361653560742
diamondback turtle and Chickadee,455067,RM8 1AL,51.561797041123300,0.145619772720178
Kākāriki and Argus,1436152,CM14 5JA,51.612552346370500,0.290273854083862
Hawaiian honeycreeper and sidewinder,1026906,IG6 3AQ,51.605070577673500,0.097344825476418
Parrotlet and Thicketbird,458407,RM18 8AX,51.464467293099600,0.376406011443424
American sparrow and White ibis,455886,RM6 5UH,51.578692016469700,0.133425543598204
tree snake and adder,804937,ME3 7LE,51.431347310000600,0.465960290035703
Chicken and Shearwater,461857,RM11 3RX,51.562287062761200,0.227883614896170
puff adder and moloch,283525,SS14 1RD,51.572252964816600,0.475442332028430
galliwasp and moloch,1531804,BR8 7SU,51.401496690000000,0.166733753000000
Herring gull and king snake,463388,RM1 4LB,51.585603710810800,0.176233093082668
Black jay and Wader,455714,RM7 0HA,51.568529301725500,0.152184999578874
Logrunners and Polecat,455207,RM7 7PN,51.585132000000000,0.168747000000000
bushmaster and boomslang,1531949,BR7 6SA,51.409928100000000,0.083656368000000
leathery turtle and Prion,1531806,BR8 7SX,51.403295650000000,0.168659177000000
turtle and milk snake,455265,RM7 8DL,51.586320000000000,0.162938259224125
Logrunners and Herring gull,1356986,DA10 0BT,51.442455129147700,0.309209511687102
pit viper and green turtle,463623,RM1 3EJ,51.581394261837100,0.183537757686510
blind snake and Snipe,1355197,DA12 5PX,51.427865076318800,0.378160116613272
bearded dragon and Komodo dragon,1531768,BR8 7QY,51.406850390000000,0.184500660000000
asp and American sparrow,1356104,DA11 8TF,51.422149631041700,0.348519209122874
Kangaroo and Grouse,1027952,IG3 8DS,51.562203552787900,0.100796553254078
Logrunners and Mockingbird,1358222,DA1 1JP,51.438912705907800,0.217427733397055
amphisbaena and glass snake,1352081,DA2 8BZ,51.427455000000000,0.289888977224815
Guillemot and Wader,281978,SS17 0QL,51.487750132918800,0.405473000000000
Flameback and blue racer,1352750,DA17 5DL,51.489707352646500,0.125047779923657
smooth snake and Chickadee,459357,RM16 2GN,51.489959230734400,0.353414766357576
Macaw and alligator,1357729,DA1 1JY,51.442354388736400,0.215666148505969
Black cockatoo and Wallaby,462706,RM10 8XJ,51.541989294650100,0.163061084842773
python and lizard,456498,RM5 2UA,51.609616623590500,0.162981607736184
Tahr and Ground sloth,1352408,DA2 7PZ,51.422467478556800,0.202002851500597
Old World quail and hognose snake,1353419,DA16 3AD,51.463905416803400,0.108688767343272
Flameback and fer-de-lance,454480,RM9 4HJ,51.537534335964700,0.121896254924709
Boto and Partridge,281932,SS16 6BE,51.570841000000000,0.459678000000000
Minke whale and Dolphin,1438310,CM11 2JT,51.623209502551100,0.438887605239002
boomslang and rattlesnake,1353297,DA16 2RR,51.462493711966000,0.087576012065847
Fish eagle and boa,1353836,DA14 6TP,51.422092424055700,0.095932404689566
Fulmarine petrel and saltwater crocodile,1352869,DA17 5NB,51.481879728093600,0.147958582679000
B and death adder,458354,RM17 6LT,51.479917514025200,0.320751297688438
asp and taipan,1030572,IG1 4HS,51.563350388654200,0.075772973396097
Rat and skink,1354461,DA14 5DL,51.414928430882100,0.113768578696899
Kestrel and Masked owl,1353057,DA16 3ND,51.472902351134500,0.093911890708454
New World blackbird and Nukupuʻu,1353568,DA15 9AG,51.435791942543400,0.107782189100537
Magpie and python,459587,RM15 6JS,51.519945928652300,0.296997467649267
Snipe and Schneider python,281243,SS17 9AQ,51.527472230183300,0.458604000000000
Maya and brown snake,459321,RM16 4JZ,51.484725188048300,0.378813298867655
Crow and Coati,283367,SS14 2PB,51.582850054779100,0.481258436069568
Fox and mountain devil,1357426,DA1 3AJ,51.449409477568200,0.205889725739024
chuckwalla and Piping shrike,282194,SS16 6UD,51.568906267370400,0.404592422815017
loggerhead and Siskin,1353636,DA15 9HJ,51.448666818574500,0.108447083865369
smooth snake and Triller,2658038,SE28 9EJ,51.498489000000000,0.104477000000000
adder and lizard,1350296,DA7 5NU,51.475588576705800,0.141355484890394
blind snake and Wallaby,1350537,DA7 4TA,51.472609480875000,0.128155384085714
soft-shelled turtle and anole,1354247,DA14 4NU,51.434399840202600,0.123243000000000
Dolphin and sand viper,1029027,IG11 0XH,51.526923000000000,0.117481000000000
taipan and Coati,460599,RM14 1PS,51.573061034070700,0.262065000000000
snake and adder,454256,RM9 5DU,51.545664529654800,0.143620301073529
cobra and rat snake,454522,RM9 4PJ,51.540897931594200,0.117899395442644
Myna and Eagle,454138,RM9 4RD,51.534718964486800,0.112464841485513
Badger and Bronzewing pigeon,1355702,DA12 4DN,51.413905062894800,0.389329182845587
Condor and swift,382634,SE28 8PN,51.509769009281100,0.125620980846093
Moluccan boobook and lizard,459514,RM16 2XP,51.491597219154000,0.332653362452450
anole and Maya,1765369,DA1 5GW,51.464185467411600,0.229205988175651
mud turtle and Ground sloth,1351425,DA4 9AB,51.403682951493600,0.243142340257241
American sparrow and Condor,457671,RM2 5TH,51.576656000000000,0.206605000000000
cayman and leathery turtle,389809,SE18 1HW,51.486970438599000,0.097249975851835
Mink and Skunk,460966,RM13 8TH,51.524102000000000,0.182128180337066
Black cockatoo and Viscacha,1436691,CM14 4LE,51.616492568393800,0.298027324223490
krait and Schneider python,1026245,IG7 6HP,51.613112302310300,0.098726627434299
Moluccan boobook and deaf adder,2640236,DA1 5WX,51.448260000000000,0.220686000000000
frilled lizard and king snake,455442,RM6 6HJ,51.571294914590000,0.143570464093644
fer-de-lance and Polecat,1349959,DA8 1DP,51.478576955777200,0.161787423372008
Bronzewing pigeon and gavial,458215,RM19 1GB,51.486806189004200,0.236071097399043
Marsh harrier and Perching duck,1353164,DA16 2EL,51.460964830220500,0.098159280713157
bearded dragon and Old World quail,1349715,DA8 3LE,51.474064401666500,0.173843096256838
sand viper and Elephant,1349161,DA9 9LX,51.445072456651100,0.285797181334132
sand lizard and Magpie,1352579,DA17 6HA,51.484816370637500,0.150631634934766
Tree warbler and diamond python,1028229,IG2 7NP,51.578162390975900,0.087373666137153
Macaw and White ibis,1350953,DA6 7NU,51.450234495468700,0.148401476981196
agama and coral snake,459520,RM16 2XX,51.492028057608900,0.332243170131082
Tree warbler and Wallaby,1355066,DA12 5HA,51.431268530759200,0.372639529618106
Mockingbird and Diving bird,282298,SS16 5RA,51.566866746618300,0.444961508282231
python and coral snake,1438023,CM11 2YN,51.599270687735200,0.480030872855176
Goose and Darwin's finches,1353206,DA16 2JW,51.456190556463800,0.103626160202452
chameleon and constrictor,282631,SS15 6PE,51.572635395062500,0.419610930761248
Thrasher and boomslang,1353177,DA16 2HE,51.463174536703700,0.097296061487012
Minke whale and bearded dragon,454325,RM8 3JD,51.560614106542000,0.135536920987192
viper and Elephant,456866,RM3 8DR,51.606046280342100,0.214586790342387
garter snake and Fish eagle,1436540,CM13 3UJ,51.599700000000000,0.297295000000000
Darwin's finches and hognose snake,1027766,IG3 9AU,51.549663023892600,0.093006729216991
milk snake and blue tongue,454614,RM8 2TE,51.556754070180600,0.126743566075429
Myna and amphisbaena,1356067,DA11 8RA,51.433946907260100,0.353095431455871
Goose and viper,1436870,CM13 3PF,51.596628452148700,0.349728126050920
Asiatic leopard and Wallaby,463097,RM1 4YT,51.599824510140100,0.181389410840232
Fox and Black jay,462943,RM10 8BZ,51.548212000000000,0.152856000000000
adder and Tree warbler,1027224,IG6 2LR,51.595942809864800,0.079670049634823
grass snake and garter snake,1029295,IG11 7LJ,51.532952534505400,0.077118000000000
horned viper and giant tortoise,458308,RM18 7JR,51.468010040055800,0.332558620526289
hognose snake and Old World warbler,1350732,DA7 4AB,51.463789996238800,0.135432982854207
Booted eagles and Parrotlet,1806726,RM7 0FB,51.568815679700000,0.153785795200000
River dolphin and Mockingbird,282062,SS16 6JE,51.544981000000000,0.419254000000000
flying dragon and cobra de capello,461659,RM12 4NN,51.552815342486500,0.196045782937966
Crow and Chicken,1026714,IG7 4HG,51.610469808467300,0.103674335362582
pit viper and Ibex,1028620,IG11 9TJ,51.541112979077600,0.085317197356830
Puffleg and Badger,2602818,DA9 9XS,51.444755000000000,0.279995000000000
Hawaiian honeycreeper and mountain devil,454913,RM8 2HN,51.542911315643100,0.114964284499764
mud turtle and Songlark,461286,RM13 8DJ,51.526282825851500,0.166252308637188
Partridge and amphisbaena,378138,SE9 2EP,51.446105532900400,0.077632393384171
Mouse and Parrotbill,2658776,SS16 5NR,51.557096000000000,0.444496000000000
sand viper and Greenbul,460904,RM14 1BS,51.565214204122000,0.257289250335239
Stilt and gavial,1026653,IG7 4AP,51.613719231709500,0.114513414183363
Masked owl and Boto,1353777,DA15 8ET,51.439306204622600,0.090317222248046
Mink and rock snake,460221,RM15 5AR,51.514859896523800,0.284360409980033
pit viper and White ibis,459259,RM16 4AX,51.479675542200600,0.358559806671216
Old World quail and Macaw,1782733,IG11 0RT,51.528108891288500,0.116037014192633
elapid and Magpie,1437124,CM13 2UQ,51.618087171682100,0.331623083888180
Peafowl and Viscacha,1352378,DA2 6DQ,51.442381081730400,0.239339708172712
snapping turtle and diamondback turtle,458809,RM17 6GD,51.475337789228400,0.308565960142435
Black cockatoo and flying lizard,455077,RM8 1BJ,51.562538897199300,0.147342796628481
Warbler and River dolphin,455277,RM7 8EJ,51.589071032733900,0.159406867177441
Tit-tyrant and milk snake,1349764,DA8 2AB,51.478251131297500,0.182769569887229
Armadillo and soft-shelled turtle,460351,RM14 2ED,51.549447116827400,0.246642368572616
diamondback and Marsh harrier,1806464,RM13 8FU,51.529776699200000,0.169460295100000
Parakeet and bearded dragon,1350437,DA7 4LL,51.463876690313500,0.149387744499308
Maya and Badger,1356633,DA10 0HU,51.444710049802200,0.308416631712341
alligator and milk snake,461661,RM12 4NQ,51.549734829259700,0.195232000000000
American sparrow and Goose,281646,SS17 7DX,51.520435123730900,0.444505819717605
sidewinder and Piping shrike,1354588,DA14 4BA,51.428626502946500,0.104172411528917
Bunting and milk snake,1436407,CM14 4UX,51.622735912517500,0.298371712585802
Marmoset and Argus,454961,RM7 9BT,51.573426988492100,0.170917776094432
lizard and taipan,1027882,IG3 9LH,51.561821439097200,0.104054069081392
galliwasp and rattlesnake,2630811,RM15 5FX,51.517769000000000,0.287489000000000
Fox and Zebra,283519,SS14 3FT,51.582170251738800,0.458442698192410
grass snake and Shearwater,458789,RM17 6DZ,51.475334651033500,0.334286000000000
Mouse and sand lizard,461545,RM12 5NS,51.541368795754200,0.201248824337796
tuatara and sea snake,283371,SS14 2PG,51.579346921355300,0.478079665577426
cobra and Elephant,1531668,BR8 7NF,51.404994860000000,0.194764817000000
frill-necked lizard and Bronzewing pigeon,1353895,DA15 8RD,51.448747988517500,0.091871042988607
Scimitar babbler and hawksbill,1356781,DA11 0ER,51.438668117988100,0.358029117174247
agamid and perentie,1806668,RM3 7RE,51.605850310100000,0.211777000000000
Polecat and Grosbeak,1353835,DA14 6TL,51.428338709170200,0.092621819117857
frill-necked lizard and diamondback,458886,RM17 5EJ,51.479170995024500,0.326200647896875
goanna and box turtle,1992905,DA1 5TN,51.453352000000000,0.213421000000000
diamondback terrapin and Kākāriki,1350131,DA7 6NH,51.463855654031300,0.171025526031338
diamondback and Boto,461101,RM13 9JL,51.520575529526200,0.207078616120623
Recurvebill and Rat,389667,SE18 2LH,51.475544730254900,0.085925373665106
gecko and sand lizard,1031124,IG1 1PD,51.552913430187200,0.078110642045594
Tit-tyrant and bushmaster,1026993,IG6 3DN,51.605289963878000,0.105182317754379
Chipmunk and giant tortoise,1353368,DA16 1HF,51.471568617025000,0.120086470529600
Argus and Darwin's finches,1030671,IG1 2UY,51.550407697999400,0.084011340384526
sea snake and snapping turtle,462905,RM10 8AF,51.537251496539000,0.171257840481247
Night heron and Fish eagle,1782783,IG2 7FE,51.576632822188300,0.083940741524887
bull snake and Asiatic leopard,2607724,IG11 0UF,51.519592000000000,0.108679000000000
cobra and diamondback,1437338,CM12 9RG,51.615569428720600,0.427412507615121
Kangaroo and Nukupuʻu,1027404,IG6 1JD,51.584765606263600,0.077600604200320
Pratincole and blindworm,1352268,DA2 7ET,51.427567671905600,0.209110065321315
monitor and sand lizard,1028955,IG11 7TL,51.533014272207400,0.085105633496666
bearded dragon and Linsang,1351263,DA5 1JN,51.447328759558300,0.130721456505127
Treepie and Booted eagles,1028240,IG2 7PL,51.577354380966500,0.093860255308926
diamondback and Petrel,1351958,DA2 7SS,51.418943466052800,0.232354276582571
constrictor and Chipmunk,461342,RM12 6RD,51.553297554177900,0.219164082274978
pit viper and Macaw,1352809,DA18 4DY,51.497508043015900,0.129790533406368
Rat and Buzzard,2581139,SS17 1AQ,51.525319000000000,0.448099000000000
New World blackbird and Buzzard,1031192,IG1 1TE,51.560902032019000,0.081995159992164
Myna and Jerboa,1349442,DA8 2LL,51.472894966055600,0.199894619230138
Siskin and Shearwater,1356192,DA11 9HP,51.443682174448500,0.330814825544488
Mockingbird and rat snake,283378,SS14 2PT,51.574378559290200,0.474865079720719
Pheasant and Partridge,462759,RM10 9DL,51.529625820843400,0.156131112061984
turtle and diamond snake,1355508,DA12 5AH,51.428843393358200,0.369377611374922
Elephant and Parrotlet,1027599,IG3 9XH,51.563505039962900,0.105949774374311
cycling lizard and whip snake,458412,RM18 8BH,51.462882173840300,0.375632579078192
milk snake and Piping shrike,1351939,DA2 7RT,51.421761708592400,0.224609215815367
Old World quail and boomslang,282312,SS16 5RZ,51.563944782447500,0.445036000000000
monitor and black snake,1350951,DA6 7NS,51.451804750110000,0.147611608125990
kabaragoya and bicycle lizard,1534505,BR5 2DT,51.403875890000000,0.104286933000000
Puffleg and boa,1355733,DA12 2HD,51.442259380080500,0.371698228251860
Mole and worm lizard,457048,RM3 7BA,51.600431999692900,0.203266725381230
Vole and puff adder,1358117,DA1 1DT,51.444098039123600,0.218096282632459
Recurvebill and Viscacha,458016,RM2 5LD,51.584639199688100,0.195287000000000
gopher snake and Cuscus,1027725,IG3 8UU,51.571364422059000,0.110972000000000
lizard and Jerboa,1351601,DA5 1AU,51.442954467898000,0.145714117152909
Eagle and Black jay,458646,RM17 5TL,51.485613136841500,0.347702885478166
Philippine hawk-owl and carpet snake,463041,RM1 4SA,51.602480520435500,0.181704449119911
Snipe and Elephant,1752077,SS15 6JH,51.579316420911700,0.417064564119799
Old World vulture and Old World quail,454557,RM8 2NL,51.549279467864400,0.117884796923117
Asiatic leopard and Macaw,1026621,IG7 6BD,51.624854512784700,0.076094145781684
goanna and Black jay,383107,SE28 0DR,51.497748342850800,0.084388892742045
blindworm and Petrel,1806468,RM13 8GE,51.529296717400000,0.168302000000000
Jerboa and Tit-tyrant,1355712,DA12 4ED,51.426624178491800,0.391848531449016
python and dukite,1353086,DA16 3QB,51.463430400625800,0.102591416516868
Cloud rat and Chicken,378223,SE9 2QH,51.453391422869300,0.081086608321766
hoop snake and crocodile,282797,SS16 4BT,51.562934015370000,0.476811832180364
Parrotbill and cycling lizard,281589,SS17 8PD,51.514756917214100,0.410790732779675
puff adder and Mockingbird,282889,SS15 5YP,51.573233081851800,0.427681424782315
elapid and Marsh harrier,459789,RM15 5HL,51.509367828653200,0.273579526978620
sand lizard and diamondback,1350367,DA7 5SA,51.475748481196200,0.124658112579457
Masked owl and White ibis,1436226,CM14 4PD,51.614226364795300,0.286515790628208
rat snake and Siskin,454808,RM8 1XA,51.561897931286000,0.126247754768569
lizard and Dorcopsis,1027884,IG3 9LL,51.562233973617400,0.106121891373636
Argus and loggerhead,383080,SE28 0BB,51.493455505125700,0.080015245845559
rattlesnake and Polecat,1355155,DA12 5LG,51.423083067270300,0.372272999565044
Jackal and Wader,459701,RM15 6XA,51.517722595060100,0.299854940278355
Magpie and Solitaire,1352864,DA17 5LW,51.482758727285500,0.141201684798748
harlequin snake and Crow,1352363,DA2 6BT,51.443844361103900,0.253082692237195
racer and Marsh harrier,457338,RM3 0SD,51.597305254841700,0.239228281614880
bearded dragon and Buzzard,1356200,DA11 9HY,51.444888113643100,0.332128300378855
diamond snake and Stilt,455318,RM7 8NH,51.594190084773800,0.162219689493893
Boto and puff adder,1354340,DA14 4QB,51.433319347752700,0.131623317575704
Thicketbird and bicycle lizard,457039,RM3 7AJ,51.597316197375200,0.205888259357808
Kite and adder,1029068,IG11 8DR,51.538551343001600,0.080686485813726
ringhals and green turtle,1354595,DA14 4BJ,51.427608885902400,0.108254306113973
diamondback turtle and Shearwater,1027634,IG3 9YD,51.558761170792100,0.097610000000000
Tit-tyrant and taipan,460012,RM15 4NA,51.508124791342300,0.250373186242213
Thicketbird and Solitaire,1752075,SS15 6HY,51.579612276776100,0.417109134668252
Badger and Vole,1782782,IG2 7FB,51.579702130870700,0.101430260607041
loggerhead and rattlesnake,1026792,IG7 4LX,51.615061994738100,0.112856897769857
gopher snake and amphisbaena,281295,SS17 9ET,51.544044043503600,0.453356000000000
cerastes and cycling lizard,456423,RM5 2SR,51.608144598155800,0.170624038399557
cerastes and Marsh harrier,455154,RM7 7DR,51.580248151821100,0.175038990166607
lizard and death adder,1355208,DA12 5QN,51.429464036800400,0.383120258303846
mamba and deaf adder,1350939,DA6 7LY,51.453931899086400,0.148330388218485
Black jay and elapid,282299,SS16 5RB,51.567054898857500,0.443268828324976
Marmoset and Cuscus,459396,RM16 4LJ,51.482898157286700,0.369557552344859
perentie and Guillemot,1353174,DA16 2EY,51.460802899877800,0.101175006011937
pit viper and boa,1356208,DA11 9JQ,51.441887426010500,0.342797077384171
water snake and Tree warbler,1437259,CM12 9QL,51.618322565226700,0.424742378428415
Macaw and Rabbit,2634592,DA10 1BZ,51.438969000000000,0.304113000000000
bicycle lizard and B,463282,RM1 4AN,51.601790569509300,0.181570289074752
horned viper and Komodo dragon,1765435,DA10 1BG,51.438551000000000,0.310710000000000
Piping shrike and Parakeet,463513,RM1 2LX,51.576197830095700,0.190216317278559
krait and Chickadee,1806423,RM12 9EP,51.561859232800000,0.216334560400000
box turtle and alligator,1350886,DA6 7DW,51.456954548173600,0.143362153419574
Minke whale and python,454793,RM8 1UA,51.562890969228200,0.128516035911892
python and Bronzewing pigeon,1782743,IG11 0TN,51.520747742150200,0.106326061442989
Chicken and Skunk,1353006,DA17 5RG,51.490621838793100,0.129167042394413
Hawaiian honeycreeper and massasauga,282802,SS16 4DB,51.563483637018500,0.480593315771612
Myna and Kākāriki,283906,SS14 1QE,51.571472999217200,0.477882215688615
king cobra and Marmoset,462753,RM10 9BS,51.531772563175200,0.159202765270341
leathery turtle and tiger snake,1351123,DA5 3DY,51.439275086967600,0.120087057329585
soft-shelled turtle and blindworm,1355762,DA12 2LA,51.436770365228200,0.390882173698255
flying dragon and coral snake,1765367,DA1 5GT,51.462367000000000,0.226497000000000
diamond snake and jew lizard,458192,RM18 8XH,51.463685312539300,0.367496536431220
Thrasher and Jerboa,1355551,DA12 3HF,51.412870010923900,0.419605907203878
Mink and Jerboa,1437369,CM12 9TP,51.602440568578500,0.404645519059972
Asiatic leopard and Argus,387042,SE2 9SP,51.493527694113700,0.127616912285019
Bronzewing pigeon and anaconda,1356848,DA1 5SS,51.449031718056900,0.228237471091068
Recurvebill and Prion,457281,RM3 0NB,51.589553696634100,0.236854725426621
gaboon viper and Towhee,281802,SS17 7RN,51.520273864605200,0.459100103667143
Chicken and Old World vulture,1356382,DA11 8HN,51.436534000000000,0.333055000000000
Fish eagle and viper,1436513,CM14 5EJ,51.612234319291800,0.300556627071954
green turtle and leathery turtle,282327,SS16 4ER,51.566905056384800,0.481255793913315
blindworm and soft-shelled turtle,283655,SS14 2DP,51.575865784636300,0.461883876519235
terrapin and mud turtle,1354908,DA13 9HG,51.402839404180000,0.347074000000000
crocodile and Perching duck,1353242,DA16 2NB,51.457536870873900,0.091711481490992
Armadillo and moloch,1357620,DA1 3QR,51.447458053802800,0.180897571381086
Songlark and turtle,282448,SS16 4NS,51.563131000000000,0.482435000000000
cerastes and Peafowl,282000,SS17 0RQ,51.485346556763300,0.412220533086596
Jerboa and boa constrictor,804876,ME3 7EA,51.415457731485400,0.452592083156472
Mockingbird and wall lizard,386949,SE2 9QP,51.492294446419700,0.112764591786753
tokay and Hawaiian honeycreeper,1028441,IG2 6SD,51.578910465348500,0.075110817963347
leathery turtle and Parakeet,461138,RM13 7NJ,51.543616881802100,0.191651112534210
Parakeet and pit viper,457600,RM3 0BN,51.601399031672800,0.251343312056553
hognose snake and bearded lizard,455416,RM7 0YP,51.559862325660400,0.181770295430447
Fox and tiger snake,281775,SS17 7QA,51.523668312766100,0.455477039595956
blindworm and Coati,389905,SE18 1PF,51.483174551442500,0.094785721767363
Bunting and B,282182,SS16 6TN,51.565646563006000,0.406988894411387
alligator and Grouse,456176,RM5 3PA,51.599014866947700,0.160990461317826
Buzzard and bearded dragon,1349323,DA9 9UQ,51.452732000000000,0.280005000000000
adder and Elephant,2658002,SE2 8BZ,51.498489000000000,0.104477000000000
Dolphin and water snake,454590,RM8 2RG,51.553877292162300,0.122224041751939
Grouse and Logrunners,1806393,RM10 8BF,51.540802459200000,0.165052580000000
cayman and tuatara,1027989,IG3 8JD,51.572751470678000,0.095798976633837
blindworm and bushmaster,1349709,DA8 3JX,51.474137897662200,0.170361713786191
hoop snake and agama,454140,RM9 4RP,51.536185317428300,0.124385813758208
Snipe and River dolphin,461860,RM11 3SD,51.563510454877100,0.223124243011863
Warbler and Eagle,1356605,DA11 7JA,51.423143069836200,0.354137014018047
Mole and Scimitar babbler,283272,SS15 4AL,51.586274068291700,0.424594376290771
Siskin and Guillemot,1351063,DA5 2JH,51.429789513756000,0.171064528231641
rattlesnake and agama,1350915,DA6 7JG,51.456333000000000,0.144433323854080
adder and soft-shelled turtle,1436984,CM13 2LW,51.624954791368700,0.334489256293812
Treepie and Asiatic leopard,1354207,DA14 6JJ,51.418843331339400,0.113604017099499
green turtle and brown snake,1437999,CM11 2XD,51.603336716835300,0.480830160100901
Parakeet and viper,1028909,IG11 9JB,51.540195219319100,0.101470037397868
gaboon viper and goanna,1351516,DA4 9HT,51.403423859701800,0.243992354097624
thorn lizard and Songlark,1355150,DA12 5LA,51.423557712692300,0.375922565838991
death adder and soft-shelled turtle,1351106,DA5 3BU,51.445168842438800,0.129325703403623
blind snake and worm lizard,1436383,CM14 4TH,51.620806363917200,0.295413682787489
gopher snake and Myna,1531833,BR7 6NU,51.411649810000000,0.077349724000000
B and caiman,1436690,CM14 4LD,51.615511880389800,0.295753195029980
tiger snake and gavial,1029184,IG11 7DR,51.532546784308900,0.081047069439899
viper and Night heron,282534,SS15 6FA,51.574115204149400,0.421551327518912
cobra de capello and gaboon viper,2581490,SS14 0PH,51.570841000000000,0.459678000000000
cobra and Pheasant,460561,RM14 1JZ,51.567516444165400,0.272339000000000
cayman and agama,454406,RM8 3XJ,51.554842708141700,0.128371000000000
mud turtle and Gull,1028779,IG11 8SU,51.544245637643300,0.090695717983561
Ground sloth and milk snake,382840,SE28 0NR,51.504241155654700,0.088431697450146
boa and tuatara,1026572,IG7 5PN,51.610168739905000,0.080710181289365
Polecat and agamid,1351349,DA5 1QS,51.444035865737600,0.142642013278927
Civet and bandy-bandy,455792,RM6 5PR,51.587351034059600,0.130191000000000
Mole and Kangaroo,1782737,IG11 0RZ,51.528661151988000,0.115831944613862
Meadowlark and Old World quail,388348,SE18 7SU,51.483917586240400,0.078299279976654
python and blue tongue,1356952,DA1 9SW,51.446601000000000,0.219455000000000
leguaan and bandy-bandy,1029373,IG11 0HQ,51.525370521448600,0.112518000000000
rattlesnake and Towhee,1350024,DA8 1JX,51.470714731529200,0.154590479225725
Perching duck and tiger snake,1349295,DA9 9SQ,51.438000000000000,0.270307000000000
Marmoset and whip snake,1027890,IG3 9LY,51.560772743772700,0.103861383558456
Tree warbler and diamond snake,1026481,IG7 5JP,51.607838118090900,0.091420995915126
snake and Elephant,460885,RM14 1AQ,51.565063555765800,0.254367081806459
Greenbul and bicycle lizard,1437123,CM13 2UN,51.619183772558000,0.331785000000000
bearded dragon and Darwin's finches,1356475,DA11 0RH,51.435834985523000,0.353120535708494
lizard and gecko,1028231,IG2 7NR,51.578995169587800,0.085549934331828
bull snake and Rat,1357398,DA1 4QT,51.461783984855300,0.193903925764688
puff adder and mamba,1027208,IG6 2JW,51.594326733661900,0.084591821298038
sand viper and Masked owl,457845,RM19 1PG,51.479275872099300,0.246115419346520
cobra de capello and sea snake,454850,RM8 2AJ,51.551394961198400,0.115271234052376
Shearwater and Magpie,459294,RM16 4HB,51.484026355832800,0.362673384930168
gecko and Old World quail,281640,SS17 7DQ,51.519817337005100,0.431830474744723
krait and Gull,456899,RM3 8HD,51.606037550456600,0.216478286824911
Ibex and cobra,455188,RM7 7JP,51.584640832214900,0.171899805082487
glass snake and thorny devil,454419,RM9 5RT,51.541204242848300,0.135724049688085
Vulture and fer-de-lance,460097,RM15 4WH,51.509716565143400,0.281091014992447
sea snake and Prion,283398,SS14 2QZ,51.577274750589200,0.479107173282620
Jackal and rattlesnake,1349544,DA8 2SP,51.475881831230600,0.210349415509874
Petrel and krait,1351321,DA5 1QG,51.448633732648000,0.143490537275914
Greenbul and Thrasher,383109,SE28 0DT,51.497973656737700,0.088404501548635
Bronzewing pigeon and New World blackbird,458227,RM17 9SN,51.475673777177400,0.324784188016642
Guillemot and habu,1350538,DA7 4TG,51.465292499723300,0.126490334838676
Fulmarine petrel and Warbler,458916,RM17 5HW,51.481730056647300,0.324588123732779
moloch and Coati,460799,RM13 9TH,51.517042960381100,0.194050600884672
Lemming and flying dragon,1752038,SS14 3SG,51.575015775530200,0.486431567315011
Goose and boa,1350297,DA7 5NW,51.475326882110900,0.138448702358725
American sparrow and Wader,2585421,DA1 5UG,51.451405000000000,0.226467000000000
sidewinder and skink,458717,RM17 6BQ,51.472258000000000,0.334287000000000
Wallaby and mud turtle,1028835,IG11 7QB,51.535760014096000,0.086456789464356
dugite and Snipe,1354602,DA14 4BY,51.427625756553500,0.108816118953943
Peafowl and Siskin,283369,SS14 2PE,51.580839759871500,0.478507335711469
Tit-tyrant and Black jay,387456,SE2 0ER,51.487794871882200,0.107442967167716
gaboon viper and Schneider python,461688,RM12 6BP,51.554129682655300,0.223186081196945
wall lizard and garter snake,1531822,BR8 7TT,51.405850430000000,0.165214109000000
flying dragon and flying lizard,281314,SS17 9HT,51.536513016089400,0.471209242024108
Peafowl and horned toad,456302,RM5 3XR,51.603569378400400,0.178276299857005
Darwin's finches and black snake,282321,SS16 5SL,51.564402015459500,0.438509149254533
brown snake and green turtle,457839,RM19 1NY,51.480223494624700,0.240300211769619
Maya and tuatara,283482,SS14 3BS,51.583523000000000,0.457029000000000
Capuchin and mud turtle,1351930,DA2 7RG,51.423075820358500,0.230700089135139
terrapin and worm lizard,1357566,DA1 2EW,51.444872460217100,0.212809072405903
Parakeet and Tree warbler,1353327,DA16 1BU,51.474399333944200,0.115220828320683
blue tongue and diamond python,1355907,DA12 1BH,51.438788636576100,0.368108052318113
White ibis and tree snake,281868,SS17 0JF,51.515049189930900,0.424095678593994
Nukupuʻu and tokay,1761155,CM14 9LJ,51.620305111665700,0.303594158951214
Tit-tyrant and cycling lizard,1350687,DA6 8LH,51.456297244991000,0.131570951313067
hawksbill and chuckwalla,389327,SE18 2TT,51.479300078946300,0.078535802345377
Capuchin and flying dragon,1357409,DA1 4RN,51.454896696213500,0.178402070478658
Towhee and Myna,283394,SS14 2QU,51.574545859129000,0.481845198008894
tokay and Marsh harrier,1806469,RM13 8GF,51.529728000000000,0.168708000000000
Old World warbler and thorn lizard,455017,RM7 9NJ,51.574391235782200,0.161554063542471
adder and carpet snake,1349597,DA8 3DU,51.479270825747700,0.168041866825489
cayman and Grosbeak,1028607,IG11 9SR,51.534974526686300,0.097220965648458
Fox and Crow,1349905,DA8 2HN,51.473390406241200,0.187836749280484
Towhee and kabaragoya,456272,RM5 2EL,51.601035441113700,0.151353549668096
Masked owl and Darwin's finches,1765377,DA1 5RB,51.463765562316200,0.226694811312858
Vulture and monitor,1352289,DA2 7JA,51.420652521316100,0.258615794287897
Maya and cayman,459836,RM15 5LA,51.504777894653400,0.275613412413374
cycling lizard and glass snake,458540,RM17 5QT,51.493244025322100,0.319454482423738
python and Petrel,1357208,DA1 5LU,51.458746211449400,0.221973502706646
Darwin's finches and leguaan,458013,RM2 5JU,51.583480520787100,0.201349452793855
Gila monster and Dolphin,382911,SE28 8DT,51.507937509668300,0.113247000000000
glass snake and grass snake,459434,RM16 2NT,51.495654674584100,0.342499142962701
mamba and harlequin snake,389912,SE18 1PR,51.486228891167400,0.090935817152606
bandy-bandy and Pitohui,281237,SS17 9AG,51.531417928203500,0.456889053101492
Viscacha and Zebra,1026549,IG6 3SX,51.609967384755100,0.120101877150621
indigo snake and Pheasant,462118,RM12 4JG,51.559612947440500,0.212849365592742
Recurvebill and hoop snake,1357377,DA1 4PF,51.456781589512400,0.192584407213933
brown snake and anaconda,2578792,SS17 0FL,51.507902000000000,0.417622000000000
bearded lizard and saltwater crocodile,457177,RM3 7TD,51.609510498253200,0.216387493609336
Shearwater and blindworm,460066,RM15 4RT,51.504960305634100,0.253128111184901
Fulmarine petrel and massasauga,1027249,IG6 1AD,51.581049141593900,0.079264184671911
black snake and bearded dragon,454712,RM8 3EX,51.558388657428300,0.139717437580876
Ground sloth and Tahr,283127,SS14 3HX,51.589832695648300,0.484050091258061
anole and constrictor,388590,SE18 7DE,51.488138840831200,0.077079601045219
deaf adder and cobra de capello,1351307,DA5 1PQ,51.447990278175800,0.160229000000000
Vole and Partridge,281873,SS17 0JN,51.516040539952900,0.419204286169031
Kite and cerastes,1353203,DA16 2JS,51.455356522495000,0.107503052105795
Scimitar babbler and Elephant,1357604,DA1 3PS,51.446244159636400,0.181372212641456
leguaan and Tahr,1030717,IG1 4RG,51.567695605190800,0.079737049422408
black snake and American sparrow,462830,RM10 7PT,51.555832652534100,0.153100270094395
Francolin and Nukupuʻu,1752069,SS15 6GY,51.579599203435200,0.419416000000000
Stint and Partridge,282413,SS16 5UZ,51.564850992766800,0.469066286888874
mud turtle and Perching duck,1357326,DA1 2TH,51.452060119223400,0.214596003422751
Boto and puff adder,456905,RM3 9RA,51.606596446516900,0.234428464433426
turtle and Fulmarine petrel,1356803,DA11 0JA,51.437665000000000,0.358352000000000
fer-de-lance and bushmaster,461655,RM12 4NG,51.549396104421500,0.195188740936139
monitor and rock snake,1029012,IG11 7YQ,51.533759389497500,0.091743572776021
Maya and thorn lizard,283006,SS15 6DH,51.583653885515200,0.423877436179150
tree snake and Dorcopsis,1356484,DA11 0RZ,51.440884599457900,0.364964290209425
elapid and Thrasher,1437296,CM13 2AF,51.611102814156700,0.323754209605994
rattlesnake and Ice seal,1352316,DA2 7LN,51.418826071027400,0.260524991774470
diamondback turtle and hawksbill,382848,SE28 0PB,51.492517000000000,0.079771000000000
Meadowlark and White ibis,1355667,DA12 2AZ,51.444496611382200,0.372087000000000
Vole and Kestrel,455938,RM6 4FE,51.577778054355600,0.115861097551117
worm lizard and Kestrel,1437634,CM12 0DD,51.622868269051600,0.416691633467451
hawksbill and coral snake,1354121,DA15 8AB,51.435012685550600,0.100595550346469
goanna and rattlesnake,1353359,DA16 1EU,51.472045238669100,0.120583754531186
Logrunners and Herring gull,460281,RM14 3TT,51.544691411345800,0.360579705259846
blindworm and chuckwalla,454240,RM9 5BP,51.549498227016100,0.140021421577154
Mouse and blue tongue,1026875,IG6 2UG,51.603793210271100,0.090310870649718
Condor and Magpie,457916,RM19 1TB,51.486425000000000,0.240568719539467
Tattler and caiman,1353726,DA15 8AR,51.437858429500700,0.083747418677277
anaconda and king cobra,1351280,DA5 1LT,51.442970088632200,0.152219334509010
Treepie and death adder,1353002,DA16 3JJ,51.467452142866300,0.108492346159287
dukite and Shearwater,457427,RM2 6RB,51.590167759558700,0.212384000000000
Thicketbird and Solitaire,1356511,DA11 7AG,51.434797684151400,0.355959273772831
Towhee and asp,1028998,IG11 7XT,51.531787290268400,0.096930281209904
massasauga and Mouse,457747,RM2 6EJ,51.587569402453700,0.208026000000000
Pitohui and ringhals,1029518,IG11 0UG,51.530012972415700,0.133484467340499
Francolin and Eagle,281760,SS17 7PB,51.528651742272100,0.454562945021721
Thrasher and Eagle,460905,RM14 1BT,51.565773698257400,0.259524674344185
giant tortoise and Recurvebill,454100,RM9 6LP,51.519926590052100,0.141535000000000
water snake and Quetzal,456454,RM3 9XH,51.604088889640800,0.243779014164111
Buzzard and Old World quail,1027542,IG3 9RN,51.563314248517200,0.113559135644278
Coati and ringhals,1355072,DA12 5HH,51.430625954013900,0.369728819908798
soft-shelled turtle and Petrel,1355423,DA12 4XF,51.431291800500400,0.404148944450764
rattlesnake and Snipe,1356773,DA11 0EF,51.442190188647000,0.362341000000000
krait and bushmaster,455418,RM7 0YR,51.559058656229200,0.182914855169762
bull snake and Asiatic leopard,460453,RM14 2QX,51.558590719699800,0.242057946192713
Old World warbler and Cuscus,457631,RM2 5PH,51.592124316385900,0.192613887836660
boomslang and New World blackbird,458270,RM18 7BX,51.460096502010400,0.359047284992701
Tree warbler and Hawaiian honeycreeper,1806727,RM7 0FD,51.569436438700000,0.153771846400000
Snipe and bandy-bandy,1351424,DA5 2DT,51.438333511222500,0.161785879177173
monitor and blue tongue,461534,RM12 5LT,51.543788782354600,0.204552974728106
diamondback terrapin and kabaragoya,1031074,IG1 1HX,51.556036000000000,0.083619000000000
coral snake and Prion,1436564,CM14 4AW,51.619688871754000,0.300586976057277
thorny devil and giant tortoise,1354166,DA14 6DE,51.423965148976500,0.099326501008716
Chicken and Black cockatoo,1436959,CM13 2JH,51.624061360388700,0.327855035038486
gecko and Grosbeak,454330,RM8 3JR,51.559251000000000,0.138835000000000
Perching duck and Black cockatoo,1029319,IG11 7PE,51.537447365862600,0.080059327985338
Stilt and Fulmarine petrel,1351226,DA5 1EQ,51.446553169443200,0.133808313487573
asp and Buzzard,1352768,DA17 5EJ,51.483529459580100,0.139869486267195
Black cockatoo and boa,462034,RM11 2NP,51.583184599764400,0.226090984402461
Dolphin and Rabbit,1357521,DA1 3LN,51.443222619730600,0.186192967783332
Jerboa and asp,462120,RM12 4JJ,51.559882252729700,0.216209621358162
Crow and bull snake,282309,SS16 5RU,51.564731426067200,0.445149950222928
dugite and bandy-bandy,1806631,RM3 0JJ,51.591415914500000,0.225988076400000
gaboon viper and saltwater crocodile,462411,RM11 2HS,51.581137688068300,0.217359247736871
Herring gull and hawksbill,1029512,IG11 0TW,51.530468247996400,0.123759180121112
Vulture and Fox,458754,RM16 6RE,51.493786811137400,0.314742191074403
milk snake and dugite,282104,SS16 6RP,51.568364198373900,0.413034599366910
carpet snake and pit viper,457808,RM2 6NX,51.591767554791500,0.212101887115592
horned toad and Wallaby,1030553,IG1 4EL,51.560190624084900,0.075960903318257
Coati and Piping shrike,281425,SS17 7TP,51.525750916520200,0.442310828532211
Warbler and New World blackbird,1027017,IG6 3EW,51.606371831839600,0.103022739302794
indigo snake and tortoise,1437713,CM12 9LW,51.622274019377900,0.417599156398439
Night heron and Quetzal,1353671,DA15 9LL,51.445885375036100,0.117572550114225
boa constrictor and Jackal,454681,RM8 3BL,51.554679667406800,0.131537096804362
hoop snake and Asiatic leopard,1806382,RM10 7BF,51.555715283500000,0.164419133900000
carpet snake and Wallaby,458406,RM18 8AU,51.463388281946400,0.374622257274768
rock python and Shearwater,1357237,DA1 4BH,51.451983000000000,0.176507000000000
Snipe and Parrotbill,1027936,IG3 8BG,51.563461569488800,0.096829019898297
Buzzard and American sparrow,1349462,DA8 2NL,51.466796350856700,0.192287026594513
saltwater crocodile and frill-necked lizard,2661635,SE18 9PB,51.490736000000000,0.084874000000000
bearded dragon and leathery turtle,1752004,SS14 1FN,51.572409850980600,0.463313442606334
skink and Guillemot,1356614,DA11 7JN,51.427498890122900,0.354878829603775
Marmoset and Viscacha,1761148,CM14 9JY,51.620305111665700,0.303594158951214
jew lizard and slowworm,283766,SS14 1AH,51.571769595890000,0.458227717727141
Civet and diamond python,1435447,CM15 9SU,51.620304357388900,0.303594168293544
Vole and agama,1531879,BR8 7UE,51.404956070000000,0.162511830000000
Rat and Wader,1351239,DA5 1HG,51.449354960624600,0.138961913785561
Cuscus and black snake,457104,RM3 7LD,51.614617834694300,0.214989615505428
lizard and bearded dragon,1356981,DA10 0BL,51.443471995815800,0.311002123680891
Hawk and coral snake,462848,RM10 7RS,51.557660819175800,0.147560222110220
sidewinder and Herring gull,283071,SS15 5FT,51.574706338738500,0.427759945001481
diamondback turtle and krait,458953,RM16 4SS,51.489147127562900,0.369622311765955
Kite and carpet snake,1435892,CM15 8DJ,51.624577463865100,0.320411691851427
Black cockatoo and Puffleg,462291,RM11 1WD,51.561858328796500,0.216334567062236
diamondback turtle and chuckwalla,283840,SS14 1JN,51.571377413845800,0.464917306246980
coral snake and asp,281852,SS17 0HG,51.515750527977100,0.427145455278043
Crow and Cloud rat,457064,RM3 7DJ,51.599235503330300,0.204248482384978
milk snake and Kākāriki,461792,RM12 4UN,51.562841738445900,0.215084000000000
rat snake and grass snake,1350596,DA7 5BJ,51.469505915827500,0.149897104366611
garter snake and constrictor,459846,RM15 5LX,51.504088738850400,0.276832742304778
Snipe and Magpie,1350977,DA6 7QF,51.452494816986100,0.163390447375695
Towhee and Grackle,2009671,DA12 2EF,51.441920000000000,0.369882000000000
dukite and monitor,1357359,DA1 3AB,51.448283049663300,0.207922303970046
Flameback and Peafowl,1353533,DA15 8TJ,51.449169723031900,0.088392995906955
Kākāriki and Grouse,460407,RM14 2LU,51.554668584072200,0.243062392845670
rock snake and Egret,456153,RM5 3JX,51.597806000000000,0.168132248862206
horned toad and Snipe,457668,RM2 5TA,51.574961846319600,0.205310751249373
leguaan and gaboon viper,2591754,DA10 1BQ,51.437453000000000,0.310267000000000
galliwasp and Buzzard,461371,RM12 6SS,51.550845656579600,0.223271164400086
frill-necked lizard and Mouse,1027900,IG3 9NL,51.558838421404900,0.106917177630347
soft-shelled turtle and king snake,1357323,DA1 4NF,51.455193879645200,0.190924933826404
Schneider python and dukite,1026253,IG7 6JA,51.617932130091000,0.104265014893148
milk snake and Fish eagle,1350121,DA8 1NF,51.476025558431500,0.146473854282370
White ibis and copperhead,1352817,DA18 4HH,51.493638190509900,0.136870955918511
Perching duck and boa constrictor,1436306,CM14 5WL,51.610388779746400,0.291749000000000
python and tree snake,1353788,DA15 8HF,51.443706325168300,0.093698474318658
python and tortoise,1436681,CM14 4JR,51.618165579135100,0.298010731459795
cobra and blue tongue,1436948,CM13 2HU,51.619734319957700,0.337428452649911
Condor and gaboon viper,1349521,DA9 9FW,51.452938200821200,0.293329502706332
grass snake and garter snake,1355887,DA12 1AB,51.438680759701200,0.369440703120544
bandy-bandy and Gila monster,387439,SE2 0BN,51.488207128495300,0.116508084834403
lizard and Polecat,1356961,DA10 0AJ,51.446988687686100,0.310071524511958
rock python and New World blackbird,463359,RM1 4GP,51.583069735764200,0.181999000000000
Grouse and snapping turtle,1026813,IG7 4PH,51.609662103824000,0.104084725930868
Tattler and Marsh harrier,281234,SS17 9AD,51.531223213578800,0.455451086340704
Bunting and Wallaby,455338,RM7 0PX,51.565416327403800,0.177606433515600
python and tiger snake,462013,RM12 4EH,51.564679742862000,0.186748050926046
sidewinder and amethystine python,1028027,IG3 8LX,51.566201067175200,0.097012784594084
Marsh harrier and gaboon viper,1354593,DA14 4BG,51.427285000000000,0.103383624859173
Schneider python and Tree warbler,1353923,DA15 8SW,51.451512712741000,0.092155751434496
Lemming and Komodo dragon,1357870,DA1 1SR,51.440574872801700,0.231250568813507
Vole and Francolin,460379,RM14 2HT,51.549165159130000,0.241637710633075
sand viper and snake,2585716,IG6 3FE,51.611545000000000,0.117474000000000
worm lizard and Siskin,282977,SS15 5BG,51.572911073746700,0.447075507134070
king snake and Vole,457178,RM3 7TH,51.608891941673800,0.214378663135349
caiman and American sparrow,282329,SS16 4ET,51.566687883845400,0.483018892197457
Triller and Logrunners,1355348,DA12 4QF,51.415393529546300,0.390427957472435
Warbler and rock snake,456378,RM5 2NU,51.601203869355000,0.159809192629305
Mockingbird and New World blackbird,1436635,CM13 3AG,51.601940524312900,0.292584638671178
racer and diamond python,1349980,DA8 1ER,51.477497884026900,0.158366479564361
anaconda and cerastes,1350758,DA7 4BP,51.459920973425500,0.136533589207296
Pitohui and River dolphin,387151,SE2 0UW,51.485638494472000,0.108337394615480
Goose and turtle,454052,RM9 6EA,51.537120432536500,0.133312150904984
blue racer and River dolphin,460036,RM15 4PB,51.511390582383500,0.253113939089362
Siskin and Bunting,457651,RM2 5RH,51.592369060623100,0.186244189452106
Old World quail and Jay,1806476,RM13 8GU,51.529649234200000,0.170030948300000
hawksbill and racer,1350719,DA7 5ED,51.470815423377300,0.153025707453680
massasauga and Peafowl,1349654,DA8 1PY,51.482948850294000,0.160251424068389
Petrel and Old World quail,462207,RM11 3JE,51.572108153427200,0.227124000000000
anaconda and Warbler,1352990,DA16 3HU,51.466355319460100,0.102466723262517
jew lizard and green turtle,456332,RM5 2HL,51.606120598291800,0.158468367269813
Stint and boa,2646151,RM13 9GS,51.521840000000000,0.232106000000000
Jackal and Armadillo,1350901,DA6 7HF,51.456578526266400,0.143761984040277
Meadowlark and amphisbaena,460387,RM14 2JD,51.548801962579400,0.238994677321816
Philippine hawk-owl and Badger,1782708,IG11 0FA,51.522957106804800,0.104481915428038
Ibex and gavial,281770,SS17 7PU,51.523340146843200,0.453109492510244
Zebra and Ibex,1806762,RM7 1PR,51.570249714000000,0.170636458000000
Flameback and Egret,459258,RM16 4AQ,51.489469818468700,0.350465230824326
Triller and Crow,455629,RM6 5AH,51.580736761920600,0.130764437353825
mud turtle and python,460173,RM14 3DU,51.556652175766300,0.254989777252596
Kangaroo and blindworm,282155,SS16 5EU,51.559987000000000,0.455803000000000
Chicken and Civet,1357819,DA1 2SY,51.432898417715800,0.209223373872608
tree snake and Goose,460466,RM14 2SH,51.556400297290800,0.248903766861359
Warbler and pit viper,2660980,E16 2GT,51.505522000000000,0.075707000000000
ringhals and Moluccan boobook,1031106,IG1 1LR,51.559359879769000,0.076372000000000
snake and Duck,1350166,DA7 6QH,51.466882603601000,0.166849811531489
mud turtle and Old World warbler,283642,SS14 2BX,51.573833821129700,0.457141220001916
cobra de capello and cobra,281249,SS17 9AX,51.528549893945900,0.460281471397780
Armadillo and Duck,460801,RM13 9TR,51.516738190844600,0.196399818118480
grass snake and leguaan,1355601,DA12 4AR,51.420035416644200,0.384183119525413
leguaan and snapping turtle,454662,RM8 3AB,51.555039601822100,0.142878181363281
Chicken and White ibis,462400,RM11 2EX,51.585417919224400,0.215950873398258
brown snake and brown snake,1027289,IG6 1DS,51.581719694803000,0.083033238821383
Parakeet and saltwater crocodile,2646141,RM12 9GW,51.561888000000000,0.216392000000000
Chickadee and Shearwater,458184,RM18 8UD,51.476761892025300,0.388753630878176
Vole and bushmaster,1353008,DA17 5RJ,51.491242181180500,0.129671333712415
python and Badger,463430,RM1 1RH,51.577341975691900,0.180933195929148
puff adder and sidewinder,1806787,RM8 1BG,51.562836154500000,0.132582191200000
rat snake and sidewinder,454710,RM8 3ET,51.556335537812100,0.139375822007878
White ibis and monitor,1350727,DA6 8PG,51.454410902428200,0.136391431636715
rock snake and grass snake,1029323,IG11 7PN,51.534979000000000,0.083517714490474
Egret and monitor,462840,RM10 7QR,51.557767000000000,0.152153000000000
Wader and bearded lizard,458293,RM18 7HE,51.464984000000000,0.345449000000000
diamondback turtle and Zebra,459578,RM15 6JA,51.518446173803000,0.292294916672821
deaf adder and Towhee,463149,RM10 7DB,51.554905460674600,0.160976245350065
Coati and whip snake,282423,SS16 6AQ,51.565552661474000,0.419422387028991
Solitaire and rock python,1350007,DA8 1JA,51.474913102723600,0.157596429138482
sand lizard and jew lizard,1353051,DA16 3LU,51.469019244232200,0.096829773860578
Jay and Hawk,1031069,IG1 1HR,51.556973000000000,0.077473000000000
hawksbill and boa,281815,SS17 7SF,51.529526000000000,0.442888000000000
moloch and blue racer,1026737,IG6 2NG,51.601287791474900,0.084044208351695
puff adder and Egret,1353785,DA15 8HB,51.441328983268200,0.090352029171766
water snake and milk snake,1028212,IG2 7NA,51.576480848702900,0.087873914379142
terrapin and Bunting,1351966,DA2 7WA,51.434698894574300,0.172563449510653
Bronzewing pigeon and chameleon,281551,SS17 8JY,51.535008626177800,0.445156965425597
galliwasp and Condor,2630802,RM13 8JE,51.524060000000000,0.189760000000000
Cuscus and Black jay,455264,RM7 8DJ,51.584785374359900,0.163101168069034
milk snake and Dolphin,1806633,RM3 0JW,51.591708000000000,0.226248000000000
whip snake and Gull,383096,SE28 0DA,51.494890004757400,0.085828815901230
gopher snake and Perching duck,1349935,DA8 1BE,51.484262462061000,0.176747908892974
Nukupuʻu and Recurvebill,281556,SS17 8LE,51.523942200465200,0.405379578794703
Ibex and Komodo dragon,458247,RM18 7AL,51.463227652877000,0.354947193725503
lizard and smooth snake,455547,RM6 6NR,51.572286087497200,0.139027951801431
Ice seal and Darwin's finches,387030,SE2 9RX,51.492573138184400,0.125209873325915
Triller and Magpie,1353872,DA15 8PW,51.450558857792800,0.101740880814936
green turtle and Pheasant,461247,RM12 6NB,51.560379316482300,0.220360104469899
Rabbit and elapid,460033,RM15 4NU,51.509586471766500,0.254336377285569
Crow and crocodile,1353269,DA16 2PT,51.459637175681900,0.092440920506191
Meadowlark and boa,1027863,IG3 9JG,51.558784428763900,0.094363268471933
Elephant and Meadowlark,1806417,RM12 6BF,51.560998148000000,0.222556000000000
Argus and Egret,459976,RM15 4EP,51.499558952764800,0.250138457884865
viper and glass snake,459065,RM16 6AP,51.484807977703000,0.289743013142384
sand lizard and Viscacha,387135,SE2 0SY,51.486029480807400,0.113094327122679
Stilt and rat snake,460780,RM13 9SF,51.524798759233000,0.216321934185131
Gull and Jay,456602,RM4 1PB,51.611855660822200,0.180001863149503
Francolin and turtle,1027085,IG6 2EE,51.592473077312700,0.082124750874755
Dolphin and Francolin,1436687,CM14 4JZ,51.618154654878300,0.295352081978694
leguaan and glass snake,1994939,CM14 4WN,51.620306000000000,0.303594000000000
Flameback and Asiatic leopard,387413,SE2 9NT,51.491678137877100,0.118512792542276
king snake and Vulture,282210,SS17 0AJ,51.514431427267300,0.436545068780485
Polecat and Scimitar babbler,462479,RM10 9YB,51.536773856249400,0.170341060470527
Diving bird and Ice seal,1352098,DA2 8EB,51.401888123652500,0.291277636203781
Puffleg and rock python,283026,SS15 5DG,51.570987250198900,0.440997499449467
Kākāriki and amphisbaena,457356,RM3 0TU,51.588707608139400,0.233117366127479
fer-de-lance and swift,1027997,IG3 8JP,51.575879434450500,0.098901503133922
viper and krait,1351299,DA5 1NT,51.445350575825500,0.149913550243513
Polecat and copperhead,2378252,RM3 8RY,51.600659000000000,0.213383000000000
taipan and Tahr,282720,SS16 4AU,51.567348814869700,0.470457099715156
rock python and agama,1436576,CM14 4BN,51.618449119291400,0.303731340564356
Booted eagles and harlequin snake,1030597,IG1 4LN,51.567321617695600,0.080542466858093
pit viper and taipan,382875,SE28 8AU,51.501332532647700,0.115243069173270
lizard and Shearwater,1356823,DA11 0LJ,51.433505535003600,0.367863550366170
bull snake and Greenbul,463393,RM1 4LP,51.584798216561900,0.177479343144575
Dolphin and Siskin,282450,SS16 4NU,51.562474116101900,0.483251003214982
fer-de-lance and massasauga,1352297,DA2 7JN,51.419653292190600,0.258667209500724
Treepie and gopher snake,1438012,CM11 2XY,51.603407117114400,0.475793764321622
leguaan and pit viper,1029193,IG11 7ED,51.529533266202500,0.084139180575064
Tattler and black snake,462315,RM11 3NL,51.567702282104800,0.231190000000000
bull snake and blue racer,458082,RM18 8NH,51.470488151794600,0.366855199748381
Armadillo and Quetzal,1354307,DA14 6RA,51.425586546608200,0.091632983080247
Chickadee and Kangaroo,459317,RM16 4JU,51.480312934656000,0.371987204485944
Polecat and New World blackbird,463493,RM1 2EP,51.571791955786000,0.189701450277450
Treepie and Solitaire,1349552,DA8 3AE,51.467517115364400,0.178225682869725
Cuscus and diamond snake,460113,RM15 4YG,51.496895569155800,0.228554285769712
Scimitar babbler and Tit-tyrant,1355675,DA12 2BJ,51.443517457442200,0.374411390017263
Meadowlark and cobra,283851,SS14 1LB,51.572203008417000,0.467141211526119
rattlesnake and caiman,462729,RM10 8YP,51.542171854574200,0.165838726258538
Zebra and Grosbeak,1028856,IG11 9BX,51.549463790793500,0.105647395552250
python and Tit-tyrant,1026500,IG7 5LS,51.606057759696400,0.085345791187540
horned toad and Parrotlet,2662523,DA15 0HN,51.435945000000000,0.101355000000000
Fox and Gull,1027869,IG3 9JQ,51.557186017616700,0.095241973727990
diamondback terrapin and horned toad,282685,SS15 6SS,51.575152000000000,0.401805000000000
cayman and Cuscus,389453,SE18 1SH,51.488233408810300,0.093505121429560
New World blackbird and Macaw,455036,RM7 7AG,51.577436901600900,0.169506818904767
bicycle lizard and slowworm,1353136,DA16 2BL,51.456497738314400,0.107051809449086
Mole and snapping turtle,461710,RM12 6EX,51.560487042897700,0.222269810326408
lizard and brown snake,1356729,DA1 5NX,51.452762706449200,0.232550160006427
Polecat and Magpie,459393,RM16 4LF,51.481836445453300,0.378907793335608
gavial and Songlark,1026472,IG7 5HY,51.611355280024200,0.087827341694894
Parakeet and Coati,455765,RM6 5LD,51.584341243119600,0.140734504008790
puff adder and gecko,282353,SS16 4JA,51.562822838881700,0.485044782500473
Magpie and krait,462165,RM11 3BL,51.571875544039400,0.237227748424429
bearded dragon and Ice seal,456495,RM5 2TT,51.609854114224000,0.161317481834600
Booted eagles and Hawk,462541,RM11 1BS,51.572396130368700,0.195387605992347
Gila monster and habu,456247,RM5 2AT,51.597836034670600,0.156736000000000
Herring gull and bushmaster,283034,SS15 5DS,51.568746875296900,0.439751855540617
Vulture and Dolphin,1352550,DA17 6DN,51.488858637523500,0.151369257357061
dukite and puff adder,1357268,DA1 4EF,51.453316161044500,0.176829867479775
habu and copperhead,378154,SE9 2HH,51.437367463434400,0.079998437808378
anole and Piping shrike,462507,RM11 2JZ,51.576746093729800,0.218473288359712
Parakeet and Jay,458389,RM18 7SG,51.459433000000000,0.357242000000000
Gila monster and Pratincole,455126,RM7 7AP,51.577393200278100,0.168465564753241
Macaw and harlequin snake,2651333,DA1 2FJ,51.445363000000000,0.215034000000000
Rabbit and Grouse,453994,RM9 6AX,51.535212649284500,0.134866764561277
flying dragon and B,456414,RM5 2RX,51.609428000000000,0.172887444536476
hognose snake and Vulture,1354412,DA14 5BQ,51.411381508245500,0.132831655631201
bandy-bandy and Viscacha,455255,RM7 8BP,51.582536727345200,0.157263841988317
terrapin and Kangaroo,1349976,DA8 1EJ,51.477326534280900,0.160345768486880
Magpie and Chickadee,2607055,DA1 5WQ,51.452205000000000,0.222288000000000
Marsh harrier and hognose snake,1356334,DA11 8DB,51.434608349733100,0.344323812441658
blind snake and Polecat,1355912,DA12 2QP,51.438504918060000,0.390497916019842
bicycle lizard and blue tongue,458366,RM18 7QB,51.462316402618500,0.357450000000000
Chipmunk and anaconda,457663,RM2 5SS,51.575271592512300,0.201746521641613
slowworm and Black cockatoo,1355323,DA12 5UD,51.408436966053400,0.388594000000000
bushmaster and Argus,2623997,CM13 3FP,51.604767000000000,0.290357000000000
Chipmunk and Greenbul,2646152,RM14 3BN,51.547795000000000,0.349489000000000
Pitohui and Bronzewing pigeon,454165,RM9 4TX,51.534908231035000,0.127368840757501
horned toad and saltwater crocodile,1350230,DA7 5EY,51.472017200173100,0.143880950887798
king cobra and American sparrow,461829,RM11 3PJ,51.567001270208600,0.227782211667202
Tattler and Prion,458218,RM19 1GH,51.486536791717100,0.235107227487108
crocodile and monitor,283720,SS14 2JL,51.577585721742600,0.468197772220638
Shearwater and Thrasher,1027220,IG6 2LL,51.598273021766400,0.082649949478617
Civet and Cuscus,461451,RM12 5HJ,51.546207601065700,0.198338146615585
sea snake and Night heron,455287,RM7 8HJ,51.592881636269100,0.162951627318685
bicycle lizard and Kangaroo,2379235,RM8 1AP,51.553493000000000,0.141954000000000
Marmoset and Piping shrike,2650636,CM12 2FN,51.622864000000000,0.416720000000000
amphisbaena and sand viper,1353804,DA15 8JH,51.442230299521300,0.088220283601686
Zebra and hawksbill,1356221,DA11 9LJ,51.440469941542700,0.351157123444584
Wallaby and snapping turtle,1351205,DA5 3NE,51.438429000000000,0.152291000000000
iguana and cerastes,459966,RM15 4DS,51.497937702951700,0.243229209855929
Guillemot and racer,454090,RM9 6JU,51.540320689867300,0.139302386258338
bearded lizard and Gila monster,1356062,DA11 8QS,51.434475331480000,0.354547026392374
Fish eagle and Viscacha,1354830,DA12 5UQ,51.411406148837700,0.376888692061001
smooth snake and Diving bird,460267,RM14 3SS,51.552436651624000,0.369837991519682
tortoise and Old World warbler,1350844,DA5 9AS,51.444700000000000,0.209620000000000
Greenbul and Shearwater,453968,RM9 5YJ,51.547829402585500,0.130423582190740
Ibex and Myna,1349934,DA8 1BD,51.487214515389700,0.171285189698521
sea snake and Mamo,804941,ME3 7LP,51.439860907624200,0.468246506911128
Pitohui and mountain devil,283219,SS15 5LN,51.575709195524200,0.437945383626118
Black cockatoo and Eagle,456409,RM5 2RD,51.600485855465200,0.156309457727804
anaconda and Parrotlet,455983,RM6 4PA,51.570156296737800,0.125089038195810
constrictor and krait,463403,RM1 4NL,51.590064988274600,0.179579151674601
Mole and skink,458723,RM17 6DA,51.477522157408800,0.330883712329454
milk snake and Vulture,1806769,RM7 1QQ,51.570249714000000,0.170636458000000
Wader and Diving bird,1350579,DA7 5AF,51.467078446302200,0.142987112643911
Guillemot and Solitaire,1354573,DA14 4AF,51.426688012195700,0.105953432740235
mamba and leathery turtle,282919,SS15 6BG,51.573326762838700,0.403916533291935
slowworm and Skunk,1806404,RM11 1GU,51.566820239600000,0.192088679300000
Ice seal and Wader,1027807,IG3 9EL,51.552073525888500,0.102536763136190
harlequin snake and Petrel,282305,SS16 5RJ,51.564963995457400,0.441324144671339
Nukupuʻu and Mink,283365,SS14 2NZ,51.581964748240700,0.479319193889291
chameleon and king cobra,454131,RM9 4QP,51.533431138626600,0.108569783650407
Puffleg and cobra,463470,RM1 2BT,51.573336053424400,0.185503880035380
White ibis and caiman,457725,RM19 1GU,51.488385288198700,0.236263607661506
Chipmunk and Ground sloth,456824,RM3 9QJ,51.604660050454400,0.236470760383338
fer-de-lance and Black cockatoo,1350754,DA7 4BF,51.456735547664700,0.148447645442419
Parakeet and bushmaster,281974,SS17 0QF,51.491256810875800,0.407764106122946
Condor and Tahr,2650644,CM14 9RG,51.620399000000000,0.303583000000000
king cobra and Fulmarine petrel,1353808,DA15 8JP,51.443753780244400,0.089527376321655
Francolin and glass snake,1027732,IG3 8XB,51.567624572181400,0.109906311447733
Ice seal and Chickadee,1357689,DA1 2NX,51.442328608401200,0.201763794463871
Black jay and Vole,457910,RM19 1ST,51.485649059421800,0.232139781623532
Nukupuʻu and Partridge,456026,RM5 3AU,51.589705407002800,0.165818000000000
Fulmarine petrel and moloch,1356946,DA1 4TJ,51.461370412442700,0.187161001159866
chameleon and terrapin,1349402,DA9 9AY,51.453206576895200,0.271233825863248
anole and swift,1353734,DA15 8BB,51.437642335386100,0.090327584979891
Diving bird and Schneider python,1356967,DA10 0AS,51.445623868205500,0.311787194515786
bushmaster and snapping turtle,1353105,DA16 3RL,51.465821599183800,0.085525085808167
habu and Vulture,1353906,DA15 8RW,51.452726178302000,0.097220140991814
massasauga and death adder,455828,RM6 4AS,51.571842229708100,0.122368040111649
Kestrel and sea snake,1349697,DA8 3JG,51.471669563767800,0.172661000000000
Skunk and saltwater crocodile,1351946,DA2 7SB,51.422503689255500,0.222947919001028
bearded lizard and gopher snake,461392,RM12 6TT,51.542531948923500,0.211126340413126
Grosbeak and Songlark,1357704,DA1 2PS,51.440319753182600,0.192831879334280
horned toad and Linsang,460488,RM14 2TY,51.539259000000000,0.269546000000000
Wader and Scimitar babbler,460784,RM13 9SL,51.528182442199400,0.218101035586320
Parrotbill and Minke whale,1437366,CM12 9TJ,51.604219237272700,0.406934701462707
blind snake and Linsang,282009,SS17 0SS,51.488150336122300,0.406635252431602
python and tokay,1351442,DA4 9AZ,51.400671219345700,0.245439111747370
horned viper and Capuchin,1355934,DA12 1DD,51.439921000000000,0.368224000000000
Linsang and Macaw,1357190,DA1 5JX,51.456803138561200,0.232416248339833
Hawk and racer,1026752,IG6 2PL,51.596232427283300,0.077026552669519
python and deaf adder,281665,SS17 7HA,51.522320027233800,0.445976320286691
Kangaroo and wall lizard,457350,RM3 0TH,51.585373614530300,0.235826553948454
Vulture and Fulmarine petrel,454342,RM8 3LS,51.553946092590600,0.135282266734839
Chickadee and Mouse,1026266,IG7 6JS,51.619024094139300,0.111061832868798
glass snake and Mouse,2640300,DA9 9XY,51.447506000000000,0.291114000000000
flying lizard and sand viper,1765773,DA8 3AJ,51.468847000000000,0.181255000000000
Towhee and Kangaroo,456673,RM3 9AR,51.614836830530600,0.227177376791745
carpet snake and Quetzal,1352914,DA17 5QN,51.486055242601800,0.149768075672975
rat snake and indigo snake,1806659,RM3 7FD,51.596166091700000,0.207319690200000
coral snake and mud turtle,1357128,DA1 3RA,51.444935511883700,0.176301725407598
Minke whale and Guillemot,1994905,CM14 4GQ,51.620306000000000,0.303594000000000
Hawk and cobra,455738,RM6 5EX,51.583712376640500,0.132303837829671
bandy-bandy and Rabbit,1353112,DA16 3RW,51.466320155303900,0.085303059342313
black snake and Peafowl,2591744,DA1 5UZ,51.462263000000000,0.232941000000000
Vole and Greenbul,463278,RM1 4AF,51.600477582846500,0.182056085172793
Lemming and slowworm,1355317,DA12 5TU,51.413676771420600,0.384643201938531
indigo snake and Rabbit,1354043,DA14 5RH,51.418104724861900,0.121135173822852
Macaw and Skunk,1533932,BR5 3DD,51.403791030000000,0.108006953000000
Flameback and bicycle lizard,1782740,IG11 0TB,51.522945000000000,0.101642000000000
deaf adder and black snake,1436497,CM14 5DJ,51.609413634919100,0.306812427697713
Tattler and bushmaster,1349582,DA8 3BZ,51.477636100854400,0.178606990457445
Grackle and racer,1354348,DA14 4QN,51.424829000000000,0.108903000000000
swift and skink,459964,RM15 4DQ,51.499938168205400,0.258946407071601
bushmaster and deaf adder,1532323,BR7 6NE,51.419515590000000,0.077519397000000
Grouse and puff adder,1350077,DA7 6JT,51.457938419316300,0.171018209358320
Condor and Kākāriki,1031123,IG1 1PB,51.552554873987500,0.076521986407959
New World blackbird and tiger snake,462369,RM11 2DD,51.572367077091300,0.214295000000000
Parakeet and amethystine python,1436457,CM14 4YZ,51.617076000000000,0.299395886277409
saltwater crocodile and Old World quail,283743,SS14 0WD,51.570841000000000,0.459678000000000
Gila monster and rat snake,462879,RM10 7XA,51.548817880791800,0.163384999607601
coral snake and snake,1356478,DA11 0RS,51.441564383322800,0.367819951385406
Chipmunk and deaf adder,1352394,DA2 7PB,51.421127948765700,0.167734110872232
Ground sloth and Guillemot,284124,SS14 0SF,51.570438936010300,0.454346020391633
horned viper and Mouse,463340,RM1 4DY,51.585238018701500,0.190088107286223
sand viper and Vole,389567,SE18 2DD,51.477913674106200,0.094789474034127
perentie and Chickadee,387310,SE2 9HR,51.490207469113200,0.104298646477998
Tit-tyrant and Pheasant,1356296,DA11 8AH,51.429482423192000,0.349700934185185
Guillemot and Diving bird,1436670,CM14 4HZ,51.616133741555800,0.302111730721727
Fish eagle and Solitaire,2640276,DA12 9PH,51.441222000000000,0.373329000000000
harlequin snake and Thrasher,804902,ME3 7HS,51.417901438573900,0.460302000000000
New World blackbird and Parrotlet,455591,RM6 6SU,51.578877729697400,0.137057013529194
Triller and bushmaster,387448,SE2 0DT,51.480868536643500,0.135870679370659
black snake and milk snake,459776,RM15 5ES,51.509536715503500,0.278314979055441
anaconda and Viscacha,282930,SS15 4HF,51.584508227268000,0.433869187605344
massasauga and Mockingbird,1357370,DA1 4NR,51.453760201948400,0.190165372115371
smooth snake and turtle,282148,SS16 5EL,51.561626472610700,0.459455242162147
Dolphin and Badger,1357339,DA1 2UP,51.442780458198400,0.210247152935281
skink and Piping shrike,281488,SS17 8EH,51.527315226806200,0.434983856606286
swift and Mink,459096,RM16 6DT,51.490961075920200,0.305710572528243
flying lizard and diamondback terrapin,457813,RM2 6PS,51.588878851685600,0.218400307460082
Magpie and Bunting,1355677,DA12 2BP,51.444030071570600,0.374855332825454
Piping shrike and Grackle,1030843,IG1 1YW,51.558614218367700,0.080173873864783
Eagle and White ibis,458390,RM18 7SP,51.466031678781400,0.359958173523912
sidewinder and Schneider python,1994941,CM14 4WT,51.621320000000000,0.303846000000000
Parrotbill and Wallaby,1352421,DA2 7QS,51.419737176777000,0.246819447918555
giant tortoise and Mouse,1351581,DA4 9LS,51.400693301469300,0.255058663580481
rattlesnake and gopher snake,1752478,SS17 0FB,51.510576000000000,0.416465000000000
Kangaroo and harlequin snake,1356977,DA10 0BF,51.442092692355200,0.312083722290350
Cloud rat and bandy-bandy,457131,RM3 7NA,51.622063255351000,0.228325864990660
Cuscus and Logrunners,1349773,DA8 2AP,51.479214009490000,0.186831000000000
Logrunners and Old World vulture,455974,RM6 4ND,51.571279422567500,0.127623541109384
green turtle and worm lizard,1353132,DA16 2BE,51.460776214051600,0.111668442594558
Bronzewing pigeon and Asiatic leopard,456402,RM5 2QR,51.607656826427900,0.157573590373456
Prion and sand lizard,455228,RM7 0JU,51.565628494367700,0.175380039519041
Piping shrike and Tit-tyrant,1356237,DA11 7LZ,51.433140774462100,0.361427710249679
Guillemot and Marmoset,1026844,IG6 2SJ,51.604218191012500,0.078026414632439
horned viper and bearded lizard,2657548,RM10 7FX,51.551763000000000,0.152575000000000
Myna and Songlark,1438095,CM11 2YW,51.600876218833900,0.478529848499223
Hawaiian honeycreeper and Darwin's finches,461922,RM12 5BS,51.547726215473900,0.201757638852561
pit viper and Marmoset,283853,SS14 1LE,51.571842410934200,0.465043490588975
harlequin snake and Coati,387381,SE2 0AF,51.482612385003300,0.122543067740202
flying dragon and Solitaire,1806672,RM3 8FJ,51.603729894700000,0.218719788700000
Perching duck and snapping turtle,460482,RM14 2TQ,51.531706588638100,0.249791484409397
racer and copperhead,1350930,DA5 2ED,51.427324713916200,0.166243597812971
kabaragoya and Kestrel,1357626,DA1 2GF,51.446818000000000,0.210802000000000
Jackal and asp,1027188,IG6 2HU,51.596584967336000,0.080984444630608
Jerboa and Perching duck,455576,RM6 6RR,51.575774645920700,0.142020500553355
Diving bird and Snipe,1352273,DA2 7HA,51.417800940849900,0.168684142975602
Dolphin and Ibex,1027983,IG3 8HW,51.564240000000000,0.091546829585332
agama and Moluccan boobook,1030232,IG1 4SH,51.569808536829600,0.077726655241128
rat snake and flying dragon,1437979,CM11 2UH,51.594913810273200,0.461008050056421
constrictor and Schneider python,1352242,DA2 7DH,51.428107000000000,0.201569000000000
mountain devil and Goose,1355503,DA12 5AB,51.429603742654100,0.370913176359132
Black cockatoo and puff adder,1356758,DA11 0DG,51.443220399698000,0.365644000000000
Bronzewing pigeon and caiman,463355,RM1 4FB,51.581795174215300,0.178418340666410
anole and Kākāriki,388713,SE18 7PW,51.488764486494700,0.079326366538873
horned toad and Fox,460538,RM14 1HP,51.567274919883100,0.278156056038347
Goose and sea snake,1806648,RM3 3DH,51.605512071500000,0.223861382200000
chameleon and New World blackbird,387402,SE2 9ND,51.491849912265100,0.108984130015028
Gila monster and Tattler,1027990,IG3 8JE,51.573541050468200,0.097408340555904
sand viper and Cloud rat,459869,RM15 5PL,51.504499870663000,0.289894417301157
gecko and kabaragoya,1352813,DA18 4HB,51.492319655924900,0.136189834026178
adder and bushmaster,388595,SE18 7DN,51.490591717266400,0.080245019615492
sidewinder and galliwasp,1355388,DA12 4SZ,51.419105152734500,0.392318898510514
hoop snake and harlequin snake,457683,RM2 5UP,51.580287103738400,0.203316892963667
New World blackbird and Viscacha,1354471,DA14 5EF,51.415334492485400,0.121654102089628
Kangaroo and Hawk,281353,SS17 9LE,51.520251651890400,0.485320814822428
Condor and Marsh harrier,459713,RM16 2AD,51.497100836013800,0.331306305134882
blindworm and Wallaby,1351377,DA5 2AG,51.437707000000000,0.172864000000000
tortoise and Mamo,1436145,CM14 5HN,51.610243224680300,0.298448269555934
puff adder and rat snake,805896,ME2 3TZ,51.400935661536100,0.474718998033954
bull snake and Night heron,378197,SE9 2NJ,51.455110036408700,0.085079983012050
adder and gaboon viper,1028586,IG11 9RB,51.535931325310600,0.097524504122422
Old World warbler and indigo snake,458878,RM17 5DS,51.479009018487800,0.324392130655669
monitor and giant tortoise,1531836,BR7 6NY,51.412646010000000,0.079997806000000
terrapin and leathery turtle,458972,RM16 4TU,51.490611252795900,0.377261377643538
cobra de capello and Wader,456013,RM6 4RJ,51.569691950123900,0.113955967722521
Badger and Black cockatoo,460634,RM13 9NF,51.521012186027900,0.196273932919400
boomslang and sand viper,1349481,DA9 9DT,51.441126237872400,0.257870310588745
Jackal and tree snake,1349594,DA8 3DR,51.476704496504300,0.168222583432464
galliwasp and tuatara,1353673,DA15 9LQ,51.444772266754100,0.118456463453177
Black jay and skink,458498,RM17 6SE,51.472947438078100,0.332551310900888
gaboon viper and giant tortoise,1531881,BR8 7UH,51.404127610000000,0.162084530000000
Lemming and carpet snake,461800,RM12 4WW,51.553196463716700,0.210705884174620
Dorcopsis and rock python,461112,RM13 9LB,51.527337928910300,0.209481749219911
Tahr and moloch,458094,RM18 8PN,51.468236088604000,0.427286262185372
Petrel and Puffleg,454859,RM8 2BD,51.553288317591000,0.121475365042131
wall lizard and Petrel,1026804,IG7 4NQ,51.614186834153900,0.114015146026329
dugite and Darwin's finches,1350973,DA6 7QA,51.452968629822900,0.159641719601101
Myna and Capuchin,459456,RM16 2QS,51.495451425715300,0.345917687284099
whip snake and boa,1355670,DA12 2BD,51.444351003146600,0.373663110358697
Eagle and death adder,1029074,IG11 8EJ,51.537710919282400,0.078888888993585
garter snake and cobra de capello,2630840,RM3 9FQ,51.610915000000000,0.221277000000000
worm lizard and bearded lizard,1353598,DA15 9DL,51.440402075039100,0.102454472742735
Treepie and Flameback,460732,RM13 9NZ,51.517705013240100,0.206694784378197
Stint and grass snake,1352698,DA18 4AQ,51.493081022186200,0.129929917012599
Zebra and diamondback,461577,RM12 5RJ,51.546760651612200,0.205763972379368
Old World vulture and Marmoset,1349866,DA7 9SP,51.455154768421400,0.150791654778595
python and Capuchin,460020,RM15 6AD,51.501468410706500,0.292696312872256
Komodo dragon and Pheasant,460133,RM14 2YX,51.558309000570100,0.248319866139458
diamondback and Kestrel,1028312,IG2 7ZS,51.573630164646000,0.090903790360755
Tahr and gavial,459504,RM16 2UX,51.497704565588600,0.319911501295511
rock python and Perching duck,1357294,DA1 4JJ,51.452296814425900,0.178451012539203
thorny devil and mountain devil,463194,RM10 7JP,51.553122090350600,0.152323123323345
Badger and Vole,1752068,SS15 6GW,51.579713082163900,0.418326962840507
bearded lizard and python,454117,RM9 6PF,51.521316994211400,0.147276890656561
Skunk and bandy-bandy,458580,RM17 6UY,51.474748579741300,0.316096636410322
Asiatic leopard and black snake,1435541,CM15 8LP,51.624835405389400,0.325554025482001
snake and Myna,1436620,CM14 4FJ,51.617097947277600,0.297547000000000
smooth snake and anaconda,1436902,CM13 3RG,51.603711808940400,0.339984683592479
American sparrow and frill-necked lizard,1026901,IG6 3AH,51.605831344496300,0.096036798619524
hognose snake and tiger snake,1357226,DA1 4AT,51.449902972318200,0.182410184694064
Cloud rat and slowworm,458577,RM17 6UU,51.472382320221900,0.346447410030016
agama and Bunting,1353996,DA15 7DU,51.431362357522600,0.102557330443243
Meadowlark and Old World warbler,1357386,DA1 4PS,51.460204834615400,0.190344361579824
Badger and Vole,1027971,IG3 8HA,51.572212865767500,0.095745338704220
leathery turtle and Chipmunk,1028222,IG3 8UQ,51.572245762834200,0.108965813623133
kabaragoya and Mamo,462066,RM11 2QX,51.575222000000000,0.226271696842230
Gila monster and gopher snake,1356095,DA11 8ST,51.423254816878800,0.343627548159058
bearded lizard and Fox,1030966,IG1 2NQ,51.548874839477900,0.085253845235845
box turtle and Philippine hawk-owl,456805,RM3 9NP,51.602376506533400,0.239737739096968
adder and Thicketbird,1028020,IG3 9QD,51.565277012677200,0.115424930384617
White ibis and snapping turtle,378145,SE9 2EX,51.443412493431600,0.080402634998461
sidewinder and adder,1351422,DA5 2DR,51.438128665774600,0.165574891994860
copperhead and Perching duck,462324,RM11 3NZ,51.565363566044000,0.228308176997245
worm lizard and Moluccan boobook,1354508,DA14 5JQ,51.419243428808700,0.129256728201147
perentie and Grouse,1533830,BR5 3AZ,51.404455630000000,0.110553714000000
Badger and bandy-bandy,457349,RM3 0TD,51.587612996784600,0.233929862063871
Pitohui and Lemming,460696,RM14 1XJ,51.561546647835700,0.267466999097731
Capuchin and frill-necked lizard,282184,SS16 6TQ,51.564367774465700,0.399172778017122
tortoise and diamond python,383099,SE28 0DE,51.493404066548800,0.085948261604814
Fish eagle and grass snake,1350610,DA7 5DH,51.468984620324000,0.146445719410782
lizard and Elephant,1353441,DA16 1PB,51.465548498462500,0.113328523722310
Rat and rattlesnake,458689,RM17 5YW,51.478259297639100,0.311824319691034
cycling lizard and dugite,455877,RM6 5TS,51.577827501217200,0.128044839413263
milk snake and cerastes,458655,RM17 5UJ,51.482497760308700,0.333024295027577
Tattler and Guillemot,2646591,SE28 9EG,51.498489000000000,0.104477000000000
Fish eagle and Black cockatoo,459924,RM15 5XA,51.506456802748100,0.286850999764467
horned viper and wall lizard,459010,RM17 5LY,51.481979560265900,0.327423827446613
Boto and constrictor,1355356,DA12 4QS,51.417126229503800,0.387929458090091
rattlesnake and green turtle,457694,RM2 5XD,51.578859350465700,0.203708000000000
Fish eagle and brown snake,461682,RM12 6BD,51.550783061415400,0.226571355978696
perentie and goanna,281467,SS17 8DG,51.534001176659400,0.441281704779317
racer and Komodo dragon,1355300,DA12 5SG,51.421885201496700,0.384322561288483
Zebra and Hawk,1352413,DA2 7QF,51.417241977501100,0.176035861922074
Lemming and swift,1028806,IG11 9AG,51.543667000000000,0.102495000000000
bicycle lizard and goanna,1349627,DA8 1NP,51.488375403460900,0.169996000000000
Mockingbird and Thrasher,462287,RM11 1UR,51.568345000000000,0.219109711043349
cobra de capello and Black jay,1356024,DA12 1NS,51.432845000000000,0.377967107186682
Warbler and habu,456353,RM5 2JT,51.605488424040000,0.155188966138407
elapid and bull snake,283313,SS15 4DS,51.584534493317500,0.426522758691253
frilled lizard and blue tongue,1350744,DA7 4AT,51.459114796639900,0.132407613679512
amphisbaena and Vole,1031220,IG1 1XG,51.559117138067400,0.084265232469039
tokay and iguana,456406,RM5 2QX,51.602403722447600,0.161555716179970
Bronzewing pigeon and Eagle,1437260,CM12 9QP,51.617197451941700,0.423483360231613
amphisbaena and worm lizard,1357781,DA1 2QY,51.435578490477400,0.205395926432401
agama and Recurvebill,1353197,DA16 2JJ,51.457918762654800,0.104540539611906
Greenbul and grass snake,1027314,IG6 1GE,51.586203759603700,0.086255376524426
Peafowl and Ibex,1355981,DA12 1JL,51.436439901030000,0.374403994158124
tortoise and Pitohui,1352601,DA2 6QG,51.452535526391200,0.248199377389516
anaconda and Ibex,455138,RM7 7BE,51.581318431778600,0.165794475575707
Schneider python and Komodo dragon,457516,RM20 3WD,51.483269348894800,0.272684275294255
Vulture and Asiatic leopard,281756,SS17 7NX,51.530547490948700,0.454650521914773
Dolphin and boomslang,383072,SE28 0AQ,51.494364544347100,0.095125849444375
hoop snake and Bunting,1353369,DA16 1HG,51.471103470959200,0.116465092258553
bicycle lizard and Ground sloth,389544,SE18 2AN,51.478012390252200,0.104342117063664
Kite and Solitaire,1350001,DA8 1HL,51.473892102506300,0.160298688212622
sidewinder and king cobra,1026866,IG6 2TP,51.604593494475100,0.081206217482829
thorn lizard and Buzzard,1028623,IG11 9TP,51.541279404697000,0.087588956604815
Old World warbler and American sparrow,1354232,DA14 4LY,51.432852602820100,0.119674581490317
frilled lizard and Gull,2577887,RM14 9DA,51.552318710300000,0.246538596300000
kabaragoya and Chipmunk,1026950,IG6 1PB,51.588398985043600,0.085186614594534
Treepie and Linsang,2624003,CM14 9QQ,51.620308000000000,0.303622000000000
Meadowlark and Thicketbird,458108,RM18 8RB,51.480397116249900,0.420226531097019
turtle and Vole,387518,SE2 0PF,51.478830149665100,0.105877532502325
bandy-bandy and Komodo dragon,282887,SS15 5YJ,51.582884041801300,0.439758594724952
Crow and boa,456318,RM6 4AE,51.574370276190000,0.123799114376558
Wader and constrictor,1765801,DA9 9US,51.451444921527400,0.274471202594925
Francolin and American sparrow,282969,SS15 5AX,51.572173353591500,0.427715000000000
iguana and Thrasher,1028093,IG3 8SB,51.566346409222700,0.104464995587581
horned toad and Lemming,1354199,DA14 6HY,51.421998565902800,0.110182420944537
Magpie and Warbler,1533998,BR5 3HY,51.408411960000000,0.124022587000000
amethystine python and Kangaroo,1356096,DA11 8SU,51.423014740116000,0.346636030983141
Myna and Jay,281290,SS17 9EJ,51.530502411861800,0.457446000000000
Perching duck and Bronzewing pigeon,1356132,DA11 9AZ,51.448852215905200,0.319535226672046
B and dukite,1438004,CM11 2XJ,51.602012796732500,0.468554929659298
Moluccan boobook and amphisbaena,282114,SS16 6SB,51.566932559983800,0.406551774000901
Flameback and Towhee,1349523,DA9 9FY,51.452620168599900,0.291197672743234
gaboon viper and goanna,463162,RM10 7EA,51.552289503260200,0.160924378082550
Rabbit and sand viper,458459,RM17 6QF,51.477014549445100,0.324290713940456
copperhead and Ibex,282548,SS15 6HF,51.580083505238000,0.414723649322014
Civet and deaf adder,1349849,DA7 9GD,51.463200296615900,0.134728802182446
taipan and Condor,457925,RM18 8DF,51.458830025477000,0.366107946931020
Gull and American sparrow,1029265,IG11 7HX,51.531350000000000,0.082145030390170
loggerhead and mountain devil,1028817,IG11 9AX,51.548395283100600,0.107414000000000
anole and Triller,1354921,DA13 9JG,51.403381000000000,0.352144000000000
blue tongue and cobra de capello,1436721,CM14 4NX,51.613357190788900,0.282658719599730
taipan and Pratincole,455860,RM6 4DQ,51.573667177035300,0.118917296168838
Parrotlet and perentie,282917,SS15 6BD,51.574579232414800,0.418675036047509
Siskin and slowworm,282371,SS16 4LE,51.562601517263600,0.486576615936257
Hawk and pit viper,457659,RM2 5SJ,51.576468658443400,0.204075000000000
constrictor and Cuscus,458221,RM19 1GP,51.487339976488900,0.236846256898684
Buzzard and Partridge,1863722,DA18 4AX,51.496906000000000,0.151042000000000
Mole and Rabbit,1806841,RM9 6FF,51.529434000000000,0.145092000000000
viper and boomslang,283291,SS15 4BJ,51.586161484470500,0.444322868344748
soft-shelled turtle and Wader,1028132,IG2 7DB,51.571897934076100,0.083637637532426
green turtle and Black cockatoo,1349585,DA8 3DE,51.478579733931800,0.177672644306704
Hawk and Jerboa,1358107,DA1 1BZ,51.444421220109100,0.218126336137948
Old World vulture and Towhee,1531946,BR7 6RX,51.418384630000000,0.075368256000000
skink and Meadowlark,1030593,IG1 4LF,51.564737000000000,0.075230000000000
king cobra and monitor,460776,RM13 9SA,51.522304546407000,0.215537693699128
green turtle and Mockingbird,457623,RM3 0EA,51.594945676483900,0.226175166386416
Nukupuʻu and fer-de-lance,1027587,IG3 9UF,51.564726041587600,0.110565700461830
whip snake and Greenbul,389236,SE18 2SN,51.477307002410800,0.087964334008316
Parrotlet and Mouse,1352235,DA2 7BZ,51.421037000000000,0.224459000000000
frilled lizard and tree snake,1350359,DA7 5RN,51.475961045301700,0.127317737271357
blue tongue and hognose snake,2624764,DA12 2FG,51.433444000000000,0.401946000000000
slowworm and puff adder,462179,RM11 3DP,51.581353747309100,0.233940383938835
bushmaster and Fox,459041,RM16 4XP,51.488748600977700,0.365308846020543
Mouse and pit viper,1350162,DA7 6QB,51.466858728884400,0.165221705079482
deaf adder and diamond python,454631,RM8 2UH,51.552662771049300,0.114781902963579
Bunting and Peafowl,463045,RM1 4SH,51.590404751195000,0.177747467388058
Armadillo and crocodile,1356159,DA11 9DZ,51.448424901920900,0.321586092629359
flying dragon and American sparrow,1531871,BR7 6QS,51.400706970000000,0.091619000000000
Viscacha and leathery turtle,461808,RM12 4XG,51.561649498347000,0.214535331498456
Jerboa and chuckwalla,382661,SE28 8QW,51.510935744771200,0.130705024951778
bushmaster and chameleon,283823,SS14 2JS,51.578697171932400,0.463667977964106
thorny devil and gecko,1436317,CM14 5XD,51.606649786410700,0.301010823958186
tiger snake and blind snake,1354556,DA13 9QG,51.413052830344500,0.322583331556017
Viscacha and Boto,1028760,IG11 8RF,51.542694328803000,0.079822689367003
whip snake and Dorcopsis,1350433,DA7 4LF,51.463101051029100,0.144600355600507
Schneider python and Marsh harrier,1436530,CM13 3TQ,51.569767577474500,0.341112621920456
Bronzewing pigeon and worm lizard,1350801,DA7 4HF,51.463033599143100,0.128069731499238
Eagle and Macaw,1352510,DA2 6NG,51.437706605069700,0.243470907846008
Mouse and Parrotbill,1534248,BR5 2QX,51.406277000000000,0.101875436000000
Eagle and Darwin's finches,1352248,DA2 7DR,51.428589000000000,0.192141000000000
perentie and Prion,1357108,DA1 5FD,51.457435000000000,0.244150000000000
Recurvebill and slowworm,1352853,DA17 5LE,51.482962294212500,0.145316087265475
Pratincole and gavial,1357095,DA1 5EJ,51.453810267047000,0.228067154025266
terrapin and grass snake,1765776,DA8 3DD,51.472383848182000,0.179163059336604
Tahr and crocodile,1531660,BR8 7LW,51.409157610000000,0.176500380000000
Songlark and Flameback,1437880,CM11 2QT,51.609624000000000,0.437994879434980
Elephant and Gull,1352315,DA2 7LL,51.419308689060200,0.261613168321050
asp and Partridge,461983,RM12 4BJ,51.563827460588000,0.192420920451608
Black jay and Tree warbler,458820,RM17 6HL,51.475232294685600,0.329355657620507
king snake and Boto,282953,SS15 5AA,51.569437257931600,0.450208058677559
rock python and saltwater crocodile,459998,RM15 4JL,51.496222377538700,0.250146997136200
chuckwalla and worm lizard,1028524,IG2 7BA,51.570383535376300,0.093943958743402
Peafowl and sea snake,1531889,BR8 7UT,51.403946220000000,0.163628822000000
boa and harlequin snake,463146,RM10 7BY,51.561281996991900,0.155565142637519
smooth snake and king cobra,1437335,CM12 9RD,51.614621000000000,0.426799000000000
Coati and Lemming,2647307,SS16 5LQ,51.557088000000000,0.446617000000000
Quetzal and sea snake,455183,RM7 7JG,51.580975607379700,0.166341102731215
galliwasp and worm lizard,461605,RM12 5TX,51.550204422026000,0.204834312899541
worm lizard and Argus,1352563,DA17 6ED,51.489669038212800,0.158163440007113
American sparrow and moloch,458074,RM18 8LS,51.467420597693000,0.366897999083831
snapping turtle and Boto,382671,SE28 8RH,51.501063263059900,0.105720870106935
Nukupuʻu and leguaan,1350900,DA6 7HB,51.452078462681800,0.140514159604692
Prion and Diving bird,1436297,CM14 5UZ,51.609594448352600,0.292537005278578
Zebra and thorn lizard,1765415,DA1 9LD,51.444700000000000,0.209620000000000
leguaan and bicycle lizard,462469,RM10 9XL,51.535667263093700,0.165501061319612
leathery turtle and sea snake,1437548,CM12 2AY,51.622861000000000,0.416691000000000
Fish eagle and fer-de-lance,1028317,IG3 8AF,51.560754559321900,0.093818981675574
Elephant and Diving bird,1027993,IG3 8JH,51.575432642330900,0.096730522986252
Chickadee and Maya,1356425,DA11 0LT,51.435233051785800,0.357564411172010
Night heron and smooth snake,456178,RM5 3PH,51.599766466165500,0.163148831898521
king cobra and Snipe,1353427,DA16 1NH,51.465381380019100,0.121584934361932
diamond python and flying lizard,458825,RM16 6UT,51.493247264201500,0.301646000000000
Zebra and diamondback,461572,RM12 5QX,51.549264348908300,0.208914154893173
Duck and dukite,281711,SS17 7LW,51.525879395271600,0.447363751708626
Parrotlet and iguana,463577,RM1 2SL,51.573908000000000,0.196403638676143
mud turtle and Skunk,461639,RM12 4LL,51.556965237210500,0.215433027873091
moloch and Stilt,1352609,DA2 6QS,51.456968000000000,0.255392293492938
thorny devil and Siskin,1355842,DA11 9NW,51.439327533842400,0.351170392073237
water snake and perentie,281795,SS17 7RB,51.524722807309800,0.445038263720335
Old World vulture and python,463548,RM1 2PS,51.573464000000000,0.190855407199851
Zebra and Songlark,456299,RM5 3XJ,51.602401550819900,0.176270880347761
boomslang and python,454026,RM9 6BB,51.534637642506600,0.133354665268546
black snake and Gull,456684,RM3 9BJ,51.609952664752600,0.228180410087097
galliwasp and Dolphin,454622,RM9 4PT,51.540741227632500,0.116118307426980
Marmoset and chuckwalla,1356662,DA10 0LH,51.450409611846900,0.307610285004239
leathery turtle and Asiatic leopard,463084,RM1 4XJ,51.595145581240100,0.187330482201867
Macaw and Partridge,382792,SE28 0JT,51.499553061396800,0.093130543959984
Jackal and goanna,458008,RM2 5JB,51.584880273442300,0.194314903927961
sand viper and krait,462849,RM10 7RT,51.557650263148400,0.148136790904407
Quetzal and hawksbill,281633,SS17 7DF,51.520121000000000,0.431243000000000
cobra and lizard,1353194,DA16 2JF,51.458132191503500,0.103672254743902
Schneider python and lizard,1027120,IG6 2HJ,51.594168545784400,0.083371777934037
blindworm and krait,457239,RM3 0FB,51.591623048101000,0.232552925394267
grass snake and Parrotlet,1026251,IG7 6HX,51.614453435278400,0.103179648598991
Old World warbler and tree snake,1765780,DA8 3FE,51.473411816436800,0.180293000000000
monitor and giant tortoise,1030627,IG1 2SL,51.547165173994400,0.076694830111696
Myna and Bunting,460791,RM13 9SU,51.521877099550500,0.216266549339895
giant tortoise and pit viper,1355211,DA12 5QR,51.429164725367700,0.383258000000000
Jerboa and Herring gull,455269,RM7 8DS,51.586147201890600,0.162400763913058
boa and kabaragoya,2375700,RM10 9XJ,51.535834000000000,0.166835000000000
Jerboa and Elephant,388899,SE18 6SX,51.491877346807400,0.077220725261377
python and Elephant,1532321,BR7 6NB,51.419098470000000,0.076191647000000
python and Mink,459988,RM15 4HU,51.495680865159700,0.246965130615043
Old World vulture and Guillemot,1353848,DA15 8NL,51.446040996863900,0.100928972905145
crocodile and Mockingbird,1354007,DA15 7ET,51.433704560580200,0.101830408058100
Pitohui and Kestrel,461532,RM12 5LR,51.539808962014600,0.200986071141869
Hawaiian honeycreeper and mountain devil,2657590,RM18 7EQ,51.466093000000000,0.349005000000000
brown snake and terrapin,455111,RM8 1JU,51.562689000000000,0.153958000000000
bearded lizard and whip snake,463412,RM1 4PD,51.594431254016300,0.176900519446616
tiger snake and Peafowl,283085,SS15 5GL,51.567689571893100,0.438699532632979
chameleon and Darwin's finches,1349598,DA8 3DW,51.475918605732800,0.169870213465259
tortoise and Philippine hawk-owl,282229,SS16 5HE,51.561718988067100,0.454179349115505
garter snake and Pitohui,462260,RM11 1QH,51.564944154590600,0.202099000000000
Puffleg and jew lizard,282611,SS16 5AX,51.565418045173300,0.453613802679558
death adder and Bronzewing pigeon,1765424,DA1 9SX,51.446600272638400,0.219455196061865
blue racer and boomslang,1028183,IG2 7JD,51.577469834155400,0.099109000000000
tree snake and krait,1026645,IG7 4AD,51.609454206714000,0.112654254243884
Badger and Asiatic leopard,1355608,DA12 4BH,51.425170122317900,0.388622187359751
Goose and mountain devil,462502,RM11 1AL,51.568546000000000,0.189680512267197
cobra de capello and tortoise,1352584,DA17 6HG,51.482978140889700,0.153281721382220
loggerhead and Marmoset,283180,SS14 3PE,51.579716227885800,0.486976930335752
loggerhead and mountain devil,281263,SS17 9BT,51.528902468909500,0.466615689288346
king cobra and Rabbit,461528,RM12 5LJ,51.538264013261400,0.196570915509688
Scimitar babbler and Bunting,462001,RM12 4DT,51.562242052631300,0.186299238766764
Komodo dragon and Schneider python,1760933,CM12 9GF,51.624523078458700,0.417835000000000
flying dragon and Siskin,459108,RM16 6ER,51.491552184129000,0.306748830334444
Piping shrike and rattlesnake,454459,RM9 4DJ,51.535430211476700,0.117905106650037
blue racer and Black cockatoo,455663,RM6 6YU,51.579437000000000,0.135528284289713
gaboon viper and box turtle,387091,SE2 9XJ,51.497623451489300,0.120445364483642
Skunk and Egret,1027802,IG3 9EE,51.552322214095400,0.097687051849497
Songlark and diamondback terrapin,455719,RM7 0HX,51.569640099660100,0.165614517163414
snapping turtle and Guillemot,1028782,IG11 8TB,51.541703670247600,0.084464493227739
blind snake and Chickadee,1028004,IG3 8LA,51.564482548539400,0.097063567293187
Greenbul and Maya,1352053,DA2 8AN,51.423359196685600,0.289215754583464
worm lizard and saltwater crocodile,458272,RM18 7BZ,51.461779845777100,0.355837233999349
blue racer and Civet,1354407,DA14 5BH,51.415334492485400,0.121654102089628
