name,postcode,lat,lon
python and boa,BR5 2JN,51.402794790000000,0.106897185000000
Elephant and alligator,BR5 2JP,51.402717040000000,0.108719582000000
cobra de capello and asp,BR5 2QQ,51.400140050000000,0.098479705000000
Buzzard and Mamo,BR5 2QX,51.406277000000000,0.101875436000000
Asiatic leopard and Argus,BR5 2RG,51.403973130000000,0.104880899000000
sand lizard and dukite,BR5 2RH,51.407486730000000,0.102022628000000
gopher snake and Tattler,BR5 2SB,51.406042540000000,0.098807449000000
Tree warbler and pit viper,BR5 3AD,51.408374530000000,0.111165566000000
rat snake and worm lizard,BR5 3AH,51.400037090000000,0.110220895000000
jew lizard and swift,BR5 3AP,51.401700510000000,0.109736749000000
Asiatic leopard and giant tortoise,BR5 3AW,51.401267850000000,0.108293487000000
Pitohui and boa constrictor,BR5 3HZ,51.406672270000000,0.121267471000000
snapping turtle and Flameback,BR7 5QQ,51.406128080000000,0.077861527000000
caiman and goanna,BR7 6HD,51.418067660000000,0.095705126000000
hognose snake and Recurvebill,BR7 6NU,51.411649810000000,0.077349724000000
sidewinder and bushmaster,BR7 6QD,51.410810640000000,0.078016314000000
Mamo and loggerhead,BR7 6QZ,51.400505970000000,0.095117859000000
Chipmunk and Quetzal,BR7 6TN,51.411289060000000,0.075094000000000
Grackle and Tahr,BR8 7HE,51.403003220000000,0.160147987000000
Magpie and Quetzal,BR8 7LQ,51.408254890000000,0.179103355000000
viper and Quetzal,BR8 7LR,51.408486750000000,0.181141915000000
frill-necked lizard and elapid,BR8 7PF,51.413772230000000,0.207682655000000
Schneider python and Gila monster,BR8 7PQ,51.414014000000000,0.209343751000000
Parrotlet and alligator,BR8 7QS,51.413075200000000,0.176197504000000
Pitohui and Masked owl,BR8 7RY,51.413159770000000,0.190482007000000
Dolphin and Chickadee,BR8 7RZ,51.412149190000000,0.186809723000000
mud turtle and perentie,BR8 7ST,51.402260810000000,0.168207642000000
harlequin snake and Dolphin,BR8 7TB,51.403985590000000,0.169281328000000
Booted eagles and Old World warbler,CM11 2BY,51.624099717779700,0.422391946965480
asp and Peafowl,CM11 2EP,51.624780867535700,0.428842000000000
White ibis and Nukupuʻu,CM11 2JT,51.623209502551100,0.438887605239002
Chipmunk and Jerboa,CM11 2NN,51.615664186754200,0.429786660365651
Diving bird and kabaragoya,CM11 2PH,51.617659352134200,0.429849914238423
Grackle and gopher snake,CM11 2PQ,51.617043116826000,0.430077021398268
gaboon viper and bull snake,CM11 2TE,51.612548567925900,0.430848032259318
indigo snake and Partridge,CM11 2UD,51.601166282259300,0.445417581959744
Parrotlet and skink,CM11 2UQ,51.605213000000000,0.451932000000000
blue racer and bandy-bandy,CM11 2UY,51.606154337413400,0.479423971856888
diamondback turtle and soft-shelled turtle,CM11 2UZ,51.607183686065100,0.480505532257485
blue racer and Tattler,CM11 2YD,51.600560592015900,0.468331741742991
skink and Darwin's finches,CM11 2YF,51.597691082377700,0.468363828980808
Flameback and milk snake,CM12 2DH,51.622868837920000,0.416691619338557
Herring gull and Dorcopsis,CM12 2EE,51.622868837900000,0.416691619300000
mountain devil and Rat,CM12 2FN,51.622864000000000,0.416720000000000
bushmaster and jew lizard,CM12 9GE,51.623336758260300,0.405707079761548
diamondback terrapin and frill-necked lizard,CM12 9NW,51.622418493730000,0.406193066911819
Peafowl and frilled lizard,CM12 9TA,51.607043829424300,0.412153592297000
Recurvebill and moloch,CM12 9TR,51.598474000000000,0.413057000000000
bull snake and king snake,CM12 9UN,51.594909000000000,0.428470065352364
Snipe and Solitaire,CM13 1SA,51.624202919745400,0.363072592633443
sand viper and death adder,CM13 2AG,51.611081486455200,0.321196533241036
mud turtle and Kestrel,CM13 2BP,51.611655447216900,0.328086805523232
Skunk and alligator,CM13 2DP,51.615666852260900,0.320914000000000
Lemming and box turtle,CM13 2DS,51.615583963191900,0.322711938683721
Stint and chuckwalla,CM13 2ED,51.613125384643300,0.321979724684850
Greenbul and Puffleg,CM13 2LG,51.621942919710700,0.334450214676351
Grackle and Solitaire,CM13 2QW,51.624640890974900,0.347072099253132
snapping turtle and blue racer,CM13 3AA,51.603065000000000,0.294475000000000
black snake and tuatara,CM13 3AT,51.604977651480600,0.296391478133632
Quetzal and tuatara,CM13 3BA,51.601893864541300,0.298647513550578
rattlesnake and leathery turtle,CM13 3BJ,51.599863789976800,0.302198395106546
soft-shelled turtle and diamondback,CM13 3EH,51.570551406976300,0.330199649383560
blue tongue and amphisbaena,CM13 3EN,51.572587000000000,0.315583000000000
Perching duck and sea snake,CM13 3FS,51.570422000000000,0.390920000000000
Buzzard and Tree warbler,CM13 3HG,51.566460310933200,0.335589210793721
tree snake and Crow,CM13 3JS,51.580383648718700,0.298139062648925
Fulmarine petrel and Partridge,CM13 3NF,51.568658705457800,0.347549405129181
Myna and American sparrow,CM13 3QP,51.606673704916000,0.343429929370828
gavial and Fish eagle,CM13 3QT,51.605190352305900,0.342053737613116
leathery turtle and boa,CM13 3TB,51.580519000000000,0.375831000000000
Chicken and Boto,CM14 4AD,51.619293990954000,0.299627975059214
Vole and worm lizard,CM14 4DA,51.614175278023100,0.295007000000000
Wader and Cloud rat,CM14 4DJ,51.618123708449700,0.298311985585124
Kite and Songlark,CM14 4DX,51.616268285387500,0.299836136776695
tokay and Grouse,CM14 4FA,51.618269090210600,0.301945287414106
Black jay and Skunk,CM14 4FE,51.618028594930800,0.301788701370140
Herring gull and Vulture,CM14 4HU,51.615461328533800,0.303840030223333
River dolphin and American sparrow,CM14 4JA,51.616640000000000,0.302961000000000
rat snake and tokay,CM14 4JH,51.617136273208800,0.308301971400801
bearded lizard and moloch,CM14 4JQ,51.623312208680700,0.289630968368952
boa constrictor and Mockingbird,CM14 4LN,51.615085970345100,0.298216274561403
Scimitar babbler and alligator,CM14 4LS,51.618817600133100,0.306985954376081
Myna and Buzzard,CM14 4NN,51.615044808034100,0.283277878722427
frill-necked lizard and Mamo,CM14 4PH,51.611923266618000,0.278239075406308
gaboon viper and Stint,CM14 4PJ,51.611390154548200,0.279295677020789
taipan and boa,CM14 4PU,51.615151000000000,0.278805000000000
snake and milk snake,CM14 4QQ,51.618295931522200,0.284885708253648
leathery turtle and habu,CM14 4RZ,51.619539572735500,0.298109050200953
Bunting and dugite,CM14 4SB,51.615725694968900,0.298958000000000
bull snake and New World blackbird,CM14 4SH,51.616905000000000,0.301371000000000
Grouse and Greenbul,CM14 4TH,51.620806363917200,0.295413682787489
indigo snake and Petrel,CM14 4TJ,51.621307622193700,0.296912596301369
Nukupuʻu and Prion,CM14 4YT,51.617521025496700,0.299697237502682
Puffleg and Stint,CM14 5AH,51.606862365643600,0.308502847629312
Marmoset and goanna,CM14 5BD,51.609153924358800,0.300343087510433
Hawaiian honeycreeper and crocodile,CM14 5DP,51.612628335203400,0.299724331680570
caiman and Philippine hawk-owl,CM14 5EA,51.613173780794100,0.292529607614654
Vulture and rock python,CM14 5GA,51.608410023773700,0.291601000000000
Masked owl and moloch,CM14 5GP,51.609998000000000,0.289452000000000
Ground sloth and Rat,CM14 5JS,51.610496125645900,0.293795716335412
blue tongue and leguaan,CM14 5JU,51.612079353128700,0.296071071185620
Parrotlet and frilled lizard,CM14 5LA,51.605807077283100,0.298123081872136
tokay and frilled lizard,CM14 5LF,51.604932486789200,0.300534048439664
Prion and Chickadee,CM14 5LU,51.611779085455800,0.275473029824477
loggerhead and Chickadee,CM14 5NZ,51.612204838152900,0.273457687799565
Jackal and Chipmunk,CM14 5QS,51.623688465628000,0.260436324294560
perentie and Tree warbler,CM14 5WH,51.610203806103000,0.290805586943424
Solitaire and Minke whale,CM14 5WJ,51.606985243003800,0.290759078050997
Stint and Parrotbill,CM14 9EP,51.620304357388900,0.303594168293544
Parakeet and Snipe,CM14 9JZ,51.620305111665700,0.303594158951214
Black jay and Night heron,CM14 9PR,51.620305111665700,0.303594158951214
habu and bicycle lizard,CM14 9RX,51.620399000000000,0.303583000000000
cobra and box turtle,CM14 9SP,51.618596033253300,0.307697080279048
asp and water snake,CM14 9ST,51.618596033253300,0.307697080279048
fer-de-lance and Bronzewing pigeon,CM15 8BD,51.622760742966400,0.311303628206072
death adder and Moluccan boobook,CM15 9JX,51.620304357388900,0.303594168293544
Tit-tyrant and Warbler,DA1 1JQ,51.432815000000000,0.221794000000000
worm lizard and Old World quail,DA1 1QJ,51.436880353996700,0.236825988425946
asp and Towhee,DA1 1QT,51.439669146649000,0.230170370326458
Coati and diamond snake,DA1 1QU,51.438862693747500,0.232850666291426
Skunk and Grouse,DA1 1SN,51.442795087766500,0.225631352732088
Fox and Asiatic leopard,DA1 1TR,51.444838551587100,0.223154697715946
boa and Kite,DA1 1XH,51.444153268313600,0.233655619708357
Cloud rat and chameleon,DA1 1YN,51.442005429507300,0.233104704173763
moloch and Dolphin,DA1 2AD,51.446526078208800,0.216199120261993
dugite and Vole,DA1 2BB,51.446942000000000,0.212823000000000
kabaragoya and chuckwalla,DA1 2BL,51.448425839673600,0.213225560331470
rat snake and Old World vulture,DA1 2DU,51.444251491732700,0.214261322387365
Guillemot and Lemming,DA1 2ES,51.445652999042300,0.211954542399405
wall lizard and leguaan,DA1 2FG,51.442269000000000,0.213632000000000
Egret and Wader,DA1 2GD,51.441446322195900,0.214226351970500
slowworm and Wallaby,DA1 2HJ,51.446189799060500,0.207332001528841
coral snake and Schneider python,DA1 2HR,51.444010057154000,0.216091680042543
bull snake and Grouse,DA1 2JF,51.449626940681400,0.207713685277544
Zebra and Coati,DA1 2NF,51.442752526148400,0.208389427864049
Old World warbler and Herring gull,DA1 2NG,51.442271581673500,0.207186213999283
bearded lizard and smooth snake,DA1 2NS,51.443591228091200,0.202529679368862
sea snake and black snake,DA1 2PG,51.440883090594400,0.195405876828489
Dolphin and anaconda,DA1 2QP,51.438891320018200,0.206649108219849
diamondback turtle and Badger,DA1 2QT,51.439198169405000,0.209455441760894
box turtle and Badger,DA1 2SE,51.434899375946600,0.209938610470330
Treepie and slowworm,DA1 2SN,51.434160014648200,0.211471195022885
frill-necked lizard and Scimitar babbler,DA1 2TJ,51.451889697090600,0.215048343835806
asp and kabaragoya,DA1 2TL,51.432705059438200,0.206120764325282
Scimitar babbler and Meadowlark,DA1 2TR,51.438150009352700,0.201116756578378
Duck and python,DA1 2XG,51.440817065138500,0.213260568616144
moloch and Schneider python,DA1 3BS,51.449877596051900,0.193405004878060
Old World vulture and Stint,DA1 3EB,51.445718951827100,0.204157567123656
monitor and Thicketbird,DA1 3JR,51.443174143957400,0.190234411294613
Boto and rock snake,DA1 3JT,51.442051750042400,0.192065827606597
soft-shelled turtle and carpet snake,DA1 3JY,51.442770672671300,0.188635000000000
cycling lizard and Tit-tyrant,DA1 3NA,51.447545583918800,0.188745365973887
Grackle and diamondback terrapin,DA1 3QL,51.440986082148800,0.182318000000000
green turtle and amethystine python,DA1 3QS,51.443622532040100,0.176786142563223
Diving bird and racer,DA1 3RN,51.443661592594300,0.175651132650452
tiger snake and Capuchin,DA1 4AZ,51.449408854106700,0.185279522684745
black snake and cerastes,DA1 4BD,51.451386159592000,0.174219247980296
Old World warbler and sea snake,DA1 4DF,51.452483583310000,0.176142549878737
Perching duck and Marsh harrier,DA1 4EA,51.454206934487000,0.174382078004748
Marmoset and Thrasher,DA1 4FT,51.451855849276300,0.187641744819360
Armadillo and fer-de-lance,DA1 4GD,51.452602000000000,0.178089000000000
Perching duck and deaf adder,DA1 4GE,51.449693000000000,0.183190000000000
Tahr and soft-shelled turtle,DA1 4HS,51.452475095755600,0.182403322727821
Parakeet and tree snake,DA1 4JL,51.453984008819000,0.181539686512804
Egret and adder,DA1 4NN,51.455749010476400,0.188648388198133
bicycle lizard and Stilt,DA1 4NS,51.456076728456800,0.192766546276581
Triller and diamond snake,DA1 4PD,51.457875493280700,0.188908470472516
glass snake and carpet snake,DA1 4PP,51.460173000000000,0.189292437032318
green turtle and loggerhead,DA1 4RF,51.456897113316900,0.199585000000000
diamond snake and Skunk,DA1 4RT,51.454644231615600,0.182305270807778
Grackle and python,DA1 4TA,51.462266638095400,0.185879368211330
thorny devil and Gull,DA1 5AP,51.450478848265100,0.210705340672080
Quetzal and Nukupuʻu,DA1 5EJ,51.453810267047000,0.228067154025266
Boto and mud turtle,DA1 5EL,51.454022035211700,0.228753989583362
Fox and Black jay,DA1 5EY,51.455311473248100,0.224786343565722
grass snake and Grosbeak,DA1 5FH,51.451896773509900,0.200828018410479
Bunting and turtle,DA1 5FS,51.449803947897800,0.214729000000000
Eagle and whip snake,DA1 5HE,51.454504133919500,0.226218000000000
boa and Cloud rat,DA1 5HW,51.453503276620100,0.226238568382782
boomslang and Polecat,DA1 5JJ,51.454604754135500,0.222693595932214
lizard and boomslang,DA1 5NL,51.452914537114300,0.235436321641684
Old World quail and Mole,DA1 5NR,51.454606121698800,0.237275077654215
Old World quail and Marmoset,DA1 5PP,51.466402681825700,0.232208114600772
American sparrow and krait,DA1 5QT,51.457642058879000,0.228973537534294
bearded lizard and Darwin's finches,DA1 5RF,51.464078752048100,0.225356716330496
Stint and mud turtle,DA1 5TJ,51.453845000000000,0.212048000000000
rattlesnake and Bunting,DA1 5TU,51.450747000000000,0.226061000000000
frill-necked lizard and Bronzewing pigeon,DA1 5UY,51.462573000000000,0.232236000000000
Old World vulture and Chipmunk,DA1 5WX,51.448260000000000,0.220686000000000
king cobra and Mamo,DA1 5XG,51.449302000000000,0.219369000000000
Chicken and ringhals,DA1 5XP,51.448497000000000,0.220079000000000
mamba and Goose,DA1 5XQ,51.448639000000000,0.220647000000000
Fox and gavial,DA1 9GT,51.444700000000000,0.209620000000000
Rat and Ice seal,DA1 9QP,51.444701000000000,0.209648000000000
ringhals and Jackal,DA10 0DU,51.442330686562400,0.301820859017280
Schneider python and Quetzal,DA10 0EE,51.443258843088900,0.299435480649881
sand viper and Kestrel,DA10 0JH,51.445511060846800,0.304729612042026
Snipe and Mamo,DA10 0JL,51.443072829185200,0.303412391620214
Gull and bandy-bandy,DA10 0JS,51.442215749097900,0.304923437917467
Kite and Thrasher,DA10 0JU,51.442135608533600,0.305797224543975
diamondback and Recurvebill,DA10 1AA,51.438585000000000,0.306223000000000
Ibex and Parrotlet,DA10 1AJ,51.437393000000000,0.305098000000000
goanna and bearded lizard,DA10 1BA,51.439085221801600,0.310032339045538
Eagle and Condor,DA10 1BZ,51.438969000000000,0.304113000000000
Stilt and Cuscus,DA10 9DG,51.444701000000000,0.209648000000000
diamondback turtle and Vulture,DA11 0AA,51.442726497612600,0.367721774235597
terrapin and anaconda,DA11 0BH,51.444446971535700,0.369365056409921
Herring gull and cycling lizard,DA11 0BW,51.445195808873400,0.364827239969390
amphisbaena and Marmoset,DA11 0DQ,51.444231836296200,0.360571000000000
Cloud rat and Mink,DA11 0EU,51.439121712304400,0.359620961743546
Jackal and brown snake,DA11 0HP,51.441241000000000,0.366997000000000
habu and Petrel,DA11 0JG,51.436153946562700,0.355597408978517
Logrunners and frilled lizard,DA11 0LR,51.434579347680600,0.360552285675758
smooth snake and smooth snake,DA11 0PP,51.438344458807500,0.366412000000000
Nukupuʻu and Ibex,DA11 0PT,51.439680467825900,0.364916465017727
alligator and Buzzard,DA11 0TB,51.443572724041800,0.367679206851335
galliwasp and Mole,DA11 7BG,51.418170632536500,0.372088000000000
Vulture and Old World warbler,DA11 7BL,51.431962872214900,0.356950010169719
flying lizard and dukite,DA11 7DU,51.429469667291900,0.356446000000000
Condor and Scimitar babbler,DA11 7EF,51.431617304705100,0.354903606670505
king cobra and flying dragon,DA11 7EQ,51.431643795791100,0.352689318704375
Chipmunk and glass snake,DA11 7FB,51.425979000000000,0.356729000000000
rat snake and B,DA11 7JH,51.423450986461000,0.356267402018232
Hawk and adder,DA11 7JJ,51.424613386586300,0.356154584784695
Jackal and kabaragoya,DA11 7LF,51.432106000000000,0.364194000000000
Fish eagle and Kite,DA11 8AL,51.428968634936500,0.338971030121077
anaconda and Diving bird,DA11 8AU,51.431224887236100,0.338122344832930
bicycle lizard and saltwater crocodile,DA11 8AZ,51.430710254559700,0.341376304962457
Meadowlark and jew lizard,DA11 8DH,51.437115327404900,0.343531297404599
carpet snake and chameleon,DA11 8DR,51.434853603403900,0.349142074774982
whip snake and puff adder,DA11 8HX,51.427660303078800,0.331063809343964
kabaragoya and Tattler,DA11 8JX,51.425922974163300,0.349158661914791
diamondback and wall lizard,DA11 8LP,51.426405483583100,0.343026344001279
terrapin and Treepie,DA11 8NJ,51.424770319982800,0.344294892272050
blue tongue and giant tortoise,DA11 8NS,51.425326518581600,0.348854744846652
Pratincole and puff adder,DA11 8PN,51.424042176703000,0.345178256344983
Siskin and Pratincole,DA11 8PR,51.424072098677000,0.347725923466710
Grouse and Grosbeak,DA11 8QW,51.434817647808600,0.355413544087452
tortoise and soft-shelled turtle,DA11 8SS,51.423917122724300,0.344236834976416
Badger and frill-necked lizard,DA11 9AN,51.448819000000000,0.334401000000000
horned toad and Linsang,DA11 9DH,51.446690971190200,0.327845002414612
fer-de-lance and River dolphin,DA11 9DR,51.446748477638900,0.324494584678861
anole and coral snake,DA11 9EA,51.440883714405200,0.345653000000000
puff adder and tortoise,DA11 9EH,51.440891636487600,0.344472934819595
Polecat and New World blackbird,DA11 9EU,51.442902742708000,0.336085350169705
Hawk and king cobra,DA11 9HW,51.445128000000000,0.332342000000000
tiger snake and Fox,DA11 9JR,51.442035799737500,0.348863111305673
constrictor and Guillemot,DA11 9QJ,51.438614751279900,0.348629956260973
Macaw and swift,DA11 9QL,51.441919351197500,0.339848649854694
Crow and B,DA11 9QN,51.438458972487400,0.342448929892778
Black cockatoo and Peafowl,DA12 1BN,51.437279857753700,0.369339411981578
Towhee and Mockingbird,DA12 1JG,51.439106979501800,0.374153818045728
Songlark and python,DA12 1NU,51.432421846203300,0.376526406681059
slowworm and terrapin,DA12 2AB,51.442364162247800,0.373185905953987
Mockingbird and Herring gull,DA12 2BA,51.443591120026900,0.373882739321964
Parakeet and frilled lizard,DA12 2DZ,51.441123000000000,0.382979000000000
chameleon and snapping turtle,DA12 2EL,51.442318810556300,0.371427883863766
Komodo dragon and grass snake,DA12 2EX,51.442653431292800,0.372668443981961
Scimitar babbler and Jackal,DA12 2LT,51.435995803968600,0.397100849155489
asp and fer-de-lance,DA12 2NP,51.433334686724400,0.409335182961634
amethystine python and Tahr,DA12 2NW,51.433008698396700,0.404627574331568
Parakeet and Triller,DA12 2NY,51.432402697847500,0.419213664020834
Booted eagles and Night heron,DA12 2QG,51.439704653243800,0.389438156153574
swift and bushmaster,DA12 2QH,51.439688026095600,0.395538631583082
anaconda and diamond python,DA12 2SA,51.439731562468700,0.382374090912728
snapping turtle and Kestrel,DA12 3HG,51.421950090257900,0.436253709869410
deaf adder and moloch,DA12 3JU,51.408113949809500,0.441212552006504
loggerhead and Scimitar babbler,DA12 3JW,51.419182944720900,0.437415437464481
Parrotbill and boa constrictor,DA12 3WB,51.441219430536000,0.373313625984923
Mockingbird and Schneider python,DA12 4AE,51.428619630937600,0.390168793234055
Maya and krait,DA12 4AQ,51.426663668534200,0.387707467006339
Piping shrike and Komodo dragon,DA12 4AX,51.422201000000000,0.386123000000000
cycling lizard and asp,DA12 4BX,51.419787000000000,0.387658894887333
Jerboa and Fulmarine petrel,DA12 4JJ,51.428411208121400,0.388891956230571
frill-necked lizard and Fox,DA12 4JY,51.425631974905400,0.395954130915455
Hawk and Tit-tyrant,DA12 4JZ,51.424935000000000,0.397097000000000
carpet snake and Schneider python,DA12 4LG,51.420255998873700,0.398492145211334
Jerboa and Rabbit,DA12 4NA,51.420273479596700,0.397198512482161
B and rock snake,DA12 4NP,51.422759137903400,0.393948220405912
Puffleg and bearded lizard,DA12 4NW,51.421226967548700,0.394990102133016
Chickadee and Elephant,DA12 4PR,51.415440787552800,0.400872005011036
Zebra and bearded lizard,DA12 4PW,51.415489523855800,0.395855113592725
bushmaster and Goose,DA12 4QZ,51.417039799267900,0.390844667542174
tokay and Night heron,DA12 4TR,51.431274262646000,0.398764000000000
chameleon and Francolin,DA12 4TY,51.431716789219900,0.394176000000000
flying dragon and fer-de-lance,DA12 4UF,51.431847483858500,0.409733000000000
Fish eagle and perentie,DA12 4UN,51.431016594388100,0.407040721044301
Mouse and Tahr,DA12 5BG,51.424545868906000,0.373758515870148
thorny devil and loggerhead,DA12 5BS,51.420643841030000,0.378173485869116
Grouse and Black jay,DA12 5EE,51.413200568194100,0.381526369866835
Prion and Darwin's finches,DA12 5EY,51.414221784606300,0.375078826530836
Coati and Asiatic leopard,DA12 5FA,51.408744325535200,0.389290116396064
Flameback and Old World quail,DA12 5HL,51.428530289508400,0.374626833973383
blind snake and adder,DA12 5JL,51.422779171477600,0.377061715855725
blue racer and Dolphin,DA12 5JP,51.424425015488100,0.376614890752376
terrapin and snapping turtle,DA12 5JX,51.420656220735100,0.375757673158972
snapping turtle and Tree warbler,DA12 5LA,51.423557712692300,0.375922565838991
Perching duck and diamondback turtle,DA12 5PL,51.427394822190900,0.377402005630678
blindworm and Jay,DA12 5RX,51.426663617197600,0.385060467944741
Old World warbler and Macaw,DA12 5TZ,51.410761631950200,0.384707196160662
gavial and White ibis,DA12 5UF,51.410246699767700,0.387470250547605
Towhee and Elephant,DA12 9HS,51.441220091576200,0.373313613866279
Condor and Greenbul,DA12 9NT,51.441222000000000,0.373329000000000
puff adder and Thrasher,DA12 9SP,51.438606903594900,0.368645453926430
Jackal and American sparrow,DA12 9SX,51.438606903594900,0.368645453926430
Triller and Mole,DA13 9AN,51.411507000000000,0.317587000000000
diamond snake and Fox,DA13 9EN,51.402790113787800,0.349266863762812
Chickadee and Hawk,DA13 9HF,51.402523415643400,0.348663688584543
whip snake and water snake,DA13 9HW,51.400208053637700,0.350212835957824
rat snake and krait,DA13 9JL,51.408562432216300,0.354710850036433
soft-shelled turtle and Buzzard,DA13 9LJ,51.424318000000000,0.310510000000000
leguaan and Jay,DA13 9LQ,51.441219430536000,0.373313625984923
saltwater crocodile and Black cockatoo,DA13 9PE,51.414723619016900,0.319504002846911
Old World vulture and Solitaire,DA14 4AZ,51.430348758680200,0.102913611397720
Condor and Mole,DA14 4DF,51.429035179365200,0.106953297079229
Greenbul and constrictor,DA14 4EL,51.428725727496100,0.109657993347970
chameleon and Vole,DA14 4HB,51.429041132563900,0.108622345544743
Peafowl and Triller,DA14 4HJ,51.425250000000000,0.106966000000000
Meadowlark and Jay,DA14 4JB,51.433556171064200,0.109089234831767
Dolphin and Asiatic leopard,DA14 4JX,51.432868580531300,0.111316353907774
Crow and cycling lizard,DA14 4JY,51.430144431902100,0.111277074447688
deaf adder and dukite,DA14 4NH,51.428585812116000,0.114427651370090
Scimitar babbler and diamond python,DA14 4PX,51.430636245597300,0.129326052375046
water snake and leguaan,DA14 4QD,51.433391771456600,0.129123281181750
perentie and tokay,DA14 4QS,51.424353129335400,0.111269041219559
mamba and Peafowl,DA14 4TB,51.429743286513100,0.104079862559655
Buzzard and copperhead,DA14 5AD,51.414595000000000,0.125834000000000
taipan and turtle,DA14 5AN,51.415102007782800,0.130502430225723
Night heron and Badger,DA14 5HJ,51.418580740717400,0.118683384411414
Fox and boa constrictor,DA14 5JQ,51.419243428808700,0.129256728201147
B and blindworm,DA14 5LS,51.416127139716000,0.127040897490837
copperhead and Piping shrike,DA14 5ND,51.421560235380100,0.131421283364854
python and sidewinder,DA14 5PD,51.417679598540900,0.118785535512416
Marsh harrier and chameleon,DA14 6AB,51.425283132896400,0.100552077292910
rat snake and Snipe,DA14 6AZ,51.423563000323700,0.092144717775944
Hawaiian honeycreeper and Pratincole,DA14 6HF,51.423049749429600,0.109238342829892
flying lizard and Elephant,DA14 6HX,51.420237623655900,0.115077903216901
bearded dragon and sea snake,DA14 6LX,51.413895000000000,0.111823000000000
Parrotlet and Fulmarine petrel,DA14 6NQ,51.426880908448600,0.097705142250866
Kangaroo and Mole,DA14 6PE,51.428492743461900,0.092053426048014
thorny devil and Buzzard,DA14 6PF,51.429010570991200,0.092264098359256
amethystine python and massasauga,DA14 6PU,51.426456580098800,0.090248586610024
Quetzal and Meadowlark,DA14 6RR,51.428942000000000,0.087586000000000
Partridge and Diving bird,DA14 6TL,51.428338709170200,0.092621819117857
Hawk and taipan,DA15 0FJ,51.435849670212900,0.101329000000000
Perching duck and krait,DA15 0HF,51.435945000000000,0.101355000000000
chuckwalla and Magpie,DA15 7AA,51.435232613170500,0.101871777302728
Badger and Chipmunk,DA15 7JN,51.431527014605000,0.090336156562486
Perching duck and B,DA15 7LE,51.432401954136900,0.095728066097351
Moluccan boobook and Black cockatoo,DA15 7LG,51.432729724163000,0.098016233151775
frilled lizard and anole,DA15 8AQ,51.435057805488500,0.096569019398468
Mole and Zebra,DA15 8BQ,51.439235186691400,0.086227460003530
Polecat and deaf adder,DA15 8EB,51.444906000000000,0.085552509409330
Wader and diamondback turtle,DA15 8HP,51.444120947293000,0.093141811958134
Badger and chameleon,DA15 8HQ,51.440595210584200,0.096693111740081
racer and diamond python,DA15 8JQ,51.442691701391200,0.090083283746049
Bunting and Eagle,DA15 8LT,51.445711728170500,0.102741543222488
perentie and diamond snake,DA15 8NW,51.446616135812700,0.099947969209784
Dorcopsis and perentie,DA15 8PF,51.454132053413300,0.096550492834667
anaconda and Hawaiian honeycreeper,DA15 8PU,51.450767355416900,0.096626618607477
cobra de capello and Vole,DA15 8PZ,51.451982270518600,0.093055203750986
asp and Tree warbler,DA15 8RS,51.452383479209100,0.096268869076397
king snake and sand viper,DA15 8SA,51.453548047826500,0.094508619462584
copperhead and Herring gull,DA15 8WL,51.440486957479400,0.100227987257699
Piping shrike and tiger snake,DA15 9AD,51.434969799024100,0.103989113158258
Coati and adder,DA15 9AJ,51.437406564500200,0.115496884475729
tiger snake and Minke whale,DA15 9DB,51.437128077641100,0.101483974712695
soft-shelled turtle and Prion,DA15 9HE,51.448234586000600,0.102972594432990
Peafowl and Recurvebill,DA15 9HT,51.448428221212800,0.107212763929689
Crow and sand lizard,DA15 9LE,51.444369487718500,0.115861862971352
rattlesnake and adder,DA16 1AX,51.476476573554800,0.120702885845252
Cuscus and milk snake,DA16 1DN,51.472500144824400,0.117307322884220
bicycle lizard and Treepie,DA16 1DP,51.473610770513100,0.120541161662750
massasauga and jew lizard,DA16 1DY,51.473398842299400,0.115347343299602
Komodo dragon and ringhals,DA16 1EB,51.474057165193500,0.116241811171384
Warbler and king snake,DA16 1EX,51.473132466404700,0.123614956552237
asp and gopher snake,DA16 1HP,51.461514427030200,0.122082199139102
harlequin snake and Old World warbler,DA16 1HX,51.467118537817600,0.123983599158345
Gila monster and diamondback turtle,DA16 1JE,51.464776492712200,0.123702067954199
crocodile and Prion,DA16 1JH,51.469763713507000,0.125402353750923
brown snake and tortoise,DA16 1JT,51.467025698729000,0.121661213828006
frilled lizard and Bronzewing pigeon,DA16 1NR,51.465877559483100,0.117519031585665
rattlesnake and Magpie,DA16 1PY,51.463312938424400,0.117112364299504
perentie and Lemming,DA16 1QG,51.463422330213400,0.111545858275985
slowworm and Cuscus,DA16 1QZ,51.470536688328600,0.113487051309352
Songlark and constrictor,DA16 1RX,51.460598295478400,0.120528124916595
Logrunners and Solitaire,DA16 2AG,51.461367870640200,0.112271602323204
Petrel and snake,DA16 2AL,51.460659606833700,0.108654307966028
loggerhead and bushmaster,DA16 2AT,51.460842747710700,0.107971742427154
Parrotlet and Flameback,DA16 2BG,51.458715527022200,0.111242228508148
water snake and anole,DA16 2DN,51.460739384886700,0.107218389294371
krait and perentie,DA16 2DY,51.458154466157500,0.101427637684786
Lemming and Komodo dragon,DA16 2EL,51.460964830220500,0.098159280713157
diamond python and puff adder,DA16 2HY,51.456951576041000,0.102811861281401
Fulmarine petrel and box turtle,DA16 2LX,51.458923967573100,0.094106951377280
leguaan and Minke whale,DA16 2PJ,51.458385588078500,0.095046785121621
Ibex and Puffleg,DA16 2QY,51.461702777669700,0.089065915739840
snapping turtle and Greenbul,DA16 2RH,51.463745856555300,0.094010975021359
deaf adder and jew lizard,DA16 2RW,51.462009792220900,0.087985816657759
chameleon and Armadillo,DA16 2SH,51.464661083325100,0.089589755596261
River dolphin and leathery turtle,DA16 2SR,51.463887656781800,0.085552080178780
New World blackbird and coral snake,DA16 2ST,51.464011569694900,0.084146829568599
Jerboa and Stint,DA16 3AF,51.465683788247300,0.110311294368812
massasauga and deaf adder,DA16 3AX,51.464190016152400,0.099847707996464
Snipe and kabaragoya,DA16 3BB,51.466151613812700,0.100787231018096
Jay and Rat,DA16 3BL,51.473647797396500,0.096984429180473
habu and tree snake,DA16 3BU,51.468158410494500,0.104219818463332
elapid and Mockingbird,DA16 3DB,51.470021846427900,0.105615861604586
Pitohui and Kestrel,DA16 3HQ,51.465910646707400,0.109656000000000
bushmaster and water snake,DA16 3JE,51.467803294163400,0.106967929974010
monitor and turtle,DA16 3JG,51.467692292717100,0.105638186305838
Wader and Scimitar babbler,DA16 3ND,51.472902351134500,0.093911890708454
Polecat and Puffleg,DA16 3NN,51.468719972178500,0.094454705981975
Black cockatoo and Solitaire,DA16 3RG,51.465429744354000,0.093886505605261
bearded lizard and Grosbeak,DA16 3RL,51.465821599183800,0.085525085808167
Rat and Cuscus,DA17 5AT,51.489457156375900,0.149135834527167
Grackle and Dorcopsis,DA17 5BD,51.487202509036100,0.145558345940575
Scimitar babbler and bearded lizard,DA17 5BY,51.487821858835300,0.144146966831567
black snake and brown snake,DA17 5DB,51.491153691772600,0.147342896211805
Vole and boa,DA17 5EA,51.485497565466900,0.147811727437299
copperhead and tree snake,DA17 5EP,51.484449571950700,0.139221197438146
Nukupuʻu and Skunk,DA17 5EX,51.486215449477900,0.141997413688315
Moluccan boobook and tuatara,DA17 5LU,51.483110646921200,0.143104974955660
diamond snake and habu,DA17 5NH,51.481132808216700,0.142580168758335
tree snake and Viscacha,DA17 5QB,51.491791415441600,0.148366868976293
Darwin's finches and Grackle,DA17 5QT,51.488528063035200,0.141918549364187
brown snake and fer-de-lance,DA17 5RT,51.490861134400700,0.134306552816860
Condor and Scimitar babbler,DA17 6BP,51.491479609014000,0.161418223874930
Polecat and Myna,DA17 6DB,51.489466194559700,0.154033996295780
Meadowlark and Badger,DA17 6JP,51.492590358430600,0.150406881155347
indigo snake and amphisbaena,DA18 4AJ,51.495896000000000,0.144785000000000
blue tongue and copperhead,DA18 4BJ,51.495845787915100,0.131196970171197
sand lizard and perentie,DA18 4DN,51.491974000000000,0.130037000000000
Eagle and Linsang,DA18 4ED,51.492550210724400,0.131922018032158
Puffleg and blue racer,DA18 4HD,51.492316367797000,0.135382945765165
galliwasp and Tit-tyrant,DA2 6HX,51.434945749829700,0.242529882833067
Argus and saltwater crocodile,DA2 6NL,51.436303598668800,0.244884175615311
Duck and blue racer,DA2 6PB,51.446617000000000,0.240813000000000
sand lizard and Fox,DA2 6PL,51.445428095108200,0.240366671951239
Chickadee and turtle,DA2 6QH,51.454263000000000,0.251523000000000
Kangaroo and Schneider python,DA2 6SE,51.447076683681200,0.236921353328090
Mole and horned viper,DA2 6SN,51.455395075829900,0.254299254770790
monitor and Old World vulture,DA2 7AH,51.426264672258900,0.199495363156304
Parrotbill and thorny devil,DA2 7AS,51.430383422261200,0.188932020873260
Pratincole and krait,DA2 7AU,51.431676343125300,0.187598289196495
Mockingbird and boa,DA2 7AZ,51.429753818530400,0.187492060196223
Dorcopsis and leguaan,DA2 7BZ,51.421037000000000,0.224459000000000
Snipe and White ibis,DA2 7EP,51.427712774884200,0.212382638345405
bicycle lizard and jew lizard,DA2 7ET,51.427567671905600,0.209110065321315
Tree warbler and Warbler,DA2 7LB,51.418887417103800,0.257809609665194
milk snake and asp,DA2 7NJ,51.423627715567000,0.171635515366054
bicycle lizard and horned viper,DA2 7NP,51.425981000000000,0.176250000000000
Treepie and cobra de capello,DA2 7PZ,51.422467478556800,0.202002851500597
Cuscus and Chickadee,DA2 7RD,51.419482394668100,0.233804480951987
Viscacha and Mole,DA2 7SJ,51.421442000000000,0.220696000000000
Asiatic leopard and blue tongue,DA3 7LS,51.400660317348700,0.330725655779229
Minke whale and alligator,DA3 7LT,51.403199282890400,0.330581576208589
Polecat and Tit-tyrant,DA4 9AA,51.403948822530600,0.242407675719676
mud turtle and Warbler,DA4 9DT,51.402550798242000,0.249657662104775
habu and ringhals,DA4 9EX,51.411578870748500,0.235144858341345
B and diamondback turtle,DA4 9JR,51.406664528208200,0.247113150265960
bicycle lizard and Vulture,DA4 9JS,51.406696775802200,0.247776177522331
mud turtle and Elephant,DA4 9LB,51.410027000000000,0.258980642877167
Chicken and Thrasher,DA4 9LD,51.401337000000000,0.233236000000000
massasauga and blue racer,DA4 9LP,51.400946251232700,0.254064684334493
Booted eagles and Hawaiian honeycreeper,DA5 1AD,51.441551815215100,0.147173706708461
crocodile and chuckwalla,DA5 1AU,51.442954467898000,0.145714117152909
dukite and blind snake,DA5 1AW,51.443589326537600,0.146895129947251
Magpie and diamond snake,DA5 1BL,51.441669000000000,0.149697000000000
sand lizard and loggerhead,DA5 1BU,51.447992502424700,0.122390614481856
monitor and Thicketbird,DA5 1EY,51.448754824133500,0.122008594480455
krait and Perching duck,DA5 1HJ,51.449128087988800,0.140059522242598
Macaw and glass snake,DA5 1LX,51.443666980239000,0.152957246465943
Petrel and Triller,DA5 1LZ,51.446703976681200,0.153100111612092
boa and iguana,DA5 1NT,51.445350575825500,0.149913550243513
Chipmunk and diamond python,DA5 1PR,51.451199283706900,0.164394283563209
grass snake and Mink,DA5 1RQ,51.447505167273400,0.139796536440321
Parrotbill and bearded lizard,DA5 2AT,51.436663646189600,0.164555952375315
cayman and sand lizard,DA5 2AY,51.435677583088700,0.165358236792429
perentie and taipan,DA5 2BH,51.434787428398800,0.166323291978517
tree snake and Rat,DA5 2EX,51.424220486633500,0.167305086148936
New World blackbird and Mink,DA5 2JA,51.428284388142600,0.175121922786565
Recurvebill and Parrotbill,DA5 2JP,51.428094980890900,0.169329825288488
Capuchin and green turtle,DA5 2JW,51.429536466454800,0.170160582377446
Schneider python and galliwasp,DA5 3HR,51.437208430659900,0.126941041657034
Chickadee and Prion,DA5 3HX,51.438055000000000,0.122477000000000
blue racer and Kestrel,DA5 3LG,51.438740491485900,0.127256835130669
Zebra and Snipe,DA5 3PF,51.440072577298300,0.133132094978622
Diving bird and Marsh harrier,DA5 3PG,51.441019611534500,0.134097000000000
Warbler and Rabbit,DA5 3PU,51.444892621402800,0.131658589105283
moloch and swift,DA5 3QF,51.440393291410300,0.144140710513940
brown snake and Kite,DA5 3QQ,51.437974402082300,0.137235875607389
mountain devil and Pitohui,DA6 7BT,51.457365994968000,0.140531225807305
gecko and bearded dragon,DA6 7DE,51.456682780816000,0.145436661461565
Peafowl and copperhead,DA6 7HW,51.452728284918000,0.142847520033833
caiman and milk snake,DA6 7NT,51.450108042623400,0.154800294141736
puff adder and cerastes,DA6 7NW,51.452217632169800,0.149617270813847
Mole and Wader,DA6 7NY,51.449647071485100,0.149539695485625
moloch and worm lizard,DA6 7PB,51.451481517944400,0.147092678090442
caiman and crocodile,DA6 7PH,51.450615968636200,0.153097067607025
Minke whale and hawksbill,DA6 7WY,51.463200296615900,0.134728802182446
slowworm and Pitohui,DA6 8BJ,51.458994118454500,0.130141901103612
Recurvebill and Thrasher,DA6 8BY,51.460250500447100,0.127810694175525
Grosbeak and carpet snake,DA6 8GB,51.454661857015500,0.123074219182603
glass snake and Ice seal,DA6 8JT,51.452333302091200,0.126017566384261
dukite and Mole,DA6 8LQ,51.457185482397300,0.131684310582139
Solitaire and Eagle,DA7 4AH,51.460847280306500,0.135050872324614
grass snake and blindworm,DA7 4BY,51.458678964839300,0.132142576942210
dukite and sea snake,DA7 4DW,51.463092910595900,0.137660729737229
diamondback terrapin and Moluccan boobook,DA7 4DZ,51.463988344240500,0.136392448223064
Coati and Kestrel,DA7 4EP,51.460854007732600,0.131221836961128
Diving bird and Warbler,DA7 4HH,51.460247607267900,0.124499515317078
Parrotbill and perentie,DA7 4HX,51.457862214148800,0.145362416555645
flying dragon and python,DA7 4PS,51.466924952008000,0.136616014480188
jew lizard and adder,DA7 4QX,51.465995865750300,0.133808256138609
Diving bird and Black jay,DA7 4RH,51.465363032965100,0.130671000000000
snapping turtle and Shearwater,DA7 4UW,51.464534487607200,0.126138353753182
Francolin and Coati,DA7 5AB,51.463474275508600,0.152205025616505
elapid and Siskin,DA7 5BG,51.466941609909800,0.147516068552292
hognose snake and Vole,DA7 5DT,51.471089527141500,0.146414931236770
Solitaire and terrapin,DA7 5ET,51.470536133884700,0.142745976558628
Asiatic leopard and agama,DA7 5HN,51.471852087309300,0.137163028055087
Schneider python and Jackal,DA7 5JQ,51.472386933943100,0.131989739899469
Kite and New World blackbird,DA7 5LS,51.475833204619900,0.138299575720424
Komodo dragon and mountain devil,DA7 5LZ,51.476394931247000,0.139549930141998
Stilt and Chicken,DA7 5NG,51.474097015938900,0.138823186501030
Capuchin and Cloud rat,DA7 5NJ,51.474650425386400,0.139050680838044
black snake and Scimitar babbler,DA7 5NR,51.475031532777500,0.135410777719665
garter snake and Rat,DA7 5QB,51.477748708061900,0.141255046692890
cobra de capello and sea snake,DA7 5QG,51.476646679797400,0.141030618088112
constrictor and boa constrictor,DA7 5SL,51.477324453718400,0.123046411809470
leathery turtle and diamondback,DA7 5ST,51.475929122870200,0.123125623864103
Ibex and gecko,DA7 6AH,51.456818384528000,0.154713281393131
American sparrow and Mamo,DA7 6DS,51.459325232880900,0.155810259631267
asp and dugite,DA7 6JF,51.464101542321400,0.163075576749532
Komodo dragon and Petrel,DA7 6LB,51.455252804060000,0.167925529791982
Grouse and cobra,DA7 6LE,51.461587135003900,0.153599053256398
blue racer and Coati,DA7 6LN,51.462242294296100,0.161000927528561
Towhee and White ibis,DA7 6LZ,51.460790618667200,0.161695338869249
Hawaiian honeycreeper and mud turtle,DA7 6NX,51.462784804940500,0.175912780528988
green turtle and amethystine python,DA7 6PA,51.462488610770400,0.178302931907207
blindworm and garter snake,DA7 6QA,51.468982004602600,0.163709586223484
gecko and Jerboa,DA7 6QL,51.468634483460400,0.166457668358945
frilled lizard and cobra,DA7 6SR,51.468065341088900,0.174853770163835
Viscacha and chameleon,DA7 9HW,51.463201346105800,0.134728797196793
Flameback and Rabbit,DA7 9SA,51.455154768421400,0.150791654778595
saltwater crocodile and rat snake,DA7 9SB,51.455154768421400,0.150791654778595
Argus and Partridge,DA7 9SP,51.455154768421400,0.150791654778595
Pheasant and Tree warbler,DA8 1AY,51.487887015602800,0.169934296136637
sidewinder and boa,DA8 1BE,51.484262462061000,0.176747908892974
diamondback terrapin and Songlark,DA8 1EU,51.479377362230100,0.158368808782702
Dorcopsis and bearded lizard,DA8 1FA,51.485356000000000,0.173061404860540
dugite and lizard,DA8 1FQ,51.480449000000000,0.163790000000000
Triller and blind snake,DA8 1HF,51.474699251565600,0.158954381379705
Puffleg and Ice seal,DA8 1HG,51.474453391723800,0.160584416239525
indigo snake and flying dragon,DA8 1JS,51.471332723126900,0.159126611508944
Peafowl and perentie,DA8 1LB,51.472633279370200,0.156869655169477
Wallaby and Asiatic leopard,DA8 1NU,51.473090710916300,0.157424031836777
Fulmarine petrel and garter snake,DA8 1QA,51.483040612582200,0.159175528720682
coral snake and diamondback turtle,DA8 1QS,51.482129000000000,0.167241000000000
dugite and Kite,DA8 1RX,51.481672893790800,0.181564713175982
Mouse and Recurvebill,DA8 1SP,51.481079384140700,0.179145567491340
Ice seal and smooth snake,DA8 1UN,51.476453844038000,0.195702336454363
diamondback and bushmaster,DA8 1YH,51.474911067704800,0.153304976283606
tokay and Bronzewing pigeon,DA8 2AB,51.478251131297500,0.182769569887229
Schneider python and Maya,DA8 2AF,51.478239482873000,0.183877939574976
Guillemot and Tit-tyrant,DA8 2BX,51.467139776121900,0.181591270398056
Night heron and gecko,DA8 2EF,51.465420604055100,0.183121793555798
cobra and bearded dragon,DA8 2HB,51.474506546710000,0.195479210772113
Myna and Boto,DA8 2HG,51.474827829242700,0.198489961577696
tree snake and adder,DA8 2HJ,51.472177053963600,0.184423553656016
Civet and Fox,DA8 2LU,51.470224519775600,0.195072022532624
wall lizard and Perching duck,DA8 2PR,51.474131727868300,0.182803302150562
Kite and Old World quail,DA8 2QB,51.470628667190700,0.197020924871147
Guillemot and sand viper,DA8 3BF,51.472636230483200,0.179131888329046
Maya and thorn lizard,DA8 3BH,51.475371118356700,0.169325803598906
indigo snake and diamond python,DA8 3BW,51.474914462607000,0.164839964696171
kabaragoya and Fish eagle,DA8 3DW,51.475918605732800,0.169870213465259
Vulture and diamondback turtle,DA8 3FP,51.474196000000000,0.180918000000000
taipan and Black jay,DA8 3JG,51.471669563767800,0.172661000000000
glass snake and amphisbaena,DA8 3JY,51.474179507800100,0.172970148769029
bearded lizard and Greenbul,DA8 3LF,51.472751344979600,0.174817459573576
Francolin and Songlark,DA8 3LT,51.470460054640400,0.160122143264727
Black jay and Elephant,DA8 3LU,51.469057919992800,0.158616040660519
blue racer and Armadillo,DA8 3PE,51.471396061711300,0.168849221937777
Nukupuʻu and Old World vulture,DA8 3QU,51.469770315379200,0.180377663726375
Thrasher and puff adder,DA8 9HJ,51.476455000000000,0.195730000000000
American sparrow and Black cockatoo,DA9 9AA,51.448678867009200,0.277010773864686
monitor and Asiatic leopard,DA9 9BB,51.450934989214000,0.254741599662867
Dolphin and Black jay,DA9 9BH,51.450114031558100,0.266376000000000
goanna and lizard,DA9 9DH,51.444934704788900,0.258895000000000
Cuscus and Warbler,DA9 9EN,51.448556000000000,0.287172363646683
crocodile and green turtle,DA9 9HP,51.450479634080600,0.291666212165827
leguaan and viper,DA9 9LT,51.444504782814300,0.287236734902094
Rat and alligator,DA9 9PR,51.449317013395600,0.265427607394506
Piping shrike and Stilt,DA9 9PS,51.448889555057500,0.264744387160311
Duck and Capuchin,DA9 9QQ,51.449965546308400,0.271878954740819
Minke whale and Herring gull,DA9 9QW,51.450731128563700,0.283388326777108
Kākāriki and diamondback terrapin,DA9 9RH,51.447938869400900,0.281766588194310
deaf adder and cerastes,DA9 9RJ,51.447021539897000,0.277144189559223
sand lizard and Cloud rat,DA9 9SN,51.439481000000000,0.270020000000000
ringhals and crocodile,DA9 9US,51.451444921527400,0.274471202594925
rock python and Black jay,DA9 9XL,51.443350064907900,0.277724232169904
Vole and diamond snake,DA9 9YD,51.446227000000000,0.292115000000000
rat snake and elapid,DA9 9ZG,51.444700000000000,0.209620000000000
skink and Nukupuʻu,E16 2XN,51.506897000000000,0.076749000000000
dugite and Marmoset,IG1 1LH,51.559106638430600,0.075219041767079
black snake and Maya,IG1 1NF,51.560361050366900,0.078017350678085
diamondback terrapin and Viscacha,IG1 1PL,51.554374748837000,0.087986576346288
leathery turtle and elapid,IG1 1PR,51.552591922659900,0.080014500670824
thorny devil and Snipe,IG1 1PS,51.551334006678900,0.075384547934313
Old World warbler and Logrunners,IG1 1QE,51.559626490269100,0.077232000000000
B and Bunting,IG1 1RW,51.559553303799800,0.084011060874823
American sparrow and copperhead,IG1 1TY,51.561527398701700,0.081720743164966
thorn lizard and Nukupuʻu,IG1 1YD,51.559396259779100,0.092833254123467
mud turtle and perentie,IG1 2QA,51.547030844841800,0.081736814148379
blue racer and Stint,IG1 2QE,51.544782188058900,0.078720839419677
Polecat and Francolin,IG1 2QQ,51.547553188841700,0.077635591662730
frill-necked lizard and Petrel,IG1 2SZ,51.551327353107500,0.080836707589967
Fulmarine petrel and River dolphin,IG1 2TF,51.552872399071900,0.089028500238537
Kite and harlequin snake,IG1 2TL,51.553508563139400,0.088653742984095
B and moloch,IG1 2TU,51.551455486842400,0.078174013901477
slowworm and Vulture,IG1 2TX,51.551269904689100,0.078497318635010
bicycle lizard and Songlark,IG1 2UA,51.550267069680900,0.080788321535437
Gull and swift,IG1 2XN,51.551311020766200,0.082263988327006
Herring gull and Dorcopsis,IG1 2XT,51.553299834664600,0.087749821590084
Tit-tyrant and Eagle,IG1 4AP,51.565918930655100,0.089135911613601
Egret and bushmaster,IG1 4AX,51.564437739039100,0.083426401641668
frill-necked lizard and Shearwater,IG1 4EJ,51.560832928323100,0.075744889235726
Gila monster and glass snake,IG1 4EY,51.562381347003000,0.076666659732218
Polecat and Tree warbler,IG1 4HB,51.564009787561100,0.079669849523621
anaconda and Ibex,IG1 4JB,51.564520637915900,0.079260300238036
deaf adder and Mink,IG1 4RF,51.567943578494000,0.079445341621498
Tree warbler and tokay,IG1 4SR,51.566494836388400,0.078989642385477
agamid and Mockingbird,IG11 0AR,51.528615000000000,0.087312000000000
Dolphin and Puffleg,IG11 0DN,51.521417882191900,0.096468287806244
Chickadee and Chipmunk,IG11 0GQ,51.521917414543900,0.110733502790273
Black jay and garter snake,IG11 0HS,51.525553628050300,0.101545423687001
tiger snake and blue racer,IG11 0LG,51.527939906340200,0.103875557544382
Wallaby and boa,IG11 0NP,51.529592764420000,0.097319000000000
jew lizard and constrictor,IG11 0NQ,51.529031690362000,0.102166958908932
Thrasher and Mole,IG11 0PB,51.523947882325600,0.103893300400581
Kangaroo and python,IG11 0PW,51.528724742336200,0.105628000000000
Stilt and Jay,IG11 0PZ,51.527948687001400,0.113391295273363
Crow and flying lizard,IG11 0SR,51.532262000000000,0.114139000000000
Scimitar babbler and sand viper,IG11 0TB,51.522945000000000,0.101642000000000
taipan and anole,IG11 0TF,51.522093000000000,0.102035000000000
Warbler and Kākāriki,IG11 0UA,51.530425349270400,0.132566578490546
skink and king cobra,IG11 0UF,51.519592000000000,0.108679000000000
hognose snake and Cloud rat,IG11 7DL,51.533988871053500,0.086938134189193
snapping turtle and Vole,IG11 7EA,51.530093152925400,0.083501534073641
Capuchin and Parakeet,IG11 7EF,51.530702937799400,0.084610726691856
Marsh harrier and anaconda,IG11 7FA,51.531131000000000,0.076801000000000
gaboon viper and Jackal,IG11 7FT,51.531458193383600,0.076570970961113
ringhals and Chicken,IG11 7GF,51.530228251244900,0.077913583149025
Linsang and skink,IG11 7GN,51.530025810539200,0.076506000000000
whip snake and Nukupuʻu,IG11 7JG,51.534837058541500,0.081209213470815
lizard and Linsang,IG11 7PL,51.534742808851800,0.084997181125936
leathery turtle and Hawaiian honeycreeper,IG11 7PQ,51.534799258868000,0.084350892983030
boa constrictor and Treepie,IG11 7RY,51.533534000000000,0.084335000000000
Fish eagle and Parrotbill,IG11 7XD,51.535604643991900,0.085079827035366
White ibis and Jay,IG11 7XS,51.532077474008800,0.095285495616338
flying dragon and Fulmarine petrel,IG11 8BS,51.538982000000000,0.076721418136600
iguana and Chipmunk,IG11 8EG,51.538004631137100,0.079060897137614
sand lizard and Kite,IG11 8FL,51.543087000000000,0.075042910810904
racer and Myna,IG11 8QR,51.541296843865200,0.081547212131722
adder and Marmoset,IG11 8QY,51.544029543533500,0.079580711368069
Asiatic leopard and Condor,IG11 8SN,51.542766860787200,0.086878259677645
python and frill-necked lizard,IG11 8SY,51.544833779545300,0.092006279939628
box turtle and River dolphin,IG11 9AB,51.541789000000000,0.099409000000000
Recurvebill and carpet snake,IG11 9FD,51.538066000000000,0.111537000000000
terrapin and Scimitar babbler,IG11 9HJ,51.545303840987100,0.097912276382164
wall lizard and jew lizard,IG11 9NA,51.536757250033200,0.105132948132614
hognose snake and slowworm,IG11 9NN,51.537589760478400,0.107348818271230
fer-de-lance and mamba,IG11 9PB,51.539525765814700,0.097170634962962
copperhead and Cloud rat,IG11 9PJ,51.540001332829700,0.099240276194152
tuatara and whip snake,IG11 9PL,51.538932000000000,0.096754000000000
Jackal and Diving bird,IG11 9PP,51.535994848947900,0.095479828758078
frill-necked lizard and mamba,IG11 9QF,51.537383061868400,0.101326068997997
Stilt and elapid,IG11 9RY,51.535452031030500,0.100689182552526
Kestrel and cerastes,IG11 9UQ,51.541853711267500,0.088163259957639
Jerboa and White ibis,IG11 9UX,51.542956101287700,0.090896200158959
Buzzard and anaconda,IG11 9XA,51.541741978705100,0.093926743493307
Coati and black snake,IG11 9XL,51.538933000000000,0.085102000000000
Rat and deaf adder,IG2 6AP,51.573690890093200,0.079390158104063
mountain devil and Ibex,IG2 6DN,51.573048912045400,0.077556934701002
deaf adder and Moluccan boobook,IG2 6PR,51.574105710365100,0.078817390689074
crocodile and anole,IG2 6SB,51.578065491379700,0.076616653223735
frill-necked lizard and Dorcopsis,IG2 7DL,51.573282061337400,0.089242625452113
whip snake and asp,IG2 7DQ,51.573019658014500,0.086301019148390
Gull and Moluccan boobook,IG2 7DU,51.571319067610600,0.084837787603214
coral snake and Duck,IG2 7DZ,51.570228290245800,0.086505108604096
Jerboa and Hawk,IG2 7ED,51.572046645288300,0.085390599124469
krait and Thicketbird,IG2 7ES,51.573326441138200,0.091799035853549
Perching duck and Coati,IG2 7HT,51.575105000000000,0.088951000000000
cerastes and Civet,IG2 7HY,51.574097671644600,0.087722000000000
Viscacha and moloch,IG2 7NL,51.577785014796300,0.088871828641603
dukite and box turtle,IG2 7PL,51.577354380966500,0.093860255308926
turtle and Recurvebill,IG2 7RE,51.572426000691100,0.083272144938703
anaconda and Pitohui,IG2 7RN,51.575646746325100,0.090274733498231
puff adder and iguana,IG2 7TH,51.582516686011900,0.104389327155184
White ibis and Jackal,IG2 7TN,51.582676761030100,0.106994932647597
sea snake and Polecat,IG2 7TW,51.582002523194800,0.103975844953276
Peafowl and blind snake,IG3 8BS,51.563597089056900,0.097296964583428
Schneider python and Capuchin,IG3 8DU,51.562437584161400,0.101788449256706
water snake and soft-shelled turtle,IG3 8HZ,51.570377567217600,0.095285727720610
gopher snake and blindworm,IG3 8JJ,51.574481709907000,0.097105281773647
lizard and fer-de-lance,IG3 8JP,51.575879434450500,0.098901503133922
Philippine hawk-owl and monitor,IG3 8JW,51.577364499885600,0.099835896349714
Goose and horned viper,IG3 8LU,51.565084751858400,0.098086872025252
White ibis and agama,IG3 8LW,51.569666791964600,0.097821645837645
Gull and hognose snake,IG3 8RZ,51.567775968690600,0.105483380322758
Marmoset and blind snake,IG3 8TF,51.566812787391700,0.110041878975760
perentie and Meadowlark,IG3 8UB,51.569819390419600,0.107872238830449
blindworm and horned viper,IG3 8UT,51.569977672473600,0.110072993447311
Pheasant and Hawaiian honeycreeper,IG3 9BH,51.551198336646200,0.096668904498842
Mockingbird and Ground sloth,IG3 9HA,51.559757440981700,0.098288895308543
Guillemot and Rabbit,IG3 9JS,51.560382430163700,0.096675000000000
Cloud rat and galliwasp,IG3 9LU,51.560569397519700,0.107675282020141
snake and Diving bird,IG3 9NB,51.558609257550600,0.099635446888718
Herring gull and Scimitar babbler,IG3 9PA,51.562357479572700,0.109258487297160
Minke whale and Chickadee,IG3 9PU,51.555721925245900,0.107696402752286
Grosbeak and Parrotlet,IG3 9QS,51.563663765988600,0.117615321576470
copperhead and Quetzal,IG3 9RS,51.563319465204400,0.117758036208103
Parakeet and fer-de-lance,IG3 9SP,51.561674143119600,0.111751737380783
cayman and Fish eagle,IG6 1AL,51.578385801613500,0.081884896361952
Diving bird and Masked owl,IG6 1BG,51.579196638104600,0.083827156993201
Gull and Gila monster,IG6 1BS,51.582688898926800,0.084665356101674
Kite and Egret,IG6 1EY,51.584725653767900,0.082391231881194
Hawaiian honeycreeper and rat snake,IG6 1HP,51.582506993753000,0.075649971883111
sidewinder and tiger snake,IG6 1LZ,51.587359041613300,0.088040618001864
tuatara and Puffleg,IG6 1NN,51.582699452851500,0.085589644575343
Duck and Scimitar babbler,IG6 1NU,51.589061499817200,0.082820498787715
chuckwalla and Elephant,IG6 1PE,51.589427717627200,0.087009425952569
Badger and deaf adder,IG6 1RA,51.585907885608800,0.082661823870839
Jerboa and Hawk,IG6 2BJ,51.589865395720900,0.077039272584125
Lemming and Badger,IG6 2EA,51.593201000000000,0.085262000000000
turtle and king snake,IG6 2EL,51.593654022685100,0.075869388158658
Condor and diamondback terrapin,IG6 2FJ,51.603771000000000,0.088228000000000
Booted eagles and Marmoset,IG6 2GE,51.599017391122100,0.077182510028580
Fox and B,IG6 2JN,51.594271819530200,0.080084611801118
perentie and gopher snake,IG6 2JZ,51.598887195501000,0.085031704204675
caiman and Bronzewing pigeon,IG6 2NG,51.601287791474900,0.084044208351695
flying dragon and dugite,IG6 2PL,51.596232427283300,0.077026552669519
horned toad and Hawaiian honeycreeper,IG6 2QN,51.599394399439500,0.078744767146277
giant tortoise and tokay,IG6 2QR,51.601453917697500,0.076701651157114
slowworm and cobra,IG6 2SA,51.605175403200000,0.076784823294382
Chickadee and agamid,IG6 2UX,51.603923836353300,0.092064256585200
saltwater crocodile and massasauga,IG6 3AB,51.604906983161500,0.094420096793628
bearded lizard and Coati,IG6 3AE,51.605374962397800,0.094903768627089
Nukupuʻu and Thicketbird,IG6 3BU,51.604755091895400,0.099900870280746
chameleon and Warbler,IG6 3DB,51.604529837658000,0.100930258524314
Coati and viper,IG6 3DD,51.603874172319000,0.100885548568502
puff adder and hoop snake,IG6 3EN,51.607566932494400,0.102572489047969
hognose snake and Linsang,IG6 3HH,51.598308450138700,0.097827403810970
box turtle and Civet,IG6 3TL,51.610560028829800,0.118656268591022
frill-necked lizard and Eagle,IG7 4AQ,51.610656330394100,0.114313289734240
mountain devil and tree snake,IG7 4BL,51.609568000000000,0.098361000000000
viper and bearded dragon,IG7 4DN,51.608485339070000,0.105517906346969
rattlesnake and Chicken,IG7 4EL,51.609758426151500,0.096188815719434
Zebra and rat snake,IG7 4FA,51.615025532300000,0.117434147000000
Asiatic leopard and Gull,IG7 4FJ,51.608827000000000,0.141047000000000
kabaragoya and Boto,IG7 4FL,51.607702000000000,0.139088000000000
Mockingbird and Songlark,IG7 4GQ,51.614337887333300,0.092095297684209
cayman and rat snake,IG7 4GY,51.610425000000000,0.142639000000000
Civet and king cobra,IG7 4JU,51.613438495014500,0.092545096730650
puff adder and Mole,IG7 5DH,51.615367547734300,0.079127912997659
Polecat and Thicketbird,IG7 5DR,51.609853030332400,0.081778974167806
Grackle and sea snake,IG7 5EA,51.607877502784300,0.081110894708900
Polecat and perentie,IG7 5JU,51.610073967625100,0.089082873039423
bull snake and Greenbul,IG7 5LU,51.605186726935300,0.087804273286171
Tattler and anole,IG7 5RB,51.607581345773800,0.075999202986232
kabaragoya and amphisbaena,IG7 6DE,51.620085696218400,0.112035675036650
chuckwalla and Greenbul,IG7 6EF,51.620156504356500,0.114595977940300
Shearwater and green turtle,IG7 6HN,51.613953953238900,0.097422125104082
cerastes and boa,IG7 6HR,51.612745616116300,0.099619685472824
hognose snake and death adder,IG7 6HX,51.614453435278400,0.103179648598991
ringhals and mountain devil,IG7 6LR,51.623064837505500,0.082701529612778
ringhals and Ibex,IG7 6LX,51.618949652534500,0.095644488536457
grass snake and boa constrictor,IG7 6NA,51.616631516721800,0.098051165830492
Scimitar babbler and anole,IG7 6PP,51.620786445097000,0.083391756814320
racer and Myna,ME3 7AA,51.412570958454400,0.456450005299607
flying dragon and Tattler,ME3 7AD,51.413347190671600,0.455887588410033
boa constrictor and bearded lizard,ME3 7AJ,51.413601282296500,0.459209049053189
Towhee and Wallaby,ME3 7AS,51.415014677247500,0.459141098120891
boomslang and Siskin,ME3 7BG,51.418531668042300,0.456971022175946
Diving bird and perentie,ME3 7DX,51.414590061547300,0.451078645783929
Darwin's finches and Lemming,ME3 7EB,51.415758613564900,0.453255407937207
flying dragon and flying dragon,ME3 7HT,51.417971354720700,0.461385404039133
Booted eagles and leathery turtle,ME3 7LF,51.433068066905700,0.466671662353204
Thrasher and terrapin,ME3 8DZ,51.410592868698800,0.480331448311197
bandy-bandy and Grouse,RM1 1ED,51.582585178000400,0.175583639217662
moloch and Booted eagles,RM1 1NL,51.576569000000000,0.182455000000000
blind snake and frill-necked lizard,RM1 1PL,51.574496063054600,0.184058594974066
diamondback terrapin and hognose snake,RM1 2BP,51.566199000000000,0.186375480800000
garter snake and bull snake,RM1 2EF,51.574069166556400,0.186217351037363
Skunk and adder,RM1 2JB,51.574591896999700,0.186155844273114
Civet and Prion,RM1 2TB,51.576862108027300,0.194130690129087
diamondback and blue racer,RM1 3BJ,51.582146109935500,0.186143144800568
diamondback terrapin and tuatara,RM1 3DD,51.582611891800300,0.188171919681239
Capuchin and Black cockatoo,RM1 3DJ,51.581706199229600,0.189961569511612
indigo snake and box turtle,RM1 3EJ,51.581394261837100,0.183537757686510
slowworm and blindworm,RM1 3HJ,51.580556000000000,0.185157000000000
caiman and Ibex,RM1 3LD,51.576968238956800,0.183137960709548
bull snake and snake,RM1 4AJ,51.581172329226000,0.181448595311691
garter snake and lizard,RM1 4AT,51.581075375892100,0.182310000612278
hognose snake and Asiatic leopard,RM1 4BX,51.585276627939800,0.184156975804910
horned viper and Masked owl,RM1 4BY,51.600818153538100,0.178245704234233
Warbler and Fox,RM1 4DQ,51.602903828661100,0.193248732604849
dukite and horned toad,RM1 4DT,51.588998530230900,0.176958376050710
Mamo and Thicketbird,RM1 4DU,51.590168497921600,0.178847818288920
River dolphin and worm lizard,RM1 4DY,51.585238018701500,0.190088107286223
leguaan and Argus,RM1 4NP,51.589825488516100,0.179885298946191
Gull and wall lizard,RM1 4PN,51.596276897000000,0.176353415800000
Meadowlark and Darwin's finches,RM1 4QN,51.586068072434800,0.173352000000000
asp and amphisbaena,RM1 4UP,51.595141958818800,0.181728123716127
Booted eagles and Dolphin,RM1 4XT,51.597601376374300,0.181008519756176
Vole and constrictor,RM1 4YH,51.599229206468000,0.179064934520308
iguana and Peafowl,RM1 4YY,51.605881000000000,0.180279000000000
Armadillo and Cloud rat,RM10 7AF,51.560553777792100,0.151635255085810
Argus and copperhead,RM10 7BF,51.555715283500000,0.164419133900000
diamond python and frill-necked lizard,RM10 7DE,51.553494000000000,0.141982000000000
garter snake and River dolphin,RM10 7FF,51.554143981600000,0.158430049000000
puff adder and diamondback,RM10 7FL,51.558489000000000,0.151530067100000
Condor and whip snake,RM10 7HD,51.557024957618900,0.155262849715137
Gull and Dolphin,RM10 7LL,51.557003899345800,0.150529975575380
Crow and soft-shelled turtle,RM10 7LU,51.556728269497600,0.151339275460471
moloch and worm lizard,RM10 7LX,51.555948000000000,0.151281611441373
Philippine hawk-owl and blind snake,RM10 7NT,51.552682314277000,0.154235324434291
cayman and Partridge,RM10 7PA,51.555468000000000,0.154931589919792
adder and agama,RM10 7TH,51.549221831538600,0.164399422337412
Kite and perentie,RM10 7UA,51.551406064368400,0.165916730709712
frill-necked lizard and Tree warbler,RM10 7XL,51.547403133588700,0.162077464547750
alligator and gavial,RM10 7YR,51.551247309711000,0.155494589911951
Cuscus and Pratincole,RM10 8AZ,51.549808995234400,0.151056068904840
rat snake and alligator,RM10 8DU,51.542748836437100,0.153549771526197
Lemming and pit viper,RM10 8GJ,51.543472446944800,0.158703814459362
Francolin and hoop snake,RM10 8GZ,51.540838777225900,0.158636850880879
Gull and boomslang,RM10 8HU,51.549410956829500,0.154614456966138
Petrel and moloch,RM10 8LX,51.544493790590400,0.149117928476367
Booted eagles and terrapin,RM10 8NJ,51.544978435061500,0.148188872748863
Peafowl and bandy-bandy,RM10 8TN,51.542028010393500,0.158029735706360
monitor and Viscacha,RM10 8YL,51.542700637531300,0.165935946760199
Francolin and Treepie,RM10 9BT,51.532454764988100,0.156827127234828
boa constrictor and White ibis,RM10 9DU,51.530143415751500,0.158303847336828
dugite and Badger,RM10 9HB,51.536448741934000,0.152358309190709
Kite and whip snake,RM10 9JP,51.537644000000000,0.149545000000000
turtle and tree snake,RM10 9PT,51.533638258806200,0.153105280235111
Crow and Guillemot,RM10 9RB,51.539471954155300,0.151779915761050
B and mud turtle,RM10 9SR,51.538965734579900,0.157453000000000
Ibex and anaconda,RM10 9SX,51.539561000000000,0.155787181265851
Kite and cerastes,RM10 9TR,51.538001991704800,0.160809879650549
anaconda and blue racer,RM10 9XJ,51.535834000000000,0.166835000000000
mud turtle and Rat,RM11 1BE,51.569596763175600,0.192640793878751
Fulmarine petrel and Civet,RM11 1EF,51.569210942294100,0.195479449610003
Komodo dragon and rattlesnake,RM11 1EL,51.566199625610100,0.193487392521710
Polecat and box turtle,RM11 1FP,51.560935400414000,0.202309122341968
Polecat and Shearwater,RM11 1JJ,51.566071299346800,0.214331000000000
loggerhead and bicycle lizard,RM11 1JQ,51.568319085902900,0.213748345136052
dukite and Partridge,RM11 1XA,51.566906558635500,0.219018723012485
Grouse and box turtle,RM11 2AN,51.572674058705400,0.209803667913664
alligator and rattlesnake,RM11 2DZ,51.582499829739400,0.215231496566487
cerastes and Wader,RM11 2HX,51.577467000000000,0.217030914144665
Polecat and mountain devil,RM11 2JS,51.570508841915900,0.219223025638964
bandy-bandy and Philippine hawk-owl,RM11 2LE,51.579579773216500,0.218899983102495
Mouse and Wader,RM11 2NQ,51.582010949591000,0.225384061988749
Parrotbill and sand viper,RM11 2PX,51.577517248946500,0.228556293968398
mamba and skink,RM11 2RU,51.581021281276400,0.225407875383711
Kite and Black cockatoo,RM11 2SH,51.584182532716400,0.220885343382855
bushmaster and Argus,RM11 2SY,51.587287014992800,0.222499000000000
Chickadee and rat snake,RM11 3AH,51.569155852223800,0.241668672558311
Magpie and blue tongue,RM11 3AJ,51.569407826062100,0.239776232837035
Kestrel and python,RM11 3BB,51.567433631603700,0.238611374337181
Treepie and chuckwalla,RM11 3BJ,51.573211356899800,0.235085286114249
Pheasant and Fox,RM11 3DP,51.581353747309100,0.233940383938835
bearded dragon and Old World vulture,RM11 3JG,51.572371435719900,0.231493929147027
asp and Ibex,RM11 3JL,51.571716083313300,0.235213966812995
loggerhead and lizard,RM11 3LY,51.567688000000000,0.231914000000000
diamond python and Eagle,RM11 3UB,51.578775069866900,0.242777138818275
Capuchin and box turtle,RM11 3XP,51.560157607765500,0.231097878231805
mountain devil and kabaragoya,RM12 4AZ,51.561858328796500,0.216334567062236
Night heron and rock snake,RM12 4DT,51.562242052631300,0.186299238766764
Argus and Goose,RM12 4EN,51.557562943906000,0.189825754016763
saltwater crocodile and blind snake,RM12 4EW,51.557753344385500,0.190224423890063
sea snake and Dorcopsis,RM12 4HD,51.559399582860900,0.195006829072998
wall lizard and Wallaby,RM12 4HY,51.560235357429400,0.218103000000000
Quetzal and Jay,RM12 4LF,51.556274193643000,0.219164724830153
swift and Magpie,RM12 4NG,51.549396104421500,0.195188740936139
Grosbeak and king cobra,RM12 4PG,51.550605357301400,0.195780000000000
Parrotlet and Wader,RM12 4PP,51.553180129210200,0.195774847523298
bicycle lizard and milk snake,RM12 4QN,51.552163893501800,0.200096685996002
constrictor and Tattler,RM12 4QX,51.554523097749400,0.200412501098524
ringhals and lizard,RM12 4SA,51.551430000000000,0.199435793808610
Marmoset and bearded dragon,RM12 4SN,51.552805245117400,0.203777220415794
Magpie and agama,RM12 4TG,51.564866914732600,0.193581963762739
slowworm and Chipmunk,RM12 4UX,51.562265028510500,0.219557420309658
leathery turtle and Booted eagles,RM12 4WW,51.553196463716700,0.210705884174620
diamondback turtle and Jackal,RM12 4YF,51.551288450300700,0.203617355906276
diamond python and deaf adder,RM12 5AQ,51.538545851473800,0.205035029196690
turtle and Solitaire,RM12 5BP,51.546139640253800,0.201003147661546
rat snake and Diving bird,RM12 5DQ,51.545093000000000,0.201384000000000
Thicketbird and Night heron,RM12 5HH,51.539460114025200,0.200406818529030
dugite and racer,RM12 5JD,51.544031283178800,0.193055581232718
slowworm and diamond python,RM12 5JJ,51.546112738112100,0.190429714617827
elapid and diamondback turtle,RM12 5RA,51.550398892287200,0.209315307240959
Bronzewing pigeon and taipan,RM12 6AB,51.553983798800800,0.222342278981224
cayman and Asiatic leopard,RM12 6AL,51.552487254460100,0.220639283566918
green turtle and Viscacha,RM12 6BD,51.550783061415400,0.226571355978696
Magpie and Dorcopsis,RM12 6BN,51.559851367307700,0.221171180980716
Crow and hognose snake,RM12 6BP,51.554129682655300,0.223186081196945
Mink and kabaragoya,RM12 6DJ,51.548376497413700,0.223713000000000
blue tongue and Viscacha,RM12 6HA,51.559564878947200,0.222527824717242
Recurvebill and bull snake,RM12 6HH,51.557067474482100,0.225709754731626
River dolphin and Civet,RM12 6JR,51.560950512149000,0.220589921077409
Komodo dragon and gaboon viper,RM12 6LS,51.554354208922000,0.218927003324635
cycling lizard and Ground sloth,RM12 6NU,51.540806299708500,0.206298024458275
diamondback and flying lizard,RM12 6RW,51.548422453492200,0.214455407763643
Piping shrike and boa constrictor,RM12 6SE,51.547639601735800,0.211143226776030
mamba and Boto,RM12 6SW,51.546227157029800,0.212603595276691
galliwasp and mountain devil,RM13 7AS,51.534990596314100,0.189837972042990
blind snake and diamond python,RM13 7JA,51.543175951825800,0.198393922152419
Hawk and Greenbul,RM13 7NA,51.542098000000000,0.190251000000000
gaboon viper and American sparrow,RM13 7PH,51.538047140389700,0.194224342997946
iguana and viper,RM13 7YP,51.534809319331600,0.182677195617042
carpet snake and rattlesnake,RM13 8AS,51.529753784442400,0.183242756667294
Fish eagle and garter snake,RM13 8AX,51.529083251633200,0.181581475281493
black snake and Mouse,RM13 8BE,51.530363951531900,0.184281218867623
Stilt and rock snake,RM13 8BF,51.524886084500000,0.173264376300000
Moluccan boobook and loggerhead,RM13 8EU,51.518621323552600,0.171092285823218
Piping shrike and giant tortoise,RM13 8FD,51.525023703900000,0.173602506600000
Tit-tyrant and Thrasher,RM13 8FJ,51.529059880300000,0.169959000000000
alligator and cycling lizard,RM13 8HF,51.524742230849500,0.174180221154640
Duck and glass snake,RM13 8HT,51.528432532200000,0.170174931300000
pit viper and galliwasp,RM13 8LT,51.524336788453900,0.180518439187154
box turtle and sea snake,RM13 8LX,51.525415000000000,0.179676000000000
carpet snake and cobra de capello,RM13 8ND,51.530089123604100,0.180202185330303
diamondback turtle and terrapin,RM13 8NR,51.528441062376100,0.175971209659846
Diving bird and Vulture,RM13 8NS,51.528752279897400,0.173736910226271
bushmaster and Petrel,RM13 8RS,51.523235801431200,0.177538000000000
Piping shrike and giant tortoise,RM13 8SS,51.523324000000000,0.191974000000000
Rabbit and Chickadee,RM13 9AB,51.519362000000000,0.197074000000000
brown snake and harlequin snake,RM13 9BP,51.505518000000000,0.180398000000000
water snake and Old World warbler,RM13 9ER,51.524398451538300,0.226062321877794
Grouse and bearded lizard,RM13 9JQ,51.516092429980000,0.192462661374277
sand lizard and River dolphin,RM13 9NL,51.521121535393300,0.202910189827808
Philippine hawk-owl and gaboon viper,RM13 9NN,51.519239810208800,0.202069814691628
python and adder,RM13 9NZ,51.517705013240100,0.206694784378197
Schneider python and giant tortoise,RM13 9QF,51.524084537189800,0.212712037207773
Bunting and Stint,RM13 9UE,51.517582143499000,0.194552180482090
Treepie and skink,RM13 9WP,51.516756000000000,0.206144000000000
Rat and Schneider python,RM13 9XS,51.521042000000000,0.214341473577211
wall lizard and Hawaiian honeycreeper,RM13 9YA,51.506710387079800,0.180051380085026
gecko and Chicken,RM14 1AL,51.569528428422600,0.256478407381720
bushmaster and elapid,RM14 1AS,51.570415365631100,0.254314401491603
Old World quail and Old World quail,RM14 1DH,51.561869816827000,0.253963819334191
Chipmunk and cobra,RM14 1EG,51.562420676719400,0.272026584592730
iguana and leguaan,RM14 1EH,51.561752887540000,0.270752465853399
Treepie and Night heron,RM14 1LH,51.570093927831900,0.268657188262465
Thicketbird and Parrotbill,RM14 1LP,51.567122537998000,0.269779076906408
tokay and Zebra,RM14 1NZ,51.570508768735000,0.272314456374179
monitor and Dorcopsis,RM14 1PZ,51.572730271278400,0.259263558798705
python and White ibis,RM14 1RP,51.568448237719100,0.264000830754246
Songlark and Jay,RM14 1SF,51.563775462953000,0.263350241716847
galliwasp and gopher snake,RM14 1UU,51.560970838740300,0.243156128129932
Meadowlark and Dolphin,RM14 1UY,51.561814038897400,0.248435060844333
goanna and dugite,RM14 2AT,51.555924263433400,0.249341924280050
Ground sloth and Thrasher,RM14 2EW,51.546875941692200,0.244251204704162
Jay and crocodile,RM14 2HN,51.551229005316700,0.244696271613620
hawksbill and Stilt,RM14 2JA,51.549269209680500,0.235714481112771
sidewinder and horned viper,RM14 2LJ,51.551195326606100,0.239400706588240
Chipmunk and Fox,RM14 2LS,51.555482393572300,0.240476873428226
Francolin and Pitohui,RM14 2LX,51.556702004571800,0.239714504449073
hoop snake and deaf adder,RM14 2PF,51.553876313223700,0.234627678783312
agama and Bunting,RM14 2PL,51.554018706424900,0.232817021648225
hawksbill and Greenbul,RM14 2RA,51.558513096625000,0.240943238925831
Black jay and sea snake,RM14 2RF,51.556753516884000,0.236543190977382
whip snake and habu,RM14 2SU,51.558581170820300,0.249602882220622
ringhals and thorny devil,RM14 2TU,51.557973822824100,0.250323110121720
Scimitar babbler and boa,RM14 2XR,51.533133000000000,0.235933000000000
hawksbill and Vulture,RM14 2YD,51.552367621219000,0.246539000000000
Piping shrike and cerastes,RM14 3AB,51.551286077146800,0.249228485688028
smooth snake and skink,RM14 3BF,51.545038000000000,0.394579000000000
snake and Jerboa,RM14 3ES,51.552650468347400,0.255917010843526
mamba and ringhals,RM14 3HL,51.557340423712600,0.259362000000000
leguaan and Night heron,RM14 3JT,51.557986331772700,0.269456000000000
tiger snake and Old World quail,RM14 3JU,51.558158104970800,0.271092749462307
Vole and boa,RM14 3LJ,51.560616902616400,0.270436165731274
Recurvebill and gavial,RM14 3PR,51.541950914364900,0.298884381959023
Pheasant and Petrel,RM14 3RH,51.540375248659800,0.325661000000000
Kākāriki and king snake,RM14 3TT,51.544691411345800,0.360579705259846
Armadillo and flying dragon,RM14 3YP,51.558496613653000,0.264747227632524
Hawk and Macaw,RM14 3YX,51.543579337804000,0.252497242171175
pit viper and turtle,RM15 4EB,51.499910569299800,0.245400937240553
Badger and brown snake,RM15 4EL,51.500455050391100,0.249836791561593
Chickadee and monitor,RM15 4HD,51.496336509308200,0.255440169660606
iguana and Armadillo,RM15 4JL,51.496222377538700,0.250146997136200
White ibis and python,RM15 4NR,51.509951547888300,0.252653809968027
Prion and dukite,RM15 4NX,51.510586214528400,0.255192809688607
Black jay and Francolin,RM15 4PP,51.507363984053200,0.248779308034785
water snake and Duck,RM15 4RL,51.505514037430100,0.251455004854824
flying dragon and Shearwater,RM15 4SD,51.500764546065000,0.251047974195104
Mouse and anaconda,RM15 4SL,51.501378000000000,0.251467000000000
Treepie and flying lizard,RM15 4UU,51.510369000000000,0.240770000000000
ringhals and chameleon,RM15 4WH,51.509716565143400,0.281091014992447
Skunk and Asiatic leopard,RM15 5AY,51.512532309620700,0.276879071110268
Siskin and Badger,RM15 5BU,51.511498613317500,0.290245420759714
king snake and Grackle,RM15 5BW,51.510213333340000,0.284214401169451
flying dragon and Masked owl,RM15 5DL,51.510073977246300,0.281209754253205
deaf adder and Black jay,RM15 5EP,51.511087707596200,0.279487701082683
brown snake and Chickadee,RM15 5FG,51.514631881700000,0.287793741900000
rattlesnake and soft-shelled turtle,RM15 5HG,51.511343042404600,0.274211139317548
Bunting and carpet snake,RM15 5JN,51.508207259046600,0.269890096369006
River dolphin and Mink,RM15 5PT,51.502831922096700,0.286885632714779
sidewinder and Asiatic leopard,RM15 5PZ,51.503107055292000,0.285227883581302
Francolin and saltwater crocodile,RM15 5QH,51.509384553434500,0.285671755492596
Chipmunk and Quetzal,RM15 5RE,51.504304217439500,0.285633630548271
grass snake and leathery turtle,RM15 6AH,51.501755999329300,0.290405262507553
taipan and milk snake,RM15 6BD,51.502069304465900,0.282639908825223
thorny devil and Minke whale,RM15 6DH,51.516021910220200,0.298529668078262
Logrunners and Jackal,RM15 6EB,51.506503534218300,0.292747352502253
Stilt and boa constrictor,RM15 6EP,51.502764677120200,0.292631698974644
snake and Thrasher,RM15 6JA,51.518446173803000,0.292294916672821
Ground sloth and dugite,RM15 6PD,51.522036873152100,0.290327320989039
Elephant and Grackle,RM15 6PF,51.523072306613400,0.295323982640058
Duck and Ibex,RM15 6QD,51.526534773433500,0.296694766222004
sidewinder and black snake,RM15 6QE,51.509531000000000,0.302137000000000
Chipmunk and Chickadee,RM15 6RX,51.515814891411400,0.307239568944013
gecko and Cloud rat,RM15 6TH,51.518709592142100,0.304702000000000
bushmaster and leathery turtle,RM15 6TY,51.520102326459700,0.301863229606692
Masked owl and Schneider python,RM16 2AH,51.496807854693300,0.330210765988700
hognose snake and Fulmarine petrel,RM16 2BB,51.497925274629400,0.328020000000000
habu and Triller,RM16 2ER,51.493987000000000,0.335477762762288
rock snake and Greenbul,RM16 2HD,51.497964525023700,0.335355863145314
flying lizard and Marsh harrier,RM16 2HH,51.498241965994700,0.337228716818453
Recurvebill and tiger snake,RM16 2HT,51.500786000000000,0.334189000000000
Fox and Marmoset,RM16 2JX,51.493843931768200,0.340403733994396
sidewinder and Hawaiian honeycreeper,RM16 2LD,51.496888683633100,0.339248614306139
sidewinder and Jackal,RM16 2LH,51.498050117517500,0.338731764339367
Shearwater and Marmoset,RM16 2RD,51.493087240505900,0.333248079639373
Treepie and Marsh harrier,RM16 2TN,51.493200153781200,0.325301359991366
diamond snake and Booted eagles,RM16 2TW,51.492769471718100,0.326158238082107
New World blackbird and Petrel,RM16 2UT,51.498197587522100,0.321809611918355
Pratincole and Ibex,RM16 2XA,51.498750577448700,0.320223978993229
Buzzard and Gila monster,RM16 3AB,51.491720500581400,0.365549141256422
blue tongue and River dolphin,RM16 3EW,51.479917514025200,0.320751297688438
deaf adder and habu,RM16 3HB,51.512003095248300,0.364510090027149
Vulture and Tahr,RM16 3JE,51.504227490524300,0.393590888382841
diamond snake and galliwasp,RM16 3JN,51.510105632260200,0.371185511593814
Siskin and agamid,RM16 3JU,51.511393000000000,0.370675340712263
Snipe and Parrotlet,RM16 3JX,51.511154692077400,0.371340883206990
Warbler and Tahr,RM16 3NJ,51.503572226586400,0.331926000000000
flying dragon and cobra de capello,RM16 4DH,51.481398847277700,0.367650631959254
glass snake and Argus,RM16 4DT,51.480377771545100,0.375447225849175
horned viper and Bunting,RM16 4JW,51.481824980460900,0.370150054695528
Jackal and carpet snake,RM16 4NB,51.482634904778600,0.371013054022543
Grouse and Mamo,RM16 4RX,51.486801302790900,0.371776613117896
sidewinder and hoop snake,RM16 4TP,51.491943814506900,0.374521469760680
New World blackbird and Tahr,RM16 4TS,51.491988388816900,0.374984791310474
Piping shrike and deaf adder,RM16 4UT,51.488585403691600,0.366265553460436
hoop snake and green turtle,RM16 4XL,51.489123960438500,0.362749697688575
Meadowlark and Parrotlet,RM16 4XS,51.492064396789800,0.350238552877875
mud turtle and lizard,RM16 5UP,51.495813579122900,0.302699402687726
Jay and amethystine python,RM16 5UW,51.497148486637400,0.303415048134940
Jerboa and Fox,RM16 6BX,51.482112082632100,0.302037828605265
amethystine python and blind snake,RM16 6DA,51.481021583729700,0.292059400881882
turtle and hoop snake,RM16 6HA,51.492324772251300,0.301299020621726
indigo snake and Warbler,RM16 6LX,51.487741396812500,0.295176587946553
giant tortoise and soft-shelled turtle,RM16 6NB,51.489150604301000,0.293936487910736
leguaan and moloch,RM16 6NX,51.489397830213500,0.314303759206478
boa constrictor and White ibis,RM16 6PR,51.492870607583600,0.305101021725835
puff adder and Meadowlark,RM16 6QA,51.491551598556600,0.312712931642655
Treepie and Eagle,RM17 5BY,51.479383784708500,0.323633463848556
snapping turtle and Hawaiian honeycreeper,RM17 5ER,51.479664083882500,0.327637177872441
cerastes and Viscacha,RM17 5ET,51.480051061057000,0.328981917125575
Philippine hawk-owl and black snake,RM17 5EZ,51.479877463058300,0.325948552723455
leathery turtle and Fulmarine petrel,RM17 5FA,51.477166000000000,0.315369000000000
hoop snake and Crow,RM17 5HN,51.483212861547800,0.324188228148562
diamondback turtle and Night heron,RM17 5JP,51.480999439687000,0.327417125914890
Crow and Pitohui,RM17 5LD,51.485364044918500,0.325003439213922
Fulmarine petrel and Fulmarine petrel,RM17 5LF,51.482053274831000,0.327787660211569
skink and New World blackbird,RM17 5ND,51.485919463052700,0.326472134901300
caiman and New World blackbird,RM17 5NR,51.487816127092900,0.337818993534094
rat snake and Petrel,RM17 5QW,51.488776412819900,0.321172402567528
Marsh harrier and Rat,RM17 5TN,51.484322761262400,0.338922230179294
Shearwater and slowworm,RM17 5XE,51.477793000000000,0.307646218104433
Ibex and Pitohui,RM17 6AA,51.481220528777700,0.341154357530997
agama and Armadillo,RM17 6DW,51.478189606894900,0.332141912725829
blind snake and Fox,RM17 6ES,51.476477433903200,0.338636009150266
racer and Pitohui,RM17 6FA,51.475243000000000,0.326634000000000
Dolphin and giant tortoise,RM17 6LD,51.474101621719800,0.333301430544912
Thicketbird and Thicketbird,RM17 6LL,51.475489791018800,0.321361776255747
bearded dragon and ringhals,RM17 6LT,51.479917514025200,0.320751297688438
chuckwalla and Minke whale,RM17 6LX,51.477303172790600,0.322607000000000
Philippine hawk-owl and Mouse,RM17 6ND,51.474925977547800,0.311209325328858
chuckwalla and agama,RM17 6PL,51.474311392306200,0.319559455589667
Viscacha and Linsang,RM17 6QB,51.475660600979000,0.311808108636356
Herring gull and Jackal,RM17 6QG,51.474055888954600,0.317472803559096
Civet and Boto,RM17 6RG,51.476592801552800,0.327869627954446
blue tongue and rock snake,RM17 6SL,51.475673777177400,0.324294000000000
leathery turtle and sidewinder,RM17 6TU,51.474367717841500,0.346102887960972
flying lizard and B,RM17 6UH,51.473058878092700,0.345445307392351
Condor and Mouse,RM17 6UJ,51.474145013054100,0.345097810428522
Goose and Duck,RM17 9JD,51.479918256700000,0.320751287700000
cobra and Masked owl,RM17 9LH,51.479919000000000,0.320751000000000
leathery turtle and Triller,RM17 9ST,51.475673777177400,0.324784188016642
Fish eagle and blue racer,RM18 7JD,51.461789000000000,0.347833000000000
Condor and Fish eagle,RM18 7PL,51.459877735896900,0.361872061853772
Marsh harrier and boa,RM18 7QA,51.461723995327800,0.357491000000000
Songlark and thorny devil,RM18 7RH,51.463145549502700,0.361709681816246
Chipmunk and boomslang,RM18 8HL,51.465263705224000,0.373495812657485
Peafowl and dukite,RM18 8JA,51.466076000000000,0.375978789332022
Jerboa and worm lizard,RM18 8JT,51.467176075994100,0.376316404691656
Maya and rock snake,RM18 8PL,51.469152003357900,0.426485325145946
diamond python and Triller,RM18 8QD,51.466842982355200,0.429415296997091
Grackle and tiger snake,RM18 8QJ,51.472881153836800,0.416185297951584
mamba and indigo snake,RM18 8RG,51.486094000000000,0.420923454653278
Kākāriki and Lemming,RM18 8RQ,51.486000349015300,0.420206390397158
Mamo and Jackal,RM18 8TT,51.478890000000000,0.389931710657510
Jackal and Old World warbler,RM18 8TX,51.476679947027200,0.389685453010336
Old World warbler and Cuscus,RM19 1AP,51.483490000000000,0.249189000000000
Mockingbird and horned viper,RM19 1GH,51.486536791717100,0.235107227487108
Marsh harrier and box turtle,RM19 1LE,51.484460996011200,0.235383000000000
sand viper and Asiatic leopard,RM19 1LG,51.484440485426900,0.236099385775045
caiman and hawksbill,RM19 1NH,51.479921000000000,0.240682841331235
Gull and puff adder,RM19 1PE,51.486758116851800,0.231041598948193
Philippine hawk-owl and Fulmarine petrel,RM19 1RA,51.479892337449400,0.239275821672989
Thrasher and Parakeet,RM19 1SF,51.484452000000000,0.255747000000000
giant tortoise and carpet snake,RM19 1TN,51.480322990103100,0.244971472617649
Nukupuʻu and Macaw,RM19 1TS,51.485171000000000,0.245469000000000
Prion and monitor,RM19 1TT,51.481409715387800,0.247862194536044
mud turtle and Old World warbler,RM2 5AD,51.581183866534400,0.193371794755118
sand lizard and tree snake,RM2 5NP,51.587529690682500,0.194500323450439
copperhead and gaboon viper,RM2 5NS,51.588820954722700,0.195659742217949
Towhee and flying dragon,RM2 5QP,51.592825552200700,0.195029915147547
cerastes and Jackal,RM2 5UA,51.578021119118100,0.195629840370307
brown snake and Maya,RM2 5UQ,51.575626418296300,0.200089505623248
Diving bird and Mockingbird,RM2 5XE,51.577702387706400,0.202080513611318
Mockingbird and Chipmunk,RM2 6AT,51.581876986193700,0.204333000000000
ringhals and asp,RM2 6ES,51.584300251027500,0.206542452287609
lizard and Bronzewing pigeon,RM2 6HJ,51.585591790680400,0.210069588565011
viper and ringhals,RM2 6LJ,51.589748668858500,0.209953747880672
Pratincole and soft-shelled turtle,RM2 6NU,51.591464000000000,0.213377795068117
boa and lizard,RM2 6RH,51.588927087561700,0.213941712085214
hoop snake and chuckwalla,RM2 6XE,51.570143000000000,0.170731000000000
Masked owl and thorn lizard,RM20 2ZP,51.487106000000000,0.283549000000000
cerastes and python,RM20 3BJ,51.476154351054800,0.283865890227139
habu and leathery turtle,RM20 3BT,51.476499645504000,0.282759839161900
gaboon viper and Asiatic leopard,RM20 3EE,51.471148808397400,0.268265000000000
Gull and Myna,RM20 3HD,51.475833962380200,0.282769801853699
blue racer and Hawk,RM20 3LD,51.476053000000000,0.274448569103919
giant tortoise and copperhead,RM20 3LH,51.475359000000000,0.273976000000000
Grouse and Moluccan boobook,RM20 4AL,51.472980000000000,0.293586000000000
Diving bird and Buzzard,RM20 4XB,51.475781979693600,0.302699000000000
Rabbit and bicycle lizard,RM20 4XQ,51.476262627190600,0.306812503663064
Rat and flying dragon,RM3 0JS,51.598600676391400,0.243912762936292
Booted eagles and Lemming,RM3 0JT,51.599091112085500,0.244601182382702
Snipe and Prion,RM3 0LW,51.592788000000000,0.231567000000000
mud turtle and kabaragoya,RM3 0RT,51.595466886725900,0.233766599548787
copperhead and pit viper,RM3 0SS,51.596165000000000,0.234889082794801
mountain devil and rock python,RM3 0WY,51.592378525163800,0.223075438263534
Fox and grass snake,RM3 0YS,51.601896778900300,0.246486908807309
boa and Bunting,RM3 3BS,51.605512071500000,0.223861382200000
gaboon viper and Tree warbler,RM3 3EF,51.605533000000000,0.223874000000000
gecko and Cuscus,RM3 3EG,51.605533000000000,0.223874000000000
diamondback terrapin and fer-de-lance,RM3 3EJ,51.605533000000000,0.223874000000000
Maya and lizard,RM3 7ED,51.602524813765100,0.205649000000000
Mamo and mamba,RM3 7HS,51.599383545985500,0.206781000000000
cerastes and Parrotbill,RM3 7JT,51.608238590407400,0.207529846797957
Petrel and Bronzewing pigeon,RM3 7LP,51.616854386381100,0.217987643389362
Cloud rat and gopher snake,RM3 7RX,51.608738372462200,0.212508041961004
boa and Booted eagles,RM3 7XR,51.609777766825500,0.219375841808801
Guillemot and flying dragon,RM3 8EJ,51.606578721937300,0.219248689584321
Hawaiian honeycreeper and Vulture,RM3 8EL,51.601990100689400,0.217941857049554
mountain devil and king cobra,RM3 8FH,51.603476333300000,0.224512848300000
iguana and sea snake,RM3 8LA,51.602658413240900,0.220169472683649
sea snake and bull snake,RM3 8NH,51.600897200734700,0.223895855124170
Thicketbird and Warbler,RM3 8NP,51.601512445247500,0.224647955752695
harlequin snake and black snake,RM3 8NS,51.601903702581200,0.224407146053259
massasauga and Ice seal,RM3 8QJ,51.600289450264300,0.227490684812971
Fulmarine petrel and black snake,RM3 8QU,51.598726832296500,0.230692057276010
gaboon viper and Pheasant,RM3 8RX,51.604367281049200,0.222058048630724
Diving bird and Fulmarine petrel,RM3 9AH,51.614472688754800,0.222667200242459
sea snake and Shearwater,RM3 9AR,51.614836830530600,0.227177376791745
Diving bird and Gull,RM3 9BT,51.610605826832100,0.225511441340382
moloch and Ice seal,RM3 9DA,51.609998939191500,0.225741736411491
wall lizard and cobra,RM3 9DE,51.611674848206600,0.219872818219100
taipan and amphisbaena,RM3 9DX,51.609633000000000,0.228546255589687
crocodile and blue tongue,RM3 9ER,51.612033257989500,0.230376704649277
boomslang and Jackal,RM3 9FH,51.605187434100000,0.227701504400000
python and Fish eagle,RM3 9GS,51.612241000000000,0.222818000000000
Siskin and tortoise,RM3 9HS,51.600654316499200,0.231479671496427
asp and hognose snake,RM3 9HU,51.601039894201900,0.231065359039223
Myna and Elephant,RM3 9RJ,51.608347202231000,0.233633423479331
rock snake and Partridge,RM3 9UA,51.607687232220200,0.239479211506872
perentie and Herring gull,RM4 1LE,51.621927000000000,0.224664000000000
frill-necked lizard and thorn lizard,RM4 1PP,51.617841256134300,0.182614507099611
racer and flying lizard,RM5 2AU,51.598118141286700,0.158897477543624
tortoise and Tattler,RM5 2BG,51.593203600563300,0.144428612397937
Pitohui and Parrotlet,RM5 2DR,51.598770705299000,0.148329686197284
crocodile and Pheasant,RM5 2ET,51.603157085392200,0.155309616715946
frill-necked lizard and Puffleg,RM5 2HP,51.607972552298200,0.158498447404112
agama and king snake,RM5 2HY,51.604041000000000,0.158566385628998
anole and bicycle lizard,RM5 2HZ,51.603163569020100,0.157403884020237
king snake and Cuscus,RM5 2JT,51.605488424040000,0.155188966138407
massasauga and diamondback terrapin,RM5 2LB,51.603581255526000,0.154737614888166
frilled lizard and amphisbaena,RM5 2LL,51.607320513091500,0.159724008056587
mountain devil and Asiatic leopard,RM5 2ND,51.599087451548100,0.159001212478049
Minke whale and moloch,RM5 2NL,51.599605037292900,0.156773127320193
gaboon viper and puff adder,RM5 2NR,51.600891384844600,0.161151760611754
Peafowl and Tattler,RM5 2SA,51.608347154880200,0.171341397824321
Puffleg and blind snake,RM5 2ST,51.607639278744700,0.167798076867713
goanna and leguaan,RM5 2UL,51.607307531085700,0.164821571101912
mud turtle and Siskin,RM5 2UP,51.607246849024700,0.161771334109881
Vole and Vulture,RM5 2UU,51.604375543690000,0.159959719252782
Tattler and Pratincole,RM5 3AL,51.586524000000000,0.170791000000000
sand lizard and Mouse,RM5 3BT,51.608577657834200,0.174919784489975
adder and Viscacha,RM5 3DB,51.591910348461900,0.167828687842749
dukite and Snipe,RM5 3EX,51.593768209993400,0.171916524170359
leguaan and monitor,RM5 3HB,51.595794788495400,0.170887000000000
blue racer and leguaan,RM5 3QT,51.604497726111200,0.166016525140300
Armadillo and Mouse,RM5 3RR,51.600511392410600,0.170534341696527
Philippine hawk-owl and soft-shelled turtle,RM5 3SB,51.603290466570800,0.171490033610062
loggerhead and New World blackbird,RM5 3SS,51.601177962861600,0.175331499585611
Buzzard and taipan,RM5 3XU,51.604013263022700,0.175192641778915
Parrotlet and Solitaire,RM5 3YS,51.601330609679700,0.171945263884869
Peafowl and Jerboa,RM6 4AH,51.570517445654200,0.129969023449964
Armadillo and Minke whale,RM6 4AP,51.573450000000000,0.122544000000000
Mockingbird and River dolphin,RM6 4BF,51.571491328331300,0.130317602177252
puff adder and milk snake,RM6 4FB,51.578253372554400,0.116431634510443
Dorcopsis and leguaan,RM6 4HU,51.568569000000000,0.120426000000000
Hawk and Goose,RM6 4LA,51.572745411911400,0.129596945574162
Old World quail and gecko,RM6 4PZ,51.574799429820500,0.117469028275899
sea snake and dugite,RM6 4QD,51.570575840128700,0.116305884671648
diamondback terrapin and Bronzewing pigeon,RM6 4SH,51.573147432480300,0.116324316521496
kabaragoya and Boto,RM6 4SU,51.574900470170600,0.116853146326831
Night heron and worm lizard,RM6 4SX,51.575136402024800,0.115738403457524
hoop snake and python,RM6 5DP,51.580880839609800,0.120826173538854
giant tortoise and diamondback turtle,RM6 5LR,51.583715005193700,0.136114770542507
Maya and Gull,RM6 5QJ,51.588861512912100,0.140903707635019
saltwater crocodile and rattlesnake,RM6 5QT,51.590898849342600,0.142602033019935
Macaw and Crow,RM6 5SU,51.585361595084700,0.119201548831696
Thrasher and Civet,RM6 5TU,51.575574154365100,0.128329247727566
Boto and Black cockatoo,RM6 5UL,51.577736172067800,0.130104488615047
Night heron and Dorcopsis,RM6 6AX,51.573037091757800,0.146654189976676
alligator and dugite,RM6 6HL,51.570460000000000,0.143597325175894
Lemming and Peafowl,RM6 6LL,51.569536519290400,0.133473043556716
Buzzard and agamid,RM6 6RJ,51.573558757418600,0.141728702064426
worm lizard and Magpie,RM6 6XH,51.575837935498900,0.137563865225925
bull snake and blue tongue,RM6 6XR,51.576908626348500,0.136546084798842
swift and Polecat,RM7 0AG,51.568620478161400,0.179031000000000
habu and cycling lizard,RM7 0BB,51.570810518347500,0.179624804925082
Towhee and tiger snake,RM7 0BG,51.570885632224200,0.180596000000000
Lemming and taipan,RM7 0BU,51.567091587154200,0.176012644132414
Snipe and Buzzard,RM7 0DA,51.565894192475100,0.176085330740490
Badger and Eagle,RM7 0GL,51.572604901212900,0.178397387859800
boomslang and Wallaby,RM7 0GY,51.570941000000000,0.176657000000000
Old World warbler and Towhee,RM7 0QU,51.566513491212200,0.174210207841212
tree snake and iguana,RM7 0RR,51.564743511902800,0.182840857405697
Linsang and pit viper,RM7 0UB,51.562463100047100,0.172949286999390
cerastes and terrapin,RM7 0UJ,51.562256060278700,0.169072668554718
chameleon and thorn lizard,RM7 0UX,51.563573048262500,0.172742494164464
leathery turtle and Rat,RM7 0XT,51.558803027976400,0.180092000000000
anaconda and boa,RM7 0YS,51.558391629172200,0.182031720495042
Ground sloth and Bunting,RM7 1PQ,51.570249714000000,0.170636458000000
Thrasher and Greenbul,RM7 1RE,51.570249714000000,0.170636458000000
grass snake and bicycle lizard,RM7 1RR,51.570252000000000,0.170664000000000
Ibex and bearded dragon,RM7 1UE,51.570143000000000,0.170731000000000
Rabbit and mountain devil,RM7 7LA,51.580584013774800,0.169526817153473
giant tortoise and tokay,RM7 8AZ,51.584793630438300,0.159723703399584
amethystine python and Maya,RM7 8EB,51.585344541716100,0.157151449306242
Mouse and Chipmunk,RM7 8RB,51.587702635850200,0.164856604698379
Elephant and swift,RM7 9BZ,51.575539000000000,0.166312000000000
Asiatic leopard and indigo snake,RM7 9EA,51.573669540432600,0.166065826685818
mud turtle and viper,RM7 9ED,51.572196405634400,0.165000028591164
brown snake and rattlesnake,RM7 9HH,51.572746282463800,0.160537972481868
Kestrel and Vulture,RM7 9JR,51.572637373492200,0.163520114163697
tiger snake and Philippine hawk-owl,RM7 9QB,51.575854550428800,0.177253860574128
crocodile and cobra de capello,RM7 9QD,51.574346729461400,0.173212996107245
Flameback and boa constrictor,RM7 9QN,51.574403051885900,0.171628161347268
dukite and tuatara,RM8 1AT,51.566493809784900,0.144989572448508
Night heron and iguana,RM8 1BD,51.560482000000000,0.146279000000000
rock snake and swift,RM8 1ES,51.568313000000000,0.140991000000000
Jerboa and carpet snake,RM8 1TE,51.567379792893800,0.128437109091723
horned toad and Recurvebill,RM8 1TL,51.565529556335400,0.129303013243440
Pitohui and mountain devil,RM8 1TP,51.565782448781700,0.129242683614100
Jay and horned toad,RM8 1XG,51.565293567387600,0.122972072711216
Minke whale and Solitaire,RM8 1XQ,51.565443781056800,0.124609555387117
Vole and tuatara,RM8 1XT,51.563386662618600,0.121007550785224
sand lizard and Goose,RM8 1YA,51.562589950923900,0.122297864730041
thorn lizard and diamond snake,RM8 1YF,51.566046365353200,0.126095004751464
terrapin and black snake,RM8 2DR,51.554200958500400,0.115257167007980
Partridge and cayman,RM8 2FT,51.551366367400000,0.109427894900000
glass snake and Marmoset,RM8 2HJ,51.548948855099500,0.119758963817708
Argus and pit viper,RM8 2HS,51.550498318739700,0.117119223665481
Chicken and Pitohui,RM8 2HU,51.550073089256400,0.115267608163344
Towhee and Lemming,RM8 2NR,51.549427930120500,0.118627315794157
Jackal and dugite,RM8 2PT,51.559996640860800,0.119003100572698
Siskin and frilled lizard,RM8 2UU,51.558434032364900,0.124354953844544
elapid and Towhee,RM8 2YB,51.547329481976100,0.124270306562014
American sparrow and diamond snake,RM8 3NR,51.556611625772200,0.145923898604000
Piping shrike and Kākāriki,RM8 3QJ,51.554755483521000,0.129838409070168
Chicken and Macaw,RM8 3XP,51.554315222447100,0.125850813868277
tree snake and Skunk,RM9 4AR,51.540140718769200,0.120488867737488
puff adder and amphisbaena,RM9 4EU,51.536843498164400,0.122801422221840
Linsang and agamid,RM9 4PJ,51.540897931594200,0.117899395442644
Philippine hawk-owl and Triller,RM9 4PL,51.540493454235400,0.117390295330930
constrictor and Siskin,RM9 4RU,51.534748013073100,0.125789659635997
Mole and glass snake,RM9 5AE,51.547095454016100,0.147495317611382
Linsang and diamond python,RM9 5DB,51.547758254103800,0.142723500836250
sand viper and indigo snake,RM9 5JP,51.548569821510500,0.139442000000000
Maya and boomslang,RM9 5JW,51.547590759906200,0.137609728728176
Scimitar babbler and rat snake,RM9 5NA,51.551075284374800,0.132821000000000
viper and gopher snake,RM9 5PB,51.544022424262800,0.144408456968498
carpet snake and Civet,RM9 5PP,51.542629409039000,0.143376693791101
blue racer and Goose,RM9 5QU,51.547708796640300,0.146903991448778
Tahr and python,RM9 5RL,51.542381171921200,0.146624357715626
Coati and Prion,RM9 5SH,51.551626023828900,0.147102863267419
thorny devil and bicycle lizard,RM9 5TH,51.554033364338600,0.144302285563405
Darwin's finches and Jerboa,RM9 6AE,51.539552240575500,0.147890052633563
cerastes and Elephant,RM9 6AH,51.537373433363700,0.132256887493794
Asiatic leopard and Old World vulture,RM9 6AW,51.536179220196400,0.143996495462022
hognose snake and Treepie,RM9 6BL,51.535168999572300,0.128361526253957
Asiatic leopard and puff adder,RM9 6ED,51.536671722619900,0.131777069540816
Masked owl and Duck,RM9 6HJ,51.539112000000000,0.144019000000000
taipan and Petrel,RM9 6JS,51.538797519618000,0.137514891395892
Herring gull and Capuchin,RM9 6LR,51.538128255153500,0.145111953465056
mud turtle and cycling lizard,RM9 6RL,51.525579000000000,0.137125000000000
Badger and rattlesnake,RM9 6SJ,51.530849000000000,0.144928000000000
Night heron and Thicketbird,RM9 6XT,51.533959000000000,0.133655000000000
gaboon viper and Grosbeak,RM9 9LF,51.553492752900000,0.141954327800000
Jay and pit viper,RM9 9QU,51.553494000000000,0.141982000000000
Thicketbird and Flameback,SE18 1AE,51.486335279635000,0.085467169044783
Triller and rock snake,SE18 1BS,51.491589445100000,0.093471549200000
rattlesnake and caiman,SE18 1EF,51.489773101022800,0.097925995274487
frilled lizard and brown snake,SE18 1LQ,51.483734897661600,0.101163208978754
boa constrictor and Thicketbird,SE18 1LR,51.485227075088300,0.100022000000000
Francolin and Solitaire,SE18 1NF,51.485075642256500,0.089039396584356
frilled lizard and Grouse,SE18 1PS,51.484386351182000,0.090880330447006
blindworm and thorny devil,SE18 1QA,51.482807960592700,0.089122990685797
Minke whale and Egret,SE18 1QD,51.482222095932400,0.088692938440713
Wader and Snipe,SE18 1QS,51.487817206878800,0.087594630941636
Dorcopsis and racer,SE18 1RD,51.487355147783100,0.089806192366867
brown snake and Rabbit,SE18 1RP,51.483047196589000,0.087808853631249
Francolin and snapping turtle,SE18 2AF,51.479196000000000,0.101574000000000
cobra and green turtle,SE18 2AX,51.475686678951500,0.106757000000000
frill-necked lizard and Cloud rat,SE18 2BJ,51.478955813420900,0.099343000000000
caiman and Lemming,SE18 2BZ,51.475083265526300,0.093651758933862
B and Tahr,SE18 2DG,51.477625367266000,0.094819467211526
tuatara and sea snake,SE18 2DS,51.476309042756600,0.097020085381742
Jackal and horned viper,SE18 2NN,51.480161618196300,0.093293857332155
skink and Jackal,SE18 2NP,51.479386031283600,0.093920825140416
Komodo dragon and Gull,SE18 2QQ,51.479031605066000,0.085551611623587
hawksbill and diamondback,SE18 2QY,51.478842237657500,0.083051492690948
Hawk and soft-shelled turtle,SE18 3AF,51.480378169367300,0.077072603243176
constrictor and king cobra,SE18 3ZW,51.490736000000000,0.084847000000000
saltwater crocodile and Wader,SE18 5WA,51.490736000000000,0.084847000000000
hognose snake and Masked owl,SE18 6AT,51.492383718700000,0.077376000000000
rat snake and Diving bird,SE18 7EJ,51.490118152865300,0.076521334963424
caiman and viper,SE18 7EL,51.490105213173400,0.075728463573375
cobra and galliwasp,SE18 7NB,51.487340573722800,0.081018903231895
Old World warbler and puff adder,SE18 7NX,51.487968189535400,0.083150538226026
Hawaiian honeycreeper and gavial,SE18 7PS,51.486230404844700,0.080233751777459
Old World quail and hoop snake,SE18 7QB,51.485462464802100,0.082460179282552
massasauga and Darwin's finches,SE18 7TJ,51.483986197240700,0.081528723346448
amphisbaena and gopher snake,SE18 7TQ,51.484905616648100,0.082420403905587
leguaan and Dorcopsis,SE18 9LZ,51.490736000000000,0.084874000000000
Tattler and Gull,SE18 9PD,51.490736000000000,0.084874000000000
Solitaire and Darwin's finches,SE18 9PH,51.490736000000000,0.084874000000000
Kite and Cuscus,SE2 0HE,51.486798782811700,0.105322833003777
Vulture and Snipe,SE2 0LR,51.487714070887600,0.119409359877910
skink and saltwater crocodile,SE2 0LY,51.487534195073100,0.117917361586680
Kangaroo and king cobra,SE2 0NX,51.478582493463400,0.105146045104272
grass snake and cobra,SE2 0NY,51.478283000000000,0.104887000000000
Jerboa and Flameback,SE2 0PS,51.481763176706400,0.130194635749380
tree snake and blue tongue,SE2 0RW,51.483767300940400,0.103368389293763
Triller and American sparrow,SE2 0SR,51.488556962228500,0.113067148793545
Logrunners and Thicketbird,SE2 0SS,51.488501845360200,0.112632458544429
Ibex and crocodile,SE2 0SZ,51.485780664120600,0.111930513853522
boa constrictor and White ibis,SE2 0XD,51.488215856833500,0.109536646908839
sand viper and dukite,SE2 9DF,51.495993098134000,0.108123667471172
soft-shelled turtle and kabaragoya,SE2 9DL,51.495177690938300,0.104455525141433
water snake and Parrotbill,SE2 9DQ,51.494723069973500,0.106235418421915
Chipmunk and Tattler,SE2 9EB,51.489939000000000,0.113773424815750
snake and Jay,SE2 9ES,51.496868000000000,0.124069000000000
python and soft-shelled turtle,SE2 9HW,51.489012205068400,0.103753840794690
Hawk and Scimitar babbler,SE2 9JL,51.492432373642900,0.115090329764575
sand lizard and Philippine hawk-owl,SE2 9LW,51.491412395551700,0.113804230658231
bicycle lizard and tiger snake,SE2 9NW,51.489569000000000,0.120360000000000
New World blackbird and Pratincole,SE2 9PP,51.491564883148100,0.120798048374009
Dolphin and Scimitar babbler,SE2 9SD,51.493227942745700,0.122820082570859
boomslang and White ibis,SE2 9SF,51.493728211479900,0.124989878661510
Darwin's finches and python,SE2 9TF,51.495592156751500,0.126344389075890
water snake and Old World vulture,SE2 9XA,51.499397057958500,0.127285131007049
puff adder and Parrotbill,SE28 0AF,51.497616688596700,0.105850152743026
Viscacha and horned viper,SE28 0DJ,51.496970778483600,0.085635669036186
Argus and diamondback turtle,SE28 0DP,51.496557874974400,0.084075248110910
Skunk and Triller,SE28 0FD,51.498382000000000,0.098840000000000
giant tortoise and Tree warbler,SE28 0GE,51.497550000000000,0.080553918421115
Pitohui and Kākāriki,SE28 0HD,51.498655003237400,0.088017821401396
mamba and Mockingbird,SE28 0HL,51.500037908600900,0.085602803888256
Rat and bearded dragon,SE28 0JJ,51.500131053658800,0.097522760343781
Cuscus and White ibis,SE28 0JU,51.499892687257500,0.094255543431182
Old World vulture and Kite,SE28 0LD,51.499947926049700,0.091160293038679
Recurvebill and Recurvebill,SE28 0LL,51.501887470825900,0.093842690130047
Old World warbler and Jay,SE28 0NE,51.502056901543900,0.087870740866259
tree snake and diamondback terrapin,SE28 0NZ,51.497246000000000,0.096972000000000
chameleon and Moluccan boobook,SE28 8AD,51.503111362895500,0.118826918379429
boa constrictor and hawksbill,SE28 8AX,51.501438173367400,0.115867540092732
worm lizard and blindworm,SE28 8DS,51.507222801468000,0.114247749196375
bearded dragon and Polecat,SE28 8EP,51.501314546984900,0.111251007978791
Mouse and diamondback terrapin,SE28 8FT,51.510215420063700,0.116850689395478
amethystine python and Marsh harrier,SE28 8GB,51.500963000000000,0.113338000000000
krait and carpet snake,SE28 8GF,51.507073170467700,0.108073093486269
Nukupuʻu and Dolphin,SE28 8HT,51.507308761344000,0.124915626314029
Black cockatoo and loggerhead,SE28 8HZ,51.506600017952200,0.119551000000000
B and habu,SE28 8PS,51.511946372400500,0.123574933582521
dugite and Guillemot,SE28 8QR,51.510144959244300,0.131662524881082
Thrasher and Armadillo,SE28 8RX,51.512522000713700,0.126051801886523
agama and Stint,SE28 8UP,51.498496145574700,0.104449907644588
caiman and moloch,SE28 9EG,51.498489000000000,0.104477000000000
thorny devil and diamondback turtle,SE9 2EW,51.446888937333700,0.078589014711327
Hawaiian honeycreeper and sand viper,SE9 2HB,51.440849255350900,0.077883073492941
Vulture and Tattler,SE9 2HF,51.438892679521400,0.077664766385871
Dolphin and Solitaire,SE9 2HW,51.439060979006600,0.076794670719188
Zebra and lizard,SE9 2JQ,51.447105840043900,0.087636802435570
Moluccan boobook and Grosbeak,SE9 2LH,51.447454000000000,0.083241781744764
Viscacha and galliwasp,SE9 2NH,51.454214609189600,0.085874021874824
