name,id,postcode,lat,lon
Kākāriki and Old World vulture,389434,SE18 1RD,51.487355147783100,0.089806192366867
Black jay and Vole,1028924,IG11 9JZ,51.543041000000000,0.094751000000000
copperhead and Hawk,1354505,DA14 5JL,51.418113000000000,0.129204000000000
tree snake and Booted eagles,1436329,CM14 4PN,51.612404019640000,0.281729787581628
worm lizard and Komodo dragon,1354215,DA14 6JU,51.419587007935700,0.116745062675072
Rat and giant tortoise,462264,RM11 1QT,51.565210000000000,0.219412000000000
Crow and Magpie,281720,SS17 7NN,51.529255349682400,0.452793123716155
Asiatic leopard and glass snake,460862,RM13 9YB,51.506710387079800,0.180051380085026
Dolphin and diamond snake,461950,RM11 3YB,51.562040904426400,0.220946040753215
galliwasp and deaf adder,2602818,DA9 9XS,51.444755000000000,0.279995000000000
gopher snake and diamondback,389684,SE18 2NW,51.480143616627600,0.094805248000339
blue tongue and Parakeet,1355627,DA12 1PQ,51.431987393293600,0.391251062071166
Solitaire and Shearwater,1354710,DA14 4JR,51.432864289736100,0.108944000000000
wall lizard and turtle,1356130,DA11 9AW,51.448349792084900,0.319020413264966
leathery turtle and Parrotlet,2630858,RM8 2GU,51.555186000000000,0.123610000000000
jew lizard and Buzzard,2640248,DA1 9QA,51.444701000000000,0.209648000000000
sidewinder and Greenbul,1355353,DA12 4QP,51.416011655274600,0.387900124798818
loggerhead and Mouse,453776,RM9 9GR,51.553491726062800,0.141954332906966
Maya and agama,457892,RM19 1RU,51.479110448677800,0.251925720048515
Boto and Tahr,455129,RM7 7AS,51.577567062602300,0.166842911689650
Chipmunk and Guillemot,458583,RM17 6WD,51.475985342469400,0.335802587636004
agamid and massasauga,1349143,DA9 9JZ,51.445600573396500,0.265545857479268
cycling lizard and crocodile,1349983,DA8 1EU,51.479377362230100,0.158368808782702
garter snake and Mockingbird,455014,RM7 9LX,51.575246781284400,0.162951290816604
chameleon and New World blackbird,1357167,DA1 5HT,51.447856307793300,0.224189000000000
Puffleg and Schneider python,382600,SE28 8NP,51.507172020224700,0.127993141412146
anole and dugite,1352462,DA2 6HU,51.434142898463100,0.243598425696900
racer and Quetzal,1028127,IG2 7BQ,51.571543885217700,0.094935296400020
Moluccan boobook and blue racer,457827,RM19 1NB,51.479992919044600,0.240130485402933
deaf adder and tuatara,1356096,DA11 8SU,51.423014740116000,0.346636030983141
pit viper and python,1353532,DA15 8TH,51.449369179527100,0.087797619705546
Condor and sand lizard,456782,RM3 9JU,51.604120333345300,0.235336000000000
Stilt and Myna,2591691,DA1 1AL,51.433671000000000,0.227906000000000
Hawaiian honeycreeper and chuckwalla,461029,RM13 7EH,51.535819845393900,0.197909630186721
Kākāriki and Logrunners,459879,RM15 5PZ,51.503107055292000,0.285227883581302
copperhead and boa,1031171,IG1 1SA,51.558130375602700,0.087163155999816
Booted eagles and Coati,455367,RM7 0SS,51.555060929398000,0.181728035050049
massasauga and Gull,462833,RM10 7QA,51.556563357301700,0.152485598097031
asp and rat snake,1247747,E16 2BF,51.507576646570200,0.075816367914862
Stilt and Macaw,1436377,CM14 4SX,51.619884524435300,0.296566233860676
indigo snake and sand viper,460517,RM14 2XU,51.543973000000000,0.233364000000000
Parakeet and Guillemot,1356230,DA11 7LQ,51.428467371933700,0.365732788635309
Rat and constrictor,1357302,DA1 4JY,51.453300257459800,0.183004038341432
Crow and rattlesnake,1026462,IG7 5HA,51.613355549824300,0.082545898057209
Eagle and Booted eagles,282960,SS15 5AL,51.570669796829000,0.446738640577279
alligator and Badger,1350792,DA7 4EU,51.460563995511700,0.129365643179966
habu and anaconda,1354168,DA14 6DG,51.423016330688200,0.098074753538288
lizard and Vulture,1350120,DA8 1NE,51.476008348818800,0.145940214741377
Tahr and puff adder,457890,RM19 1RR,51.483616245300400,0.243510000000000
Recurvebill and habu,1355894,DA12 1AN,51.441601703598000,0.369088246731582
Stilt and Jackal,1353011,DA17 5RP,51.490888952564200,0.134754423313058
Jackal and coral snake,382555,SE28 8HF,51.506321991443400,0.122794619551864
Francolin and crocodile,1354120,DA15 8AA,51.438046233376400,0.082288312084058
gavial and rock python,1356997,DA10 0DJ,51.444568769679900,0.300508684702469
Night heron and rat snake,1352624,DA2 6RN,51.446456594029300,0.237840898774307
mountain devil and tree snake,283098,SS15 5HB,51.573735558846400,0.439441748640486
Skunk and Elephant,1353134,DA16 2BH,51.457383733957300,0.108791213572776
frill-necked lizard and Logrunners,457158,RM3 7RD,51.608297537857900,0.210609034094241
Old World warbler and Grouse,460550,RM14 1JD,51.565270041985800,0.274419626662332
gavial and snapping turtle,1355173,DA12 5NJ,51.419687000000000,0.377031000000000
kabaragoya and Schneider python,463263,RM1 3QY,51.579614152286500,0.189036000000000
Asiatic leopard and Grosbeak,2651335,DA1 5XB,51.454594000000000,0.235633000000000
fer-de-lance and Flameback,1436680,CM14 4JN,51.614361548888700,0.307178902837905
snapping turtle and Fox,454580,RM8 2QP,51.557609439603900,0.119728871640349
Perching duck and Egret,281270,SS17 9DB,51.527249302906500,0.469957744366576
Towhee and diamond python,2591877,DA12 9LZ,51.441222000000000,0.373329000000000
python and Booted eagles,453748,RM9 6YG,51.532939435542300,0.142157245905114
milk snake and Peafowl,1806560,RM16 6DN,51.490461331000000,0.306924201000000
Viscacha and Ibex,1028323,IG3 8AP,51.562401410584500,0.094760319373283
anole and Triller,1761116,CM14 4RD,51.618272035340500,0.307290544651099
krait and Jackal,389549,SE18 2AW,51.478151147921200,0.103124381886389
Kangaroo and moloch,454335,RM8 3LD,51.554096341786900,0.136414492994404
monitor and garter snake,1765347,DA1 4FR,51.451106297997800,0.190268580758355
bicycle lizard and gaboon viper,461951,RM11 3YD,51.562227145623400,0.220608838328298
tuatara and Diving bird,1438093,CM11 2YT,51.623786742595000,0.429267102733310
Pheasant and Eagle,1353050,DA16 3LT,51.469223778072800,0.098466195441262
Jay and Black jay,460477,RM14 2TG,51.524906429259900,0.253146854469002
leathery turtle and mamba,462765,RM10 9DX,51.530475331833900,0.158348383657536
dugite and racer,1028743,IG11 8QF,51.543129832394300,0.078083075416860
Flameback and terrapin,283702,SS14 2HH,51.575870278692800,0.470226485983921
Magpie and Scimitar babbler,463164,RM10 7ED,51.553704242148600,0.159303659094834
Macaw and Solitaire,1027309,IG6 1EW,51.583329846453300,0.082500626411692
Gull and Mockingbird,1782775,IG11 8FW,51.537584000000000,0.076542091958683
gecko and Crow,454706,RM8 3EL,51.556319000000000,0.143309485788389
boa constrictor and Thicketbird,455158,RM7 7EB,51.581392662686900,0.172481050994203
rock snake and leathery turtle,281746,SS17 0DN,51.513549559073800,0.423987217907488
iguana and Chickadee,463086,RM1 4XP,51.596324686219300,0.188239041497231
goanna and Armadillo,2651390,DA17 9BY,51.444701000000000,0.209648000000000
Fulmarine petrel and wall lizard,458078,RM18 8NA,51.468158470597500,0.365985868097686
Grackle and water snake,389685,SE18 2NX,51.478879660060100,0.097094797894291
Moluccan boobook and Kestrel,389756,SE18 1AY,51.485805290789100,0.091492590356521
Diving bird and Booted eagles,1350205,DA7 6SR,51.468065341088900,0.174853770163835
Marmoset and sand lizard,281328,SS17 7SX,51.526721721530900,0.441901431092683
cerastes and blue tongue,1356943,DA1 4TE,51.455212774948400,0.180749008365000
Ground sloth and slowworm,1029223,IG11 7HS,51.531716391781300,0.082739392776042
Fox and hoop snake,1350058,DA7 6HS,51.463555678104300,0.154138046378950
Perching duck and anole,1356167,DA11 9EJ,51.446658913841400,0.326289035287182
Kangaroo and puff adder,455029,RM7 1SB,51.581394261837100,0.183537757686510
Warbler and loggerhead,281730,SS17 0BQ,51.517678892388300,0.440394163962655
Hawaiian honeycreeper and Fish eagle,457179,RM3 7TJ,51.608276906151100,0.214088759034129
Hawaiian honeycreeper and Pratincole,459078,RM16 6BN,51.483570625240800,0.291395042442574
cayman and anole,1349863,DA7 9SJ,51.455154768421400,0.150791654778595
Magpie and agamid,1765396,DA1 5TW,51.448478000000000,0.223360000000000
Scimitar babbler and hoop snake,1356254,DA11 7PB,51.417033756590700,0.364106722704589
wall lizard and lizard,282285,SS16 5QE,51.565892434185700,0.450710066398895
goanna and indigo snake,281571,SS17 8NA,51.524009528174200,0.401216734895870
diamondback turtle and Wader,1356769,DA11 0DW,51.442236500229700,0.366156620021181
sidewinder and Prion,1353730,DA15 8AW,51.436559194547600,0.090551510648727
mountain devil and tree snake,1354433,DA13 9JX,51.407388162989500,0.349143081101977
Dorcopsis and gaboon viper,1028923,IG11 9JY,51.544144437970800,0.093344774593300
rock python and gavial,463372,RM1 4HT,51.592009869224100,0.183801419446977
White ibis and Boto,454788,RM8 1TU,51.562561133007800,0.131328553188769
diamond snake and soft-shelled turtle,1355947,DA12 1EE,51.440720327511300,0.373978477938313
thorny devil and galliwasp,1351932,DA2 7RJ,51.419406293134300,0.232606962366576
Mamo and terrapin,1351361,DA5 1RJ,51.446102258689700,0.143242451968598
Crow and adder,460894,RM14 1BA,51.560361460900100,0.251494219654184
Rabbit and Old World quail,1356727,DA1 5NU,51.456431970944000,0.233518000000000
racer and hoop snake,461184,RM13 7TT,51.534174473681100,0.184896233410890
blindworm and horned viper,387170,SE2 0XT,51.479693000000000,0.105500000000000
Civet and constrictor,1349726,DA8 1RX,51.481672893790800,0.181564713175982
Marsh harrier and bushmaster,378153,SE9 2HG,51.438814994934900,0.078495802859286
Mole and alligator,1349730,DA8 1SB,51.481277099625300,0.180119966669269
boa constrictor and Cloud rat,461159,RM13 7RA,51.528008000000000,0.189618000000000
bull snake and Greenbul,461451,RM12 5HJ,51.546207601065700,0.198338146615585
Hawaiian honeycreeper and diamond python,462025,RM11 2NB,51.583508715230700,0.224648890976043
terrapin and Chicken,387515,SE2 0PB,51.477038209845500,0.109510472292439
Parrotbill and Scimitar babbler,1355252,DA12 4JP,51.428852863566400,0.393691332151071
Logrunners and puff adder,456980,RM3 8NS,51.601903702581200,0.224407146053259
flying dragon and Hawk,462614,RM11 1HS,51.568523256801700,0.218650118202772
Egret and agamid,1806629,RM3 0HY,51.591717000000000,0.226754000000000
diamondback and monitor,1029174,IG11 7BU,51.533181580104700,0.075164330552931
hawksbill and cobra,382875,SE28 8AU,51.501332532647700,0.115243069173270
Linsang and Ibex,1027956,IG3 8EE,51.563339807224400,0.093072048697826
Tree warbler and Piping shrike,1765336,DA1 4FA,51.452058615427600,0.188874825881287
horned toad and Shearwater,462954,RM10 8DY,51.541734294554800,0.159818543280184
rock snake and giant tortoise,1436554,CM14 4AG,51.620203101227000,0.304629212618847
flying dragon and B,456307,RM5 3YB,51.604541313163700,0.177268587372463
Recurvebill and Peafowl,283323,SS15 4EE,51.584903198746600,0.438235521685103
galliwasp and soft-shelled turtle,461900,RM12 5AD,51.548437585151000,0.199311085955762
Cuscus and Viscacha,1534240,BR5 2QN,51.408604810000000,0.107365588000000
cobra de capello and slowworm,388543,SE18 6WN,51.490736000000000,0.084847000000000
amethystine python and soft-shelled turtle,2445904,SS15 5FH,51.571103000000000,0.460039000000000
bearded dragon and tree snake,1350110,DA8 1LR,51.476005128696800,0.151513195214746
smooth snake and box turtle,1356865,DA1 9DL,51.444700000000000,0.209620000000000
bearded lizard and racer,1350515,DA7 6DE,51.460609732354300,0.159311445568115
Mink and bearded lizard,462867,RM10 7TR,51.547267927208800,0.165994218817120
water snake and Puffleg,388604,SE18 7DY,51.490186115621800,0.083842257981405
Elephant and sand viper,455449,RM6 6JH,51.570615000071100,0.135486122044974
Herring gull and boa,283880,SS14 1NW,51.569864177225800,0.470160563659999
Fox and Myna,1027759,IG3 9AL,51.550789025369000,0.092899747324255
Parrotbill and Komodo dragon,463296,RM1 4BH,51.585216971571500,0.182046536302281
Piping shrike and Boto,388607,SE18 7EB,51.489179116999000,0.082169000000000
massasauga and mamba,2657611,RM7 1TQ,51.570143000000000,0.170731000000000
lizard and leathery turtle,1531918,BR8 7YB,51.403680130000000,0.174601167000000
crocodile and Old World quail,462523,RM11 2LZ,51.583603673122500,0.221535560350738
python and black snake,1437243,CM12 9PL,51.615005122995000,0.404587448908979
krait and garter snake,456432,RM3 9TJ,51.605019795851700,0.237412721065175
monitor and Mink,1357310,DA1 4LP,51.457176162684700,0.194086005048437
water snake and thorny devil,382917,SE28 8EA,51.506813399112600,0.112513945696108
boa constrictor and agama,1761121,CM14 4SJ,51.618606996412100,0.307177520473174
Dorcopsis and bull snake,2634589,DA10 1AX,51.433993000000000,0.315171000000000
Grouse and Chickadee,454387,RM8 3SH,51.552080860241900,0.128992000000000
Bronzewing pigeon and Boto,1356758,DA11 0DG,51.443220399698000,0.365644000000000
Fox and Capuchin,387483,SE2 0JX,51.485965874265000,0.114128468755317
thorny devil and Solitaire,1356175,DA11 9EU,51.442902742708000,0.336085350169705
Old World warbler and monitor,1357991,DA1 1XY,51.444986259474400,0.234775618766159
Chipmunk and Tree warbler,2662327,CM14 9RW,51.620399000000000,0.303583000000000
Greenbul and Flameback,1349889,DA8 1AP,51.486821683354000,0.172101975789639
tortoise and horned viper,1357686,DA1 2NT,51.443402471787200,0.203509000000000
cobra de capello and Rat,463428,RM1 1RB,51.576941014206100,0.181217088174069
Black jay and Meadowlark,1026225,IG7 6EJ,51.620363186123700,0.115602394349902
mud turtle and cobra,457805,RM2 6NS,51.591108414605400,0.212243109527279
Old World warbler and Kangaroo,458160,RM18 8SN,51.484678000000000,0.418523000000000
Ibex and cobra de capello,456238,RM5 2AA,51.597075835780900,0.162270128473107
carpet snake and loggerhead,1357494,DA1 3HR,51.442827679500100,0.194333515665836
bushmaster and Siskin,1031187,IG1 1SW,51.557534261380200,0.087308980339628
constrictor and mountain devil,1353478,DA16 1RH,51.470380330762600,0.116172440150433
Dorcopsis and coral snake,1029063,IG11 8DH,51.538475000000000,0.081534000000000
Night heron and Bunting,1355279,DA12 4NF,51.420279858123500,0.394997000000000
alligator and Capuchin,1357192,DA1 5JZ,51.455203020185800,0.234742047701307
constrictor and Polecat,459540,RM15 6DB,51.516808018980700,0.295469000000000
loggerhead and Armadillo,1806780,RM7 9BJ,51.575627500800000,0.167226869300000
White ibis and smooth snake,1350873,DA6 7BN,51.457188024211100,0.141904810442382
thorny devil and Petrel,459340,RM16 2ED,51.500294704864200,0.325806620100558
diamondback and harlequin snake,389679,SE18 2NN,51.480161618196300,0.093293857332155
Rabbit and Tahr,1350097,DA7 6LX,51.462185019213600,0.163618390185258
Petrel and Jay,458236,RM17 9SY,51.475673777177400,0.324784188016642
Old World quail and Parakeet,461085,RM13 9HP,51.511576000000000,0.200302000000000
Jay and copperhead,389786,SE18 1EF,51.489773101022800,0.097925995274487
puff adder and Duck,459608,RM16 3AB,51.491720500581400,0.365549141256422
Prion and Armadillo,1357066,DA1 5BW,51.454618772510600,0.208751000000000
rattlesnake and Stilt,1350868,DA6 7AY,51.458135865104100,0.138753451651801
chameleon and Wader,458658,RM17 5UP,51.482694301297600,0.335799776024362
Pitohui and frilled lizard,1027969,IG3 8FG,51.575454654330900,0.112549230502866
milk snake and Myna,1355796,DA12 2NU,51.434643840148700,0.397245883962248
Coati and Buzzard,1351303,DA5 1PJ,51.450697306598200,0.165766653371710
blue tongue and Gull,282568,SS15 6JU,51.574243773523700,0.413129567701049
Shearwater and iguana,1028150,IG2 7EB,51.571645872541300,0.084665139002572
hoop snake and horned viper,1354480,DA14 5EW,51.425372015420900,0.136921072019288
soft-shelled turtle and lizard,1028912,IG11 9JF,51.540940124447400,0.102557109069731
chameleon and terrapin,455910,RM6 6BT,51.574690237727600,0.144278638932193
cobra and Petrel,461232,RM12 6JU,51.559173448855100,0.220878453651315
Old World warbler and slowworm,457757,RM2 6GE,51.584035647628900,0.213905993956462
Tit-tyrant and gecko,1028139,IG2 7DN,51.571577920275600,0.088486228029113
python and deaf adder,1356778,DA11 0EN,51.442083134273000,0.357255273838276
Condor and Bunting,1437381,CM12 9UP,51.593644233111300,0.428712120906176
Logrunners and Triller,460424,RM14 2PF,51.553876313223700,0.234627678783312
taipan and Tit-tyrant,1349388,DA9 9AB,51.449068549927200,0.276857452848756
harlequin snake and Parakeet,458081,RM18 8NG,51.469216325243700,0.362584799487916
Tattler and Pheasant,1353879,DA15 8QG,51.446917222787100,0.095183776493169
Stint and racer,1028138,IG2 7DL,51.573282061337400,0.089242625452113
Siskin and carpet snake,458221,RM19 1GP,51.487339976488900,0.236846256898684
bushmaster and tuatara,1351576,DA4 9LG,51.401278959794600,0.254066667338455
Mockingbird and leathery turtle,1353262,DA16 2PG,51.457199014704600,0.093005962753091
Vole and Philippine hawk-owl,1354336,DA14 4PX,51.430636245597300,0.129326052375046
habu and Thicketbird,1438297,CM11 2HZ,51.624177276260600,0.430819499847804
Linsang and soft-shelled turtle,283001,SS15 6BZ,51.579468904031800,0.421417391828015
gaboon viper and fer-de-lance,460219,RM14 3NU,51.560442000000000,0.283701000000000
Hawaiian honeycreeper and bandy-bandy,456808,RM3 9NT,51.603748585455900,0.236166018730927
Peafowl and coral snake,457175,RM3 7TA,51.609932206664000,0.217390187509547
cycling lizard and Mockingbird,281443,SS17 8BA,51.524938416793700,0.427735051082412
Schneider python and perentie,1027944,IG3 8DG,51.561680778826900,0.098853556486457
flying lizard and Flameback,456317,RM6 4AD,51.570442860893400,0.129619200800361
Duck and milk snake,1353179,DA16 2HH,51.459626314364500,0.096571956219886
Shearwater and Recurvebill,1026464,IG7 5HD,51.614148606641400,0.083463312559730
perentie and Snipe,1350244,DA7 5HR,51.473021412281000,0.138628872959218
bandy-bandy and grass snake,1027091,IG6 2EN,51.591765879984400,0.079407067043980
Fish eagle and Darwin's finches,1029203,IG11 7FF,51.535297000000000,0.080206000000000
Goose and Polecat,1354283,DA14 6PE,51.428492743461900,0.092053426048014
bull snake and crocodile,460995,RM13 9AH,51.517470423622200,0.200514225680865
glass snake and rattlesnake,2661321,IG11 1JE,51.534526000000000,0.088230000000000
Recurvebill and habu,1353714,DA16 1AZ,51.476056416380800,0.118076849485024
tree snake and Night heron,1355406,DA12 4TY,51.431716789219900,0.394176000000000
hoop snake and Jay,1806634,RM3 0JY,51.591691000000000,0.227604000000000
Black jay and Night heron,455048,RM7 9QD,51.574346729461400,0.173212996107245
Perching duck and gopher snake,283128,SS14 3HY,51.589832695648300,0.484050091258061
Cuscus and Linsang,1355478,DA12 3BH,51.400914000000000,0.401520000000000
gaboon viper and tree snake,382777,SE28 0HZ,51.499825864549700,0.085895695727579
Chicken and brown snake,459088,RM16 6DA,51.481021583729700,0.292059400881882
bearded dragon and White ibis,456640,RM3 8XS,51.601871000000000,0.212911000000000
rat snake and Parrotlet,460180,RM14 3ET,51.552610986222700,0.257501839660420
rock python and Schneider python,1027290,IG6 1DU,51.582084804259400,0.079686755348143
Chipmunk and Mockingbird,281995,SS17 0RG,51.484581462829000,0.410941389359604
Wader and swift,2651399,DA7 9LY,51.463202000000000,0.134756000000000
blindworm and Solitaire,461534,RM12 5LT,51.543788782354600,0.204552974728106
Tree warbler and boa,1027203,IG6 2JP,51.594014567999200,0.084952916741970
Kite and Eagle,455319,RM7 8NJ,51.594085644757200,0.160077870437987
leathery turtle and Grosbeak,1356334,DA11 8DB,51.434608349733100,0.344323812441658
king snake and White ibis,462458,RM10 9TX,51.536827000000000,0.163148000000000
Boto and fer-de-lance,282004,SS17 0RW,51.488349078882700,0.405277214450143
blind snake and pit viper,462695,RM10 8UR,51.541424000000000,0.171355000000000
mamba and Thicketbird,461903,RM12 5AH,51.538373685885300,0.201753214297331
Fulmarine petrel and Egret,1350019,DA8 1JR,51.471623402207800,0.159457126249024
puff adder and Tahr,281243,SS17 9AQ,51.527472230183300,0.458604000000000
Perching duck and coral snake,458218,RM19 1GH,51.486536791717100,0.235107227487108
Bunting and Parrotbill,388610,SE18 7EG,51.489212457941300,0.076883516245969
sidewinder and Tit-tyrant,458365,RM18 7QA,51.461723995327800,0.357491000000000
Thicketbird and Jackal,459571,RM15 6HR,51.514126000000000,0.292121985918037
Minke whale and ringhals,1026935,IG6 1NB,51.585747000000000,0.091226632012903
Lemming and Cloud rat,281846,SS17 0GG,51.516822393841000,0.425761014592437
anaconda and diamondback turtle,281464,SS17 8DD,51.530847793982500,0.437666855698130
diamondback turtle and Kākāriki,1026698,IG7 4EJ,51.609646917149900,0.097396893612521
terrapin and B,458830,RM16 6YB,51.486221885692400,0.289641005020206
carpet snake and gaboon viper,386950,SE2 9QQ,51.492138399073200,0.116315000000000
Treepie and glass snake,388680,SE18 7LY,51.486230404844700,0.080233751777459
Puffleg and tuatara,461860,RM11 3SD,51.563510454877100,0.223124243011863
Minke whale and tiger snake,387056,SE2 9TG,51.495570220837400,0.124081472526847
thorn lizard and diamond python,459049,RM16 5UG,51.498191228543700,0.305268654879678
Kākāriki and mamba,461977,RM12 4BA,51.550251404105800,0.190325620944623
Treepie and Guillemot,2634602,DA12 9NZ,51.441222000000000,0.373329000000000
taipan and B,463344,RM1 4EE,51.588325936795400,0.188460944525058
Marmoset and Ibex,1355916,DA12 2QT,51.438758221761200,0.390424806645396
python and Marsh harrier,1026548,IG6 3SW,51.606876704927900,0.111465862820188
Meadowlark and Egret,1349126,DA9 9JB,51.444465919965200,0.283234033689297
Parakeet and Fox,283334,SS14 2LG,51.573570380602800,0.462842245837562
puff adder and rock python,1349715,DA8 3LE,51.474064401666500,0.173843096256838
racer and boa,1028730,IG11 8PG,51.541931903876500,0.077682379931692
terrapin and Minke whale,463126,RM1 3ER,51.579490694072200,0.182898021105048
thorn lizard and Marsh harrier,1355418,DA12 4UW,51.431398039839100,0.406859351061275
Black cockatoo and B,454614,RM8 2TE,51.556754070180600,0.126743566075429
chameleon and Jay,387605,SE2 0QU,51.484362615970700,0.111274448471583
Viscacha and thorny devil,804854,ME3 7BQ,51.418608787081000,0.458010769766020
B and agama,1350407,DA7 6AT,51.454771437669700,0.160388948345016
galliwasp and whip snake,454260,RM9 5ED,51.546292517266400,0.145178663559506
snake and king cobra,458792,RM17 6ED,51.476058494932600,0.332580438298248
smooth snake and Dolphin,1352386,DA2 7NJ,51.423627715567000,0.171635515366054
anole and Warbler,1352239,DA2 7DE,51.427244133260400,0.197140006091960
Chipmunk and mountain devil,1028159,IG2 7ER,51.572833788945400,0.091689828771572
puff adder and Tit-tyrant,1355628,DA12 1PW,51.432384943047700,0.390279077104671
Snipe and smooth snake,1351179,DA5 3JT,51.440790676436000,0.138633659039086
Kākāriki and Bunting,1028041,IG3 8NS,51.570730503731900,0.099688887610816
Treepie and New World blackbird,456209,RM5 3SP,51.600588645812200,0.176559641374171
ringhals and sidewinder,1354130,DA14 6AE,51.425540846241900,0.101225600558793
fer-de-lance and lizard,2581495,SS14 0PR,51.570844000000000,0.459708000000000
box turtle and Nukupuʻu,1437328,CM12 9QU,51.616477127802900,0.424831788725155
Dorcopsis and Scimitar babbler,458819,RM17 6HH,51.478464000000000,0.351800000000000
Dolphin and Marmoset,1350361,DA7 5RQ,51.478824395532900,0.131080211505281
diamond snake and Masked owl,1027797,IG3 9DS,51.551447284287400,0.097834318673020
Pheasant and Night heron,1350413,DA7 6BA,51.453806604089600,0.163941864307554
Condor and terrapin,1761134,CM14 5FZ,51.606188522225400,0.292914159045721
rat snake and Rabbit,454253,RM9 5DR,51.547532000000000,0.139900000000000
rat snake and Badger,458112,RM18 8RG,51.486094000000000,0.420923454653278
boa and Eagle,462483,RM10 9YN,51.534169248454700,0.166756527806020
Kestrel and sand viper,387434,SE2 0AT,51.482733228191100,0.120834731726484
Marmoset and Bronzewing pigeon,454691,RM8 3DG,51.561199369521900,0.133025059118546
anole and Skunk,454479,RM9 4HB,51.539319241073300,0.126622781331927
Grosbeak and milk snake,460396,RM14 2LD,51.552309628741100,0.242268347352282
iguana and sidewinder,281832,SS17 0EG,51.505838891848800,0.436302706019180
Wader and flying dragon,1436717,CM14 4NR,51.612688902148800,0.278638529174698
Dorcopsis and Skunk,456680,RM3 9BB,51.611081636665700,0.226502449714239
tortoise and Black jay,283782,SS14 1DE,51.569447000000000,0.457114819421165
swift and Myna,1350427,DA7 4JY,51.462704335107500,0.141212937918500
cycling lizard and boa,1357396,DA1 4QP,51.459052000000000,0.193399000000000
Magpie and loggerhead,1533926,BR5 3BU,51.405444430000000,0.109578366000000
rock python and Asiatic leopard,283246,SS14 3SD,51.585214160566000,0.456095166225763
hognose snake and American sparrow,1352974,DA16 3EN,51.470291310879800,0.110135147226901
thorny devil and mamba,281306,SS17 9HH,51.548432287067500,0.469778126763266
Ibex and agama,456832,RM3 8AW,51.605840257300600,0.221205682991617
crocodile and Chicken,459249,RM16 3NH,51.503025018739300,0.339548503419657
Myna and Lemming,456693,RM3 9DD,51.609259425270800,0.226326616741251
monitor and skink,1357532,DA1 2BP,51.447012000000000,0.213363856866365
tokay and turtle,1437256,CM12 9QG,51.620736817785000,0.418442058527779
smooth snake and Viscacha,1357671,DA1 2LY,51.440947583751600,0.210633518290894
Badger and copperhead,2593960,RM3 0LN,51.592575000000000,0.229492000000000
Coati and racer,1028410,IG2 6QN,51.576627000000000,0.076147000000000
blue tongue and Gila monster,1761155,CM14 9LJ,51.620305111665700,0.303594158951214
Vulture and snake,387622,SE2 0SA,51.479351200868500,0.130298265470550
tortoise and Jay,461586,RM12 5SB,51.544978877068100,0.204870115152517
tokay and anaconda,455137,RM7 7BD,51.579906596363200,0.164818015538086
ringhals and crocodile,389693,SE18 2PN,51.476946389896300,0.084477217864151
garter snake and Black jay,459656,RM15 6RF,51.509823000000000,0.295998000000000
coral snake and Parrotlet,382541,SE28 8GB,51.500963000000000,0.113338000000000
brown snake and Myna,459205,RM16 6NQ,51.490284537222100,0.294814540426979
Solitaire and Thicketbird,1806802,RM8 1EL,51.564846000000000,0.137308000000000
caiman and Chipmunk,2634591,DA10 1BU,51.438515000000000,0.303385000000000
Darwin's finches and garter snake,1029283,IG11 7JU,51.532357108358000,0.086661638600631
bearded dragon and Booted eagles,1353528,DA15 8TB,51.455072666286100,0.087179823373029
Solitaire and Linsang,282832,SS15 5ST,51.578381629286300,0.432242715297916
krait and rat snake,382765,SE28 0HJ,51.499168821599300,0.084410482704620
Recurvebill and Prion,462072,RM11 2RE,51.578070601366100,0.219764626904780
whip snake and leguaan,455376,RM7 0TS,51.561387296223500,0.174225362623146
Fulmarine petrel and tortoise,1356537,DA11 7BB,51.417906382335500,0.371734000000000
pit viper and bearded lizard,387171,SE2 0XU,51.480845694446000,0.103810042229735
lizard and horned viper,1353083,DA16 3PU,51.462956906380500,0.105924071025939
Pratincole and Piping shrike,456092,RM6 4UE,51.576249834475800,0.118820936775475
Moluccan boobook and Parakeet,456658,RM3 8YW,51.605371057718300,0.222713626551565
Pitohui and galliwasp,462491,RM10 9YX,51.539229839808000,0.162846000000000
gavial and caiman,461016,RM13 9DG,51.515722640005100,0.199723715916878
flying dragon and Kite,459952,RM15 4BN,51.509716565143400,0.281091014992447
Black cockatoo and Gull,456436,RM3 9TS,51.606861786634600,0.237965453589768
saltwater crocodile and White ibis,457339,RM3 0SH,51.598405296393700,0.242372513330580
Ground sloth and krait,456158,RM5 3LJ,51.595407087750600,0.165959352856785
amethystine python and Scimitar babbler,456261,RM5 2DH,51.598489792247200,0.150901117151719
soft-shelled turtle and mud turtle,1436753,CM13 3DJ,51.605539413050700,0.296636461411269
American sparrow and diamond python,457517,RM20 3WE,51.483859413788400,0.277034700238529
Snipe and blindworm,455607,RM6 6UT,51.574383242965500,0.138433684990484
indigo snake and boa,457453,RM20 2ZS,51.487574981809100,0.280662586577733
frill-necked lizard and Kestrel,462962,RM10 8ER,51.546264818291800,0.163335995209235
thorny devil and Wallaby,1355703,DA12 4DS,51.430653824134600,0.395339292776962
krait and deaf adder,1355339,DA12 4PU,51.415167714967200,0.399275644578374
Triller and hognose snake,281828,SS17 0EB,51.511292254597500,0.428767654601041
iguana and loggerhead,454893,RM8 2EH,51.554658460052100,0.116317039824217
mamba and Old World warbler,462343,RM11 2AH,51.571974402977600,0.211140707776357
wall lizard and goanna,456212,RM5 3SS,51.601177962861600,0.175331499585611
Lemming and tree snake,1357508,DA1 3JS,51.440904555314600,0.190413612044573
Songlark and Philippine hawk-owl,460961,RM13 8ST,51.526302883182900,0.192275586093252
Mamo and Komodo dragon,1349216,DA9 9QW,51.450731128563700,0.283388326777108
Elephant and hawksbill,1752003,SS14 1FL,51.572333847069700,0.463078420085255
king cobra and goanna,1349586,DA8 3DF,51.478243649027200,0.177368601659652
massasauga and Polecat,462925,RM1 4QR,51.588465623124600,0.169801277949093
Fox and Chickadee,456840,RM3 8BG,51.604394537555300,0.221568363814191
Shearwater and Old World quail,2657606,RM7 0JG,51.568702000000000,0.160590000000000
cayman and Boto,1352140,DA2 6SG,51.447364742569500,0.236906649698290
harlequin snake and Greenbul,458926,RM16 4QD,51.486682780411200,0.374521763420296
Kangaroo and Skunk,454395,RM8 3UB,51.558423434179200,0.129403858482169
thorn lizard and perentie,387259,SE2 9BA,51.496709595436200,0.116772302106222
Piping shrike and Scimitar babbler,459949,RM15 4BH,51.499043815994500,0.257288440942128
Francolin and Egret,282205,SS17 0AD,51.515775637944000,0.437207797537193
jew lizard and Chipmunk,1438061,CM11 1PJ,51.624155476944200,0.481430000000000
Marmoset and krait,458556,RM17 5RR,51.484248084227800,0.328216337748552
grass snake and Armadillo,458679,RM17 5YG,51.478586972133500,0.316636769294372
Moluccan boobook and Stint,456442,RM3 9UD,51.606375574518300,0.240353405253292
chameleon and Peafowl,1357360,DA1 3AD,51.448273698049500,0.206986356712914
cerastes and Herring gull,460993,RM13 9AE,51.516764308484800,0.192120170707730
Kite and leguaan,1357428,DA1 3AN,51.449774446399500,0.200826692421799
Moluccan boobook and pit viper,1356322,DA11 9LW,51.441211982004400,0.352720617394991
Armadillo and crocodile,455198,RM7 7LH,51.580153457139300,0.169953757184137
flying lizard and Perching duck,1027767,IG3 9AX,51.549109529671900,0.092779390110807
python and Mamo,455348,RM7 0QT,51.566783037722700,0.174223068680766
ringhals and Fish eagle,463036,RM1 4RR,51.589630256200900,0.176353358843086
frill-necked lizard and deaf adder,1356660,DA10 0LF,51.449788534771800,0.309350000000000
Bunting and rat snake,460681,RM14 1UA,51.576315451745000,0.257550675985440
dukite and Grouse,459974,RM15 4EJ,51.501158861819400,0.248776375060996
frill-necked lizard and gopher snake,458992,RM17 5JY,51.480710648881600,0.327920918711576
hoop snake and Vole,1356963,DA10 0AN,51.446525126566900,0.311688803662127
sea snake and king snake,455364,RM7 0SL,51.563469650959100,0.180254843369716
Gull and king cobra,460877,RM13 9YZ,51.520537000000000,0.189548000000000
Boto and bearded dragon,1350426,DA7 4JX,51.461850224637000,0.144153007242027
Magpie and habu,281963,SS17 0PQ,51.517784000000000,0.427216907169793
Herring gull and Grosbeak,389451,SE18 1SF,51.489314749651900,0.093381800505817
monitor and Vulture,1026303,IG7 6PJ,51.621034083797100,0.077408000000000
hognose snake and Jackal,458645,RM17 5TH,51.483359790453200,0.346607682226641
python and thorn lizard,1436636,CM13 3AH,51.603305225906600,0.293158842405423
Wallaby and Moluccan boobook,1809039,SE18 1BG,51.489188447400000,0.086403991400000
diamond snake and Grouse,1806398,RM11 1GF,51.570061113400000,0.195751255300000
Tit-tyrant and jew lizard,1349728,DA8 1RZ,51.477460000000000,0.180917000000000
Tree warbler and Chickadee,1531653,BR8 7LN,51.410073350000000,0.179002883000000
sidewinder and Schneider python,1806554,RM16 3BW,51.511629000000000,0.399918000000000
diamondback turtle and Solitaire,281795,SS17 7RB,51.524722807309800,0.445038263720335
Night heron and Cuscus,1436754,CM13 3DP,51.594906077916100,0.301413408852163
taipan and python,461969,RM12 4AR,51.563675381755900,0.199584651097684
Marsh harrier and Vole,1028604,IG11 9SN,51.534342058353800,0.099398025386101
Schneider python and Recurvebill,283635,SS14 2BH,51.574679814780200,0.456681710386948
coral snake and puff adder,389823,SE18 1JW,51.485070104086000,0.097911761029962
Linsang and grass snake,1352600,DA2 6QF,51.452812623358100,0.245321000000000
grass snake and saltwater crocodile,281779,SS17 7QF,51.525551491856600,0.457452614570274
thorny devil and Schneider python,1349250,DA8 3PT,51.471416503753100,0.178901017388791
Rabbit and pit viper,1356189,DA11 9HJ,51.445374407235000,0.328929361609033
frill-necked lizard and agama,1349295,DA9 9SQ,51.438000000000000,0.270307000000000
bicycle lizard and American sparrow,1437966,CM11 2TN,51.610313679994500,0.427594258775878
gaboon viper and cycling lizard,460534,RM14 1HH,51.568376848841800,0.277446343652793
diamondback terrapin and Cuscus,1027840,IG3 9FZ,51.556038223127600,0.107610044016433
B and Capuchin,1353869,DA15 8PS,51.450911314363000,0.102145675944774
Nukupuʻu and bicycle lizard,283711,SS14 2HZ,51.578936086860900,0.468559639385476
Warbler and habu,1026666,IG7 4BP,51.609198197945200,0.099860387991945
massasauga and Badger,1356360,DA11 8EP,51.425798882329600,0.338276873770923
Logrunners and Badger,1765475,DA12 5BT,51.419843169888900,0.377743555636718
sand lizard and Ibex,1358097,DA1 1BB,51.444300610182700,0.220221580124301
puff adder and Gull,1438180,CM11 2BX,51.624655233952100,0.422927242256366
blind snake and Mouse,463314,RM1 4DG,51.602741509238400,0.186525824296413
monitor and Cloud rat,1028884,IG11 9EQ,51.550085814419100,0.107565686196792
Armadillo and Jay,458588,RM17 6XG,51.475071544168800,0.322046184477730
tortoise and Herring gull,1354294,DA14 6PU,51.426456580098800,0.090248586610024
cerastes and galliwasp,454545,RM8 2LP,51.545685866042300,0.116693885745463
blindworm and Marsh harrier,462728,RM10 8YL,51.542700637531300,0.165935946760199
worm lizard and Warbler,387152,SE2 0UX,51.484805833324200,0.110747000000000
death adder and Cloud rat,1027852,IG3 9HQ,51.558678880653500,0.101773831883917
Greenbul and Cuscus,1352307,DA2 7JZ,51.417947506343700,0.257116058712099
tree snake and Warbler,460048,RM15 4QH,51.507139518488000,0.253912946487668
taipan and sea snake,454754,RM8 1QP,51.562373525045100,0.139659234794985
copperhead and Boto,454756,RM8 1QS,51.562704722463000,0.137770256569133
Kangaroo and terrapin,1027560,IG3 9SL,51.560163158051600,0.111263339144341
Chicken and Nukupuʻu,460818,RM13 9UU,51.513849383439400,0.203222273355314
Badger and Duck,461668,RM12 4PA,51.548139958625200,0.187815433644902
grass snake and Macaw,1027257,IG6 1AP,51.578935779809400,0.079268746986213
amethystine python and Eagle,1353837,DA14 6TS,51.421807588556100,0.099285156459094
Petrel and B,454573,RM8 2PU,51.559116870407700,0.118918920946489
Recurvebill and blindworm,1031069,IG1 1HR,51.556973000000000,0.077473000000000
racer and Rabbit,1355286,DA12 4NQ,51.418242014985600,0.392748466403915
Asiatic leopard and Mockingbird,458694,RM17 6AD,51.481267178469100,0.342870697238122
diamond python and alligator,389562,SE18 2BS,51.477253425914400,0.102535839778031
Snipe and Shearwater,459172,RM16 3HG,51.511480335793600,0.363229125461594
glass snake and ringhals,1352968,DA16 3EE,51.470574669419900,0.108881105341507
Kestrel and Rabbit,1029524,IG11 0XE,51.526997105533000,0.118412000000000
Logrunners and snapping turtle,461542,RM12 5NN,51.543511367246200,0.200169609534324
Snipe and Schneider python,282379,SS16 5TA,51.564348737507200,0.451420660499925
Chipmunk and Cloud rat,1357112,DA1 5GD,51.463823000000000,0.230311000000000
Goose and agama,1031207,IG1 1UD,51.562728605739000,0.089523513215701
Zebra and krait,1357075,DA1 5DJ,51.451399898064100,0.235635795642340
Macaw and hoop snake,459987,RM15 4HT,51.494660525568800,0.247649700850794
Thrasher and Pratincole,1351440,DA4 9AX,51.401861678041400,0.246201937190630
Recurvebill and worm lizard,458483,RM17 6RL,51.477434202024100,0.330331962487622
massasauga and diamondback,1027945,IG3 8DH,51.563276856079600,0.098609634526186
Kite and Old World vulture,1352898,DA17 5PS,51.490753155638500,0.150061119803254
loggerhead and Diving bird,1352909,DA17 5QF,51.491614925469100,0.149655090993520
tuatara and lizard,1355597,DA12 4AL,51.421792566485000,0.385339025292844
Boto and anole,382566,SE28 8JA,51.507151504544100,0.119691661679422
agama and saltwater crocodile,459801,RM15 5JA,51.508286075037400,0.280659269423612
tree snake and Prion,1027586,IG3 9UD,51.564018000000000,0.110542667079859
bearded lizard and Tree warbler,458287,RM18 7EH,51.461979000000000,0.350463000000000
agamid and Jay,1027258,IG6 1AQ,51.579884571802100,0.078503778954864
Snipe and Coati,1350699,DA6 8LY,51.450735610645300,0.137716697559966
Mouse and anaconda,1353058,DA16 3NE,51.473002921826700,0.096335662509792
jew lizard and Bronzewing pigeon,2577897,DA1 5UF,51.450186426400000,0.224781783500000
tokay and python,456048,RM5 3BY,51.607076268066900,0.172956068092362
box turtle and White ibis,461696,RM12 6DJ,51.548376497413700,0.223713000000000
Stilt and anaconda,1355699,DA12 2EJ,51.442989465249700,0.370728695301737
Myna and Fox,455088,RM8 1DR,51.561720241676500,0.149324138156957
Komodo dragon and hawksbill,1350533,DA7 4SW,51.465982919513600,0.129574739256253
Treepie and Gila monster,1357993,DA1 1YA,51.444700000000000,0.209620000000000
Ice seal and snake,282936,SS15 4HT,51.587432328267100,0.447639372114227
indigo snake and cayman,2581143,SS17 0FE,51.511197000000000,0.416469000000000
Ice seal and Mole,388711,SE18 7PT,51.485787948822000,0.081855646258864
Diving bird and Old World vulture,1357730,DA1 1JZ,51.433068000000000,0.222763504610170
Peafowl and Old World warbler,2640291,DA8 1FF,51.482128000000000,0.178488000000000
Argus and habu,1353902,DA15 8RR,51.452903111610300,0.095875264206674
adder and horned toad,458746,RM16 6QT,51.488216749805900,0.318551057469215
Snipe and Petrel,461239,RM12 6LL,51.554947439639900,0.219893565405716
Solitaire and Black cockatoo,389745,SE18 1AH,51.487235927977100,0.086401332502486
caiman and boa,1349860,DA7 9SF,51.455154768421400,0.150791654778595
Partridge and Egret,1354416,DA14 5BW,51.409862000000000,0.142629537852402
Tattler and smooth snake,454327,RM8 3JJ,51.560064808715400,0.132611280135414
Bunting and Tit-tyrant,1351009,DA6 8BQ,51.458855348043500,0.131344654336735
cobra and bearded lizard,1357439,DA1 3BG,51.449612834769700,0.199854611973689
loggerhead and Old World warbler,1355568,DA12 3JN,51.418964849678200,0.435361368297130
Crow and Prion,454584,RM8 2QU,51.555747991354400,0.126682204452213
Mamo and diamondback,1027052,IG6 2BE,51.589415000000000,0.081205000000000
puff adder and saltwater crocodile,2651353,DA10 1BW,51.434306000000000,0.305720000000000
River dolphin and Pitohui,1352138,DA2 6SE,51.447076683681200,0.236921353328090
moloch and Magpie,2664195,RM7 1UD,51.570143000000000,0.170731000000000
Kākāriki and diamond snake,1436926,CM13 2EQ,51.612977816567400,0.319892170757342
Kākāriki and Darwin's finches,388894,SE18 6SR,51.491421183859000,0.075557753690674
kabaragoya and rock python,1436713,CM14 4NL,51.615855314208300,0.285990967438313
Civet and Partridge,462324,RM11 3NZ,51.565363566044000,0.228308176997245
Warbler and black snake,281525,SS17 7AN,51.521244141968400,0.431113635333982
Maya and thorny devil,1031152,IG1 1QP,51.560742427481100,0.083387336681805
glass snake and water snake,281127,SS17 8RG,51.522300713460200,0.425691801667938
thorn lizard and gavial,1353368,DA16 1HF,51.471568617025000,0.120086470529600
mud turtle and Thicketbird,458120,RM18 8RT,51.482800265404500,0.422744795641823
Eagle and mud turtle,1353734,DA15 8BB,51.437642335386100,0.090327584979891
Quetzal and Shearwater,1350707,DA6 8NN,51.456331057581900,0.136135623568394
Boto and sea snake,455769,RM6 5LP,51.584336345971600,0.136562532340353
iguana and coral snake,1806402,RM11 1GS,51.566684214600000,0.192630461000000
Scimitar babbler and puff adder,459449,RM16 2QB,51.495646431456300,0.338406997076474
deaf adder and Bunting,283844,SS14 1JT,51.572118877182000,0.472418759495577
Piping shrike and Cloud rat,382585,SE28 8LT,51.509313562904700,0.118984988304432
Gila monster and jew lizard,456033,RM5 3BD,51.589543250083300,0.168423387868174
Elephant and bandy-bandy,1531877,BR8 7UB,51.405633080000000,0.163348983000000
Viscacha and iguana,283068,SS15 5FQ,51.572646116427200,0.426928540995270
blindworm and Peafowl,1355422,DA12 4XE,51.431883867931300,0.401590278389045
deaf adder and sidewinder,1355613,DA12 4BQ,51.423426383966100,0.387250991851769
python and Triller,1349259,DA8 3QE,51.468290353839200,0.180652663214155
bandy-bandy and Kestrel,1357490,DA1 3HJ,51.447061642258000,0.191543019257198
sidewinder and Condor,1026515,IG7 5NN,51.606080583334500,0.091643499788873
Shearwater and kabaragoya,1027251,IG6 1AF,51.581384000000000,0.076191000000000
Pheasant and blind snake,1349683,DA8 1RU,51.478855970229900,0.179745263858076
Shearwater and Polecat,457372,RM3 0WJ,51.589440665080700,0.221502738085879
agamid and blue racer,1354618,DA14 4DT,51.427285000000000,0.103346000000000
coral snake and Snipe,382740,SE28 0GD,51.497670836257600,0.081158064452679
Armadillo and bearded dragon,461147,RM13 7PR,51.541565481481200,0.192187088977548
Tattler and cycling lizard,458280,RM18 7DP,51.452861000000000,0.349059000000000
python and diamond snake,804908,ME3 7JA,51.437953000000000,0.447351000000000
Warbler and puff adder,460381,RM14 2HW,51.551276524092500,0.244092767650499
Crow and Herring gull,454413,RM9 5RH,51.542861793830800,0.144930764785677
Tree warbler and River dolphin,1806847,RM9 9LF,51.553492752900000,0.141954327800000
krait and Kestrel,281239,SS17 9AJ,51.530035359576500,0.457203899505446
Marmoset and horned toad,388684,SE18 7NE,51.488987782969400,0.081439628857416
moloch and Skunk,1354451,DA13 9NA,51.406706819260700,0.298708231850098
Jackal and Wallaby,282167,SS16 6SR,51.561600878104400,0.407366772356165
Petrel and Kite,1436892,CM13 3QU,51.605942220176700,0.340879276336838
rock snake and B,1355169,DA12 5NE,51.421713310911500,0.379063349892990
Mink and Linsang,1357851,DA1 1RN,51.441189644786600,0.237684120145730
Tattler and Herring gull,1350446,DA7 4LX,51.460906038418200,0.149550473262127
Black jay and Wader,459405,RM16 4NA,51.484922606531400,0.370843664348357
crocodile and racer,2657584,RM17 6FY,51.473484000000000,0.328719000000000
Dorcopsis and diamondback terrapin,1349273,DA9 9RN,51.446667094407800,0.275946417392625
moloch and Parakeet,461252,RM12 6NR,51.542637905987200,0.207410592889326
death adder and skink,1357500,DA1 3HY,51.443485588671200,0.196178287061538
black snake and Stilt,1031205,IG1 1TY,51.561527398701700,0.081720743164966
wall lizard and Komodo dragon,1349753,DA8 1YD,51.472758048042500,0.155464355575033
Darwin's finches and Marsh harrier,1349481,DA9 9DT,51.441126237872400,0.257870310588745
leathery turtle and Kestrel,1437941,CM11 2RZ,51.607835694104700,0.430870632459435
Treepie and Skunk,1028030,IG3 8NA,51.569995084171700,0.098572713844631
Chickadee and Boto,387307,SE2 9HL,51.488733817629300,0.106737219171213
viper and Stilt,455857,RM6 4DL,51.570573182961800,0.128384251212544
krait and kabaragoya,1752082,SS15 6LJ,51.582495397252100,0.414501000000000
bearded lizard and mud turtle,460406,RM14 2LT,51.554559713719600,0.241701003212937
Vole and python,1028015,IG3 9PW,51.555880472523400,0.108381755340677
chuckwalla and amethystine python,462843,RM10 7QU,51.558599007060800,0.150345544843836
diamond snake and Diving bird,2624789,DA8 1FE,51.479469000000000,0.178822000000000
tree snake and monitor,1357839,DA1 1QU,51.438862693747500,0.232850666291426
mountain devil and worm lizard,281245,SS17 9AS,51.523419626767700,0.463046754008732
jew lizard and Buzzard,454828,RM7 8PB,51.592951876247200,0.157670703356693
Guillemot and Linsang,454098,RM9 6LL,51.534695507528100,0.137091985498978
mud turtle and cobra,2651339,DA1 5XH,51.448744000000000,0.219860000000000
sidewinder and Shearwater,456138,RM5 3HP,51.591044622637800,0.166011681123414
Francolin and Boto,1352489,DA2 6LE,51.434993362221200,0.249898949268878
Masked owl and elapid,460720,RM14 2AS,51.552367621219000,0.246539000000000
Parrotbill and python,386955,SE2 9QW,51.493038769768600,0.110882991232960
Myna and chameleon,1354049,DA15 7HZ,51.432119863207000,0.100434070581489
hoop snake and Kangaroo,1350757,DA7 4BN,51.460487278908600,0.133090618114567
Kestrel and habu,282081,SS16 6LY,51.559099736427000,0.417911164216788
Scimitar babbler and iguana,1355514,DA12 5AS,51.425969979216700,0.369602967281700
Viscacha and Eagle,458303,RM18 7HZ,51.471080000000000,0.343256000000000
whip snake and whip snake,1027104,IG6 2GH,51.598084832222800,0.078555008355983
Ibex and Grosbeak,459490,RM16 2TR,51.491896018969100,0.326214610502789
snake and Pratincole,463294,RM1 4BE,51.585395847962000,0.180164054499310
Dolphin and Macaw,281957,SS16 6DY,51.564035693105200,0.403094478924819
Ibex and Towhee,1351589,DA5 1AA,51.441778960906800,0.149990426840794
gopher snake and wall lizard,282322,SS16 5SN,51.565180264732400,0.438276634450589
death adder and Grouse,454678,RM8 3BG,51.554591370851400,0.136884886487543
bicycle lizard and Hawk,1436623,CM14 4FS,51.618996325185700,0.305174812291246
Wader and Treepie,1782708,IG11 0FA,51.522957106804800,0.104481915428038
Gull and Jay,1355538,DA12 3EF,51.413545605869300,0.429982113634933
skink and New World blackbird,1356533,DA10 0HF,51.445482935977900,0.310268957599288
Pheasant and water snake,461436,RM12 5EH,51.546098743137600,0.191179042964680
terrapin and Tit-tyrant,1029268,IG11 7JA,51.532019938684100,0.077793319161407
flying lizard and Grackle,1531944,BR7 6RU,51.419150700000000,0.075273514000000
Polecat and krait,1028965,IG11 7TY,51.531219059685000,0.087445847116256
Dolphin and Gila monster,281551,SS17 8JY,51.535008626177800,0.445156965425597
carpet snake and krait,1531949,BR7 6SA,51.409928100000000,0.083656368000000
cycling lizard and Pratincole,461261,RM12 6PE,51.556871406179500,0.229059000000000
coral snake and Vole,1026470,IG7 5HQ,51.612993412854900,0.085721461338007
Boto and blue racer,281936,SS16 6BN,51.562392321334900,0.415676258351184
puff adder and diamondback terrapin,2664199,RM9 9QY,51.553494000000000,0.141982000000000
indigo snake and crocodile,1349201,DA9 9QB,51.444580305676300,0.290277065804068
elapid and death adder,1028605,IG11 9SP,51.535048721791000,0.100612934403459
sea snake and iguana,454807,RM8 1UU,51.562435233526700,0.123037000000000
snapping turtle and Condor,455444,RM6 6HP,51.571384177250400,0.142622218077277
python and Fish eagle,459397,RM16 4LL,51.480642000000000,0.377549000000000
bushmaster and boa constrictor,2658775,SS16 5NH,51.561243000000000,0.451774000000000
puff adder and Shearwater,1356699,DA11 0AA,51.442726497612600,0.367721774235597
blindworm and turtle,383024,SE28 8ER,51.501165050504900,0.108564077649182
rock snake and taipan,463302,RM1 4BS,51.587697706195900,0.183565730502001
Eagle and Prion,1028559,IG11 9PR,51.536571434101900,0.095924489496523
Mouse and cayman,1354263,DA14 6ND,51.426640751569100,0.100067703261757
glass snake and milk snake,456844,RM3 8BN,51.604673658106000,0.220599952990483
Minke whale and Nukupuʻu,463109,RM10 7AJ,51.554402182961500,0.166809206692936
swift and habu,459208,RM16 6NT,51.493450961774800,0.306686227719210
Darwin's finches and amphisbaena,2661338,IG11 7SA,51.532295000000000,0.075598000000000
massasauga and cobra de capello,1030534,IG1 4BP,51.563051236440100,0.080477375535752
Tree warbler and anaconda,1357511,DA1 3JW,51.442557816493900,0.192895926822043
python and Meadowlark,455324,RM7 8NT,51.596491071078400,0.161794742260836
cayman and milk snake,455981,RM6 4NT,51.570549078737300,0.124255946848686
Gila monster and leathery turtle,462869,RM10 7TU,51.545117920947000,0.165545956389276
ringhals and green turtle,455941,RM6 4FJ,51.577988663999300,0.118642022652848
Nukupuʻu and blue racer,460232,RM14 3PH,51.556718395666500,0.309367112226872
puff adder and cerastes,461676,RM12 4PP,51.553180129210200,0.195774847523298
tiger snake and Treepie,1027999,IG3 8JR,51.576974868314100,0.098995273421283
Black cockatoo and chameleon,282212,SS17 0AQ,51.514490890455700,0.428476601517665
glass snake and amethystine python,1356941,DA1 4TB,51.462832149610700,0.186899772368767
Diving bird and amethystine python,454624,RM9 4PX,51.540847713078400,0.115200286665358
swift and Chicken,1350959,DA6 7PB,51.451481517944400,0.147092678090442
tuatara and Black cockatoo,2594880,CM11 2EL,51.623492000000000,0.420278000000000
Polecat and Scimitar babbler,282821,SS16 4EB,51.558956500955700,0.482034952936036
worm lizard and bicycle lizard,282906,SS15 6AQ,51.573551140231800,0.416195819259424
Treepie and smooth snake,462229,RM11 1LW,51.568057096719500,0.198988078088755
Duck and Rat,2624783,DA17 9BU,51.444701000000000,0.209648000000000
black snake and king cobra,1350279,DA7 5LS,51.475833204619900,0.138299575720424
Logrunners and leathery turtle,1028737,IG11 8PU,51.543210166449700,0.075577319443456
Towhee and Nukupuʻu,1027895,IG3 9NE,51.558335916014800,0.103849900852025
Rat and bull snake,461241,RM12 6LQ,51.558270621253900,0.221065296741137
flying lizard and cycling lizard,1438313,CM11 2JX,51.621631171558700,0.438672922867851
gecko and Egret,458655,RM17 5UJ,51.482497760308700,0.333024295027577
diamondback terrapin and Logrunners,1806511,RM15 4DF,51.503664578900000,0.255081510400000
goanna and death adder,457469,RM20 3DA,51.477884210365800,0.280006240247925
Tit-tyrant and rat snake,456721,RM4 1UY,51.570248736166900,0.170636463648936
Moluccan boobook and puff adder,1353003,DA17 5RB,51.481383714872000,0.138688842582558
mountain devil and amethystine python,1532095,BR8 7ES,51.400746780000000,0.162054467000000
Moluccan boobook and Linsang,457194,RM3 7UL,51.608961907476600,0.215436412812486
Snipe and sea snake,461297,RM13 8EN,51.508481668820200,0.172800659888504
whip snake and death adder,1532312,BR7 6LQ,51.415087390000000,0.075574000000000
Condor and Peafowl,458723,RM17 6DA,51.477522157408800,0.330883712329454
American sparrow and frilled lizard,457669,RM2 5TB,51.575796685912000,0.206347011712169
thorny devil and Goose,462377,RM11 2DQ,51.575723000000000,0.213661000000000
mountain devil and moloch,1349718,DA8 3LQ,51.472755338679000,0.173147262743699
Mouse and tree snake,454664,RM8 3AH,51.555610551644100,0.141159473872801
Treepie and worm lizard,457624,RM3 0EB,51.595444656500300,0.226892631733422
Logrunners and Jackal,282776,SS15 5RN,51.579792956900800,0.427930058005036
habu and Tahr,1437695,CM12 9JX,51.623455493586100,0.411752681383435
Tit-tyrant and Thicketbird,456116,RM6 4XX,51.580883064905900,0.118388000000000
cobra de capello and jew lizard,378032,SE9 2BP,51.440926138535500,0.075066189695271
glass snake and blue racer,1029293,IG11 7LG,51.533403295960300,0.078894472967644
Recurvebill and tokay,459999,RM15 4JP,51.495261692389300,0.248658963908343
Thicketbird and Schneider python,458438,RM17 6PB,51.475738524969100,0.312416896766218
Tit-tyrant and slowworm,1436622,CM14 4FP,51.616797572762400,0.301278583986512
Bunting and Nukupuʻu,1806389,RM10 7FH,51.560884584500000,0.148851848000000
Cuscus and Duck,1352925,DA16 3AP,51.471041342905400,0.110932916506308
dugite and Tattler,282786,SS15 5SG,51.583101959123400,0.430993560065920
flying lizard and kabaragoya,454817,RM8 1XQ,51.565443781056800,0.124609555387117
Puffleg and galliwasp,454136,RM9 4RA,51.535913291795900,0.113558362826512
Eagle and B,281752,SS17 0DX,51.512553981059100,0.427335826616995
Bunting and tree snake,458836,RM16 6YL,51.486145476650700,0.291250465396936
snapping turtle and Night heron,1350460,DA7 4NX,51.462156069881300,0.139718832082680
Diving bird and Ground sloth,1348829,DA9 9XE,51.450707930576700,0.287345294860595
Polecat and Jackal,455770,RM6 5LR,51.583715005193700,0.136114770542507
diamond snake and rattlesnake,1357431,DA1 3AR,51.449064922984700,0.202692376457452
Ice seal and Elephant,1028099,IG3 8SJ,51.567398774161800,0.105956560461317
chuckwalla and asp,1350660,DA6 8HY,51.453794487495400,0.127265752658111
king snake and Moluccan boobook,458418,RM18 8BT,51.462120692793700,0.374599633545156
horned toad and Mouse,462447,RM10 9SW,51.535131000000000,0.152195000000000
Prion and wall lizard,1349445,DA8 2LQ,51.471224352256800,0.188251486640034
soft-shelled turtle and Nukupuʻu,1352803,DA18 4DR,51.496691002632100,0.130213478098025
tree snake and White ibis,1026486,IG7 5JU,51.610073967625100,0.089082873039423
galliwasp and horned viper,1349647,DA8 1PP,51.483789269790400,0.165879642902818
elapid and Myna,461230,RM12 6JS,51.559198470839800,0.221456764953002
Dolphin and flying lizard,1352809,DA18 4DY,51.497508043015900,0.129790533406368
flying lizard and Kākāriki,1028786,IG11 8TQ,51.541265891245600,0.083507000000000
Bronzewing pigeon and cayman,457446,RM20 2ZH,51.487426000000000,0.283781000000000
Cuscus and Mockingbird,1350386,DA7 5SZ,51.474726655691400,0.121989754720930
crocodile and hawksbill,282090,SS16 6NZ,51.567718782160000,0.402855821529375
Recurvebill and kabaragoya,1353208,DA16 2JZ,51.454006005942200,0.104087082037773
blind snake and Coati,1026646,IG7 4AE,51.609913749650500,0.112603376211809
Pitohui and box turtle,1765376,DA1 5QZ,51.463590445679000,0.227391744275283
mamba and Black jay,1353013,DA17 5RS,51.491319457574800,0.134817753106896
Pheasant and anole,1353279,DA16 2QG,51.458168457303700,0.085032236417225
Chipmunk and krait,1351185,DA5 3LA,51.438455271229000,0.130581827918238
milk snake and worm lizard,1354098,DA15 7NP,51.431793211723800,0.081442873732372
bearded lizard and Masked owl,281337,SS17 7TH,51.529830603569100,0.446350127953933
iguana and Tattler,1353525,DA15 8SY,51.452875415577200,0.090375695678910
Moluccan boobook and Vole,1029504,IG11 0SQ,51.528845571340800,0.123481813255947
Pheasant and snake,1437720,CM12 9NF,51.621109607787300,0.407308493945797
Night heron and Cloud rat,1349552,DA8 3AE,51.467517115364400,0.178225682869725
Capuchin and Chicken,455283,RM7 8EU,51.586317735481000,0.158511204909833
Bronzewing pigeon and Asiatic leopard,454389,RM8 3SL,51.553671066687700,0.129138607977937
Wader and Argus,2624791,DA8 1FJ,51.480956000000000,0.181529000000000
Myna and terrapin,462164,RM11 3BJ,51.573211356899800,0.235085286114249
Rabbit and turtle,1026872,IG6 2UD,51.602954482937600,0.085391326232472
Rat and green turtle,1028260,IG2 7QQ,51.581039579921300,0.098865000000000
Old World quail and taipan,1026228,IG7 6EP,51.621118216416900,0.118613540800597
leathery turtle and turtle,454713,RM8 3HA,51.558958570895700,0.141504290666779
boa and Grosbeak,388888,SE18 6SH,51.492785648658100,0.075187553780714
glass snake and cayman,1436353,CM14 4RA,51.615298000000000,0.280929215270773
lizard and dukite,460258,RM14 3RU,51.548097085593000,0.362501340015553
sidewinder and agamid,458376,RM18 7RA,51.462839805284100,0.362600915699247
cycling lizard and snake,1353085,DA16 3QA,51.463451015577600,0.104449552230910
Buzzard and bushmaster,1349293,DA9 9SN,51.439481000000000,0.270020000000000
bicycle lizard and chameleon,1533990,BR5 3HL,51.402314580000000,0.117572049000000
sand viper and copperhead,386929,SE2 9PP,51.491564883148100,0.120798048374009
king snake and indigo snake,1752070,SS15 6HD,51.582265186187400,0.416239492640697
tiger snake and python,382894,SE28 8BW,51.504413407892600,0.114449118926552
racer and Schneider python,462192,RM11 3ET,51.579688105286400,0.238289872536583
sand lizard and Mole,459938,RM15 4AL,51.498562000000000,0.251118656432143
deaf adder and Solitaire,458462,RM17 6QJ,51.477971695550700,0.325909185612875
tiger snake and chuckwalla,1782796,IG6 1FQ,51.586538847489300,0.085173560997134
jew lizard and Macaw,1806778,RM7 8DY,51.587222658300000,0.156302024500000
grass snake and garter snake,460257,RM14 3RT,51.548728473373000,0.364640005618584
boomslang and Darwin's finches,1349747,DA8 1UB,51.476453844038000,0.195702336454363
Old World warbler and Fish eagle,459668,RM15 6RY,51.509854000000000,0.301289000000000
Kākāriki and diamondback turtle,457092,RM3 7HS,51.599383545985500,0.206781000000000
Skunk and Solitaire,463007,RM10 8LU,51.543584429381400,0.148195322635890
Old World quail and Rat,1356102,DA11 8TD,51.421965109045700,0.346956245061357
Parakeet and bushmaster,463148,RM10 7DA,51.553945573598800,0.161825127590756
Treepie and smooth snake,463081,RM1 4XB,51.595426645253400,0.183344464321200
Chipmunk and Rabbit,1353888,DA15 8QU,51.449411379023500,0.091987721214373
Towhee and kabaragoya,1026633,IG6 3XH,51.610824907818400,0.123406058751992
snake and amethystine python,283009,SS15 6DP,51.583962000000000,0.421194000000000
Gull and Flameback,1352091,DA2 8DS,51.414125810382500,0.273840587493845
diamondback and Polecat,2651375,DA12 2FN,51.432475000000000,0.406183000000000
cycling lizard and Philippine hawk-owl,1350229,DA7 5EX,51.471944935587700,0.139960881556790
glass snake and Crow,1806545,RM16 2EG,51.486348942000000,0.352753429800000
Stint and asp,1353881,DA15 8QL,51.447466647953200,0.093625836064761
Cloud rat and Kangaroo,463360,RM1 4GQ,51.582656824859500,0.183829245546918
worm lizard and Bunting,454369,RM8 3QL,51.556195464667800,0.129775849519269
Shearwater and frilled lizard,1355706,DA12 4DW,51.413618558538400,0.388825261419787
sidewinder and Macaw,456336,RM5 2HS,51.607182941381200,0.158403221132407
Thrasher and horned toad,1028892,IG11 9HA,51.544393699886700,0.101533687737807
Mink and slowworm,282314,SS16 5SB,51.564038971917400,0.442558796543787
Chipmunk and water snake,1351087,DA5 3AN,51.442736996565100,0.128046956894938
Guillemot and horned viper,1026651,IG7 4AL,51.612293970484700,0.114259399948331
cayman and Tit-tyrant,458936,RM16 4RA,51.488887124258300,0.378021593093761
frill-necked lizard and copperhead,455601,RM6 6UD,51.574029000000000,0.133770000000000
blindworm and Piping shrike,457593,RM3 0AR,51.592421424918000,0.224607944479708
Scimitar babbler and Tree warbler,1027923,IG3 9PT,51.555576000000000,0.107906000000000
giant tortoise and Capuchin,1352312,DA2 7LG,51.421254727423700,0.259566055373894
Tahr and bearded lizard,2651404,DA8 9HD,51.476455000000000,0.195730000000000
taipan and diamondback terrapin,2577899,DA1 9LZ,51.444699732300000,0.209620230100000
Gull and kabaragoya,1356598,DA11 7HS,51.423661157608200,0.357443386689573
rock python and bearded lizard,1435914,CM15 8FE,51.622088358623100,0.319403382482279
Jay and taipan,1026242,IG7 6HJ,51.616053839832300,0.103195861247238
mud turtle and Mole,456459,RM3 9XS,51.608641912706200,0.241288251230693
Cloud rat and New World blackbird,1352542,DA17 6DB,51.489466194559700,0.154033996295780
Fish eagle and Darwin's finches,1353014,DA17 5RT,51.490861134400700,0.134306552816860
green turtle and copperhead,1352528,DA17 6AR,51.498413000000000,0.169310000000000
Francolin and wall lizard,282533,SS15 6EZ,51.574730773382100,0.420920149100126
Meadowlark and Thrasher,2626862,IG11 0YP,51.528528000000000,0.117814000000000
gavial and Warbler,389683,SE18 2NU,51.479008051927800,0.096452611442808
gaboon viper and Viscacha,1026267,IG7 6JT,51.619233766993100,0.111403825063381
sidewinder and Bunting,1437861,CM11 2PP,51.613131062959600,0.434851511350637
American sparrow and Polecat,463375,RM1 4JA,51.584711495839000,0.178642000000000
Dorcopsis and king cobra,459436,RM16 2NX,51.490739742040400,0.338227891377067
Argus and Stint,1356174,DA11 9ET,51.442665330602800,0.335814198505235
tokay and mountain devil,1028642,IG11 8NW,51.539911037498500,0.078556530948591
Pratincole and milk snake,1349408,DA9 9BJ,51.450034105415700,0.264153353280233
Prion and Pheasant,1349138,DA9 9JT,51.447619953899700,0.266221516549290
Kestrel and blue tongue,1353764,DA15 8DX,51.443773295295400,0.084390830752767
krait and racer,1354586,DA14 4AY,51.429608335553600,0.103081017333411
Fulmarine petrel and Chickadee,1028593,IG11 9RX,51.535092485594100,0.099173008260625
Magpie and gaboon viper,1355891,DA12 1AG,51.439217934729400,0.377109476653573
Mockingbird and Thrasher,804877,ME3 7EB,51.415758613564900,0.453255407937207
Cuscus and soft-shelled turtle,461397,RM12 6UA,51.542666347312400,0.209243568532587
turtle and goanna,463248,RM1 3NH,51.576148000000000,0.185220000000000
anole and rattlesnake,1030986,IG1 2PW,51.546567181419300,0.081513726538945
green turtle and Mamo,1355323,DA12 5UD,51.408436966053400,0.388594000000000
American sparrow and coral snake,462027,RM11 2NE,51.582491722695800,0.228482145744784
python and diamondback terrapin,1352067,DA2 8BE,51.428278642586300,0.285059513882536
massasauga and Eagle,454575,RM8 2QA,51.559120513924500,0.120708045615105
Marmoset and Zebra,1355825,DA11 9LZ,51.442442949147900,0.355014458981512
worm lizard and Vole,281503,SS17 8HG,51.529210437495600,0.439424915491365
Scimitar babbler and Scimitar babbler,454491,RM9 4JD,51.536001469845100,0.123613005799158
Hawk and copperhead,1028761,IG11 8RG,51.541766969229900,0.082419534543676
Mole and Rabbit,463596,RM1 3AW,51.580624956425500,0.187181549561342
Kestrel and anole,387432,SE2 0AR,51.481043522423900,0.125970000000000
Jackal and pit viper,461178,RM13 7TH,51.536235836124600,0.179472120881289
Stint and Songlark,459202,RM16 6NL,51.489844871695200,0.294763647687897
Old World warbler and Bronzewing pigeon,1356122,DA12 1PE,51.432324904999200,0.381744078439018
blind snake and alligator,387275,SE2 9DF,51.495993098134000,0.108123667471172
cycling lizard and tokay,281768,SS17 7PP,51.526334502663800,0.453558823441673
Hawk and Partridge,2607202,IG7 4FD,51.606437000000000,0.138436000000000
Armadillo and Logrunners,804838,ME3 7AJ,51.413601282296500,0.459209049053189
Fulmarine petrel and caiman,462842,RM10 7QT,51.558558826578400,0.152536545467462
king cobra and gaboon viper,1028959,IG11 7TR,51.530734345189300,0.086890206232702
Condor and soft-shelled turtle,281678,SS17 7HU,51.522904479842800,0.450289300451857
bicycle lizard and Polecat,454669,RM8 3AS,51.555701586818900,0.133071000000000
Thicketbird and Pitohui,1357296,DA1 4JP,51.453792797691000,0.182149508534268
River dolphin and copperhead,454854,RM8 2AT,51.552056003986100,0.116513586414989
Schneider python and Philippine hawk-owl,463427,RM1 1RA,51.577879048944200,0.180583649275189
Condor and Chipmunk,460143,RM14 3AP,51.550199000000000,0.248281000000000
horned viper and Grosbeak,1026312,IG7 6PW,51.620810979936000,0.080994752733583
blind snake and flying dragon,1806816,RM8 2FL,51.550284918800000,0.111555924700000
tuatara and Chickadee,456761,RM3 9HJ,51.603313556971500,0.228779568566345
White ibis and Polecat,1352257,DA2 7ED,51.430024492979400,0.215688131370807
Prion and sand lizard,455249,RM7 8BB,51.584198879354300,0.158324163845555
boa constrictor and Linsang,1351234,DA5 1HA,51.442595595542500,0.142718496693946
worm lizard and blindworm,455378,RM7 0TU,51.561518887720700,0.171490333012271
Elephant and snapping turtle,1354670,DA14 4EL,51.428725727496100,0.109657993347970
monitor and galliwasp,1534013,BR5 3JT,51.400963220000000,0.119694959000000
Partridge and brown snake,1353986,DA15 7DB,51.433196391215100,0.103087550173029
king cobra and monitor,281519,SS17 8JB,51.529409000000000,0.442570888420493
Lemming and bearded dragon,1354611,DA14 4DJ,51.430533084681100,0.105669887750956
Parrotlet and Kākāriki,1356529,DA10 0EZ,51.440613720837100,0.304986665854741
terrapin and tree snake,458858,RM17 5AU,51.488001237566300,0.323077703010373
caiman and tiger snake,804848,ME3 7BD,51.416720296443100,0.457147141043483
Wader and brown snake,1436743,CM13 3BX,51.600287295280300,0.297107877124027
boa constrictor and Chickadee,457849,RM19 1PN,51.486497179008200,0.231993950853705
Parakeet and Prion,1355561,DA12 3HT,51.426426647811600,0.440246582278543
Minke whale and Stint,283286,SS15 4BD,51.587207515522000,0.442892046455786
chameleon and Booted eagles,463382,RM1 4JR,51.588363925828400,0.180623767944954
turtle and Kangaroo,1436959,CM13 2JH,51.624061360388700,0.327855035038486
American sparrow and glass snake,282321,SS16 5SL,51.564402015459500,0.438509149254533
black snake and blue tongue,454611,RM8 2TA,51.553350872558400,0.124478725432217
Grouse and Warbler,2650648,CM14 9RN,51.620399000000000,0.303583000000000
rock snake and snake,1029217,IG11 7GT,51.536611000000000,0.080122000000000
gaboon viper and Chicken,2630831,RM20 3BA,51.474661000000000,0.277066000000000
Shearwater and snapping turtle,1028682,IG11 9XW,51.538266695953300,0.086585859257256
indigo snake and Viscacha,1782765,IG11 8FF,51.548686549108300,0.091851229433396
python and snapping turtle,282934,SS15 4HP,51.586835288460800,0.429200646986452
Mole and Condor,456905,RM3 9RA,51.606596446516900,0.234428464433426
Pratincole and death adder,459395,RM16 4LH,51.481218029581800,0.374367463232825
jew lizard and water snake,1992902,DA1 5SQ,51.447831000000000,0.226682000000000
snapping turtle and American sparrow,1355822,DA12 2QE,51.442608701447100,0.398281862411091
perentie and Darwin's finches,1994925,CM14 4SQ,51.615926000000000,0.303747000000000
racer and blind snake,1350927,DA5 2DX,51.434520483187200,0.175878576899455
Logrunners and Tattler,282040,SS16 6HA,51.563197192275500,0.421129810416106
Siskin and diamond snake,462715,RM11 1JT,51.563645000000000,0.206487971306349
death adder and River dolphin,462546,RM11 1BZ,51.571748346877900,0.193480332540074
flying lizard and Grosbeak,1356385,DA11 8HT,51.432555000000000,0.332789388322423
amethystine python and moloch,1436550,CM14 4AA,51.620304357388900,0.303594168293544
Tit-tyrant and Greenbul,1028841,IG11 7QP,51.536378006331800,0.089123875542350
python and bushmaster,282228,SS16 5HD,51.560645711398800,0.454756395079175
asp and American sparrow,1350642,DA6 8HA,51.458542353442300,0.123815719835374
Parrotbill and Badger,454167,RM9 4UN,51.533343291747900,0.126387478543021
grass snake and Bronzewing pigeon,1436805,CM13 3JT,51.576369186615300,0.290965419168567
Tahr and flying lizard,454709,RM8 3ES,51.554986855834200,0.140841664748937
Pheasant and Chipmunk,1357213,DA1 5NB,51.456079807633700,0.237807777953826
White ibis and elapid,460413,RM14 2NP,51.551794926301700,0.232477312510243
Schneider python and glass snake,1356850,DA1 5SU,51.449375086780200,0.227678485515604
Logrunners and Polecat,458265,RM18 7BQ,51.463689104037700,0.356597865007532
python and Jackal,1352875,DA17 5NN,51.482212155299600,0.140599968537074
Hawaiian honeycreeper and Pratincole,1354054,DA15 7JF,51.429479000000000,0.088761000000000
alligator and glass snake,459978,RM15 4HB,51.497434402732300,0.255868981061852
Francolin and diamond snake,456010,RM6 4RD,51.570631195386000,0.113234717682832
king snake and Grackle,456898,RM3 8HB,51.605503663667800,0.215224713242559
adder and Capuchin,1436829,CM13 2DP,51.615666852260900,0.320914000000000
whip snake and Mouse,454281,RM9 5JJ,51.548281185684800,0.136733403359678
Partridge and fer-de-lance,1026876,IG6 2UH,51.603145509641000,0.086786410576580
boa constrictor and frill-necked lizard,458394,RM18 7TB,51.463430694742200,0.359607994476624
Gila monster and Stint,463006,RM10 8LP,51.550804832481300,0.157249000000000
bandy-bandy and bicycle lizard,462947,RM10 8DE,51.547298099114700,0.156057927137710
Chipmunk and Chipmunk,455436,RM6 6EX,51.570299056359000,0.141965102671575
Ice seal and boomslang,461447,RM12 5HD,51.538945753961000,0.200021484498893
massasauga and Grackle,1355637,DA12 1QH,51.432976000000000,0.374590381207189
Diving bird and puff adder,460072,RM15 4SL,51.501378000000000,0.251467000000000
brown snake and bandy-bandy,1436778,CM13 3GR,51.620304357388900,0.303594168293544
Rabbit and Darwin's finches,1349165,DA9 9NB,51.445816000000000,0.286021000000000
Ground sloth and caiman,454371,RM8 3QR,51.556327876399000,0.128541000000000
Guillemot and chameleon,1357039,DA1 5AG,51.451687042808100,0.209108480832212
massasauga and Gull,455419,RM7 0YS,51.558391629172200,0.182031720495042
mud turtle and Armadillo,455846,RM6 4BT,51.574241011602200,0.122494221160043
Rabbit and brown snake,1029198,IG11 7EJ,51.531172037451500,0.086045135883628
Cuscus and cobra,389813,SE18 1JB,51.486661000000000,0.098057000000000
cobra and sea snake,458697,RM17 6AG,51.482401375429800,0.340566697885481
water snake and death adder,460011,RM15 4LX,51.507168129737800,0.249144346638898
snapping turtle and Grosbeak,1436878,CM13 3PS,51.594842070194300,0.354501820485198
Philippine hawk-owl and puff adder,1351420,DA5 2DP,51.438946402668100,0.164635108057387
Wallaby and frill-necked lizard,2584481,RM16 2EE,51.486051000000000,0.353746000000000
Darwin's finches and chuckwalla,1026581,IG7 5PY,51.610565630828600,0.080641671674482
alligator and bushmaster,1026993,IG6 3DN,51.605289963878000,0.105182317754379
Gila monster and Pheasant,458856,RM17 5AS,51.490193195550700,0.325909000000000
Jackal and lizard,456907,RM3 9RD,51.607507173326800,0.234299876075334
Old World warbler and diamond python,1349659,DA8 1QE,51.481647528324900,0.155221005226807
mamba and cobra de capello,1356840,DA1 5SA,51.449510840579300,0.229052399054622
hoop snake and horned toad,2579884,RM1 3FA,51.576453000000000,0.185307000000000
Mamo and Tit-tyrant,460312,RM14 3YU,51.543938543389600,0.253928393255095
Boto and Thicketbird,387431,SE2 0AQ,51.482292039693600,0.122355358525925
coral snake and Siskin,463159,RM10 7DU,51.552022363578100,0.156382300100451
loggerhead and massasauga,282391,SS16 5TR,51.561652840397900,0.445720619529642
agama and Scimitar babbler,454454,RM9 4BL,51.542736798596000,0.119152954958776
Linsang and Mink,1354946,DA12 9SF,51.438606903594900,0.368645453926430
hoop snake and Gull,389587,SE18 2EN,51.477771228459000,0.092190713216573
Rat and Kangaroo,461509,RM13 7BH,51.532479502180400,0.192356081418123
slowworm and tiger snake,461452,RM12 5HP,51.545840448109000,0.199214674792987
Old World warbler and American sparrow,1350612,DA7 5DN,51.468804468118100,0.147934716284289
Armadillo and deaf adder,1354020,DA15 7HP,51.430141169347600,0.096430236134703
amethystine python and Greenbul,281770,SS17 7PU,51.523340146843200,0.453109492510244
king cobra and elapid,455003,RM7 9JR,51.572637373492200,0.163520114163697
Petrel and Jerboa,389711,SE18 2QU,51.478887509930900,0.081008524540337
B and Towhee,1355192,DA12 5PR,51.426117196552500,0.378759858155905
Jackal and chuckwalla,457820,RM2 6QH,51.587686297792600,0.210113503447344
Coati and Songlark,1357225,DA1 4AS,51.450123874007000,0.183344000000000
sidewinder and Dolphin,1354285,DA14 6PH,51.429151517247300,0.092428783559106
cayman and Buzzard,1353130,DA16 2AX,51.461912014424800,0.108021017935365
Armadillo and diamondback turtle,1531879,BR8 7UE,51.404956070000000,0.162511830000000
alligator and black snake,281916,SS17 0NZ,51.515460004756200,0.429883070286327
pit viper and Komodo dragon,1436880,CM13 3PU,51.594972805627300,0.356948766484654
Thicketbird and Armadillo,1350729,DA6 8PQ,51.453021000000000,0.136188882638781
sea snake and Parrotlet,459212,RM16 6NY,51.489511625063300,0.316283073973533
bushmaster and Nukupuʻu,1357025,DA1 4TQ,51.463778000000000,0.185433000000000
Kite and Chicken,1350706,DA6 8NH,51.455399071256200,0.133486734750603
Komodo dragon and Lemming,462985,RM10 8HH,51.546630512663900,0.157151371785513
loggerhead and Prion,2636759,RM13 9FA,51.525650000000000,0.209500000000000
Partridge and Mouse,459368,RM16 2HL,51.499260800246900,0.335292462693392
Mole and Wallaby,1437573,CM12 9BT,51.624693425488600,0.417149855668061
Old World quail and Chipmunk,1354081,DA15 7LS,51.432132590707900,0.088651756640044
sidewinder and bull snake,1533979,BR5 3GL,51.407243340000000,0.107561811000000
gavial and viper,1356714,DA11 0AX,51.438099323148800,0.362604420390534
tokay and Gull,1353695,DA15 9PF,51.450668545546900,0.110151306245445
Eagle and saltwater crocodile,1752018,SS14 2FQ,51.571702000000000,0.451210000000000
Greenbul and Ground sloth,1353684,DA15 9NP,51.448416557251000,0.115847480688447
Minke whale and Meadowlark,281227,SS17 8RW,51.523277350663400,0.427170939308541
soft-shelled turtle and swift,459736,RM15 5BP,51.509771719851400,0.285647901214126
Duck and carpet snake,462123,RM12 4JP,51.558416886322600,0.212372915596205
harlequin snake and Ground sloth,1350688,DA6 8LJ,51.454705354712700,0.135037739314899
Francolin and Peafowl,1354957,DA12 9SU,51.438606903594900,0.368645453926430
boa and Tattler,1349244,DA8 3PB,51.471398522210800,0.170335000000000
American sparrow and Mamo,1356651,DA10 0JS,51.442215749097900,0.304923437917467
Civet and Dolphin,1355147,DA12 5JX,51.420656220735100,0.375757673158972
Scimitar babbler and adder,282941,SS15 4JB,51.590092249086900,0.450323405990208
Vole and White ibis,454032,RM9 6BJ,51.534575734389300,0.129833457513801
giant tortoise and boa constrictor,283446,SS14 2SW,51.579760546040400,0.481061230738315
Herring gull and Mouse,454823,RM8 1XZ,51.565132006836500,0.127711000000000
thorn lizard and tuatara,459298,RM16 4HL,51.482731441196900,0.365789604357971
Crow and Rabbit,2591746,DA1 9NJ,51.444701000000000,0.209648000000000
Armadillo and Rat,460627,RM13 9LX,51.516588334306400,0.202950875350007
goanna and Crow,1352586,DA17 6HJ,51.484191057816400,0.157256604089025
Macaw and pit viper,378522,SE9 2AZ,51.456313000000000,0.081752000000000
Hawk and Grackle,1349859,DA7 9SE,51.455154768421400,0.150791654778595
garter snake and giant tortoise,389569,SE18 2DF,51.478266074115500,0.097415000000000
Ice seal and tokay,1806632,RM3 0JL,51.590594348000000,0.224735177400000
Logrunners and bandy-bandy,455751,RM6 5JB,51.584930028792000,0.130123385426172
B and adder,1028284,IG2 7SF,51.579184890273000,0.102633289885611
Cloud rat and Jay,2650656,CM15 8FG,51.618354000000000,0.307900000000000
Capuchin and Old World vulture,1030581,IG1 4JE,51.563042077111600,0.075917641792341
Ground sloth and Triller,457164,RM3 7SA,51.608363730722800,0.211868780398179
Gull and Komodo dragon,1349793,DA8 2BX,51.467139776121900,0.181591270398056
Marsh harrier and lizard,1356786,DA11 0EX,51.440240323189700,0.358556203148863
whip snake and coral snake,459309,RM16 4JJ,51.484854360357100,0.368881160865474
wall lizard and milk snake,1355542,DA12 3EL,51.406913820749800,0.431025266166582
Asiatic leopard and Flameback,454376,RM8 3RA,51.560284582826200,0.130414162740253
gavial and cerastes,1027298,IG6 1EG,51.582946418448300,0.080289045610260
B and Chickadee,459943,RM15 4AU,51.498336763142700,0.249156132961407
Scimitar babbler and Kite,1353989,DA15 7DG,51.431775000000000,0.103166000000000
Argus and massasauga,1028069,IG3 8QL,51.570582405657000,0.101933244387275
Boto and Siskin,460864,RM13 9YH,51.508646967155900,0.179884431860341
Thrasher and Chipmunk,462862,RM10 7TD,51.548383570321900,0.164503870718918
Maya and Towhee,1351516,DA4 9HT,51.403423859701800,0.243992354097624
Grackle and Viscacha,1349892,DA8 2EX,51.471546050278700,0.182089484293676
lizard and agamid,454475,RM9 4EU,51.536843498164400,0.122801422221840
Cuscus and perentie,1353656,DA15 9JJ,51.446536999934700,0.111860489158438
Minke whale and Night heron,1353403,DA16 1LJ,51.468094044856100,0.122257913672635
Petrel and Skunk,1355334,DA12 4PN,51.416056624013300,0.394949907299388
turtle and racer,463230,RM1 3HP,51.579047602514700,0.184478905667069
Greenbul and kabaragoya,1028528,IG11 9LZ,51.537680218267600,0.104815034209196
Egret and boomslang,453940,RM9 5TX,51.552785000000000,0.141806000000000
Snipe and wall lizard,1350236,DA7 5HF,51.473370464903100,0.143152402619371
rock snake and Badger,458156,RM18 8SG,51.485846280730900,0.417648621961185
Kite and leathery turtle,455899,RM6 6AU,51.572954081676900,0.145784388794357
boa constrictor and crocodile,1351514,DA4 9HR,51.405495939671800,0.238629833010077
Chipmunk and Chickadee,1357697,DA1 2PH,51.440067000000000,0.194863000000000
saltwater crocodile and Tahr,455687,RM7 0DA,51.565894192475100,0.176085330740490
constrictor and Rat,459757,RM15 5DR,51.506660256495700,0.281947097006931
sea snake and Tattler,1030500,IG1 4AR,51.565903262926500,0.090520391254284
White ibis and sea snake,459924,RM15 5XA,51.506456802748100,0.286850999764467
elapid and bushmaster,389670,SE18 2LN,51.473699025412100,0.084530770479676
perentie and frilled lizard,461837,RM11 3QA,51.561522381643700,0.238292154143383
python and Triller,1026767,IG6 2QX,51.602674024718600,0.078389132351231
Grackle and Argus,459675,RM15 6SL,51.523206307482600,0.309112508662652
taipan and blind snake,282236,SS16 5HT,51.560439089986800,0.462897226664369
Civet and goanna,1437060,CM13 2QN,51.624661584390900,0.345137086278049
wall lizard and Fox,283920,SS14 1QX,51.571196476609800,0.484577922052652
rock python and Pitohui,2624748,DA10 1AE,51.436997000000000,0.306503000000000
king cobra and carpet snake,458145,RM17 9SB,51.475673777177400,0.324294000000000
bushmaster and water snake,1028436,IG2 6RR,51.580004393615700,0.075290556663467
tiger snake and Rat,382779,SE28 0JB,51.500834385908800,0.088852278439575
chameleon and goanna,1354488,DA14 5HF,51.420483753567600,0.132262964338438
cycling lizard and Polecat,462837,RM10 7QJ,51.556380463951000,0.153631063158950
Tit-tyrant and Grackle,1806729,RM7 0FF,51.572225973400000,0.178999765300000
soft-shelled turtle and Philippine hawk-owl,382729,SE28 0ET,51.496253505003200,0.081972333151410
carpet snake and gavial,1437363,CM12 9TF,51.604822125795700,0.408670773961552
Kākāriki and Tit-tyrant,1355635,DA12 1QF,51.431836006437000,0.375258677158103
moloch and Stint,389919,SE18 1PZ,51.482522229267700,0.089513209327129
Shearwater and Myna,460723,RM14 2AX,51.551145481626900,0.247649245025412
Parakeet and Dorcopsis,1027794,IG3 9DP,51.550111360619200,0.100123993943141
Guillemot and python,1350833,DA5 3QG,51.438730229686700,0.144105985226556
Vole and puff adder,1026855,IG6 2SZ,51.605046774247400,0.085053957229323
Old World vulture and Solitaire,458672,RM17 5XT,51.478660721299400,0.320183415351545
mountain devil and brown snake,458696,RM17 6AF,51.483251631432300,0.342122617178736
Fulmarine petrel and bandy-bandy,454459,RM9 4DJ,51.535430211476700,0.117905106650037
Jackal and Nukupuʻu,2607208,IG7 4FL,51.607702000000000,0.139088000000000
hawksbill and diamond snake,283640,SS14 2BU,51.573829815152500,0.456044134689477
Prion and swift,1026712,IG7 4HE,51.610666752042300,0.105228882670854
Kākāriki and Quetzal,1351424,DA5 2DT,51.438333511222500,0.161785879177173
indigo snake and Civet,1353148,DA16 2DH,51.461418981016300,0.106932979930903
New World blackbird and python,1357649,DA1 2JT,51.431954000000000,0.204027000000000
Parrotbill and giant tortoise,458289,RM18 7ET,51.462645000000000,0.348727000000000
Booted eagles and indigo snake,460650,RM14 1RU,51.568361000000000,0.267200000000000
Chickadee and Komodo dragon,282056,SS16 6HX,51.554229923281700,0.424663971292790
bushmaster and gavial,461002,RM13 9AX,51.519908876168800,0.199119000000000
kabaragoya and Dolphin,1354183,DA14 6EL,51.425227125823700,0.101284000000000
galliwasp and soft-shelled turtle,281942,SS16 6BX,51.565244592681500,0.412984826279992
Treepie and iguana,281580,SS17 8NP,51.523978468030800,0.400537521796079
hawksbill and Marsh harrier,455430,RM6 6EL,51.569322942722700,0.139769096277052
diamond snake and Meadowlark,387130,SE2 0SR,51.488556962228500,0.113067148793545
constrictor and rock snake,462986,RM10 8HJ,51.544492078434600,0.157050221729158
Chickadee and Tattler,1531829,BR7 6NP,51.416131000000000,0.078258000000000
Greenbul and Jackal,1355305,DA12 5SY,51.416079482918000,0.383243723466376
Masked owl and Armadillo,460240,RM14 3QA,51.542253153264200,0.288948367658577
Moluccan boobook and Mink,283794,SS14 1EB,51.569867226156900,0.461458681730662
Dorcopsis and Capuchin,1027776,IG3 9BJ,51.549504901043400,0.097831498867662
agamid and grass snake,457432,RM2 6RP,51.589563900716500,0.216412516366122
Siskin and cycling lizard,1027274,IG6 1BQ,51.580237406680300,0.083961373459051
frilled lizard and Perching duck,455255,RM7 8BP,51.582536727345200,0.157263841988317
Marmoset and tortoise,1027400,IG6 1HY,51.584027525049900,0.077639107832739
Partridge and Fish eagle,1028083,IG3 8RL,51.565309211137300,0.102627904968457
Argus and Egret,457843,RM19 1PE,51.486758116851800,0.231041598948193
viper and gecko,456839,RM3 8BF,51.600306348005600,0.220430182443143
Warbler and Booted eagles,1534030,BR5 2FD,51.406446480000000,0.104621000000000
cycling lizard and box turtle,1349471,DA8 2NX,51.468322000000000,0.190114000000000
Komodo dragon and fer-de-lance,459594,RM15 6NR,51.518467665195100,0.294414938721809
copperhead and bull snake,283384,SS14 2QA,51.576273206025000,0.480539289807893
Boto and frill-necked lizard,1352486,DA2 6LA,51.434571671863300,0.247504202347244
thorn lizard and amethystine python,457495,RM20 3JG,51.476912157782300,0.285127872683217
Moluccan boobook and puff adder,1353331,DA16 1DD,51.473960680062300,0.123567022789563
rock snake and monitor,1027068,IG6 2DF,51.588889670545300,0.081354560932794
diamond snake and rattlesnake,1357801,DA1 2RY,51.435753526218900,0.215188411542085
Old World warbler and Kite,389906,SE18 1PG,51.482990454801700,0.095526237893004
Grackle and Old World warbler,455420,RM7 0YT,51.557474607842400,0.180083503267126
Tit-tyrant and Hawk,1531779,BR8 7RP,51.414569000000000,0.183486000000000
Egret and Stilt,1356176,DA11 9EW,51.444983149832000,0.326894643868786
Gila monster and terrapin,455415,RM7 0YL,51.559151718321400,0.181779562993815
Elephant and Cuscus,1356884,DA1 9FF,51.444700000000000,0.209620000000000
blindworm and Treepie,1351084,DA5 3AH,51.440885960676800,0.125485867516444
galliwasp and Flameback,454653,RM8 2YJ,51.547891200886000,0.120560784925612
Grackle and New World blackbird,2009605,DA12 1BY,51.438477000000000,0.368050000000000
Chipmunk and fer-de-lance,1356367,DA11 8EX,51.425550813818300,0.334480851631794
Fish eagle and cobra,1357055,DA1 5BB,51.454920937578100,0.205478914982545
snapping turtle and tree snake,1765351,DA1 5FF,51.461477923636500,0.230657639709879
Masked owl and glass snake,804965,ME3 7PA,51.411176626643000,0.457324404676160
Treepie and carpet snake,463604,RM1 3BL,51.580812000000000,0.185853752694212
Viscacha and Fulmarine petrel,1026241,IG7 6HH,51.616333416251100,0.103151006812998
Coati and Argus,459791,RM15 5HP,51.513358099304400,0.274643013570646
cobra de capello and gavial,461100,RM13 9JJ,51.522546014177800,0.208456898755106
Vulture and puff adder,1028830,IG11 7PW,51.534400289256100,0.084029863335033
Fox and gavial,1030716,IG1 4RF,51.567943578494000,0.079445341621498
iguana and Tahr,458586,RM17 6XD,51.482183932525400,0.335687272894781
Wallaby and king cobra,454065,RM9 6GD,51.535158476849900,0.146212390396093
Minke whale and Siskin,1355617,DA12 4BW,51.422636110774900,0.389842179812417
bearded lizard and Pratincole,459816,RM16 2BJ,51.496905240529500,0.341122485647675
Capuchin and Kangaroo,1765363,DA1 5FY,51.449058820802600,0.221172006844176
constrictor and bull snake,456519,RM5 3AL,51.586524000000000,0.170791000000000
garter snake and smooth snake,455862,RM6 4DT,51.569387999649200,0.127289906413890
Chickadee and rattlesnake,458396,RM18 8AA,51.461292000000000,0.364047000000000
Grackle and White ibis,1358213,DA1 1JB,51.440478000000000,0.215629256062457
blue racer and Bronzewing pigeon,1357256,DA1 4DN,51.454532879998500,0.170381602662744
diamondback terrapin and Capuchin,456447,RM3 9UP,51.605060603930000,0.241400689436556
Moluccan boobook and thorny devil,461103,RM13 9JQ,51.516092429980000,0.192462661374277
Warbler and Masked owl,461581,RM12 5RS,51.544060085057300,0.205907379598630
Triller and iguana,1351356,DA5 1RD,51.445254030480600,0.135517855880420
Pheasant and caiman,1353760,DA15 8DS,51.443104067109000,0.082072288723175
Argus and water snake,1028544,IG11 9NW,51.538227901236000,0.107868592418092
worm lizard and Meadowlark,1437320,CM13 2BU,51.613521729024100,0.329207899818185
Armadillo and grass snake,1354609,DA14 4DG,51.429364600305000,0.106637572930269
Ibex and diamondback,804899,ME3 7HP,51.419942472225600,0.462167371999892
Cloud rat and Pratincole,1532324,BR7 6NF,51.418059150000000,0.077496500000000
bushmaster and Siskin,1028402,IG2 6PZ,51.574630309415500,0.080169062013056
python and Jerboa,1028324,IG3 8AQ,51.560561447909800,0.095065299960316
caiman and Kangaroo,458453,RM17 6PY,51.478322645766600,0.325898239326122
Darwin's finches and Coati,1349056,DA9 9HS,51.444823455957100,0.288878882309079
grass snake and dugite,282397,SS16 5TY,51.563087108924100,0.446374760724487
Viscacha and harlequin snake,2591692,DA1 1AN,51.433930000000000,0.227545000000000
Mouse and loggerhead,461234,RM12 6LD,51.558766936568500,0.221450160413979
Elephant and Old World quail,282143,SS16 5EE,51.566449477479400,0.459758869882437
Chickadee and Grouse,463272,RM1 3WF,51.570143000000000,0.170731000000000
Mouse and Parrotbill,1357757,DA1 1NR,51.433471938034600,0.215524040385612
Partridge and Goose,1435857,CM15 8AE,51.622678508825800,0.309999159722745
amethystine python and Mamo,1350355,DA7 5RG,51.478533204817800,0.131268259573724
Fish eagle and mountain devil,456900,RM3 8HE,51.596354604904800,0.217306276838060
Night heron and moloch,1355345,DA12 4QB,51.415086615940500,0.390483854257456
Rat and Thrasher,460832,RM13 8LR,51.526575071256400,0.179601788997250
saltwater crocodile and Cuscus,1356716,DA11 0AZ,51.443170364701100,0.369612000000000
Fish eagle and asp,1353640,DA15 9HQ,51.446670292274000,0.103447593418115
agamid and asp,454391,RM8 3SR,51.555687837225500,0.128511498741529
Thrasher and rock snake,282925,SS15 4FG,51.590604387489200,0.449484704557423
Jay and box turtle,463171,RM10 7EU,51.556897927079800,0.158748040768437
turtle and Jerboa,1028147,IG2 7DY,51.570494507204700,0.086199826266062
Mink and puff adder,382653,SE28 8QL,51.511255796801700,0.129422885147349
Parrotbill and rat snake,458231,RM17 9SS,51.475673777177400,0.324784188016642
Badger and Kākāriki,454552,RM8 2NB,51.547444306137600,0.114929317294850
racer and Solitaire,282570,SS15 6JX,51.573682228943900,0.414196677058768
mamba and Coati,460689,RM14 1WG,51.552367621219000,0.246539000000000
cayman and Mole,1532310,BR7 6LL,51.413581100000000,0.078487096000000
flying dragon and Tahr,1782744,IG11 0TR,51.527473357499400,0.102873636715637
Grouse and snapping turtle,2662523,DA15 0HN,51.435945000000000,0.101355000000000
Petrel and Macaw,454516,RM9 4NS,51.541903718136100,0.123945488259278
moloch and box turtle,458122,RM18 8RW,51.483245099440000,0.419930839004999
Marsh harrier and rock python,282914,SS15 6AZ,51.577972559787800,0.421150197844915
Petrel and viper,1026235,IG7 6EX,51.622848423220900,0.119907713846370
Cloud rat and harlequin snake,459452,RM16 2QJ,51.497356249655200,0.345554455635523
Parakeet and Schneider python,1782632,IG1 1YU,51.555832470460200,0.085471040209435
Herring gull and rock snake,1355131,DA12 5JB,51.412070969116400,0.379267000000000
Badger and milk snake,457584,RM20 4YY,51.479136676173400,0.298762704486775
sand viper and Parrotbill,461331,RM12 6QA,51.558738000000000,0.232024000000000
Masked owl and Black jay,1349188,DA9 9PL,51.448756017813800,0.273963392709593
python and Coati,281800,SS17 7RJ,51.525271504895400,0.442443756285047
tree snake and diamond python,458634,RM17 5SU,51.483673069676900,0.337679069421654
Maya and constrictor,1352732,DA17 5BN,51.487264234251800,0.148571764266885
black snake and green turtle,1349149,DA9 9LG,51.444464631957000,0.264295158784573
Quetzal and Polecat,460699,RM14 1XP,51.564422605126600,0.266628920858592
bearded dragon and cayman,455843,RM6 4BP,51.570811810169900,0.133070972963563
Cuscus and thorny devil,282451,SS16 4NW,51.565571428186300,0.485627587948462
worm lizard and hoop snake,389762,SE18 1BL,51.484672601575000,0.092477807369612
Wader and copperhead,282665,SS15 6RD,51.578136833547400,0.413177061618598
Mamo and water snake,2593712,RM16 2FA,51.499732000000000,0.354135000000000
Flameback and black snake,1765429,DA1 9TD,51.446600272638400,0.219455196061865
Lemming and flying dragon,282258,SS16 5LD,51.551813147484400,0.464248779155111
hoop snake and frill-necked lizard,389668,SE18 2LJ,51.474722482401300,0.087155089029392
death adder and Zebra,1534262,BR5 2RQ,51.403642940000000,0.105239565000000
Marmoset and Zebra,2661310,IG11 1HR,51.534526000000000,0.088230000000000
Diving bird and taipan,458791,RM17 6EB,51.479413500905500,0.331196194813063
moloch and Mockingbird,283267,SS15 4AE,51.586675892123000,0.421685168269124
diamondback turtle and Grouse,1356048,DA11 8PQ,51.423816270092000,0.346130474326043
Ice seal and Masked owl,387052,SE2 9TB,51.495200921293500,0.123617690402431
Pratincole and blind snake,461922,RM12 5BS,51.547726215473900,0.201757638852561
blue tongue and Cuscus,1351451,DA4 9BL,51.402257770076800,0.242425591518832
agama and blue tongue,1765697,DA2 6FX,51.447486809900200,0.244209346405015
Siskin and Mole,1806794,RM8 1DT,51.563565063800000,0.137002562600000
Vole and thorn lizard,1352950,DA16 3BZ,51.470139489717100,0.105074119713333
Gull and Marmoset,460168,RM14 3DP,51.553595100675100,0.255430007900185
tokay and Diving bird,460785,RM13 9SN,51.525866825672900,0.219285989052931
Zebra and diamond snake,281602,SS17 8PX,51.526550000000000,0.396679000000000
Snipe and python,283430,SS14 2RU,51.578320252989700,0.480275500755461
Pitohui and perentie,461771,RM12 4SX,51.556503646796200,0.206523915440798
Magpie and diamondback terrapin,1353269,DA16 2PT,51.459637175681900,0.092440920506191
Jerboa and fer-de-lance,1027931,IG3 8AZ,51.562455435509200,0.097273285741006
Mockingbird and Lemming,2577907,DA14 6FG,51.425069533100000,0.096974815100000
whip snake and water snake,387400,SE2 9NA,51.491260524659400,0.106752872848922
frilled lizard and Ground sloth,282856,SS15 5UL,51.569737213311100,0.450916887700529
bearded lizard and Solitaire,281928,SS16 6AW,51.565934517491600,0.416167077770468
coral snake and Black cockatoo,454298,RM9 5NB,51.550771205122500,0.131844807646315
dukite and Black cockatoo,282820,SS16 4EA,51.558863591940300,0.483025411810811
garter snake and diamondback terrapin,459444,RM16 2PT,51.495510134793100,0.332608236672607
Parrotlet and Linsang,454840,RM8 1YR,51.561572533212500,0.125843022809097
slowworm and caiman,1353228,DA16 2LF,51.460631215765600,0.094185105326268
Parrotbill and Jay,1761132,CM14 5FW,51.608108000000000,0.292736000000000
soft-shelled turtle and amphisbaena,459125,RM16 3BL,51.505437646017300,0.382745437100966
green turtle and boomslang,458773,RM17 6DE,51.478243369090800,0.333959303692935
Parrotbill and sidewinder,461207,RM13 7XP,51.531406936221200,0.190559912383989
gecko and jew lizard,1357026,DA1 4TR,51.455958484630000,0.179820114697238
Thrasher and Marsh harrier,1531874,BR8 7TY,51.403604970000000,0.164576047000000
Puffleg and Meadowlark,282405,SS16 5UP,51.565160705131300,0.467596803478939
Capuchin and Black jay,454833,RM8 1YD,51.563186151369800,0.124634164320237
sea snake and Duck,1352474,DA2 6JL,51.437314001149100,0.249408665544476
Civet and terrapin,457745,RM2 6ED,51.589137000000000,0.209072000000000
Marsh harrier and Mole,460218,RM14 3NS,51.551810406487300,0.281681891937778
Tit-tyrant and Asiatic leopard,459167,RM16 3HA,51.511741508144600,0.368114109386689
flying dragon and Jerboa,389576,SE18 2DQ,51.476632873404400,0.093996339770883
Minke whale and Maya,1532323,BR7 6NE,51.419515590000000,0.077519397000000
Asiatic leopard and smooth snake,456220,RM5 3TH,51.598077742850200,0.170837035181114
puff adder and Francolin,463156,RM10 7DL,51.552992057049900,0.162328071954226
Prion and Cloud rat,1352883,DA17 5NX,51.480018860527900,0.142023881938761
Masked owl and green turtle,455333,RM7 0PP,51.567063456487800,0.184784561554132
thorny devil and snake,2657603,RM3 8SH,51.596669000000000,0.215153000000000
Masked owl and boa constrictor,805021,ME3 7SU,51.453858000000000,0.477509000000000
Grackle and Pratincole,1349454,DA8 2NA,51.468688880650100,0.193515247666098
whip snake and crocodile,382827,SE28 0LY,51.502389000000000,0.086488000000000
flying dragon and jew lizard,456649,RM3 8YJ,51.607320665623000,0.223285467960460
tiger snake and Jerboa,458500,RM17 6SG,51.471919770021600,0.331318083627979
rattlesnake and hognose snake,1355388,DA12 4SZ,51.419105152734500,0.392318898510514
Fish eagle and Duck,458912,RM17 5HR,51.484069692103600,0.311326024675839
constrictor and diamondback turtle,456195,RM5 3RA,51.602104819821500,0.166061485410907
Philippine hawk-owl and tuatara,459483,RM16 2TA,51.491397104283900,0.328695870680107
Stilt and amethystine python,456986,RM3 8PD,51.598985722150300,0.211788449043333
Argus and Prion,1350744,DA7 4AT,51.459114796639900,0.132407613679512
diamond python and amphisbaena,282013,SS17 0WS,51.513962436109000,0.429241229109211
dukite and Grosbeak,1353724,DA16 1BQ,51.477952325618200,0.118164688909956
Parrotlet and Capuchin,805863,ME2 3RU,51.403066091124900,0.482842944281553
snake and bearded dragon,1765691,DA2 6FP,51.439031790652800,0.247104379694311
garter snake and Bunting,282330,SS16 4EU,51.566362668356800,0.483087749767446
chameleon and krait,1354582,DA14 4AT,51.429305577287500,0.103915891412139
crocodile and Jay,1436594,CM14 4DQ,51.614531897585100,0.297119347959952
New World blackbird and Quetzal,1354123,DA15 8AE,51.435781000000000,0.099465000000000
cobra and Piping shrike,1350632,DA6 8EL,51.457499742008600,0.129237410579164
taipan and Kestrel,1029323,IG11 7PN,51.534979000000000,0.083517714490474
worm lizard and Viscacha,1352915,DA17 5QP,51.485930505952200,0.149704592214487
Black cockatoo and python,1353569,DA15 9AH,51.436737345999200,0.113710574527205
death adder and Songlark,1027572,IG3 9TE,51.561948648043800,0.102977847489003
black snake and Dolphin,1357604,DA1 3PS,51.446244159636400,0.181372212641456
Flameback and mamba,456217,RM5 3TB,51.599838948793300,0.169939110364052
Guillemot and whip snake,1357817,DA1 2SW,51.433810722759400,0.211871567593650
Eagle and Philippine hawk-owl,459354,RM16 2GH,51.488187898514100,0.352502439816413
leathery turtle and Hawk,1350812,DA7 4HW,51.457945313379500,0.147208894231891
tiger snake and sidewinder,2640283,DA15 0HF,51.435945000000000,0.101355000000000
Black cockatoo and bushmaster,2585362,DA1 9ZZ,51.446601000000000,0.219455000000000
Badger and king cobra,1357501,DA1 3HZ,51.446076399320700,0.197094144154563
Kangaroo and swift,1353006,DA17 5RG,51.490621838793100,0.129167042394413
Piping shrike and sand viper,455130,RM7 7AT,51.578644322567400,0.165970423923484
Mamo and brown snake,454474,RM9 4ET,51.536095791277000,0.121382331093540
Snipe and Viscacha,1355859,DA11 9QB,51.440451992167800,0.342622874644419
worm lizard and tree snake,460116,RM15 5AE,51.510679653709900,0.283358592803809
Philippine hawk-owl and gaboon viper,1352226,DA2 7BL,51.426838350705500,0.207247925983554
thorny devil and Jay,1435647,CM15 9AX,51.622517457073100,0.304009675022154
bull snake and Kite,1356547,DA11 7BS,51.434242701410700,0.355829996808328
Grouse and anole,1351187,DA5 3LD,51.438023667264700,0.129094078098283
hognose snake and worm lizard,453949,RM9 5UT,51.553242224629400,0.145765301737040
Coati and Chipmunk,1436712,CM14 4NJ,51.614738781999500,0.284215891883464
tokay and gopher snake,463806,RM1 1DR,51.582763964847800,0.176126262864803
Vole and boomslang,458590,RM17 6XP,51.474855000000000,0.322582000000000
Kākāriki and Ibex,283786,SS14 1DL,51.570784000000000,0.454668000000000
Mamo and habu,1435908,CM15 8EQ,51.622760742966400,0.311303628206072
Prion and Siskin,1351489,DA4 9EL,51.407265729042900,0.236372436085882
king snake and Night heron,456031,RM5 3BA,51.590328159176300,0.166338522844165
Argus and Duck,1752025,SS14 3FU,51.590816000000000,0.485388000000000
Thicketbird and ringhals,281818,SS17 7SJ,51.529065310904300,0.445097956868510
cobra and mud turtle,2639547,CM14 9RD,51.620399000000000,0.303583000000000
leguaan and Chicken,804939,ME3 7LH,51.433347454631600,0.466643551384799
anaconda and Mamo,1349777,DA8 2AU,51.479132349731000,0.184223035932085
water snake and Marmoset,1027005,IG6 3ED,51.606140312363300,0.107907857927954
racer and thorn lizard,1531904,BR8 7XB,51.402677820000000,0.165596224000000
diamond python and Crow,1029352,IG11 0GJ,51.522547424151800,0.110704975527164
cobra de capello and diamondback turtle,463269,RM1 3RT,51.579402715285600,0.183759822068251
Minke whale and blindworm,1027547,IG3 9RU,51.563351117513300,0.118495355166238
gecko and hognose snake,1533935,BR5 3DG,51.409763550000000,0.110438657000000
snapping turtle and Warbler,282944,SS15 4JF,51.587440562189000,0.431239648803537
River dolphin and Crow,458080,RM18 8ND,51.469805089987700,0.366834240316360
Grackle and Parrotlet,1806784,RM7 9BW,51.572045138900000,0.156665961300000
Chipmunk and moloch,282229,SS16 5HE,51.561718988067100,0.454179349115505
tokay and diamondback,455316,RM7 8NB,51.595027060340700,0.158765319262719
Lemming and Polecat,1026262,IG7 6JN,51.618326837551100,0.108139000000000
Perching duck and Piping shrike,283045,SS15 5EF,51.571913146862200,0.440152338983293
iguana and B,463200,RM10 7LB,51.551979000000000,0.151461000000000
boomslang and cycling lizard,1355872,DA11 9QU,51.440445224968600,0.337557220810886
rock snake and snake,1352728,DA17 5BG,51.485484728059700,0.145074394320497
Black jay and agama,462099,RM12 4HE,51.558208386819900,0.193304796577172
Mouse and whip snake,1353609,DA15 9DZ,51.444271846463200,0.104301550957279
Prion and Armadillo,1351293,DA5 1NL,51.446241368155300,0.148415506426128
brown snake and Wallaby,1029520,IG11 0UJ,51.530629056631800,0.130759422778958
bushmaster and thorny devil,1349928,DA8 1AW,51.486007698936200,0.172351369376244
hoop snake and Treepie,1436345,CM14 4QQ,51.618295931522200,0.284885708253648
Jerboa and Schneider python,382538,SE28 8FY,51.509374831278900,0.112099222210318
sand viper and thorny devil,1355849,DA11 9PN,51.439124272069200,0.338856780533627
B and king snake,1534242,BR5 2QQ,51.400140050000000,0.098479705000000
Marsh harrier and Herring gull,457475,RM20 3FB,51.482225483316800,0.272718787132404
Goose and constrictor,1349226,DA8 3NE,51.470373524450900,0.161889145892304
Triller and Tree warbler,462252,RM11 1PP,51.566917921469300,0.210318146646148
tokay and king snake,459778,RM15 5EW,51.511896603573300,0.279974873420312
Parrotbill and monitor,1352157,DA2 7AJ,51.426274870442800,0.185973674718244
Skunk and Vulture,387089,SE2 9XB,51.497365424685800,0.125259913812843
chameleon and Old World quail,1029180,IG11 7DJ,51.534197571707300,0.086327659242647
agama and Meadowlark,1349531,DA8 2PQ,51.476999275640800,0.187692629218531
agama and agama,1356291,DA11 8AA,51.430208000000000,0.325137000000000
water snake and Gila monster,1436960,CM13 2JJ,51.624433169354400,0.329058826362840
bushmaster and terrapin,1028607,IG11 9SR,51.534974526686300,0.097220965648458
worm lizard and Grosbeak,455534,RM6 6LJ,51.568777312017900,0.133682808726362
elapid and boa constrictor,1030971,IG1 2NX,51.546668390419800,0.082398151351741
Hawaiian honeycreeper and carpet snake,1356996,DA10 0DH,51.445773464427400,0.300986600948646
king snake and sand lizard,282574,SS15 6LF,51.572536064120200,0.407829163037361
asp and pit viper,1436695,CM14 4LN,51.615085970345100,0.298216274561403
gopher snake and terrapin,455132,RM7 7AW,51.577776943594000,0.175426145962549
tortoise and diamond snake,1531862,BR7 6QF,51.410422910000000,0.077567331000000
slowworm and black snake,1026453,IG7 5ET,51.613031285376200,0.082068844065080
Grouse and bearded dragon,1027828,IG3 9ER,51.550202218523100,0.097055826134313
sand lizard and hognose snake,1349395,DA9 9AQ,51.451630090232000,0.273228226369634
Bronzewing pigeon and horned viper,461776,RM12 4TE,51.564919000000000,0.199010000000000
kabaragoya and dugite,1806648,RM3 3DH,51.605512071500000,0.223861382200000
coral snake and Rabbit,1027968,IG3 8FF,51.574713033700800,0.112283928422479
Philippine hawk-owl and Asiatic leopard,1350657,DA6 8HU,51.451682869355300,0.124691962897059
Fish eagle and hoop snake,388541,SE18 6WH,51.490736000000000,0.084847000000000
Old World quail and diamondback turtle,460111,RM15 4YE,51.496358000000000,0.229863850279330
bushmaster and dugite,1354908,DA13 9HG,51.402839404180000,0.347074000000000
Nukupuʻu and Mamo,1357334,DA1 2TU,51.438429000000000,0.196382000000000
smooth snake and diamondback turtle,459259,RM16 4AX,51.479675542200600,0.358559806671216
tuatara and Treepie,378223,SE9 2QH,51.453391422869300,0.081086608321766
Philippine hawk-owl and caiman,1028568,IG11 9QD,51.537336892366900,0.100891338557543
Cuscus and dukite,462660,RM10 8SJ,51.541840480544300,0.155723000000000
hognose snake and mountain devil,455407,RM7 0XT,51.558803027976400,0.180092000000000
Darwin's finches and cycling lizard,1028058,IG3 8PT,51.565908497218100,0.101804234157326
amphisbaena and amphisbaena,460343,RM14 2DN,51.543082849076700,0.252126585639826
monitor and Zebra,1350793,DA7 4EW,51.461418645200300,0.129347843007360
Mink and Duck,462127,RM11 2SU,51.586325393799900,0.222649983818208
Parrotlet and hognose snake,282486,SS16 4RJ,51.555788759236100,0.477029461246781
dugite and Black cockatoo,1765445,DA11 7BU,51.418066002891800,0.373135007043970
