name,postcode,lat,lon
Bronzewing pigeon and Skunk,AB41 7DD,57.494162000000000,-2.221432000000000
Shearwater and boa constrictor,AB41 8UD,57.486102290000000,-2.094805604000000
boa constrictor and diamond snake,AB42 3DJ,57.568525950000000,-1.857425282000000
Triller and frill-necked lizard,AB42 3JD,57.558193000000000,-1.871220000000000
Towhee and snake,AB42 3LJ,57.500295430000000,-1.865900189000000
Parakeet and Bunting,AB42 4AD,57.548477960617000,-2.017729189096010
leguaan and rattlesnake,AB42 4ET,57.536601000000000,-1.988895000000000
Treepie and death adder,AB42 4JN,57.528811830000000,-2.021760000000000
Stint and snake,AB42 4NB,57.520111770000000,-2.132690625000000
Bunting and Songlark,AB42 4QD,57.524268630000000,-2.178053466000000
Rabbit and Recurvebill,AB42 4RN,57.525200280000000,-2.136950160000000
copperhead and Old World warbler,AB42 4SU,57.518986090000000,-1.949502465000000
Jerboa and Guillemot,AB42 4TG,57.547531710000000,-2.019867000000000
tokay and puff adder,AB42 4TJ,57.517016050000000,-1.942711052000000
Mouse and caiman,AB42 4TT,57.515326500000000,-1.940877524000000
Treepie and New World blackbird,AB42 4UB,57.534542000000000,-1.928872000000000
Towhee and rattlesnake,AB42 4UW,57.514985220000000,-1.940994920000000
massasauga and Rat,AB42 4UX,57.546654000000000,-1.906027926000000
rattlesnake and River dolphin,AB42 4UY,57.543231870000000,-1.918948785000000
cobra de capello and Tree warbler,AB42 4XQ,57.516727760000000,-1.940858574000000
Tree warbler and Schneider python,AB42 5AZ,57.503728000000000,-2.039066000000000
worm lizard and Dolphin,AB42 5DE,57.509197060000000,-2.044647000000000
asp and B,AB42 5EY,57.524407000000000,-2.002110000000000
goanna and agamid,AB42 5GA,57.524636980000000,-2.004777307000000
king snake and agama,AB42 5LJ,57.518837770000000,-2.037413280000000
wall lizard and Partridge,AB42 5LN,57.519824900000000,-2.040435993000000
fer-de-lance and Rabbit,AB42 5PN,57.523698190000000,-2.089159894000000
Boto and python,AB42 5SA,57.486562380000000,-2.169846935000000
sand lizard and loggerhead,AB42 5SP,57.494505600000000,-2.180978000000000
puff adder and Logrunners,AB42 5SW,57.489935300000000,-2.197586185000000
diamondback terrapin and Kestrel,AB42 5WA,57.521241560000000,-1.993490952000000
boa constrictor and Nukupu ªu,AB43 6AF,57.588356440000000,-2.197451105000000
viper and Siskin,AB43 6EF,57.588960940000000,-2.195731591000000
gavial and Old World warbler,AB43 6HX,57.668738040000000,-2.249082101000000
Francolin and Armadillo,AB43 6NX,57.579739000000000,-2.154612091000000
leathery turtle and chameleon,AB43 6NY,57.577904810000000,-2.148786286000000
diamondback terrapin and Quetzal,AB43 6PZ,57.589605350000000,-2.196823000000000
anaconda and Greenbul,AB43 6QP,57.601730450000000,-2.248723677000000
boa constrictor and bandy-bandy,AB43 6SH,57.628975630000000,-2.151524000000000
turtle and Crow,AB43 7AU,57.619972000000000,-2.032228000000000
Logrunners and Hawk,AB43 7BU,57.632834520000000,-2.100798665000000
constrictor and puff adder,AB43 7DS,57.628007510000000,-2.124812991000000
boomslang and green turtle,AB43 7EQ,57.697342660000000,-2.063014000000000
New World blackbird and saltwater crocodile,AB43 7FS,57.695743810000000,-2.063279674000000
rock python and Myna,AB43 7FW,57.674796000000000,-2.019541000000000
bandy-bandy and fer-de-lance,AB43 7JB,57.697064960000000,-2.113727000000000
worm lizard and fer-de-lance,AB43 7LP,57.654480160000000,-2.182428314000000
gavial and Kangaroo,AB43 8QJ,57.601469000000000,-1.912528000000000
ringhals and Crow,AB43 8QX,57.579427180000000,-1.927430127000000
Fish eagle and Chipmunk,AB43 8SL,57.628388020000000,-1.940912436000000
Wader and sidewinder,AB43 8SQ,57.607385000000000,-1.936093000000000
Tree warbler and Linsang,AB43 8SX,57.631787000000000,-2.012746000000000
iguana and Dorcopsis,AB43 8TS,57.658303300000000,-1.988758404000000
ringhals and smooth snake,AB43 8TX,57.663216990000000,-2.005282000000000
smooth snake and Rabbit,AB43 8UD,57.619102740000000,-1.946434888000000
sidewinder and hoop snake,AB43 8YG,57.672041000000000,-1.938998000000000
Macaw and River dolphin,AB43 8YR,57.656737290000000,-1.912094000000000
diamond python and diamondback terrapin,AB43 9BD,57.690208660000000,-2.004347390000000
elapid and goanna,AB43 9EB,57.696074110000000,-2.002318306000000
Greenbul and Ice seal,AB43 9EN,57.695265660000000,-2.004096406000000
White ibis and Gull,AB43 9HB,57.694582570000000,-2.011175268000000
Solitaire and Ground sloth,AB43 9JS,57.692201810000000,-2.015552440000000
tiger snake and death adder,AB43 9NF,57.687629290000000,-2.019575617000000
bull snake and chameleon,AB43 9QA,57.685483280000000,-2.014056936000000
New World blackbird and python,AB43 9RU,57.694672200000000,-2.013121171000000
ringhals and Ice seal,AB43 9TY,57.689792410000000,-2.027963067000000
Moluccan boobook and bandy-bandy,AB43 9UY,57.684214430000000,-2.028042581000000
Hawaiian honeycreeper and Grackle,AB53 6SE,57.513318200000000,-2.190852513000000
Tree warbler and copperhead,AB53 6TE,57.511637520000000,-2.191477975000000
Minke whale and whip snake,AB53 6UD,57.547470670000000,-2.228071002000000
Masked owl and leathery turtle,AB53 6YH,57.511589000000000,-2.226228000000000
