name,postcode,lat,lon
diamondback and Macaw,AB41 8UN,57.483591900000000,-2.074435334000000
Fox and Viscacha,AB41 8UP,57.485664890000000,-2.061480084000000
dukite and indigo snake,AB41 8XJ,57.477602000000000,-2.052128000000000
loggerhead and Civet,AB42 3JD,57.558193000000000,-1.871220000000000
black snake and Petrel,AB42 4HA,57.550210100000000,-2.002224458000000
Elephant and Parrotbill,AB42 4LE,57.529226000000000,-2.068300000000000
Jerboa and blue racer,AB42 4LF,57.530786000000000,-2.074231000000000
water snake and Wader,AB42 4LP,57.525786000000000,-2.047739000000000
Songlark and Egret,AB42 4PQ,57.521540560000000,-2.122812000000000
Goose and Scimitar babbler,AB42 4QT,57.564287370000000,-2.170175763000000
cycling lizard and fer-de-lance,AB42 4UN,57.546443480000000,-1.944720004000000
habu and Kestrel,AB42 4YR,57.480297000000000,-1.902261000000000
Puffleg and krait,AB42 5DP,57.501974680000000,-2.046273020000000
Civet and Snipe,AB42 5DS,57.505918970000000,-2.064451386000000
Masked owl and racer,AB42 5ES,57.521547020000000,-1.994960081000000
hognose snake and Wallaby,AB42 5FA,57.521223350000000,-2.009685193000000
flying dragon and lizard,AB42 5GP,57.523765380000000,-2.009886240000000
jew lizard and horned viper,AB42 5HJ,57.522220780000000,-1.997614584000000
Goose and blue racer,AB42 5HR,57.502243140000000,-2.048943190000000
Masked owl and Hawaiian honeycreeper,AB42 5JN,57.518603680000000,-2.039199285000000
indigo snake and Stilt,AB42 5JX,57.515393990000000,-2.047708959000000
Wallaby and python,AB42 5LB,57.520552550000000,-2.040236466000000
Mole and Coati,AB42 5LJ,57.518837770000000,-2.037413280000000
glass snake and White ibis,AB42 5PW,57.490880200000000,-2.117087492000000
Komodo dragon and Pitohui,AB42 5RZ,57.507877260000000,-2.170329941000000
Viscacha and Grouse,AB42 5SR,57.481486430000000,-2.189318748000000
Armadillo and turtle,AB43 6AA,57.584844000000000,-2.090001000000000
habu and Buzzard,AB43 6LA,57.679094640000000,-2.145478890000000
slowworm and carpet snake,AB43 6LR,57.595274550000000,-2.202072400000000
Myna and Recurvebill,AB43 6NJ,57.589791000000000,-2.198847000000000
soft-shelled turtle and Booted eagles,AB43 6NY,57.577904810000000,-2.148786286000000
Night heron and Capuchin,AB43 6PR,57.598768870000000,-2.256399550000000
American sparrow and adder,AB43 6QB,57.619552770000000,-2.208300755000000
Mamo and king snake,AB43 6RP,57.578851640000000,-2.029030924000000
king snake and Mouse,AB43 6TB,57.568968990000000,-2.090156846000000
snapping turtle and carpet snake,AB43 6TL,57.577703840000000,-2.127232142000000
Rat and jew lizard,AB43 6TP,57.577298000000000,-2.090751000000000
Linsang and Mole,AB43 7AA,57.676139260000000,-2.028925000000000
harlequin snake and Parrotbill,AB43 7AX,57.609013640000000,-2.032268358000000
Kestrel and bicycle lizard,AB43 7ED,57.690581680000000,-2.032073000000000
racer and Zebra,AB43 7FN,57.694713000000000,-2.058531000000000
kabaragoya and Ice seal,AB43 7HS,57.696803660000000,-2.063398960000000
anaconda and loggerhead,AB43 7HU,57.675833000000000,-2.031507000000000
Ibex and water snake,AB43 7JS,57.698218580000000,-2.119032111000000
Stint and sand viper,AB43 7NY,57.690860930000000,-2.120299458000000
bicycle lizard and perentie,AB43 8AD,57.601053980000000,-1.909199883000000
rock python and hawksbill,AB43 8QD,57.586501000000000,-1.959076000000000
turtle and Recurvebill,AB43 8QG,57.599801850000000,-1.917083339000000
Fulmarine petrel and black snake,AB43 8QN,57.608490690000000,-1.908244231000000
Argus and Tattler,AB43 8QX,57.579427180000000,-1.927430127000000
B and tokay,AB43 8SA,57.617706590000000,-1.960313823000000
Komodo dragon and frill-necked lizard,AB43 8UE,57.683184000000000,-2.003038464000000
Mole and Magpie,AB43 8WD,57.674057990000000,-1.931047576000000
Viscacha and Minke whale,AB43 8WN,57.676854300000000,-1.936474655000000
Tree warbler and Warbler,AB43 8YD,57.673249000000000,-1.931032000000000
massasauga and horned toad,AB43 8YY,57.599098300000000,-1.912718205000000
puff adder and rock python,AB43 8YZ,57.658552000000000,-1.913062000000000
Jackal and Grosbeak,AB43 9AE,57.692651810000000,-2.004750272000000
cobra de capello and goanna,AB43 9AR,57.692085880000000,-2.005806931000000
Tattler and tiger snake,AB43 9BP,57.691942230000000,-2.004196648000000
Booted eagles and Skunk,AB43 9DF,57.690538270000000,-2.026420542000000
Pratincole and whip snake,AB43 9DH,57.695625000000000,-2.004868000000000
turtle and horned viper,AB43 9EA,57.695373460000000,-2.003643491000000
Shearwater and flying dragon,AB43 9EF,57.686135910000000,-2.031062831000000
Mink and Fox,AB43 9EW,57.684896620000000,-2.030022005000000
Thrasher and gavial,AB43 9FH,57.679078790000000,-2.015328748000000
Treepie and fer-de-lance,AB43 9FJ,57.679599730000000,-2.015513418000000
Parakeet and giant tortoise,AB43 9HX,57.693396980000000,-2.010453603000000
anole and Argus,AB43 9JY,57.690413380000000,-2.021992425000000
king snake and Eagle,AB43 9LG,57.694482110000000,-2.022632000000000
Stilt and Recurvebill,AB43 9LS,57.690774180000000,-2.010335419000000
Capuchin and fer-de-lance,AB43 9NN,57.685491270000000,-2.021083799000000
Grosbeak and smooth snake,AB43 9NS,57.683219290000000,-2.017695025000000
Wallaby and Skunk,AB43 9NU,57.685051770000000,-2.016958035000000
carpet snake and Tattler,AB43 9PJ,57.689768310000000,-2.008490147000000
Grackle and cobra,AB43 9PY,57.685671790000000,-2.015046477000000
whip snake and diamondback,AB43 9QA,57.685483280000000,-2.014056936000000
Flameback and puff adder,AB43 9QE,57.682806300000000,-2.016235891000000
Armadillo and python,AB43 9QH,57.682042670000000,-2.017258450000000
sand viper and Perching duck,AB43 9QP,57.694510590000000,-2.012416574000000
dukite and Capuchin,AB43 9RW,57.682706140000000,-2.024570168000000
White ibis and iguana,AB43 9ST,57.677946900000000,-2.016317519000000
Chickadee and Cuscus,AB43 9UG,57.683675390000000,-2.028511713000000
dugite and glass snake,AB43 9WF,57.679787460000000,-2.021583484000000
Myna and Peafowl,AB53 6TW,57.510698420000000,-2.188785907000000
skink and galliwasp,AB53 6UA,57.537648690000000,-2.230347960000000
diamondback turtle and pit viper,AB53 6XP,57.500387340000000,-2.240975305000000
