name,postcode,lat,lon
Philippine hawk-owl and cayman,AB42 3ED,57.506536620000000,-1.892495000000000
Macaw and soft-shelled turtle,AB42 3ER,57.579838130000000,-1.868802215000000
wall lizard and Bunting,AB42 4EN,57.547612000000000,-2.022640337000000
Hawk and coral snake,AB42 4EP,57.547028310000000,-2.022389457000000
pit viper and gavial,AB42 4HF,57.548043780000000,-2.019700203000000
Kestrel and agama,AB42 4HJ,57.548456760000000,-2.020953495000000
Solitaire and Mamo,AB42 4LU,57.556994140000000,-2.040878510000000
soft-shelled turtle and Scimitar babbler,AB42 4NB,57.520111770000000,-2.132690625000000
diamond snake and krait,AB42 4NN,57.522039630000000,-2.127672000000000
tortoise and Capuchin,AB42 4QU,57.569589000000000,-2.170908000000000
bicycle lizard and boa,AB42 4QZ,57.521398580000000,-2.138872527000000
Puffleg and bearded lizard,AB42 4UJ,57.541401840000000,-1.962500995000000
Jay and horned viper,AB42 4UZ,57.547186000000000,-1.897388000000000
Old World vulture and Dorcopsis,AB42 4XR,57.515895840000000,-1.930009685000000
turtle and diamondback turtle,AB42 4XY,57.512074600000000,-1.940365342000000
Crow and bandy-bandy,AB42 4YT,57.480315000000000,-1.902361000000000
giant tortoise and frill-necked lizard,AB42 5BX,57.506554900000000,-1.989054350000000
coral snake and Myna,AB42 5EZ,57.524407000000000,-2.002110000000000
bearded lizard and Kangaroo,AB42 5FP,57.523478320000000,-2.002473082000000
horned toad and Nukupuʻu,AB42 5HP,57.501741550000000,-2.044904000000000
fer-de-lance and Pitohui,AB42 5HR,57.502243140000000,-2.048943190000000
Partridge and swift,AB42 5JT,57.522124670000000,-2.039653866000000
tree snake and perentie,AB42 5JY,57.521973820000000,-2.057301000000000
habu and gaboon viper,AB42 5NT,57.513276920000000,-2.113453875000000
Dorcopsis and crocodile,AB42 5RW,57.505298320000000,-2.171035487000000
krait and cobra,AB42 5SQ,57.494859000000000,-2.190773000000000
Hawk and habu,AB43 6HQ,57.677241470000000,-2.155397379000000
galliwasp and crocodile,AB43 6HU,57.663212020000000,-2.215942544000000
tree snake and moloch,AB43 6NW,57.591978010000000,-2.196383463000000
king cobra and deaf adder,AB43 6QB,57.619552770000000,-2.208300755000000
Nukupuʻu and diamondback turtle,AB43 6RX,57.588814370000000,-2.097816424000000
cycling lizard and soft-shelled turtle,AB43 6SL,57.618895820000000,-2.128397498000000
Duck and Ice seal,AB43 6TF,57.585074000000000,-2.090849000000000
gecko and leguaan,AB43 6TN,57.575789000000000,-2.108900000000000
Wallaby and black snake,AB43 6TY,57.587260470000000,-2.085385319000000
Macaw and Wallaby,AB43 6TZ,57.588953330000000,-2.092331000000000
Perching duck and Siskin,AB43 7AJ,57.658571000000000,-2.024235000000000
ringhals and iguana,AB43 7BF,57.653113356957600,-2.051024066108400
bushmaster and Hawaiian honeycreeper,AB43 7DN,57.656196210000000,-2.122547217000000
Maya and horned viper,AB43 7ED,57.690581680000000,-2.032073000000000
Petrel and Ice seal,AB43 7EN,57.692858580000000,-2.067031990000000
Hawk and boa,AB43 7FD,57.689395810000000,-2.033380000000000
snake and habu,AB43 7GE,57.678197404348900,-2.034610869783750
alligator and coral snake,AB43 7JD,57.697063100000000,-2.115555700000000
puff adder and gecko,AB43 7JH,57.695394310000000,-2.113453483000000
racer and rock snake,AB43 7JP,57.695216090000000,-2.111859295000000
habu and bandy-bandy,AB43 7RA,57.596572280000000,-2.181535607000000
Partridge and Tit-tyrant,AB43 8AB,57.600533000000000,-1.910004000000000
ringhals and American sparrow,AB43 8QL,57.600429730000000,-1.915743405000000
Kangaroo and tortoise,AB43 8RT,57.608730770000000,-1.953093940000000
loggerhead and Bronzewing pigeon,AB43 8ST,57.617550520000000,-1.988168088000000
cayman and Peafowl,AB43 8TS,57.658303300000000,-1.988758404000000
gaboon viper and harlequin snake,AB43 8UE,57.683184000000000,-2.003038464000000
Triller and diamond snake,AB43 8UR,57.650244220000000,-1.974888287000000
Armadillo and anole,AB43 8UY,57.624789440000000,-2.018335895000000
Viscacha and boomslang,AB43 8WL,57.677375190000000,-1.936322846000000
Bunting and lizard,AB43 8YY,57.599098300000000,-1.912718205000000
Wader and Flameback,AB43 8ZW,57.659862550000000,-1.911047727000000
Elephant and Tahr,AB43 8ZX,57.658594070000000,-1.908268970000000
Songlark and Asiatic leopard,AB43 9AX,57.691448200000000,-2.004548827000000
blindworm and Duck,AB43 9AY,57.678134850000000,-2.020861503000000
soft-shelled turtle and brown snake,AB43 9BE,57.689216580000000,-2.032038281000000
box turtle and fer-de-lance,AB43 9BQ,57.689342640000000,-2.030797241000000
bearded dragon and Jackal,AB43 9DQ,57.695687000000000,-2.006999000000000
kabaragoya and frilled lizard,AB43 9FB,57.687636120000000,-2.030359721000000
Badger and gopher snake,AB43 9FD,57.687626880000000,-2.031399548000000
puff adder and Night heron,AB43 9HT,57.693091620000000,-2.009983840000000
mud turtle and milk snake,AB43 9JA,57.691663610000000,-2.007802895000000
Fox and Fulmarine petrel,AB43 9JT,57.691788400000000,-2.017279926000000
horned viper and python,AB43 9JX,57.692497220000000,-2.022194987000000
Old World vulture and giant tortoise,AB43 9PZ,57.684071800000000,-2.022642565000000
Ibex and giant tortoise,AB43 9QR,57.695588160000000,-2.015134535000000
Wader and Guillemot,AB43 9SH,57.696584900000000,-2.017299019000000
Pheasant and Cloud rat,AB43 9SN,57.683810490000000,-2.026834843000000
Chicken and bull snake,AB43 9TA,57.687936210000000,-2.002183555000000
snake and boomslang,AB43 9TB,57.689229000000000,-2.001060000000000
Pratincole and Parakeet,AB43 9TF,57.681151000000000,-2.030119000000000
Grackle and Booted eagles,AB43 9TJ,57.679777020000000,-2.028827215000000
Moluccan boobook and Parrotlet,AB43 9TU,57.681557320000000,-2.019371076000000
cobra and Chicken,AB43 9UY,57.684214430000000,-2.028042581000000
rattlesnake and Wallaby,AB43 9WG,57.679446030000000,-2.022153383000000
milk snake and New World blackbird,AB43 9WH,57.678232900000000,-2.024952756000000
snake and Dorcopsis,AB53 6RU,57.507724440000000,-2.176938056000000
krait and Warbler,AB53 6SL,57.510751460000000,-2.183278368000000
viper and king cobra,AB53 6TG,57.511545100000000,-2.193179943000000
adder and amethystine python,AB53 6TH,57.509749000000000,-2.192736000000000
rat snake and Quetzal,AB53 6US,57.561947830000000,-2.197642251000000
wall lizard and mamba,AB53 6XA,57.554260290000000,-2.243102582000000
