name,postcode,lat,lon
Claytons and The Glasshouse,EX31 1BA,51.079773000000000,-4.060834000000000
Subway,EX31 1BD,51.079686179287400,-4.060572968490170
Barnstaple Wimpy,EX31 1BL,51.080495015283000,-4.060208000000000
Banburys Ltd,EX31 1BN,51.080773338857500,-4.060263000000000
Artisarni Food Company Ltd,EX31 1BW,51.080329874839300,-4.059063000000000
El Jefe Catering Limited,EX31 1BX,51.080959921419400,-4.059458000000000
Nepalese Gurkha Restaurant,EX31 1BX,51.080959921419400,-4.059458000000000
Pannier Market Cafe Barnstaple,EX31 1BX,51.080959921419400,-4.059458000000000
Barnstaple Coffee Shop,EX31 1BZ,51.081695082589800,-4.060890703040870
The Boston Tea Party Group Limited,EX31 1DH,51.081149287707100,-4.061751653153880
Lemon next to the Pie,EX31 1DW,51.080697101334400,-4.060874894463200
Custom House,EX31 1EU,51.078956346643700,-4.060140777562790
Queen Annes Cafe,EX31 1EU,51.078956346643700,-4.060140777562790
Coffee Lounge ,EX31 1GB,51.084682310651500,-4.071674000000000
The Royal & Fortescue Hotel,EX31 1HG,51.078667723863900,-4.058657436653350
Latitude 48,EX31 1HR,51.079475607645600,-4.059764091741900
The rolle quay inn,EX31 1JE,51.082458000000000,-4.063623000000000
The Barnstaple Hotel,EX31 1LE,51.085311000000000,-4.075145000000000
Burger King,EX31 1LG,51.085799000000000,-4.076023000000000
WWDP LTD,EX31 1LG,51.085799000000000,-4.076023000000000
Giovannis Restaurant,EX31 1RX,51.080784000000000,-4.058031907452410
Lush bar and restaurant,EX31 1SH,51.079280361362000,-4.058215000000000
Upstairs at the Queens,EX31 1SY,51.081044632057000,-4.058505985639980
Bull & Bear,EX31 1TD,51.082555894557900,-4.060015175311110
Green Lanes Cafe,EX31 1UL,51.082112000000000,-4.060766000000000
North Devon Leisure Centre,EX31 2AP,51.075721158279600,-4.058983446036410
Tarka Tennis Centre,EX31 2AS,51.073015000000000,-4.059034000000000
station masters cafe,EX31 2AU,51.075555000000000,-4.062388000000000
wrey arms,EX31 2BX,51.072431812557300,-4.074968000000000
The Old Barn Inn,EX31 2JU,51.072049422384300,-4.098047726139030
The fremington quay cafe,EX31 2NH,51.081529000000000,-4.117509000000000
HAN COURT,EX31 2NX,51.072048956141300,-4.122472086259840
Hunters Inn,EX31 3PL,51.022435682613200,-4.100383684263950
McDonald's Roundswell,EX31 3RY,51.065829606108400,-4.085791367392780
Subway,EX31 3RZ,51.062959135773600,-4.083864022316380
Air Extreme Ltd ,EX31 3TA,51.064336000000000,-4.084328857760750
Sandbanks Cafe,EX31 3UH,51.068263000000000,-4.165973000000000
The Waterside,EX31 4AY,51.093206000000000,-4.131181000000000
St Johns Garden Centre  Ashford,EX31 4BW,51.096722614475700,-4.099807470292130
The Muddiford Inn,EX31 4EY,51.128729000000000,-4.049235000000000
The Old Station House Inn,EX31 4NW,51.170780578782700,-3.937387466960030
THE CHICHESTER ARMS,EX32 0DQ,51.051472225241800,-4.045322656106300
Castle Inn,EX32 0NF,51.062073000000000,-4.001419000000000
Next Steps Development (The Wooden Bowl),EX32 7AS,51.085477893334700,-4.058531509126490
Silver Cod,EX32 7DB,51.081021559911100,-4.057262811722340
The New Inn,EX32 7LX,51.089531232625500,-4.000691287990370
LILICOS 1844,EX32 8LW,51.078470464837600,-4.059134089163500
TREAT TIME ,EX32 8LW,51.078470464837600,-4.059134089163500
The Imperial Hotel,EX32 8NB,51.077346855613200,-4.057570886011540
McDonald's Barnstaple,EX32 8PB,51.075680095347700,-4.046179000000000
The Park Hotel,EX32 9AE,51.075176267870700,-4.053662938102460
St Johns Garden Centre,EX32 9DD,51.070679000000000,-4.039917000000000
At One Dining,EX33 1AA,51.108629941821200,-4.162435260835760
The Riverside,EX33 1AA,51.108629941821200,-4.162435260835760
The Siam Bistro,EX33 1AA,51.108629941821200,-4.162435260835760
Wild Thyme Juice Cafe,EX33 1EE,51.108292194648600,-4.164162406607010
The Kings Arms,EX33 1JJ,51.136847000000000,-4.196402667709590
The Rock Inn,EX33 1JW,51.137875653388200,-4.192893003068150
Saunton Golf Club Ltd,EX33 1LG,51.117395327476500,-4.213527908806250
The Saunton Sands Hotel,EX33 1LQ,51.118160887589100,-4.220580581971570
BILLY BUDDS,EX33 1LZ,51.130279000000000,-4.225178000000000
Blue Groove ltd,EX33 1LZ,51.130279000000000,-4.225178000000000
THE THATCH BARN INN,EX33 1LZ,51.130279000000000,-4.225178000000000
Manor House Inn,EX33 1PG,51.131071860350300,-4.220299601713820
Croyde Bay Holiday Resort (UNISON),EX33 1QB,51.127161000000000,-4.233990000000000
Williams Arms,EX33 2DE,51.100670862390700,-4.151222296573180
The Quay Cafe ,EX33 2DX,51.100005821825800,-4.165803565918470
The Agricultural Inn,EX33 2EA,51.109782707219200,-4.160403236333730
The Black Horse,EX33 2EL,51.112142723838000,-4.159227474188780
The Worx,EX33 2JD,51.108495658490200,-4.160943220607240
The George Inn,EX33 2JJ,51.107871424359400,-4.161142671773800
Squires Fish Restaurant,EX33 2JL,51.106930819428300,-4.160455922376000
SQ Bar and Restaurant,EX33 2JT,51.107942769735700,-4.160688846343380
Funder Island  ,EX34 7BA,51.172186517996500,-4.204981000000000
The Jube,EX34 7BB,51.171573000000000,-4.204477000000000
Bar Electric,EX34 7BP,51.172694456687100,-4.205517893966380
The Captains Table,EX34 7BW,51.172125000000000,-4.205726856428190
The Red Barn,EX34 7DF,51.172657152207800,-4.207018262523260
The Old Mill,EX34 7HJ,51.169530776705600,-4.172264714807050
Golden Coast Sporting Villas Ltd,EX34 7HW,51.171303336878000,-4.174636952584350
Trimstone Manor House Country House Hotel,EX34 8NR,51.170594636621500,-4.147780878176170
Libbaton Golf Club,EX37 9BS,50.956372918357600,-3.994798000000000
The Rising Sun Ltd,EX37 9DU,50.998859386048100,-3.986012734547120
The Portsmouth Arms  Hotel,EX37 9ND,50.957399407054500,-3.947605892222620
The Bell Inn Chittlehampton ,EX37 9QL,51.012948000000000,-3.944629000000000
FAIRWAYS CATERING,EX38 7EZ,50.958354000000000,-4.155876000000000
Ruby Oak Park Ltd,EX38 7JU,50.966328636796600,-4.057773002697720
L'Incontro Italian Coffee Shop,EX38 8HE,50.951672000000000,-4.142732287269390
Lions coffee house,EX38 8HQ,50.952437526962800,-4.143029702303470
Puffing Billy Trading Co.,EX38 8JD,50.958117000000000,-4.165670982098920
Beach Bar Diner Ltd trading as Pig on the Beach,EX39 1GW,51.040506610503000,-4.238448000000000
Beach Coffee Ltd,EX39 1GW,51.040506610503000,-4.238448000000000
Pig and Olive,EX39 1HN,51.043594115142700,-4.233973000000000
The Village Inn,EX39 1HU,51.039582714964300,-4.237632959653620
The Pier House,EX39 1JU,51.039909359118200,-4.247574000000000
Moran's Restaurant and Bar,EX39 1LH,51.041377934153900,-4.236407042098810
Rock Pool Cafe,EX39 1LH,51.041377934153900,-4.236407042098810
The Waterfront Inn,EX39 1LH,51.041377934153900,-4.236407042098810
A slice of life cafe ,EX39 1LL,51.042203491543400,-4.236503877492350
Beach Pasty Shack ltd,EX39 1LL,51.042203491543400,-4.236503877492350
COUNTRY COUSINS RESTARANT,EX39 1LL,51.042203491543400,-4.236503877492350
COUNTRY COUSINS RESTAURANT,EX39 1LL,51.042203491543400,-4.236503877492350
Fun on the Prom ltd,EX39 1LL,51.042203491543400,-4.236503877492350
Main Sail Tea Room,EX39 1LQ,51.040287981927200,-4.236497190142920
Market Street Kitchen,EX39 1PP,51.053782982569000,-4.191301000000000
Appledore Flame Factory,EX39 1QS,51.053182286303200,-4.191071519315000
Sailors Rest,EX39 1QS,51.053182286303200,-4.191071519315000
The Beaver Inn,EX39 1RY,51.056482136386400,-4.194466696953100
Le Petit Monde,EX39 2DA,51.018792000000000,-4.205499800360210
Velvet and Vanilla,EX39 2DA,51.018792000000000,-4.205499800360210
Frasier's foods,EX39 2DR,51.016979000000000,-4.207220937478020
Belluno Italian Restaurant Limited,EX39 2DY,51.015961734276900,-4.207109749648880
Cafe Collective,EX39 2EA,51.017622442275700,-4.207274186013430
Otters On The Quay Ltd,EX39 2HW,51.017407000000000,-4.205017411823550
Secret Garden Cafe ,EX39 2JW,51.019335783247300,-4.206557085206970
The Chocolate Teapot ,EX39 2JW,51.019335783247300,-4.206557085206970
Pannier Pantry at The Custom House,EX39 2PS,51.019937000000000,-4.204807622343200
Cafe du Parc,EX39 2QQ,51.021875000000000,-4.203626000000000
McDonald's Bideford,EX39 3QU,51.007897950219600,-4.236235519657200
Starbucks Bideford,EX39 3QU,51.007897950219600,-4.236235519657200
The Royal Hotel,EX39 4AE,51.017040279072600,-4.200602000000000
Riverside bistro,EX39 4DP,51.015371218854000,-4.201706558435000
Tarka Diner,EX39 4DT,51.009069110005800,-4.201579075483350
Johns Of Instow Ltd,EX39 4HY,51.050911566830600,-4.180248623779520
The Quay Inn,EX39 4HY,51.050911566830600,-4.180248623779520
Instow Arms Limited,EX39 4JJ,51.055301019149400,-4.180697452043440
The Commodore Hotel,EX39 4JN,51.053646864230800,-4.180662524391130
The Wayfarer Inn,EX39 4LB,51.055929338375800,-4.179799425494700
The Glorious Oyster,EX39 4LF,51.059666893827400,-4.177106509221380
The Westleigh Inn,EX39 4NL,51.036836195737500,-4.182682973457790
The Thatched Inn,EX39 5BA,51.017418892060800,-4.246717361975820
The Hoops Inn,EX39 5DL,50.984522560078200,-4.316757000000000
The Crealock Arms,EX39 5HN,50.987411789404600,-4.229893000000000
The Bell Inn,EX39 5JS,50.965164564794900,-4.202407424852670
Feather & Hide Ltd,EX39 5LW,50.964834000000000,-4.253735000000000
The Bell Inn,EX39 5PL,50.967661149191900,-4.296772000000000
