name,postcode,lat,lon
rock python and tree snake,EX31 1EU,51.078956346643700,-4.060140777562790
asp and milk snake,EX31 1GZ,51.083837708582300,-4.063313346709810
Moluccan boobook and Mole,EX31 1JJ,51.082849240640600,-4.067338625792550
Dorcopsis and Parrotlet,EX31 1JS,51.085333542302500,-4.064165270135490
Mockingbird and Fox,EX31 1ND,51.087799746953300,-4.059462849640010
Tree warbler and taipan,EX31 1NY,51.092232309071300,-4.054418689374760
Asiatic leopard and blue racer,EX31 1QF,51.091216353483000,-4.062570786904150
Linsang and Stilt,EX31 1QS,51.088473866103300,-4.063562570485900
Marmoset and B,EX31 1QZ,51.088936156687700,-4.066410599809120
gecko and copperhead,EX31 1RR,51.081712945583400,-4.057836048809500
Thicketbird and Fox,EX31 1RZ,51.089299165186000,-4.055516760192430
Masked owl and Mole,EX31 1YN,51.079948630422700,-4.055789000000000
Songlark and Scimitar babbler,EX31 2DD,51.070465734359800,-4.074423350909280
green turtle and cobra de capello,EX31 2EH,51.073411263646800,-4.077196036620900
rock python and brown snake,EX31 2HG,51.072138168021200,-4.081521402080470
giant tortoise and Linsang,EX31 2JU,51.072049422384300,-4.098047726139030
monitor and Elephant,EX31 2LW,51.074145525126700,-4.099013369592260
tortoise and carpet snake,EX31 2NR,51.071209507633400,-4.120163993283500
tree snake and wall lizard,EX31 2NU,51.071536061406800,-4.121862000000000
puff adder and smooth snake,EX31 2PZ,51.069794255500200,-4.116873317249090
Francolin and Old World vulture,EX31 2QD,51.073370092454300,-4.119549007652370
Diving bird and Linsang,EX31 3AN,51.069286518425500,-4.133907685565560
Recurvebill and agama,EX31 3BD,51.070392083044000,-4.124565971449110
Booted eagles and Warbler,EX31 3BU,51.071637000000000,-4.130861000000000
Treepie and fer-de-lance,EX31 3DE,51.070745410995900,-4.129364130965880
frilled lizard and jew lizard,EX31 3DL,51.069593281482800,-4.129910749301410
copperhead and Parrotlet,EX31 3DP,51.068357817640700,-4.131081561498140
diamondback terrapin and Recurvebill,EX31 3FL,51.065562500021700,-4.093130509573670
Asiatic leopard and Mamo,EX31 3FN,51.063637012323800,-4.081097725422780
dukite and Warbler,EX31 3GJ,51.067471000000000,-4.147009000000000
glass snake and Capuchin,EX31 3HF,51.063998595453600,-4.163567000000000
Thicketbird and Francolin,EX31 3JQ,51.025565000000000,-4.039091000000000
Masked owl and wall lizard,EX31 3JZ,51.039173307924200,-4.076191708417440
Polecat and Vulture,EX31 3NL,51.066536179037500,-4.079386000000000
skink and Capuchin,EX31 3NN,51.066581233943600,-4.076543000000000
Asiatic leopard and Mamo,EX31 3PZ,51.027585140905100,-4.114549757346810
cobra de capello and anole,EX31 3QF,51.053444044798100,-4.125302486304620
Treepie and adder,EX31 3QS,51.068704009609200,-4.084978556657840
Civet and Flameback,EX31 3RL,51.069689355820400,-4.084694547551170
Komodo dragon and Mouse,EX31 3RU,51.071713903559400,-4.089167908203620
Eagle and Treepie,EX31 3SE,51.070323556297600,-4.084937169833350
galliwasp and massasauga,EX31 3UY,51.068882960077900,-4.093579489447860
copperhead and Pheasant,EX31 3WA,51.063816000000000,-4.083098000000000
Schneider python and glass snake,EX31 3WQ,51.068698000000000,-4.097263000000000
monitor and Pheasant,EX31 3XE,51.067368304485300,-4.092283605683860
skink and thorn lizard,EX31 3XG,51.065692454830800,-4.094463135627120
Prion and horned viper,EX31 3XX,51.069417602245400,-4.094859741880920
Tahr and Logrunners,EX31 4AF,51.088996000000000,-4.071754000000000
Mink and rattlesnake,EX31 4AH,51.090069737979500,-4.067403647955270
Capuchin and skink,EX31 4BB,51.090863769722800,-4.136257750192600
Grosbeak and Philippine hawk-owl,EX31 4BS,51.096923787847500,-4.096617294146190
chuckwalla and monitor,EX31 4DR,51.096300349987500,-4.082192475350870
Boto and saltwater crocodile,EX31 4DX,51.111212957818000,-4.075130000000000
bicycle lizard and Lemming,EX31 4DY,51.112804541136600,-4.074019140128170
Viscacha and Tree warbler,EX31 4EG,51.128678478259900,-4.091138020699430
Fish eagle and Gull,EX31 4EL,51.105733890774900,-4.108801417029700
Songlark and Booted eagles,EX31 4FN,51.118290000000000,-4.005442000000000
ringhals and sand viper,EX31 4HE,51.130418315525100,-4.064088790037350
dukite and Bunting,EX31 4LY,51.158781679132600,-4.001055118065540
rock python and constrictor,EX31 4LZ,51.167016527190500,-4.002799117704200
Masked owl and Parakeet,EX31 4NE,51.158550223383700,-3.978191474913260
leguaan and harlequin snake,EX31 4SG,51.148385823576500,-3.924438791320620
Pitohui and Kestrel,EX31 4TA,51.122730241175600,-3.941735012145220
Maya and Vole,EX32 0AF,51.055644638177600,-4.047918146649270
indigo snake and goanna,EX32 0AS,51.058316709169400,-4.051446750226280
Tit-tyrant and Songlark,EX32 0EZ,51.022815000000000,-4.009923000000000
skink and Rat,EX32 0FE,51.053034945985100,-3.971622049279450
death adder and cobra,EX32 0HE,51.075400031468300,-4.021752135723280
Kite and skink,EX32 0HG,51.066742837502300,-4.036575658758370
Quetzal and ringhals,EX32 0HS,51.061317658115400,-4.028431105361230
Perching duck and tokay,EX32 0NP,51.052386225186700,-3.996121669093610
Mouse and rat snake,EX32 0QA,51.047658802826200,-3.952785000000000
Ibex and chameleon,EX32 0QF,51.040058364384100,-3.962568539162240
alligator and diamondback,EX32 0SA,51.053835925973400,-3.927592000000000
blind snake and Black jay,EX32 0SE,51.064590542312300,-3.916607522833720
Old World quail and constrictor,EX32 2BQ,51.079956592530000,-4.055789000000000
Ground sloth and glass snake,EX32 2GJ,51.079956592530000,-4.055789000000000
rattlesnake and bushmaster,EX32 7AA,51.084453189356200,-4.060542127960410
Moluccan boobook and boa constrictor,EX32 7AB,51.084306594749600,-4.059164866427890
brown snake and diamond python,EX32 7ES,51.082187337497500,-4.058985063997480
giant tortoise and sand lizard,EX32 7HL,51.084302491826600,-4.047627589401830
deaf adder and Maya,EX32 7HU,51.083172999044600,-4.044336542547260
turtle and glass snake,EX32 7JS,51.084776555909400,-4.025587942847140
Pratincole and Maya,EX32 7LW,51.099218890711800,-3.939763987145600
Tit-tyrant and soft-shelled turtle,EX32 7SB,51.086473165659000,-4.047381387154640
crocodile and Black jay,EX32 7WX,51.062216000000000,-4.003010000000000
Goose and Chipmunk,EX32 8AE,51.080212716121600,-4.042364234327640
Stint and sand viper,EX32 8AR,51.078607152910700,-4.042636152199930
rat snake and Piping shrike,EX32 8AY,51.077214000000000,-4.056508000000000
horned toad and Myna,EX32 8BU,51.079063412580200,-4.048242000000000
Myna and chuckwalla,EX32 8DQ,51.079999774201100,-4.047337610847280
diamondback turtle and frilled lizard,EX32 8FG,51.074518073205600,-4.037260336136580
Pheasant and diamond python,EX32 8HA,51.076481636205400,-4.043841646917900
Zebra and Chipmunk,EX32 8JN,51.078953860972900,-4.055686260866070
galliwasp and Rat,EX32 8JT,51.077901172462800,-4.053155457794760
Rabbit and wall lizard,EX32 8LD,51.077352984014600,-4.049033846082240
habu and Mamo,EX32 8NA,51.078641386951500,-4.057384000000000
blue racer and Kangaroo,EX32 8PD,51.074371666037900,-4.028159812929020
Ibex and Schneider python,EX32 8QN,51.079172091402700,-4.023087324347100
water snake and Viscacha,EX32 8RG,51.078091104464500,-4.025267309216210
snapping turtle and Buzzard,EX32 8RL,51.078782265087200,-4.056749419236860
Songlark and Jackal,EX32 9AA,51.073560646765000,-4.050921912752700
Diving bird and Tit-tyrant,EX32 9AP,51.072165033667600,-4.050503321203310
Wader and goanna,EX32 9AW,51.072503511298100,-4.050689586529170
Grouse and Asiatic leopard,EX32 9DL,51.071996427068800,-4.045756638707160
Parakeet and habu,EX32 9DW,51.067280480372800,-4.040665000000000
diamondback turtle and gecko,EX32 9FQ,51.071364882396300,-4.045871525998290
Grouse and garter snake,EX32 9JJ,51.073751246528900,-4.047233033443460
Quetzal and Jackal,EX33 1AP,51.111379293739000,-4.163549456039410
gecko and Thrasher,EX33 1BZ,51.112019143241800,-4.174623476457180
Philippine hawk-owl and cycling lizard,EX33 1JE,51.114262000000000,-4.172100000000000
moloch and bearded dragon,EX33 1JG,51.130461057655200,-4.206963380558940
racer and swift,EX33 1JJ,51.136847000000000,-4.196402667709590
Songlark and Greenbul,EX33 1JS,51.135809427179000,-4.194210251236340
Linsang and Fulmarine petrel,EX33 1LF,51.130886094790100,-4.223921184336610
tree snake and monitor,EX33 1LU,51.113656614574100,-4.171685636667070
gaboon viper and puff adder,EX33 1NH,51.135346114672100,-4.226794364786690
Moluccan boobook and Jerboa,EX33 1QA,51.127876629802800,-4.232237650039490
Grackle and cobra de capello,EX33 1QL,51.136912757683100,-4.194362643548840
krait and Thrasher,EX33 2AF,51.106131920759600,-4.161832924449120
Macaw and thorn lizard,EX33 2BY,51.106644895767800,-4.161814010624520
moloch and Songlark,EX33 2BZ,51.100379692182800,-4.151894394840860
mountain devil and gavial,EX33 2DE,51.100670862390700,-4.151222296573180
tuatara and diamondback turtle,EX33 2EN,51.114380419299700,-4.159317532713830
giant tortoise and Triller,EX33 2ET,51.107645418259400,-4.162132781313030
Chickadee and Myna,EX33 2NE,51.130561803075600,-4.155784567523020
River dolphin and Eagle,EX33 2NP,51.116136000000000,-4.127393000000000
Grosbeak and bushmaster,EX34 7AS,51.172563075212400,-4.188800000000000
worm lizard and anaconda,EX34 7AT,51.172411245844800,-4.170626816524570
agama and Bunting,EX34 7DJ,51.174891000000000,-4.211674000000000
sidewinder and coral snake,EX34 7DW,51.174382344132300,-4.204239326672170
Ibex and diamond python,EX34 8NU,51.152871000541000,-4.139321373648280
Kite and Nukupuʻu,EX37 9AR,50.993874890584000,-3.986669160838150
Marsh harrier and Kite,EX37 9BA,50.966117118914900,-3.992719371525810
frilled lizard and Warbler,EX37 9DP,50.955784383398100,-3.995836958237890
loggerhead and Eagle,EX37 9HW,50.994235001151200,-4.017594539909270
White ibis and amethystine python,EX37 9NU,50.966743976942700,-3.945960165605630
alligator and boa constrictor,EX37 9PY,51.012373270193700,-3.953672333201770
Mole and blindworm,EX37 9QJ,51.013028084287300,-3.942451502319150
asp and Skunk,EX37 9RA,51.013710637726200,-3.935465750512680
Moluccan boobook and frilled lizard,EX37 9RL,51.025254472396500,-3.934050054494870
Bunting and garter snake,EX37 9RQ,51.016716134462000,-3.936988170740830
Pitohui and Kākāriki,EX38 7AE,50.953380266339900,-4.148497974720030
Rabbit and Polecat,EX38 7AL,50.954957605239000,-4.145865327125620
Treepie and glass snake,EX38 7DE,50.955024459144200,-4.128952418660230
thorny devil and Komodo dragon,EX38 7DP,50.958288485664300,-4.128987730636300
Komodo dragon and Booted eagles,EX38 7EE,50.952538184582200,-4.134591027948000
mountain devil and Fish eagle,EX38 7HY,50.955281000000000,-4.097453000000000
Guillemot and Jackal,EX38 7JU,50.966328636796600,-4.057773002697720
cerastes and hoop snake,EX38 7LB,50.969891299872300,-4.088596709786170
milk snake and krait,EX38 7NS,50.952529969443500,-4.127158273181080
Vulture and anole,EX38 8BH,50.952680042447900,-4.142556757957640
blind snake and rock python,EX38 8DW,50.952143822684600,-4.153125300772510
king cobra and Duck,EX38 8EU,50.951584746855800,-4.140000482431620
Jay and Vole,EX38 8EY,50.952064968144300,-4.142530000000000
Asiatic leopard and horned viper,EX38 8HS,50.952458000000000,-4.143443000000000
gaboon viper and iguana,EX38 8JE,50.955714336755800,-4.170121244587390
Egret and Tit-tyrant,EX39 1FF,51.037682000000000,-4.210735000000000
frilled lizard and Coati,EX39 1JJ,51.041188954015800,-4.218965311755730
bearded dragon and massasauga,EX39 1JR,51.038999260870900,-4.236634819265560
glass snake and Marmoset,EX39 1JW,51.040426620199800,-4.215062952431570
rat snake and dukite,EX39 1LG,51.039981095239500,-4.237024487601400
Egret and flying lizard,EX39 1NR,51.046797000000000,-4.202626000000000
Snipe and Jerboa,EX39 1PF,51.050745000000000,-4.197862000000000
American sparrow and Macaw,EX39 1RG,51.052566000000000,-4.197121000000000
Cuscus and River dolphin,EX39 1SG,51.055507439640200,-4.199429367374000
cobra and kabaragoya,EX39 1SQ,51.056283000000000,-4.195071000000000
diamondback terrapin and snapping turtle,EX39 1TL,51.043885001734900,-4.210534313962370
anole and blind snake,EX39 1TU,51.042926168769800,-4.208448595672950
elapid and worm lizard,EX39 2AU,51.016093723412700,-4.206788087364440
adder and Flameback,EX39 2AY,51.015884799535300,-4.206421719224400
Puffleg and glass snake,EX39 2JN,51.019567355204100,-4.207152700957790
Piping shrike and python,EX39 2JS,51.018968079649700,-4.206026305898360
tortoise and Goose,EX39 2LJ,51.023497187433400,-4.208123723444870
Puffleg and bull snake,EX39 2RH,51.032219000000000,-4.204507240132840
diamond snake and Myna,EX39 2RN,51.033232447878900,-4.208519000000000
Goose and diamondback,EX39 2RZ,51.028208201964000,-4.202971056770440
Bronzewing pigeon and Solitaire,EX39 3AP,51.017129236623600,-4.218115526888070
cayman and tree snake,EX39 3BX,51.015197922143400,-4.214202285968990
Myna and slowworm,EX39 3EP,51.011387429252400,-4.222104155640910
kabaragoya and black snake,EX39 3FA,51.036039000000000,-4.237248000000000
Scimitar babbler and gaboon viper,EX39 3FR,51.009677000000000,-4.239685000000000
copperhead and Grouse,EX39 3NG,51.023685322154700,-4.212439258047640
cerastes and brown snake,EX39 3NR,51.026040697121800,-4.218796000000000
indigo snake and taipan,EX39 3PX,51.034363471959100,-4.232784000000000
Jackal and Masked owl,EX39 3QR,51.036668721675900,-4.212615660394560
flying lizard and agama,EX39 3SE,51.033360100573300,-4.212087165498380
habu and galliwasp,EX39 3SH,51.020230870952300,-4.224323766336080
gaboon viper and carpet snake,EX39 4AQ,51.020453601558100,-4.198311303984270
cerastes and Chicken,EX39 4AS,51.015296548946300,-4.199464570603100
python and Stint,EX39 4AU,51.017746649568700,-4.200692705173330
python and puff adder,EX39 4DA,51.013642744272000,-4.190478000000000
adder and gecko,EX39 4EH,51.014303704467500,-4.200130443979260
Mink and sea snake,EX39 4EL,51.013796882796900,-4.200776535829610
Old World quail and milk snake,EX39 4GH,51.012035000000000,-4.197001000000000
Guillemot and Booted eagles,EX39 4JN,51.053646864230800,-4.180662524391130
Buzzard and Grackle,EX39 4LB,51.055929338375800,-4.179799425494700
mamba and Cuscus,EX39 4NA,51.019749127454400,-4.193686572725660
Pitohui and viper,EX39 4NF,51.021293443121600,-4.176722000000000
Wader and Logrunners,EX39 4PE,51.028063000000000,-4.122515000000000
Peafowl and sidewinder,EX39 5AL,51.012973647538400,-4.205798760777260
frilled lizard and Wallaby,EX39 5AY,51.017785185067100,-4.250114339362470
Hawaiian honeycreeper and Shearwater,EX39 5AZ,51.017858510610200,-4.249576066368890
Hawaiian honeycreeper and Black jay,EX39 5ET,50.989965000000000,-4.250307000000000
Piping shrike and crocodile,EX39 5JB,50.985993245872600,-4.196710838520480
Bunting and Triller,EX39 5LA,50.976045782240000,-4.179944262900120
flying dragon and Philippine hawk-owl,EX39 5NZ,50.968074130153200,-4.296450921919020
cayman and chuckwalla,EX39 5RL,50.968252202250100,-4.297456746809540
rat snake and dukite,EX39 5UA,50.980564400639200,-4.310231812748520
Rabbit and Herring gull,EX39 9TH,51.025893425636300,-4.202675880417250
whip snake and Marsh harrier,EX39 9ZZ,51.020268000000000,-4.204420000000000
