name,postcode,lat,lon
mountain devil and anaconda,DN1 1BH,53.523461881429900,-1.135233093628950
skink and Komodo dragon,DN1 1JS,53.524011175135100,-1.130410066501640
Pitohui and blindworm,DN1 1PZ,53.524194000000000,-1.136908000000000
anaconda and thorny devil,DN1 1UR,53.523268892858800,-1.134648751787880
Armadillo and Jay,DN1 2AZ,53.517369576570300,-1.126850989268650
coral snake and Nukupuʻu,DN1 2BY,53.515986549728900,-1.128130000000000
mud turtle and mamba,DN1 2EG,53.520704358078600,-1.123432000000000
snapping turtle and slowworm,DN1 2ES,53.526159000000000,-1.122854000000000
cobra and Masked owl,DN1 2LA,53.526878000000000,-1.126429000000000
whip snake and chuckwalla,DN1 2LP,53.527980000000000,-1.127201062917060
cobra de capello and viper,DN1 2NJ,53.528568618001500,-1.125504377524310
bearded dragon and green turtle,DN1 2PE,53.525978523667400,-1.130249103235920
garter snake and asp,DN1 2QN,53.526175353295400,-1.128887429323790
goanna and green turtle,DN1 2UB,53.531846008685600,-1.125029527862450
Jerboa and bearded dragon,DN1 3AR,53.519061944833500,-1.137102391494980
White ibis and blind snake,DN1 3ER,53.521676323915400,-1.129477454182010
Darwin's finches and boa constrictor,DN1 3NJ,53.522515862037800,-1.128736233240420
Snipe and Jackal,DN1 3QW,53.515721000000000,-1.133611000000000
swift and glass snake,DN1 3RE,53.512795000000000,-1.136687000000000
Towhee and bearded dragon,DN1 3SH,53.517360722219300,-1.136774985656100
Polecat and diamondback,DN1 9DP,53.512914000000000,-1.125573000000000
blue tongue and Bronzewing pigeon,DN1 9FS,53.512920908235600,-1.125720918306950
jew lizard and sand lizard,DN1 9SN,53.520010916083200,-1.132844868539990
green turtle and Fish eagle,DN1 9TQ,53.512914000000000,-1.125573000000000
deaf adder and Magpie,DN14 0AB,53.691207825421100,-1.047736429299790
Dorcopsis and box turtle,DN14 0BU,53.691721000000000,-1.097685000000000
Polecat and amphisbaena,DN14 0DQ,53.669390177081500,-1.057642998270340
asp and Meadowlark,DN14 0EA,53.660114236702100,-1.076130272355180
gecko and Scimitar babbler,DN14 0EN,53.670073302900400,-1.111755278816240
viper and Marsh harrier,DN14 0ES,53.663412795707000,-1.093749729638450
Mockingbird and flying lizard,DN14 0FR,53.700631000000000,-1.144380000000000
Eagle and Moluccan boobook,DN14 0FY,53.706072000000000,-1.144739000000000
fer-de-lance and gaboon viper,DN14 0HL,53.695296372204800,-1.158023541523800
Greenbul and Recurvebill,DN14 0HY,53.684854149630200,-1.151978336564420
Piping shrike and Grouse,DN14 0JD,53.682034117956100,-1.152550000000000
iguana and Peafowl,DN14 0JN,53.669272435575000,-1.147508188239430
Badger and Parakeet,DN14 0LD,53.700406326692500,-1.157391434216290
black snake and snake,DN14 0LR,53.704327644864400,-1.151359746871440
snake and Magpie,DN14 0PR,53.705936928762000,-1.143828559245140
Thicketbird and Kākāriki,DN14 0QE,53.699079991977300,-1.122868363515320
harlequin snake and adder,DN14 0QL,53.698235762331300,-1.116842501118330
Fulmarine petrel and Goose,DN14 0QS,53.700171247924200,-1.112379041540150
carpet snake and swift,DN14 0TH,53.705446128111600,-1.154457930478250
krait and Goose,DN14 0WF,53.701292324084800,-1.156843581187330
tree snake and bearded lizard,DN14 0WJ,53.702045224953300,-1.154859472278050
Fulmarine petrel and Old World quail,DN14 0XJ,53.702818814178000,-1.148996710498750
coral snake and Wallaby,DN14 4BU,53.701730000000000,-0.895222000000000
Songlark and caiman,DN14 4BY,53.701730000000000,-0.895222000000000
Treepie and sand viper,DN14 4DA,53.701730000000000,-0.895222000000000
horned toad and Recurvebill,DN14 5AP,53.705063231199100,-0.870255477615968
Petrel and agama,DN14 5FJ,53.718668959652300,-0.845417079309316
rock python and cerastes,DN14 5HF,53.708158580559900,-0.863945796608592
Hawaiian honeycreeper and Mole,DN14 5JA,53.703778040993100,-0.865518045288404
rattlesnake and snapping turtle,DN14 5LT,53.711969350219300,-0.850706629657361
chameleon and anole,DN14 5NR,53.717203337044700,-0.848169704660900
Mole and indigo snake,DN14 5PF,53.720506347426400,-0.847670287305548
Fox and Flameback,DN14 5QL,53.702129976155300,-0.870773000000000
tokay and viper,DN14 5RE,53.702980000000000,-0.867573994882700
kabaragoya and constrictor,DN14 5RQ,53.701255149072500,-0.869630356043095
Armadillo and whip snake,DN14 5SE,53.693166416092900,-0.873557523797395
mud turtle and hawksbill,DN14 5UG,53.692692827278500,-0.868133200847856
Bunting and Recurvebill,DN14 5US,53.693655253109600,-0.871757468178393
rattlesnake and blindworm,DN14 5XX,53.710024111515500,-0.855956430161890
Pheasant and gaboon viper,DN14 6EL,53.707325675401700,-0.879542428625793
rock python and Parrotbill,DN14 6FG,53.716604486523700,-0.864536536733444
Vulture and diamond python,DN14 6LL,53.712177819757900,-0.865034517631413
frill-necked lizard and Scimitar babbler,DN14 6NY,53.712315437062900,-0.878697730451989
Capuchin and Stint,DN14 6PB,53.711991316163800,-0.876721479850478
B and sidewinder,DN14 6PX,53.712014499193600,-0.884978522500914
Philippine hawk-owl and Tattler,DN14 6RT,53.715087629855800,-0.879093752782734
Chickadee and bearded lizard,DN14 6TB,53.702807417429200,-0.886615528495189
Meadowlark and Stint,DN14 6UJ,53.706509250838500,-0.886457223207904
anole and gaboon viper,DN14 6UN,53.707071754641100,-0.887018069325628
Black cockatoo and Wallaby,DN14 6WE,53.715424000000000,-0.870796000000000
Meadowlark and gavial,DN14 7WW,53.701646633944000,-0.895219889863396
Argus and leguaan,DN14 8AH,53.691597292187900,-0.835420428201661
Quetzal and alligator,DN14 8BA,53.676996226630100,-0.871687773039832
Wader and Ice seal,DN14 8BQ,53.680606000000000,-0.884612000000000
Flameback and copperhead,DN14 8BS,53.700668000000000,-0.968685000000000
rock python and leguaan,DN14 8DY,53.668968000000000,-0.803849000000000
Rat and garter snake,DN14 8LG,53.721520376082900,-0.902064523323551
Ground sloth and perentie,DN14 8LY,53.718371368130100,-0.898797506607401
king snake and Zebra,DN14 8NX,53.684675110363900,-0.949054028513869
cobra and diamond python,DN14 8RF,53.695149094412200,-0.962727068073748
Fox and Tahr,DN14 8RL,53.700052052924000,-0.963212428999238
Marmoset and chameleon,DN14 8SU,53.673559000000000,-0.986853026789532
Black jay and Chickadee,DN14 8TD,53.699627191519000,-0.966055375474516
deaf adder and saltwater crocodile,DN14 9BG,53.648533011573500,-1.058304661000760
Coati and Zebra,DN14 9DY,53.689311998375100,-1.024367665573340
Condor and diamond snake,DN14 9FD,53.691076084006000,-1.035427522196380
indigo snake and gecko,DN14 9FE,53.688844000000000,-1.022883000000000
Jerboa and saltwater crocodile,DN14 9FQ,53.713159000000000,-1.021880000000000
jew lizard and Puffleg,DN14 9JY,53.689653889787600,-1.033279241450040
bull snake and coral snake,DN14 9LH,53.691723407446400,-1.023416000000000
New World blackbird and puff adder,DN14 9NP,53.688969512527500,-1.035354386390170
garter snake and Prion,DN14 9PQ,53.706508970537600,-1.021303675118320
bicycle lizard and Chipmunk,DN14 9RE,53.687582517439000,-1.032781540896530
Zebra and soft-shelled turtle,DN14 9RY,53.710806942314800,-1.023431000000000
Myna and cobra de capello,DN14 9TF,53.686899907038700,-1.037309624717920
Capuchin and Pitohui,DN17 4BX,53.578976374637200,-0.820649361678138
king snake and perentie,DN17 4DG,53.592875527555200,-0.779183000000000
Old World warbler and anaconda,DN17 4DL,53.604267325751000,-0.835889381735873
sea snake and death adder,DN17 4DN,53.604412550571100,-0.836958425412211
galliwasp and box turtle,DN17 4JQ,53.594227030331900,-0.812126018373400
soft-shelled turtle and Logrunners,DN17 4LX,53.611176000000000,-0.830822282541579
Quetzal and River dolphin,DN17 4NB,53.610668738999700,-0.835108726396614
Gila monster and Herring gull,DN17 4NL,53.609533178420200,-0.836651477493337
slowworm and Quetzal,DN17 4NW,53.609791000000000,-0.827057445737926
diamond python and gopher snake,DN17 4QN,53.634019532830400,-0.751087918631789
Mockingbird and Petrel,DN2 4DQ,53.532988280713900,-1.115350082194010
thorny devil and pit viper,DN2 4DU,53.534429297813200,-1.116949544312270
crocodile and agama,DN2 4EW,53.535591739415100,-1.116125685365670
Perching duck and Cuscus,DN2 4HF,53.538390417369800,-1.115343124849600
Solitaire and Schneider python,DN2 4JF,53.535753358876200,-1.107627582425530
Parrotbill and Dolphin,DN2 4LG,53.537535824326400,-1.105583276182330
blue racer and alligator,DN2 4LT,53.538597000000000,-1.120062000000000
skink and Hawaiian honeycreeper,DN2 4QG,53.550570000000000,-1.095950000000000
Quetzal and Jay,DN2 4RJ,53.547839676731400,-1.085745638390870
horned toad and perentie,DN2 4RR,53.550095677024700,-1.085093000000000
flying lizard and lizard,DN2 4RX,53.547297000000000,-1.084037000000000
Jay and indigo snake,DN2 4RZ,53.548826492625900,-1.083143467774610
rock snake and carpet snake,DN2 4SE,53.543195000000000,-1.078934000000000
blindworm and king cobra,DN2 4SW,53.541067825748500,-1.103109498178770
Diving bird and Condor,DN2 5AT,53.532976974559800,-1.110190441945450
Crow and gecko,DN2 5DQ,53.526107440144800,-1.109896924805150
Badger and mamba,DN2 5ED,53.527286190524700,-1.112481980159230
Mockingbird and Songlark,DN2 5EY,53.527527319035400,-1.108645243355660
Maya and green turtle,DN2 5GA,53.532051622092000,-1.110255096509400
Boto and boomslang,DN2 5JX,53.532584029270400,-1.104510794315540
king cobra and frilled lizard,DN2 5PE,53.537166221700700,-1.098257878493000
Armadillo and Mockingbird,DN2 5PF,53.537046422619000,-1.096676097109120
Tattler and Dolphin,DN2 5QB,53.532740553827000,-1.079900000000000
bushmaster and Jackal,DN2 5QP,53.538313114148500,-1.094204678232820
Thrasher and Zebra,DN2 5QQ,53.537019131255800,-1.090701506562810
Philippine hawk-owl and Prion,DN2 5QW,53.538135610278100,-1.090949195635400
python and thorny devil,DN2 5RX,53.536771498830100,-1.093603847251220
Parrotbill and perentie,DN2 5SA,53.534011353197200,-1.105599000000000
glass snake and blue tongue,DN2 6DG,53.522911447428600,-1.108018098798520
Buzzard and box turtle,DN2 6EE,53.525466987422600,-1.098792926770310
snake and New World blackbird,DN2 6HR,53.534002361298000,-1.088789627678440
Perching duck and Grouse,DN2 6JG,53.530914226963400,-1.088131744770940
diamond snake and perentie,DN2 6JH,53.529579355412500,-1.089895322633630
Grosbeak and diamond python,DN2 6ND,53.525767000000000,-1.093175000000000
milk snake and Meadowlark,DN2 6NH,53.526144077990800,-1.092050670728890
cobra and Tree warbler,DN2 6QW,53.530825380327200,-1.094183386508940
Linsang and B,DN3 1AJ,53.578336096488600,-1.065694992698670
alligator and Rabbit,DN3 1BQ,53.577934100405200,-1.071790530082720
snake and Kangaroo,DN3 1BT,53.578014308792700,-1.072861117696500
Pitohui and flying dragon,DN3 1BZ,53.563955000000000,-1.080405000000000
sidewinder and tortoise,DN3 1HS,53.566003814479400,-1.068820613237630
boomslang and gecko,DN3 1JU,53.560700368336500,-1.068000896220240
anole and diamondback,DN3 1NW,53.563553048323300,-1.068421348452230
taipan and White ibis,DN3 1QA,53.560161008104600,-1.064540418857090
Marmoset and Hawk,DN3 1QR,53.557299849701600,-1.081811000000000
Mamo and jew lizard,DN3 1RN,53.564235726016300,-1.063756002185260
Cuscus and Night heron,DN3 1SR,53.566928481109600,-1.071336890698830
Chickadee and frilled lizard,DN3 2AA,53.540073284302600,-1.067095801216630
galliwasp and Solitaire,DN3 2AG,53.539754395988100,-1.068853229467730
Hawaiian honeycreeper and kabaragoya,DN3 2BP,53.537403617876600,-1.072873199439670
ringhals and Dolphin,DN3 2BZ,53.539702291454800,-1.061037852900270
crocodile and Mouse,DN3 2DU,53.550753000000000,-1.070292000000000
Herring gull and Fish eagle,DN3 2EN,53.539223121631400,-1.051572154897030
Stilt and bull snake,DN3 2FB,53.536034049620200,-1.066671562821540
Darwin's finches and rock python,DN3 2FH,53.533752497045600,-1.069181015672170
asp and cayman,DN3 2HJ,53.544163000000000,-1.057770000000000
flying lizard and horned toad,DN3 2HN,53.536515319864300,-1.053564007849160
Solitaire and Solitaire,DN3 2LJ,53.550959276643200,-1.062584902728850
mountain devil and Tattler,DN3 2LN,53.552297526380200,-1.063596839058860
boa constrictor and Viscacha,DN3 2NF,53.556846000000000,-1.068055000000000
rock python and Old World quail,DN3 2PQ,53.552804537105400,-1.070981935957410
krait and mountain devil,DN3 2QH,53.554248251092500,-1.076339224241090
chuckwalla and Vole,DN3 2QU,53.547805867686900,-1.075498444291550
Guillemot and Snipe,DN3 3AX,53.535069863526300,-1.059480620192750
frill-necked lizard and rock python,DN3 3AY,53.533860393944200,-1.059990222781850
Old World vulture and Quetzal,DN3 3BB,53.533563000000000,-1.060887000000000
Macaw and Chipmunk,DN3 3BZ,53.532443464531300,-1.052432715575800
Pheasant and diamondback turtle,DN3 3DT,53.536917000000000,-1.048638516686110
tiger snake and Eagle,DN3 3DW,53.536512732990700,-1.048705507513230
constrictor and tortoise,DN3 3EE,53.535396000000000,-1.045936817450520
Tit-tyrant and Solitaire,DN3 3EQ,53.535715702656300,-1.024521535454730
soft-shelled turtle and dugite,DN3 3LA,53.531127000000000,-1.047317000000000
Guillemot and Pitohui,DN3 3LP,53.531524882090900,-1.051080307688810
carpet snake and Boto,DN3 3NW,53.507652383191700,-1.033323324909870
moloch and Black jay,DN3 3PD,53.511333765343200,-1.031716512178180
dukite and Mouse,DN3 3PF,53.512043449491200,-1.030387000000000
racer and Cuscus,DN3 3SQ,53.530865637428700,-1.054097290988280
Kite and Egret,DN3 3SY,53.534383202670300,-1.043170690503360
taipan and Parakeet,DN3 3UT,53.507170000000000,-1.040270000000000
B and Polecat,DN4 0BL,53.518768898065200,-1.146368860291350
Myna and Diving bird,DN4 0DA,53.517530022103200,-1.152909103351750
Marmoset and Logrunners,DN4 0HE,53.513917934153900,-1.156917142470340
cayman and Gila monster,DN4 0LN,53.512327417516600,-1.146845119713720
puff adder and Flameback,DN4 0TF,53.505104311154300,-1.161358894615260
ringhals and perentie,DN4 0XL,53.509228088091400,-1.154688046736860
water snake and agama,DN4 5AB,53.514512000000000,-1.128071000000000
bandy-bandy and mountain devil,DN4 5AP,53.516835737330700,-1.121462746302520
perentie and rock snake,DN4 5AT,53.516676968210700,-1.120651625790840
thorny devil and Grouse,DN4 5DZ,53.516335303847200,-1.106090024764750
smooth snake and iguana,DN4 5FG,53.505369921016700,-1.101405400886590
green turtle and crocodile,DN4 5JW,53.509770725622900,-1.112953417062190
cobra de capello and Peafowl,DN4 5LG,53.515652641855000,-1.091837557830070
flying lizard and garter snake,DN4 5LS,53.511374371008700,-1.095442575605370
fer-de-lance and Diving bird,DN4 5NT,53.508429000000000,-1.117384000000000
tree snake and Goose,DN4 6AR,53.509034505682100,-1.077427884704780
Darwin's finches and Old World vulture,DN4 6HP,53.518242000000000,-1.082356000000000
Parrotbill and Prion,DN4 6HT,53.519441042265800,-1.081786978582530
terrapin and hognose snake,DN4 6LH,53.512485053792600,-1.079614977907420
Grosbeak and copperhead,DN4 6NH,53.510155040313100,-1.079363863109870
garter snake and tuatara,DN4 6NZ,53.500449896543100,-1.066955593199350
Ibex and Black cockatoo,DN4 6RR,53.505840168809500,-1.064411000000000
Masked owl and Partridge,DN4 6RY,53.506943718286600,-1.067461379378090
amphisbaena and Nukupuʻu,DN4 6UA,53.503306345395000,-1.058675986498370
Perching duck and wall lizard,DN4 6UF,53.506393480749300,-1.060326494674660
thorn lizard and Grosbeak,DN4 7BJ,53.505772000000000,-1.086681000000000
Badger and Dorcopsis,DN4 7BL,53.505083861967400,-1.088550367550460
milk snake and American sparrow,DN4 7BS,53.502458250411200,-1.081385005839030
Marmoset and agama,DN4 7DF,53.507862856204900,-1.095849051046770
king cobra and Scimitar babbler,DN4 7DS,53.507071738131900,-1.089910002899660
Chickadee and lizard,DN4 7HH,53.500624110473100,-1.083670954631230
Warbler and goanna,DN4 7RU,53.502205342331000,-1.090632341432670
Grosbeak and Booted eagles,DN4 8DR,53.506425875843600,-1.146149393316270
Masked owl and anaconda,DN4 8EU,53.500840843046200,-1.152172000000000
Egret and blindworm,DN4 8HY,53.504027639151100,-1.146393575735580
Black jay and blue tongue,DN4 8JS,53.500030034702400,-1.149142000000000
tokay and grass snake,DN4 8PQ,53.503135531877300,-1.156378000000000
Capuchin and Kite,DN4 8PT,53.503841601282300,-1.155639490511930
habu and River dolphin,DN4 8PU,53.503827670061400,-1.156212691473130
puff adder and asp,DN4 8RF,53.503938709578600,-1.156662796761090
racer and taipan,DN4 8RQ,53.503308039733800,-1.157730684142710
Jay and Ibex,DN4 9DT,53.501806745436900,-1.158981608368370
agama and Bunting,DN4 9EE,53.501158000000000,-1.162492000000000
Linsang and B,DN5 0AP,53.546800360555000,-1.145789985527540
Armadillo and tree snake,DN5 0BU,53.547638579404500,-1.151161144751020
gopher snake and Parakeet,DN5 0DP,53.545310118977000,-1.144673000000000
turtle and Myna,DN5 0DX,53.547680468135400,-1.148412000000000
wall lizard and chuckwalla,DN5 0EP,53.553430213518800,-1.147784838614030
Old World vulture and asp,DN5 0JN,53.554737920275800,-1.149660545763100
perentie and Dorcopsis,DN5 0PG,53.553552795113900,-1.144808732896360
Eagle and habu,DN5 0PS,53.555638204340100,-1.139800311643580
Logrunners and gavial,DN5 0QH,53.562742120200200,-1.152806508347510
skink and Lemming,DN5 0QR,53.565122572633400,-1.153861161453970
giant tortoise and amphisbaena,DN5 0RD,53.567329075646700,-1.160853512897820
dukite and bull snake,DN5 0SH,53.557943228041300,-1.126695342677360
bicycle lizard and galliwasp,DN5 0SN,53.557048905802900,-1.127317590977530
Elephant and adder,DN5 0UG,53.546970544018300,-1.141938024118660
Duck and tree snake,DN5 8EZ,53.526627999818100,-1.159485736684370
carpet snake and blind snake,DN5 8XG,53.531647000000000,-1.148358000000000
giant tortoise and Elephant,DN5 9JG,53.544078874339100,-1.160045637298250
turtle and gavial,DN5 9JP,53.548384884171000,-1.160111330571080
gecko and blue racer,DN5 9NB,53.543340342539000,-1.154733134475580
Macaw and Wallaby,DN5 9PN,53.540127399300200,-1.161828986856880
giant tortoise and python,DN5 9PP,53.537726386383900,-1.160397674990620
Pratincole and jew lizard,DN5 9SG,53.531124336715300,-1.143299273415390
Flameback and sand viper,DN55 1LD,53.512923750490100,-1.125720996155070
brown snake and alligator,DN55 1RE,53.512923750490100,-1.125720996155070
Hawaiian honeycreeper and racer,DN6 0AA,53.612667905942400,-1.151838000000000
Gull and Jackal,DN6 0AE,53.611456976148200,-1.153630665534200
Jackal and frilled lizard,DN6 0DN,53.606845469782700,-1.085152137835400
hognose snake and Hawk,DN6 0DU,53.599344689652400,-1.092854572270720
agama and hognose snake,DN6 0EU,53.633790660130700,-1.146907710179830
rat snake and River dolphin,DN6 0EW,53.616622174558100,-1.150640015224770
Grosbeak and Guillemot,DN6 0JQ,53.616831716853300,-1.148504285333780
Polecat and boa constrictor,DN6 0LP,53.617372704597600,-1.144955931371850
blindworm and Viscacha,DN6 0LY,53.617102000000000,-1.143477004931550
Parrotlet and jew lizard,DN6 0NF,53.615265499152300,-1.141899585234150
bandy-bandy and milk snake,DN6 0NP,53.615539176432300,-1.138704403328890
Linsang and Partridge,DN6 9HR,53.631479637742000,-1.160761093297550
sand lizard and Tit-tyrant,DN6 9JB,53.601774796935000,-1.159793344104220
giant tortoise and viper,DN7 4AA,53.583586468772100,-1.019749261643960
Linsang and Vole,DN7 4AG,53.581163000000000,-1.021142388463020
Peafowl and box turtle,DN7 4DA,53.559329023241800,-1.036720253096900
gavial and gaboon viper,DN7 4FB,53.562708000000000,-1.022044000000000
anaconda and Lemming,DN7 4HU,53.568814476989700,-1.020407929585550
American sparrow and Stint,DN7 4LS,53.577619000000000,-1.014326328050070
Argus and Logrunners,DN7 4NB,53.580108711484900,-1.016567183815920
boa and green turtle,DN7 4PB,53.563683780081200,-1.030566884791920
boomslang and amethystine python,DN7 5AN,53.601177954944800,-1.030872383149690
Thrasher and Siskin,DN7 5BX,53.600202936150400,-1.007714000000000
gavial and tokay,DN7 5DJ,53.596530592780100,-1.027518509604500
Solitaire and Gull,DN7 5HE,53.594275754220400,-1.023264127279700
flying dragon and rock snake,DN7 5JG,53.601182637691000,-1.035904489845580
amethystine python and Lemming,DN7 5JH,53.610558134702300,-1.013879880486290
python and Argus,DN7 5LB,53.615754326592400,-1.012882035134010
gopher snake and Boto,DN7 5PG,53.592296976585700,-1.033344000000000
Rat and garter snake,DN7 5QB,53.589798492845000,-1.027567294073170
moloch and box turtle,DN7 5QN,53.593366833872500,-1.026442861018270
Magpie and amphisbaena,DN7 5RD,53.596789000000000,-1.030459000000000
Vole and River dolphin,DN7 5SN,53.592672000000000,-1.070898000000000
Fox and Skunk,DN7 5TR,53.600555207713800,-1.008612213441200
habu and Tahr,DN7 6AL,53.569409796090600,-1.015184522097900
Black jay and garter snake,DN7 6AN,53.568116066905300,-1.017327000000000
agama and Greenbul,DN7 6AP,53.568456058466500,-1.015070774251140
Tit-tyrant and amphisbaena,DN7 6DA,53.543828365040800,-0.975635249482499
Mink and gopher snake,DN7 6DE,53.543848664167200,-0.973960000000000
bandy-bandy and loggerhead,DN7 6EH,53.585499468888200,-0.981879079357887
Philippine hawk-owl and adder,DN7 6FQ,53.568682000000000,-0.990019000000000
Fish eagle and Pheasant,DN7 6JR,53.578301220790300,-1.011020785870120
Old World quail and jew lizard,DN7 6QH,53.580647886113200,-1.002432002978690
coral snake and Ground sloth,DN7 6QW,53.579005362541300,-1.003799805980620
Grouse and Stilt,DN7 6RT,53.578477985737800,-0.997695204557855
frilled lizard and hawksbill,DN7 6SB,53.577251503886700,-1.001515127072030
death adder and Elephant,DN8 4BY,53.617187011818200,-0.958138264485616
Mink and boa,DN8 4EA,53.618871550970000,-0.956494266508084
New World blackbird and Skunk,DN8 4EG,53.620347449597000,-0.957727843282468
bull snake and sea snake,DN8 4EQ,53.620901204970800,-0.957321112571104
Pitohui and cayman,DN8 4HG,53.618840000000000,-0.964186680398520
moloch and ringhals,DN8 4JZ,53.660288714406600,-0.957242287090291
crocodile and Greenbul,DN8 4NF,53.635583636120700,-0.946478131413095
Pratincole and terrapin,DN8 4RP,53.621344000000000,-0.952308936730040
rat snake and caiman,DN8 4RR,53.621538000000000,-0.951923000000000
frilled lizard and Siskin,DN8 4SG,53.627270872448800,-0.953852593679142
Maya and pit viper,DN8 4SH,53.628195182886700,-0.953678521525302
Schneider python and terrapin,DN8 4SL,53.629698000000000,-0.952779000000000
Francolin and leguaan,DN8 4TH,53.631314000000000,-0.953556000000000
snapping turtle and Thicketbird,DN8 5DE,53.611192212150500,-0.962351865244857
carpet snake and Komodo dragon,DN8 5DW,53.610774304964600,-0.960805235652664
milk snake and brown snake,DN8 5EQ,53.611073639815200,-0.964229078960009
tuatara and Chickadee,DN8 5HX,53.611366000000000,-0.954351000000000
harlequin snake and Partridge,DN8 5HZ,53.611887971697700,-0.954504888551221
slowworm and Treepie,DN8 5JG,53.609994544810300,-0.951785604262756
Egret and Shearwater,DN8 5JP,53.618200099329300,-0.952685984187624
swift and Duck,DN8 5LE,53.608154958495600,-0.960385873356777
Songlark and River dolphin,DN8 5LH,53.606452522241600,-0.959974264741894
rock python and harlequin snake,DN8 5NR,53.610247954972200,-0.959864000000000
turtle and agamid,DN8 5SP,53.600845000000000,-0.872615000000000
Ibex and B,DN8 5SZ,53.564674000000000,-0.881292000000000
ringhals and Pitohui,DN8 5TY,53.599556000000000,-0.984775000000000
tuatara and Maya,DN8 5UD,53.605999447297500,-0.960589937064094
Argus and Goose,DN8 5UG,53.617100000000000,-0.977919000000000
giant tortoise and gecko,DN9 1DF,53.525485610853400,-0.826344297326019
sand lizard and Lemming,DN9 1DW,53.527191191847200,-0.827941493000543
agamid and taipan,DN9 1EP,53.525893000000000,-0.821913000000000
blind snake and Magpie,DN9 1GA,53.524308678774700,-0.821836339548316
smooth snake and cerastes,DN9 1GB,53.521962503667600,-0.819095834583020
gavial and diamondback turtle,DN9 1GG,53.529431986403900,-0.831877552324762
Mockingbird and loggerhead,DN9 1GQ,53.528914990988400,-0.824982248564870
Grackle and Towhee,DN9 1HD,53.524449817142200,-0.818830562019360
Kangaroo and anaconda,DN9 1JS,53.527054000000000,-0.825823684781496
viper and smooth snake,DN9 1NE,53.550453976557600,-0.779360321561805
black snake and Meadowlark,DN9 1NL,53.553248021166500,-0.818602418820118
gecko and Condor,DN9 1NX,53.544430895345800,-0.820523113173148
amethystine python and Chicken,DN9 1PT,53.547860015025200,-0.821876718487915
Boto and Greenbul,DN9 1QW,53.569098000000000,-0.809659000000000
Parrotbill and Nukupuʻu,DN9 1TA,53.554412496026200,-0.811837438661310
diamond python and Dorcopsis,DN9 2BU,53.523077587351100,-0.927356000000000
adder and deaf adder,DN9 3HS,53.503697478219500,-1.023387037646580
garter snake and Jerboa,DN9 3JG,53.501782546656500,-1.016767273500010
Ice seal and Minke whale,YO8 8HP,53.724804049289100,-1.020636492173040
