name,postcode,lat,lon
garter snake and slowworm,DN1 1AN,53.522057484634200,-1.137026588630290
Francolin and swift,DN1 1BL,53.522586072781200,-1.134692831181370
carpet snake and Gila monster,DN1 1QH,53.525453000000000,-1.133307000000000
Grouse and adder,DN1 1QY,53.522942000000000,-1.144053000000000
Herring gull and Grouse,DN1 1TQ,53.522705017594000,-1.133740135999950
Grackle and Diving bird,DN1 2AY,53.518161266095000,-1.128177020965270
iguana and diamondback,DN1 2HD,53.523878275980000,-1.126973611999610
iguana and rock snake,DN1 2LL,53.527763661810600,-1.127285956634710
Parakeet and pit viper,DN1 2QS,53.526773348638500,-1.129538908334450
bearded lizard and Peafowl,DN1 2QU,53.527399057693900,-1.129058436383250
agama and horned viper,DN1 2SR,53.531295710069900,-1.128450471919630
loggerhead and skink,DN1 2SW,53.530588321091500,-1.127589975789200
Wader and indigo snake,DN1 2TF,53.534556000000000,-1.125596635108920
king snake and asp,DN1 3BB,53.518268118917200,-1.136711300151690
Francolin and Viscacha,DN1 3BF,53.519698772541500,-1.128944000000000
mamba and Piping shrike,DN1 3DF,53.520820092583800,-1.136599101367570
snake and hognose snake,DN1 3NX,53.522168113341700,-1.130357300729280
gopher snake and flying dragon,DN1 3RH,53.516685000000000,-1.136457000000000
Grosbeak and constrictor,DN1 3TR,53.513173519248700,-1.138232367226300
American sparrow and Thicketbird,DN1 9FT,53.512920908235600,-1.125720918306950
Greenbul and Asiatic leopard,DN1 9PH,53.512923750490100,-1.125720996155070
Chicken and River dolphin,DN1 9RN,53.512950000000000,-1.125633000000000
flying dragon and Francolin,DN1 9SG,53.520010916083200,-1.132844868539990
perentie and pit viper,DN14 0BA,53.677891000000000,-1.080283000000000
Logrunners and sidewinder,DN14 0BW,53.683759101722400,-1.113693145017040
moloch and amethystine python,DN14 0EG,53.657366695293600,-1.112280000000000
Civet and blue tongue,DN14 0EJ,53.664959660307600,-1.133959085963840
American sparrow and Parrotlet,DN14 0EP,53.664648307544000,-1.114729724165090
ringhals and Ground sloth,DN14 0FA,53.662383224242900,-1.089186473484540
Kestrel and cayman,DN14 0FJ,53.657724267812900,-1.111530760725020
soft-shelled turtle and taipan,DN14 0GG,53.682763000000000,-1.150873000000000
Guillemot and water snake,DN14 0HG,53.668755478213600,-1.073065485894200
tuatara and Booted eagles,DN14 0JE,53.681063184829500,-1.153553349351390
Gull and wall lizard,DN14 0JF,53.681069000000000,-1.150429308987730
crocodile and American sparrow,DN14 0JH,53.678231043583000,-1.158545484717020
Solitaire and Lemming,DN14 0LS,53.704693615596900,-1.149731477423720
Pheasant and Condor,DN14 0NZ,53.680193542377500,-1.147529968943060
rock python and massasauga,DN14 0RU,53.704578065474900,-1.106666168792400
leguaan and Dolphin,DN14 0TQ,53.704337000000000,-1.152552340157370
Pratincole and Philippine hawk-owl,DN14 0US,53.699473939544800,-1.156455804133220
Wader and Marsh harrier,DN14 0WS,53.707117616363600,-1.151864156782710
Chipmunk and Darwin's finches,DN14 4BY,53.701730000000000,-0.895222000000000
cobra and glass snake,DN14 5AL,53.704539528298100,-0.867845774818683
Siskin and Piping shrike,DN14 5AR,53.705252645351100,-0.869371747897545
frill-necked lizard and Prion,DN14 5FN,53.718360569536000,-0.846061992486356
thorny devil and River dolphin,DN14 5JF,53.704216507109800,-0.865309318114328
Songlark and Puffleg,DN14 5NS,53.717911358457500,-0.847953363055281
fer-de-lance and lizard,DN14 5PX,53.714601161326100,-0.846770976341547
snapping turtle and gecko,DN14 5UF,53.692080753412700,-0.868043604354399
taipan and smooth snake,DN14 5XL,53.709936503028600,-0.858079941015029
White ibis and Grackle,DN14 6BP,53.706018725629500,-0.875320128831353
Buzzard and Kestrel,DN14 6DA,53.701646633944000,-0.895219889863396
Thicketbird and Mink,DN14 6DJ,53.708068008536400,-0.876265404269408
king cobra and Gila monster,DN14 6DQ,53.707407374552300,-0.877707106269390
moloch and carpet snake,DN14 6ES,53.698592000000000,-0.885576000000000
worm lizard and diamondback turtle,DN14 6JS,53.711055000000000,-0.865004000000000
pit viper and Tahr,DN14 6JW,53.710682521986100,-0.862802074935949
Bronzewing pigeon and Elephant,DN14 6LP,53.713917808057800,-0.861790535822275
turtle and agama,DN14 6QN,53.712813289788900,-0.874275271780577
Siskin and mamba,DN14 6QW,53.711925664445000,-0.872601980318783
Myna and Mole,DN14 6SN,53.704597845941400,-0.879084667528159
bicycle lizard and anaconda,DN14 6TQ,53.705025301621000,-0.881542622223599
Snipe and habu,DN14 6UZ,53.708483194774100,-0.888011052427430
Boto and hognose snake,DN14 6XE,53.708208075863500,-0.885610000000000
Buzzard and Thrasher,DN14 6YP,53.711603831104800,-0.886246955725315
blindworm and Dorcopsis,DN14 7RL,53.718964405608500,-0.839710998810055
Chickadee and Rat,DN14 7RT,53.706343945792100,-0.838740155578008
giant tortoise and Jay,DN14 8EX,53.698509627766900,-0.795423538552060
box turtle and Capuchin,DN14 8LF,53.719941402647200,-0.902393577270182
swift and Thrasher,DN14 8LR,53.722267153962800,-0.898225932550651
Parrotbill and Buzzard,DN14 8LU,53.718837979831400,-0.901649443476417
sea snake and Tattler,DN14 8NU,53.684292138076300,-0.949457244000058
Petrel and snapping turtle,DN14 8NW,53.685409929370800,-0.949823120324110
green turtle and Mole,DN14 8PG,53.684883160434700,-0.947156120994151
moloch and gavial,DN14 8PN,53.681736679531900,-0.939967045753902
Goose and bull snake,DN14 8PP,53.681252476695000,-0.937178000000000
Warbler and massasauga,DN14 8RQ,53.694897070486500,-0.960719000000000
Wader and horned viper,DN14 8RX,53.698180211349700,-0.960987000000000
Shearwater and Guillemot,DN14 8SJ,53.684876329158400,-0.941281261439501
flying dragon and Cuscus,DN14 9AE,53.651218000000000,-1.002386000000000
Rabbit and death adder,DN14 9HY,53.692538139153600,-1.027594585849520
Gila monster and green turtle,DN14 9JD,53.692130420887500,-1.026089547487120
Tit-tyrant and Siskin,DN14 9JJ,53.691060472934100,-1.028371000000000
tiger snake and Lemming,DN14 9LQ,53.688977055296500,-1.030720401612000
fer-de-lance and pit viper,DN14 9LT,53.706072407763100,-1.020677531416320
lizard and water snake,DN14 9PG,53.706858752278100,-1.022310584106640
American sparrow and boa,DN14 9PP,53.712425303359800,-1.023742164125600
racer and bearded dragon,DN17 4DA,53.578165272068400,-0.806836795376027
diamondback turtle and boa constrictor,DN17 4DR,53.605035474664100,-0.832618876578366
python and Nukupuʻu,DN17 4EE,53.600692690178600,-0.838964691042307
bushmaster and Quetzal,DN17 4GL,53.604140000000000,-0.829183000000000
Jackal and Argus,DN17 4HB,53.605460458217700,-0.835644985926800
crocodile and rattlesnake,DN17 4HS,53.602945022621100,-0.831180357482838
sand viper and Kākāriki,DN17 4LE,53.607472689637700,-0.834592100137090
Puffleg and tree snake,DN17 4LG,53.606827577694000,-0.835486583611992
Tahr and Vole,DN17 4LS,53.612412846392400,-0.832370069434239
Peafowl and turtle,DN17 4NG,53.610385563206900,-0.836492013824214
Tit-tyrant and massasauga,DN2 4AD,53.530275295138200,-1.122889456479820
Solitaire and Moluccan boobook,DN2 4AR,53.530756502388600,-1.117433268443810
cerastes and fer-de-lance,DN2 4AU,53.531621194099900,-1.118893807416480
python and Elephant,DN2 4BT,53.531983771323900,-1.114435618422610
mountain devil and diamond python,DN2 4BW,53.532315664089600,-1.120433367836730
tokay and moloch,DN2 4BY,53.531532049275400,-1.116557197692920
Dorcopsis and sidewinder,DN2 4DF,53.533729651018600,-1.118367245374530
worm lizard and mud turtle,DN2 4HU,53.532788562218500,-1.111446635967540
amphisbaena and Argus,DN2 4HW,53.538801000000000,-1.111185000000000
puff adder and chuckwalla,DN2 4HX,53.534251892966400,-1.112411804402650
tiger snake and boa,DN2 4PE,53.543138000000000,-1.099806000000000
Logrunners and Perching duck,DN2 4PP,53.545061373170000,-1.093909728504030
Ice seal and galliwasp,DN2 4QH,53.541760059420700,-1.097149214931480
amphisbaena and Grouse,DN2 5AD,53.533000680335400,-1.108545421915270
terrapin and Rabbit,DN2 5DY,53.545211725822900,-1.085212000000000
saltwater crocodile and cerastes,DN2 5EQ,53.525603029839100,-1.108549870600820
leathery turtle and jew lizard,DN2 5JS,53.531914208554300,-1.101492436904190
amphisbaena and sidewinder,DN2 5JT,53.531629901791700,-1.101935973367650
B and giant tortoise,DN2 5JU,53.532243703662000,-1.103476962087230
skink and diamond snake,DN2 5NR,53.534195750501500,-1.100086247742870
Parakeet and Elephant,DN2 5NY,53.537031736470200,-1.095921968745330
sidewinder and Chipmunk,DN2 5PF,53.537046422619000,-1.096676097109120
Stilt and dugite,DN2 5QT,53.539303555269100,-1.092055904435370
Dolphin and Duck,DN2 5RD,53.540399700484000,-1.090810164493310
goanna and Guillemot,DN2 6BB,53.520794000000000,-1.105936000000000
Scimitar babbler and Tree warbler,DN2 6EG,53.525957752163100,-1.099506586105410
puff adder and Booted eagles,DN2 6EX,53.525063043389200,-1.104850406064210
adder and Kite,DN2 6HF,53.525558472850400,-1.093058784207450
Gull and Hawk,DN2 6HN,53.531611779213000,-1.087664156304460
Meadowlark and Grosbeak,DN2 6JE,53.530349042362700,-1.089456404106530
soft-shelled turtle and Philippine hawk-owl,DN2 6JG,53.530914226963400,-1.088131744770940
Diving bird and Greenbul,DN2 6JP,53.523529593739800,-1.095771982807700
tortoise and Dolphin,DN2 6JW,53.529930795061700,-1.092377029184760
Pitohui and milk snake,DN2 6LL,53.528998257844300,-1.101011046346750
hoop snake and bushmaster,DN2 6NA,53.526632678494800,-1.094846057156590
Scimitar babbler and Old World vulture,DN2 6NQ,53.525602080370900,-1.094068531702680
Macaw and giant tortoise,DN2 6PJ,53.531463078323900,-1.097685014911360
Quetzal and Mamo,DN2 6PX,53.532318632090000,-1.094332573724630
blue tongue and Songlark,DN2 6PZ,53.532552258046700,-1.093135699025100
Chipmunk and leguaan,DN2 6QQ,53.532504862538800,-1.091627990094560
king cobra and alligator,DN3 1AW,53.580453985072900,-1.068714479620730
Wader and indigo snake,DN3 1EB,53.580298106948600,-1.075152000000000
Old World warbler and water snake,DN3 1FB,53.564396280862700,-1.079817353730050
Eagle and snapping turtle,DN3 1JE,53.559077125540400,-1.071946609188380
amphisbaena and krait,DN3 1JW,53.571403161616300,-1.060758719420470
New World blackbird and Chipmunk,DN3 1JY,53.562001384393000,-1.067700545952850
blindworm and Crow,DN3 1LN,53.572279174686700,-1.061282961955600
Thicketbird and dukite,DN3 1NT,53.566947553250600,-1.065704359634710
copperhead and swift,DN3 1NU,53.566403845817300,-1.065461000000000
sand viper and Polecat,DN3 1RX,53.581492342582200,-1.075111150549230
carpet snake and anole,DN3 1SD,53.565656436829900,-1.076543717358360
Kestrel and Linsang,DN3 1SF,53.564735070949700,-1.077122433744210
Solitaire and Dolphin,DN3 1SG,53.565606605920300,-1.075910644031150
garter snake and anaconda,DN3 2AG,53.539754395988100,-1.068853229467730
rattlesnake and Puffleg,DN3 2DB,53.539708447269800,-1.061822386989130
Polecat and puff adder,DN3 2DG,53.542226373948800,-1.060816012485430
rock snake and constrictor,DN3 2DQ,53.542483683119900,-1.060387775883840
king cobra and tiger snake,DN3 2FH,53.533752497045600,-1.069181015672170
rat snake and indigo snake,DN3 2FL,53.534249002504900,-1.072927006364680
elapid and Gila monster,DN3 2HF,53.538351947801300,-1.052798768113730
Pheasant and Kite,DN3 2JY,53.550630048210600,-1.073399259114660
Egret and Masked owl,DN3 2LQ,53.548245844858400,-1.068485781748810
B and water snake,DN3 2LT,53.552971560819500,-1.063581961395260
sand lizard and milk snake,DN3 2PW,53.554761307560200,-1.071784412127300
krait and Egret,DN3 2TN,53.556870965990200,-1.058785952549390
puff adder and boomslang,DN3 3BD,53.532494940456100,-1.060095891931970
Minke whale and king snake,DN3 3EA,53.543972000000000,-1.033794000000000
Quetzal and dukite,DN3 3JU,53.529153566616000,-1.046773427461400
Booted eagles and iguana,DN3 3LD,53.531987173752600,-1.051567848853170
monitor and worm lizard,DN3 3PJ,53.517868907422300,-1.028430474085980
Warbler and rock snake,DN3 3RS,53.527906181029800,-1.048159137074490
Solitaire and snake,DN3 3RW,53.529154910854400,-1.048070800029060
caiman and tokay,DN3 3RZ,53.528832823173700,-1.050521946689230
leguaan and Fox,DN3 3SD,53.529870652402800,-1.051041846672110
deaf adder and Dorcopsis,DN3 3SP,53.533451177062700,-1.045771678058190
sand viper and Linsang,DN3 3TW,53.528381364580200,-1.041254271354070
tokay and Goose,DN3 3UB,53.506763457921800,-1.045752851648110
Chickadee and dugite,DN3 3WR,53.512920908235600,-1.125720918306950
Siskin and River dolphin,DN4 0BX,53.517831428785100,-1.151048015833870
harlequin snake and boa,DN4 0ED,53.517299000000000,-1.146821000000000
indigo snake and River dolphin,DN4 0EP,53.515317847634200,-1.151505433043360
sand viper and diamondback turtle,DN4 0EY,53.514621108349700,-1.152122579601240
black snake and saltwater crocodile,DN4 0JF,53.515427641991100,-1.142952267591600
jew lizard and Flameback,DN4 0LE,53.513882000000000,-1.141581000000000
Viscacha and worm lizard,DN4 0NA,53.509925890971500,-1.147888560231590
asp and mamba,DN4 0NL,53.509363333527300,-1.157294009033940
slowworm and Stint,DN4 0NS,53.505369995441200,-1.155684513042280
Buzzard and Pitohui,DN4 0QG,53.507726367204300,-1.149530969411270
Fox and Coati,DN4 0RR,53.504548442612100,-1.159002742203910
Goose and Egret,DN4 0SG,53.504663503877800,-1.161307283804840
American sparrow and Diving bird,DN4 5EE,53.517026236399500,-1.108337739904640
Komodo dragon and terrapin,DN4 5FH,53.514909000000000,-1.127139982934110
Hawk and Fish eagle,DN4 5FL,53.505881887734300,-1.100158200447200
Flameback and Rat,DN4 5HB,53.517998177031500,-1.116974425752130
smooth snake and Kākāriki,DN4 5JW,53.509770725622900,-1.112953417062190
Thrasher and B,DN4 5LL,53.512849966709900,-1.094446025452820
cobra de capello and bearded lizard,DN4 5NQ,53.511476000000000,-1.104974000000000
saltwater crocodile and New World blackbird,DN4 5PH,53.507441846879600,-1.114057510440540
Booted eagles and jew lizard,DN4 5PU,53.508157372918800,-1.100336194569690
loggerhead and frill-necked lizard,DN4 5PW,53.509367000000000,-1.100929000000000
Chickadee and Jackal,DN4 6AY,53.507412139469300,-1.080358143658380
Fox and ringhals,DN4 6BL,53.506407008621000,-1.081736911355420
Gull and Crow,DN4 6DE,53.502028243204700,-1.068790420918170
Diving bird and Fulmarine petrel,DN4 6HA,53.510676872339900,-1.073607275433220
turtle and Jackal,DN4 6JF,53.513160000000000,-1.073661674231430
Partridge and box turtle,DN4 6JR,53.514980000000000,-1.069752573815800
Ice seal and amphisbaena,DN4 6JU,53.514890196468500,-1.070981797112720
Old World quail and Kangaroo,DN4 6JY,53.512601058812300,-1.072524788985710
Maya and Linsang,DN4 6LH,53.512485053792600,-1.079614977907420
Cloud rat and bull snake,DN4 6LQ,53.512548939839700,-1.078573064345750
brown snake and giant tortoise,DN4 6NQ,53.511452090527600,-1.082050113674110
Schneider python and mamba,DN4 6QQ,53.504077085276900,-1.072183118063060
bull snake and glass snake,DN4 6QX,53.506760488250500,-1.065867121670410
Meadowlark and Puffleg,DN4 6RX,53.504675755829200,-1.062505461109080
frill-necked lizard and Viscacha,DN4 6TP,53.501327075365600,-1.063031608622530
tree snake and Kākāriki,DN4 6TW,53.503040727770500,-1.066069494080660
Cloud rat and tortoise,DN4 6TX,53.504526466288500,-1.058377570105530
goanna and gaboon viper,DN4 6UA,53.503306345395000,-1.058675986498370
Duck and Capuchin,DN4 6UF,53.506393480749300,-1.060326494674660
ringhals and cobra de capello,DN4 6UQ,53.505248713564200,-1.066805005618320
diamondback turtle and perentie,DN4 7AD,53.509362000000000,-1.087192000000000
constrictor and dukite,DN4 7AG,53.505085000000000,-1.082670000000000
Grackle and whip snake,DN4 7AU,53.512344873728600,-1.091847942163980
Argus and terrapin,DN4 7BH,53.506511363010500,-1.085971571663580
loggerhead and Old World vulture,DN4 7DX,53.506371704234500,-1.087693460281340
Crow and puff adder,DN4 7EA,53.503607000000000,-1.086818000000000
soft-shelled turtle and Thrasher,DN4 7EN,53.503526531137200,-1.083200000000000
Black cockatoo and Partridge,DN4 7ER,53.503571013808400,-1.088190810967140
box turtle and bearded dragon,DN4 7EZ,53.500793274609500,-1.086984018770990
bicycle lizard and fer-de-lance,DN4 8AP,53.509039125659700,-1.143292225173510
Buzzard and Jay,DN4 8AT,53.510277656507200,-1.143025986359440
Parrotbill and Komodo dragon,DN4 8DU,53.504222243321000,-1.149736783810290
smooth snake and Maya,DN4 8EX,53.501137962383200,-1.152105109400620
bicycle lizard and Zebra,DN4 8HQ,53.502030580130100,-1.148695131123460
Stilt and Ibex,DN4 8HZ,53.503966384334100,-1.147887430151330
Herring gull and Triller,DN4 8JF,53.503040496204000,-1.149142280563260
Darwin's finches and tree snake,DN4 8LA,53.501285000000000,-1.147315950477030
caiman and Grosbeak,DN4 8QE,53.501672000000000,-1.153783000000000
terrapin and flying lizard,DN4 8RG,53.503864623213300,-1.157629192520340
Flameback and B,DN4 9BF,53.500239000000000,-1.160583000000000
flying dragon and Myna,DN4 9EA,53.502079983003700,-1.162051772757880
Goose and Grouse,DN5 0DD,53.547241334898400,-1.147124331380330
moloch and elapid,DN5 0DF,53.545633366260800,-1.143714000000000
rat snake and puff adder,DN5 0DR,53.546340126175200,-1.146795326420600
milk snake and bandy-bandy,DN5 0EP,53.553430213518800,-1.147784838614030
massasauga and Rat,DN5 0NY,53.552012757018900,-1.141881333531510
Marmoset and Tattler,DN5 0QQ,53.562893394763900,-1.153860343224800
Linsang and horned toad,DN5 0RN,53.562589639999200,-1.154123066837400
ringhals and cobra de capello,DN5 0RS,53.548032202287000,-1.144587959374760
kabaragoya and Dolphin,DN5 0SH,53.557943228041300,-1.126695342677360
rattlesnake and king cobra,DN5 0TL,53.557747000000000,-1.121869000000000
Tattler and Partridge,DN5 8EF,53.526647998556100,-1.162336415477230
bull snake and blue racer,DN5 8ES,53.527359062841100,-1.161190991628860
flying dragon and cobra,DN5 8EX,53.528075182807700,-1.159487263479190
diamondback terrapin and king cobra,DN5 8HF,53.524692547728100,-1.160353681139340
Black jay and amphisbaena,DN5 8LU,53.531513000000000,-1.157322000000000
Mole and bearded dragon,DN5 8UW,53.532372125982000,-1.160820387853670
moloch and Jerboa,DN5 9AG,53.529147954249900,-1.144711970647520
Pheasant and chameleon,DN5 9BE,53.533083000000000,-1.154439000000000
Chipmunk and Lemming,DN5 9JF,53.544290137883200,-1.160690382932960
tokay and viper,DN5 9JH,53.545509750887000,-1.159006168668750
skink and Nukupuʻu,DN5 9JW,53.548325679453300,-1.160640749023530
Mamo and bicycle lizard,DN5 9NQ,53.544638998949300,-1.155341109917340
River dolphin and viper,DN5 9QE,53.535997369922200,-1.153566658898190
Egret and Grosbeak,DN5 9QJ,53.538028275941800,-1.154763469560380
Pitohui and Vulture,DN5 9QY,53.542573024064700,-1.150462651297640
racer and Polecat,DN5 9SF,53.530768730731700,-1.143849563649010
Buzzard and Prion,DN5 9TB,53.534836000000000,-1.145460328578950
diamond snake and Thrasher,DN55 1LB,53.512923750490100,-1.125720996155070
Zebra and green turtle,DN55 1NF,53.512923750490100,-1.125720996155070
Chipmunk and massasauga,DN55 1SH,53.512923750490100,-1.125720996155070
Tree warbler and frilled lizard,DN6 0AD,53.611407000000000,-1.152785000000000
Old World warbler and smooth snake,DN6 0AY,53.610427530495300,-1.159334449418130
Puffleg and Kākāriki,DN6 0BF,53.619049000000000,-1.152862000000000
Towhee and cycling lizard,DN6 0BN,53.614395000000000,-1.159561000000000
Old World warbler and Mouse,DN6 0DY,53.591068431370800,-1.101492312942760
Treepie and Greenbul,DN6 0LN,53.615554169939800,-1.143299590940980
Mockingbird and diamondback terrapin,DN6 0ND,53.616511150412400,-1.142630186652720
Cloud rat and New World blackbird,DN6 0NT,53.615743654916300,-1.140892181666040
Black jay and snapping turtle,DN6 0PW,53.616458492878200,-1.152910859203200
Zebra and Lemming,DN6 0PX,53.612209156068700,-1.160886201444100
gaboon viper and goanna,DN6 0RD,53.615585619835500,-1.132686983928770
jew lizard and cobra de capello,DN6 9BS,53.659424522533600,-1.150521490534540
caiman and snapping turtle,DN7 4AZ,53.578455855034500,-1.016696158137380
Komodo dragon and cycling lizard,DN7 4DH,53.563520322432200,-1.025935434017810
indigo snake and king snake,DN7 4EU,53.564174459271500,-1.031220004068650
ringhals and king snake,DN7 4HD,53.576413877571800,-1.019794323293740
Meadowlark and taipan,DN7 4HU,53.568814476989700,-1.020407929585550
snake and thorny devil,DN7 4JA,53.576572621940300,-1.021618114173960
Bunting and mamba,DN7 4JE,53.574877882793700,-1.021022930911650
dugite and hoop snake,DN7 4LJ,53.580668377829100,-1.013578618247540
brown snake and Bronzewing pigeon,DN7 5AX,53.600654257752000,-1.027091000000000
skink and smooth snake,DN7 5HH,53.590519945116600,-1.025647131416640
tortoise and Fish eagle,DN7 5LA,53.614060000000000,-1.012211000000000
Herring gull and dugite,DN7 5LD,53.619785563745600,-1.013407861570290
Tattler and Argus,DN7 5LG,53.624690444332500,-1.006534774298910
alligator and loggerhead,DN7 5PT,53.593170000000000,-1.030547000000000
boomslang and copperhead,DN7 5SD,53.604172726370000,-1.065925000000000
Zebra and leathery turtle,DN7 5SR,53.600661851013100,-1.066592780666060
Magpie and Meadowlark,DN7 5SU,53.605821390962300,-1.065451335212540
gavial and krait,DN7 5TF,53.621555755896000,-1.048881200454480
Eagle and Petrel,DN7 6DA,53.543828365040800,-0.975635249482499
Viscacha and mountain devil,DN7 6DN,53.541489176731000,-0.973292311899592
tokay and Greenbul,DN7 6ER,53.579354875168100,-0.990802138057596
Diving bird and Scimitar babbler,DN7 6HX,53.575305567310300,-1.005306401677250
Dolphin and indigo snake,DN7 6LD,53.580432119012400,-1.012179410218820
king snake and snapping turtle,DN7 6NT,53.570098336693800,-0.972010669184140
Vole and Wallaby,DN7 6NW,53.579240752024200,-0.968979579007479
cobra de capello and Rat,DN7 6PD,53.570663643564800,-0.976089318592830
Perching duck and sea snake,DN7 6RE,53.577515669098000,-1.004091576984740
mud turtle and bushmaster,DN7 6RL,53.581429853274000,-1.006748657500070
diamond python and ringhals,DN7 6RS,53.578135978468000,-0.996146000000000
carpet snake and ringhals,DN8 4BD,53.614961049648900,-0.970981844081908
Fish eagle and tree snake,DN8 4BQ,53.613427000000000,-0.965940000000000
Moluccan boobook and terrapin,DN8 4DJ,53.617366688581000,-0.963304071640460
swift and mamba,DN8 4ES,53.621829602882400,-0.957615739846308
Jackal and slowworm,DN8 4FD,53.620822000000000,-0.954033000000000
Macaw and Kite,DN8 4HH,53.619645000000000,-0.961615000000000
krait and mountain devil,DN8 4HY,53.615257000000000,-0.984426094554156
Chipmunk and Crow,DN8 4JJ,53.620644000009300,-0.980685984220065
Perching duck and Masked owl,DN8 4JR,53.642480000000000,-0.981899000000000
Parrotlet and adder,DN8 4JZ,53.660288714406600,-0.957242287090291
snake and Old World quail,DN8 4LA,53.619408415774500,-0.954152799315143
soft-shelled turtle and Dorcopsis,DN8 4LJ,53.630679832050400,-0.946932960286910
diamondback turtle and Chipmunk,DN8 4LR,53.633051085913900,-0.948779454766682
python and American sparrow,DN8 4LU,53.633989318087100,-0.950192877172877
Peafowl and snapping turtle,DN8 4NT,53.635059927732800,-0.950302418798101
Grackle and mountain devil,DN8 4PF,53.633193246663800,-0.953721242127699
terrapin and Komodo dragon,DN8 4PU,53.629454317171700,-0.946585418752684
Partridge and alligator,DN8 4QD,53.629450924696700,-0.945179159681403
grass snake and Tahr,DN8 4QG,53.631324150583500,-0.945586127214100
Mockingbird and tortoise,DN8 4QJ,53.631607929258800,-0.946168840394862
Gull and agamid,DN8 4QU,53.630742044181000,-0.942772741386637
gecko and River dolphin,DN8 4SL,53.629698000000000,-0.952779000000000
Mink and cayman,DN8 4TF,53.631861360583700,-0.952681000000000
Greenbul and agamid,DN8 4TQ,53.631546697310400,-0.953535129317078
snapping turtle and boa,DN8 5AQ,53.613427851662100,-0.969341217907005
leathery turtle and chuckwalla,DN8 5BF,53.565698000000000,-0.857423000000000
massasauga and Thrasher,DN8 5BS,53.614535885106100,-0.961468000000000
Solitaire and Shearwater,DN8 5BT,53.613862665171200,-0.961409650268215
death adder and Kangaroo,DN8 5DH,53.611142630907500,-0.960781078195676
python and king cobra,DN8 5HL,53.609905871859000,-0.953979471769344
bearded lizard and blindworm,DN8 5HN,53.609711602373700,-0.953349445874761
Duck and taipan,DN8 5LA,53.609565355029900,-0.960290778350941
deaf adder and Shearwater,DN8 5LB,53.609240706128800,-0.959134917304052
whip snake and Maya,DN8 5LW,53.606496503830600,-0.957796804038104
slowworm and frilled lizard,DN8 5ND,53.607021905959600,-0.951058164491848
Maya and deaf adder,DN8 5RU,53.604963465728100,-0.966554856023420
Grackle and blue racer,DN8 5SA,53.594176000000000,-0.946783000000000
amethystine python and Argus,DN8 5SN,53.576568000000000,-0.897909000000000
cobra de capello and Capuchin,DN8 5TU,53.604085711189900,-0.949362694676392
diamondback terrapin and mamba,DN8 5UG,53.617100000000000,-0.977919000000000
bicycle lizard and Civet,DN8 5WU,53.611242515329300,-0.962970365301547
Lemming and water snake,DN8 5YP,53.603463436542900,-0.970853235399987
frilled lizard and adder,DN9 1BT,53.528151000000000,-0.824032564240526
grass snake and rock python,DN9 1BZ,53.519766000000000,-0.824167743345099
terrapin and worm lizard,DN9 1DA,53.511165541208100,-0.825309000000000
bicycle lizard and Vulture,DN9 1EA,53.523585505220700,-0.859431625775679
gecko and Grouse,DN9 1EN,53.526121382943300,-0.825180239992742
Booted eagles and Towhee,DN9 1ET,53.525401675402900,-0.820553952375584
Hawk and perentie,DN9 1GR,53.525154856001500,-0.831665000000000
asp and boa,DN9 1GS,53.524679159450100,-0.831193723226908
dugite and Grackle,DN9 1GX,53.529335000000000,-0.827400000000000
bushmaster and tokay,DN9 1GZ,53.524648299754900,-0.820725726129002
Civet and iguana,DN9 1HS,53.522785401866100,-0.811425288168419
mud turtle and kabaragoya,DN9 1HU,53.524567746819300,-0.819611798306636
hawksbill and loggerhead,DN9 1JL,53.528776577566900,-0.823703746891066
crocodile and Thicketbird,DN9 1JP,53.527922329154400,-0.824587313626605
Goose and Gila monster,DN9 1NR,53.550153304824800,-0.817435809887266
boomslang and Polecat,DN9 1NX,53.544430895345800,-0.820523113173148
Myna and sea snake,DN9 1PE,53.547289770858300,-0.820337000000000
dukite and thorn lizard,DN9 1PH,53.559438707530900,-0.844095144858831
Mamo and coral snake,DN9 1PU,53.544941336515800,-0.820327820161047
water snake and Marmoset,DN9 1PY,53.557451649533700,-0.823753996919290
blind snake and Civet,DN9 1QH,53.563081158709500,-0.816712937804034
Guillemot and tuatara,DN9 1QP,53.554128000000000,-0.809370000000000
Booted eagles and Egret,DN9 1RU,53.553318000000000,-0.815268000000000
gecko and alligator,DN9 1SL,53.526491317909100,-0.817114370962965
Coati and blue racer,DN9 1SX,53.524219299623100,-0.809182791869452
perentie and Maya,DN9 1TB,53.554345379592600,-0.810164000000000
Stint and coral snake,DN9 2BY,53.522795673024000,-0.926681000000000
Ibex and Black jay,DN9 2JN,53.504572000000000,-0.857198000000000
Pitohui and Kangaroo,DN9 3HZ,53.503600514076700,-1.019228003794130
Argus and Chickadee,YO8 8PT,53.718565000000000,-0.906127000000000
