name,postcode,lat,lon
The Georgian Tearooms,DN1 1BB,53.52335300000000,-1.13490400000000
Subway,DN1 1DE,53.52280400000000,-1.13354200000000
Mercure Doncaster Danum Hotel,DN1 1DN,53.52262100000000,-1.13309400000000
KFC,DN1 1DW,53.52312200000000,-1.13293200000000
The grind,DN1 1DW,53.52309700000000,-1.13303900000000
ZEST BAR AND GRILL,DN1 1DW,53.52309700000000,-1.13303900000000
Bowers Coffee Shop,DN1 1HF,53.52364900000000,-1.13233400000000
CHINESE CATERING LIMITED,DN1 1HT,53.5241,-1.1311
JAVED RESTAURANTS DONCASTER LIMITED,DN1 1HZ,53.5242,-1.1306
RED CURRY LIMITED,DN1 1HZ,53.5242,-1.1306
lalezar,DN1 1JD,53.52361200000000,-1.12969500000000
Legends desserts & burger,DN1 1JE,53.5232,-1.1292
Mecca Bingo Club,DN1 1JG,53.52428800000000,-1.13004300000000
The Georgian Patisserie,DN1 1LA,53.52406300000000,-1.13861500000000
Burger King - Doncaster ,DN1 1LB,53.52406300000000,-1.13861500000000
Burger King,DN1 1LB,53.52406300000000,-1.13861500000000
KFC,DN1 1LB,53.52406300000000,-1.13861500000000
Subway,DN1 1LB,53.52406300000000,-1.13861500000000
Costa Coffee,DN1 1LD,53.52417800000000,-1.13469100000000
Debenhams Restaurant Doncaster,DN1 1LH,53.52406300000000,-1.13861500000000
Costa Coffee,DN1 1LJ,53.52406300000000,-1.13861500000000
C & P ROTHWELL LTD,DN1 1LQ,53.52499500000000,-1.13331700000000
D & L Rothwell Ltd,DN1 1LQ,53.52499500000000,-1.13331700000000
Olde Castle Hotel,DN1 1LQ,53.52499500000000,-1.13331700000000
MARKETPLACE ALEHOUSE & DELI,DN1 1ND,53.52493800000000,-1.13165900000000
MASONS ARMS,DN1 1ND,53.52493800000000,-1.13165900000000
magdalen sports cafe bar,DN1 1ND,53.52493800000000,-1.13165900000000
LYNNIES LUNCH STOP,DN1 1NE,53.5240,-1.1319
Hungry dragon,DN1 1NG,53.52539470000000,-1.13146200000000
Indian food hawker,DN1 1NG,53.52539470000000,-1.13146200000000
LollieJade’s Cupcake Emporium,DN1 1NG,53.52539470000000,-1.13146200000000
MARKET CAFE,DN1 1NG,53.52518900000000,-1.13166800000000
Movida Go Limited,DN1 1NG,53.52539470000000,-1.13146200000000
Scrapes,DN1 1NG,53.52539470000000,-1.13146200000000
Taste Peru,DN1 1NG,53.52539470000000,-1.13146200000000
The Rustic Pizza co ,DN1 1NG,53.52539470000000,-1.13146200000000
Zaytuna ,DN1 1NG,53.52539470000000,-1.13146200000000
Costa Coffee,DN1 1PE,53.52226300000000,-1.13961700000000
Costa Coffee,DN1 1PP,53.52210998535156,-1.13892996311188
Starbucks,DN1 1PP,53.52210998535156,-1.13892996311188
Starbucks Doncaster Frenchgate,DN1 1QB,53.52401300000000,-1.13671600000000
McDonald's Restaurant,DN1 1RX,53.52170200000000,-1.13661200000000
McDonalds Restaurant,DN1 1RX,53.52170200000000,-1.13661200000000
Patisserie Valerie ,DN1 1SR,53.5236,-1.1371
Starbucks,DN1 1SR,53.52341900000000,-1.13666700000000
KFC,DN1 1ST,53.5232,-1.1375
Dunkin Donuts Frenchgate,DN1 1SW,53.5229,-1.1366
Flip Out Doncaster,DN1 1SW,53.52290725708010,-1.13660502433777
Taco Bell,DN1 1SW,53.5229,-1.1366
Sue's diner ,DN1 1SZ,53.52335640000000,-1.13647950000000
Cafe Nero,DN1 1TA,53.52401300000000,-1.13671600000000
Doncaster Jazz Cafe Limited,DN1 1TJ,53.5224,-1.1356
The Glass Strawberry Coffee House,DN1 1TR,53.52192100000000,-1.13455600000000
Dreambakes Ltd,DN1 1TS,53.5226,-1.1344
Movida Bar & Restaurant ,DN1 1TS,53.52261352539060,-1.13440597057343
Fish Bits,DN1 2BY,53.51599700000000,-1.12826700000000
Salutation Doncaster Ltd ,DN1 2DR,53.52135300000000,-1.12686000000000
The Regent Hotel LTD,DN1 2DS,53.52218200000000,-1.12589300000000
Doncaster Tandoori ,DN1 2PE,53.52598900000000,-1.13026400000000
El Boca Doncaster Ltd,DN1 2PH,53.52494370000000,-1.13089150000000
La Rustica Doncaster Ltd,DN1 2PH,53.52511800000000,-1.13043300000000
zammuto steak and grill house,DN1 2PH,53.52511800000000,-1.13043300000000
EL TORERO DONCASTER LIMITED,DN1 2PW,53.5250,-1.1298
KOZ TURKISH BARBECUE AND MEZZE BAR,DN1 2PW,53.52503204345700,-1.12975597381592
Sarahs desserts snack bar ,DN1 2QP,53.5268,-1.1283
SPICE AND ICE,DN1 2SD,53.5303,-1.1270
The Leopard,DN1 3AA,53.52076721191410,-1.13783705234528
All Things Nice Cafe,DN1 3EG,53.52174400000000,-1.13492200000000
La Familia,DN1 3EL,53.52169780000000,-1.13323550000000
La Familia ( Rbcgroup uk LTD),DN1 3EN,53.53758239746090,-1.10195004940033
Opera Restaurant,DN1 3EY,53.51982500000000,-1.13315100000000
THE HAREWOOD,DN1 3EY,53.51982500000000,-1.13315100000000
Cupcakes 2 Love ltd,DN1 3JH,53.52008100000000,-1.13368800000000
Java Cafe,DN1 3JU,53.52079000000000,-1.13222600000000
Bake battle and roll ,DN1 3LW,53.52200540000000,-1.13257810000000
Cactus Jacks,DN1 3NA,53.52254600000000,-1.13027500000000
Tortilla Hut,DN1 3NA,53.52254600000000,-1.13027500000000
Poppadoms and Cream,DN1 3NL,53.52234500000000,-1.12858900000000
poppadomsandcream,DN1 3NL,53.5223,-1.1286
The bayhorse inn,DN14 0BQ,53.68230300000000,-1.10993900000000
The Kings Head Pollington,DN14 0DN,53.66794400000000,-1.06448700000000
Whitley bridge truck stop ,DN14 0HH,53.69889000000000,-1.16022400000000
The George & Dragon,DN14 0HY,53.68486400000000,-1.15199300000000
Costa Coffee,DN14 5BT,53.70415800000000,-0.87424900000000
Supreme Coffee House,DN14 5DA,53.70380300000000,-0.87282000000000
The coffee lounge,DN14 5DE,53.70417100000000,-0.87274900000000
Razzar's cafe,DN14 5DL,53.70423000000000,-0.87233900000000
Stanleys Bar & Kitchen,DN14 5DR,53.70353698730470,-0.87108898162842
MR NessuNo,DN14 5QE,53.70259800000000,-0.87089700000000
Fullers Bakery,DN14 6AG,53.70542300000000,-0.87871500000000
Fullers Bakery,DN14 6DR,53.70938800000000,-0.87321500000000
Old Market Cafe ,DN14 6HD,53.70707100000000,-0.87427800000000
WESTFIELD FISHERIES,DN14 6JX,53.71021000000000,-0.87164900000000
Saltmarshe hall,DN14 7RX,53.7063,-0.8168
The Half Moon Inn,DN14 8ET,53.69832200000000,-0.79361200000000
Elior UK,DN14 8GA,53.70009200000000,-0.90786400000000
McDonald's,DN14 8JS,53.70497800000000,-0.91434200000000
Mcdonalds Restaurant,DN14 8JS,53.70497800000000,-0.91434200000000
The Percy Arms,DN14 8LD,53.71605300000000,-0.90563200000000
THE PEPPERED PIG ,DN14 9BY,53.68550400000000,-0.99315800000000
Park Lodge Shooting School,DN14 9ED,53.6848,-1.0169
Bon appetit,DN14 9HE,53.69167400000000,-1.02947800000000
The plough Inn,DN14 9JJ,53.69107100000000,-1.02828000000000
Brewers Arms Hotel,DN14 9JS,53.69075300000000,-1.03013500000000
Odddfellows Hotel bar and grill,DN14 9LY,53.70962000000000,-1.02015600000000
Carlton Towers Events Limited,DN14 9LZ,53.70655900000000,-1.01742500000000
Lakeside Bar and Restaurant,DN17 4BQ,53.5930,-0.8211
Hirst Priory Ltd,DN17 4BU,53.58276800000000,-0.82593700000000
Fullers Bakery,DN17 4LB,53.60645100000000,-0.83289800000000
The Red Lion,DN17 4NE,53.60964500000000,-0.83509200000000
Urban Fresh Burgers & Fries,DN2 4BG,53.54154586791990,-1.10667598247528
Buzz Bingo,DN2 4PE,53.54299700000000,-1.10008100000000
JJ's Cafe and Sandwich Bar,DN2 4PW,53.5433,-1.0954
GO BOUNCE TRAMPOLINE PARK,DN2 4SQ,53.54326200000000,-1.07949100000000
The Wheatley,DN2 5DR,53.54177000000000,-1.09588200000000
KFC,DN2 5DX,53.54473600000000,-1.08288500000000
McDonald's Restaurant,DN2 5DX,53.54473500000000,-1.08288500000000
McDonalds,DN2 5DX,53.54473500000000,-1.08288500000000
The Landing Pad Cafe,DN2 5DX,53.54473600000000,-1.08288500000000
Sandall Park Cafe,DN2 5DZ,53.54390200000000,-1.08783800000000
Vivo’s ,DN2 6AA,53.52020600000000,-1.12121200000000
Earl Of Doncaster Hotel,DN2 6AD,53.51922900000000,-1.11791500000000
Crab & Moo T/As The Indus,DN2 6AX,53.51874900000000,-1.11023300000000
Grand St Leger Hotel & Bar,DN2 6AX,53.51874900000000,-1.11023300000000
Hilton Garden Inn Doncaster Racecourse,DN2 6BB,53.52033200000000,-1.10790700000000
Whitbys,DN2 6DR,53.52407400000000,-1.10595700000000
Amazing Thai Restaurant,DN3 1DB,53.57535800000000,-1.06752800000000
The Olive,DN3 1HA,53.57237800000000,-1.06686900000000
BRIX COFFEE CO,DN3 1HE,53.56324070000000,-1.07301210000000
The Glasshouse,DN3 1HP,53.56089700000000,-1.07237500000000
The Cabin,DN3 1JR,53.56229700000000,-1.06855500000000
Black coriander ,DN3 2BT,53.53807200000000,-1.07082200000000
La Fiesta,DN3 2BU,53.53804500000000,-1.06851400000000
The Beverley Inn,DN3 2JE,53.55310300000000,-1.06765500000000
Waterfall Elior @,DN3 2PP,53.55635452270510,-1.07154297828674
Shimla Restaurant,DN3 3AE,53.5354,-1.0538
Croziers Kitchen,DN3 3DL,53.53607600000000,-1.05019400000000
Elachi Indian restaurant limited ,DN3 3DL,53.53607600000000,-1.05019400000000
Joannes tearooms,DN3 3DL,53.53588800000000,-1.05031900000000
PACKERS REST RESTAURANT,DN3 3FF,53.53796500000000,-1.03349400000000
horse and groom,DN3 3JU,53.52916400000000,-1.04678900000000
Yorkshire Wildlife Park Limited,DN3 3NH,53.50726300000000,-1.03729800000000
Canters Bistro ,DN3 3QL,53.51393508911130,-1.05352497100830
The Dell Cafe,DN4 0JD,53.51366424560550,-1.15793299674988
Suburb - Buns & Slice,DN4 0RG,53.5091,-1.1462
Daisy’s deli,DN4 0RS,53.50343600000000,-1.16176900000000
Gurkha Lounge ,DN4 5DP,53.51739900000000,-1.11724400000000
Colosseo restaurant ,DN4 5DS,53.51637900000000,-1.11435400000000
Innovation Cafe ,DN4 5HX,53.51283100000000,-1.13056400000000
Elior Uk,DN4 5JJ,53.51139300000000,-1.12558700000000
Costa Coffee,DN4 5PH,53.50745200000000,-1.11407300000000
KFC,DN4 5PH,53.50745200000000,-1.11407300000000
McDonald's Restaurant,DN4 5PH,53.5074,-1.1141
Pizza Hut,DN4 5PH,53.50745200000000,-1.11407300000000
McDonalds Restaurant,DN4 5PJ,53.50669097900390,-1.11221897602081
El Futuro Wine & Tapas,DN4 5PL,53.50890350341800,-1.10098695755005
Baxterstorey,DN4 5PN,53.50423431396480,-1.10678505897522
One Call Canteen,DN4 5RA,53.50353400000000,-1.11064100000000
Subway,DN4 6NN,53.50804519653320,-1.07464504241943
Burger King,DN4 7FW,53.51388020000000,-1.10216030000000
Costa Coffee,DN4 7FW,53.51388020000000,-1.10216030000000
Dunkin Donuts Herten,DN4 7FW,53.5144,-1.1026
Estabulo Bar & Grill,DN4 7FW,53.51388020000000,-1.10216030000000
TGI Fridays,DN4 7FW,53.51388020000000,-1.10216030000000
Urban Fresh Burgers & Fries,DN4 7FW,53.51388020000000,-1.10216030000000
The Counting House,DN4 7JA,53.50023651123050,-1.08802199363709
The Flying Childers,DN4 7JA,53.50023600000000,-1.08802200000000
Doncaster Tenpin,DN4 7NW,53.51293182373050,-1.10527205467224
McDonalds Restaurant,DN4 7NW,53.51231600000000,-1.10459200000000
Nandos,DN4 7NW,53.51231600000000,-1.10459200000000
Pizza Express,DN4 7NW,53.51231600000000,-1.10459200000000
Taco Bell,DN4 7NW,53.5129,-1.1054
Doncaster Golf Club,DN4 7PD,53.51411800000000,-1.09677200000000
Miller & Carter Bessacarr,DN4 7PD,53.51411800000000,-1.09677200000000
The Dome,DN4 7PD,53.51411800000000,-1.09677200000000
McDonald's Restaurant,DN4 8DD,53.5066,-1.1473
McDonalds Restaurant,DN4 8PL,53.50597763061520,-1.15098404884338
Cafè L.A.,DN5 0AT,53.5461,-1.1468
Moona Coffee,DN5 0AT,53.54608100000000,-1.14681600000000
The Tea Garden,DN5 0EU,53.55513700000000,-1.14880800000000
Thornhurst Manor,DN5 0LR,53.58951500000000,-1.14825300000000
The Plough Inn,DN5 0SF,53.55584400000000,-1.12840000000000
KFC,DN5 8BN,53.52898900000000,-1.14993500000000
Newton arms,DN5 8BP,53.52473800000000,-1.15765300000000
Trattoria Toscana,DN5 8HX,53.53458404541020,-1.16074705123901
NAAZ INDIAN RESTAURANT & TAKE-AWAY,DN5 9BG,53.53410800000000,-1.15449500000000
McDonald's Restaurant,DN5 9TP,53.53157043457030,-1.14620304107666
Mcdonalds Restaurant Ltd,DN5 9TP,53.53157043457030,-1.14620304107666
Baxter Arms,DN6 0HA,53.63947800000000,-1.10332300000000
The Old Hayloft Tearoom,DN6 0HH,53.62161200000000,-1.10146400000000
Lakeside Cafe,DN6 0HZ,53.6155,-1.1489
the happy cat cafe,DN6 0LE,53.61617700000000,-1.14472400000000
The Owston,DN6 9JG,53.59727100000000,-1.16221000000000
Sarah-janes tearooms and coffee lounge,DN7 4BY,53.56268670000000,-1.02688330000000
The tattooed goose ,DN7 5JE,53.60068100000000,-1.03257700000000
Boston Park Farm,DN7 6DS,53.53566300000000,-0.98349800000000
Kingswood Catering ,DN7 6EP,53.59289200000000,-0.98011600000000
Hatfield Outdoor Activity Centre,DN7 6EQ,53.58263400000000,-0.98832300000000
INGRAM ARMS PUBLIC HOUSE,DN7 6RS,53.5782,-0.9969
the Bay Horse Inn,DN7 6RS,53.57814600000000,-0.99658600000000
Punchbowl Inn,DN8 4BE,53.53758239746094,-1.10195004940033
BMW Thorne,DN8 4HT,53.62078500000000,-0.97182400000000
Bliss coffee shop,DN8 5DG,53.6110,-0.9615
Canal Tavern,DN8 5DZ,53.60903800000000,-0.96366000000000
Stonegate Club,DN8 5EE,53.61028500000000,-0.96226900000000
Burger King,DN8 5GS,53.59215900000000,-0.99234000000000
Costa Coffee,DN8 5GS,53.59215900000000,-0.99234000000000
Thorne Golf Club,DN8 5RJ,53.60548000000000,-0.97215000000000
The Reindeer Inn,DN8 5SZ,53.56471100000000,-0.88132200000000
McDonalds Restaurants,DN8 5TX,53.61337280273440,-0.97959202528000
Curry Leaf Indian Restaurant,DN9 1EP,53.52567800000000,-0.82207000000000
Fullers Bakery,DN9 1EP,53.52567900000000,-0.82207000000000
The Khyber Restaurant (Epworth) Ltd,DN9 1ER,53.52551600000000,-0.82018900000000
Red Lion Coaching Inn,DN9 1EU,53.52525300000000,-0.81994000000000
Epworth Fields Holiday Park Ltd,DN9 1JA,53.52494812011720,-0.78240197896957
Holmes and Gardens,DN9 1JL,53.52878700000000,-0.82371900000000
The White Bear,DN9 1JL,53.52878700000000,-0.82371900000000
Belton Kitchen,DN9 1NY,53.54227447509770,-0.82129299640655
Happy Cafe,DN9 1PN,53.56304100000000,-0.85129000000000
The Wheatsheaf ,DN9 1QB,53.55810600000000,-0.83632700000000
Eagle & Child,DN9 3HS,53.50370800000000,-1.02340200000000
Eagle and Child,DN9 3HS,53.50370800000000,-1.02340200000000
