name,postcode,lat,lon
adder and deaf adder,DN1 1DW,53.523086337162900,-1.133023419161800
Black jay and Moluccan boobook,DN1 1HL,53.523459988507700,-1.131250969430420
blind snake and Chicken,DN1 1JS,53.524011175135100,-1.130410066501640
wall lizard and cerastes,DN1 1JX,53.524353373269700,-1.135456289446650
Lemming and horned viper,DN1 1QB,53.523869000000000,-1.136700325057120
cayman and sand viper,DN1 1RU,53.521173000000000,-1.136769842413570
chameleon and Kākāriki,DN1 2AW,53.517840232769500,-1.124835414230870
Ground sloth and bicycle lizard,DN1 2BU,53.520041364933300,-1.127987741659730
diamond python and viper,DN1 2JF,53.524034640473500,-1.123772555139900
Hawaiian honeycreeper and slowworm,DN1 2JR,53.526337768286700,-1.121598051561360
amethystine python and goanna,DN1 2LT,53.526162000000000,-1.125690000000000
Egret and tiger snake,DN1 2LZ,53.527809656737100,-1.126198855141670
Shearwater and smooth snake,DN1 2NB,53.527619212711300,-1.124739486589250
Triller and rat snake,DN1 2QW,53.526458552119000,-1.128278219240880
leguaan and flying dragon,DN1 2RA,53.527434981671000,-1.127820699428100
Parrotlet and massasauga,DN1 3HU,53.519461717960400,-1.130246802298680
lizard and Triller,DN1 9PR,53.512923750490100,-1.125720996155070
Recurvebill and Guillemot,DN1 9SH,53.520010916083200,-1.132844868539990
Logrunners and taipan,DN1 9TD,53.520010916083200,-1.132844868539990
box turtle and bearded lizard,DN1 9TJ,53.520013768867100,-1.132844947328360
giant tortoise and box turtle,DN1 9TW,53.512914000000000,-1.125573000000000
coral snake and carpet snake,DN14 0AL,53.693894148346500,-1.062533000000000
perentie and Asiatic leopard,DN14 0AR,53.691528476110000,-1.064373000000000
Wader and blue tongue,DN14 0AU,53.679948445497200,-1.066415629601050
slowworm and sidewinder,DN14 0BE,53.682099000000000,-1.100646000000000
diamondback and iguana,DN14 0ET,53.665252969108400,-1.088685573365160
dukite and Logrunners,DN14 0FE,53.680405890552100,-1.149584716538380
White ibis and Parakeet,DN14 0HF,53.668875438188700,-1.072306057850100
taipan and Kite,DN14 0JJ,53.681934000000000,-1.159659239873910
monitor and Eagle,DN14 0LT,53.704831000000000,-1.148714000000000
racer and perentie,DN14 0LW,53.703439221465500,-1.152831845713160
Booted eagles and alligator,DN14 0PU,53.697296323714200,-1.143443464147400
Hawk and diamondback turtle,DN14 0PY,53.693535169839000,-1.127935914534410
Grosbeak and Greenbul,DN14 0QB,53.703347071580200,-1.106359000000000
White ibis and Mink,DN14 0QH,53.695504760322500,-1.115824326836360
anaconda and Stint,DN14 0QT,53.701862000000000,-1.108802339101330
Capuchin and tokay,DN14 0RL,53.700597000000000,-1.128653000000000
moloch and grass snake,DN14 0RP,53.704445295093100,-1.104533022066060
copperhead and Flameback,DN14 0UE,53.667743462165700,-1.073541756481310
adder and tokay,DN14 0WF,53.701292324084800,-1.156843581187330
glass snake and Diving bird,DN14 0WT,53.706806982323200,-1.149885826175810
Armadillo and Kākāriki,DN14 5AH,53.704609781329000,-0.870782688305826
Old World quail and Polecat,DN14 5HX,53.711881684824300,-0.854693906908149
mud turtle and leguaan,DN14 5JZ,53.709067967850500,-0.852785577567979
Recurvebill and Herring gull,DN14 5LG,53.708610783826400,-0.850101224957926
Coati and milk snake,DN14 5RE,53.702980000000000,-0.867573994882700
Duck and mud turtle,DN14 6AJ,53.707258727425000,-0.884892142450944
Black jay and worm lizard,DN14 6HH,53.708855048119200,-0.871062949043889
Tattler and Pitohui,DN14 6NS,53.709203654688800,-0.877553255570739
gaboon viper and Moluccan boobook,DN14 6QS,53.713104870619000,-0.872782585197785
Crow and skink,DN14 6TB,53.702807417429200,-0.886615528495189
Darwin's finches and chuckwalla,DN14 6YN,53.707850841902300,-0.881876755212306
Eagle and boa,DN14 7TP,53.721383159300800,-0.802332492622602
indigo snake and iguana,DN14 7TW,53.721781520201900,-0.807125406338382
crocodile and turtle,DN14 8AF,53.682252089556500,-0.854377408990540
Eagle and Wader,DN14 8BD,53.688497043244700,-0.864535620162842
blue racer and Elephant,DN14 8DH,53.689361000000000,-0.830848000000000
River dolphin and tortoise,DN14 8EB,53.655566000000000,-0.787796000000000
viper and jew lizard,DN14 8EN,53.699762366809600,-0.808338794250686
Cuscus and cycling lizard,DN14 8FB,53.690019000000000,-0.832935000000000
Darwin's finches and Kangaroo,DN14 8JR,53.695473959970000,-0.919145081734443
Old World vulture and flying dragon,DN14 8JZ,53.709000875430300,-0.921040755795321
Civet and boa,DN14 8LL,53.721784000000000,-0.897405000000000
sand lizard and Recurvebill,DN14 8RL,53.700052052924000,-0.963212428999238
Viscacha and deaf adder,DN14 8SB,53.706084000000000,-0.940582000000000
Vole and constrictor,DN14 8SJ,53.684876329158400,-0.941281261439501
glass snake and Pheasant,DN14 8SP,53.675507000000000,-0.946905000000000
glass snake and Kestrel,DN14 9AX,53.642632260646400,-1.052067805545330
puff adder and Grackle,DN14 9BZ,53.685092000000000,-0.990078000000000
leguaan and indigo snake,DN14 9DP,53.689795940098800,-1.025295375970390
jew lizard and Dolphin,DN14 9DS,53.690512668015300,-1.025006238007830
galliwasp and Grackle,DN14 9FG,53.690773049397300,-1.020563079460450
amphisbaena and Jerboa,DN14 9JF,53.692147898704600,-1.024923031098660
Mole and python,DN14 9JG,53.690934432279800,-1.024920776129050
blindworm and Diving bird,DN14 9JT,53.690362000000000,-1.034005000000000
Greenbul and king cobra,DN14 9LD,53.691121721223400,-1.034729730256340
flying dragon and slowworm,DN14 9PZ,53.711126268544300,-1.053407832091700
amphisbaena and Tattler,DN14 9QQ,53.710555188996500,-1.023679393554800
dukite and sand lizard,DN17 3ER,53.593185718247600,-0.753924094565785
krait and Solitaire,DN17 4DJ,53.607616000000000,-0.836013000000000
Duck and Parrotlet,DN17 4HN,53.607366336100700,-0.832902231821096
Peafowl and Mouse,DN17 4JG,53.596580557535300,-0.813782596448448
Masked owl and Jay,DN17 4ND,53.610284838440200,-0.834454218207892
tree snake and python,DN17 4NG,53.610385563206900,-0.836492013824214
king cobra and Siskin,DN17 4PP,53.635786407270800,-0.774191388385119
Perching duck and Tit-tyrant,DN17 4QS,53.648911480139200,-0.752569364536564
Rabbit and Dorcopsis,DN2 4AJ,53.531847000000000,-1.120111000000000
Marmoset and B,DN2 4BD,53.535955000000000,-1.112844000000000
rattlesnake and Maya,DN2 4BY,53.531532049275400,-1.116557197692920
Black cockatoo and coral snake,DN2 4DA,53.532781888444400,-1.119050766745010
White ibis and Triller,DN2 4DE,53.533470586621300,-1.119805939968330
diamond python and Egret,DN2 4DG,53.533155962370500,-1.116146221269330
adder and king snake,DN2 4JF,53.535753358876200,-1.107627582425530
Kangaroo and Meadowlark,DN2 4RR,53.550095677024700,-1.085093000000000
flying lizard and agamid,DN2 5BY,53.527757455540700,-1.115428888421350
green turtle and Tahr,DN2 5DD,53.526493033740800,-1.113403659950380
Scimitar babbler and leguaan,DN2 5DL,53.527894312005600,-1.116919506551000
Parakeet and Viscacha,DN2 5DR,53.541759360144400,-1.095866537405820
cycling lizard and python,DN2 5ED,53.527286190524700,-1.112481980159230
Fish eagle and worm lizard,DN2 5EU,53.526620718389300,-1.107608315873850
Chipmunk and Philippine hawk-owl,DN2 5HD,53.529178729040400,-1.108308857095900
Duck and Ibex,DN2 5NQ,53.535222649710800,-1.101573296208420
Triller and chuckwalla,DN2 5PE,53.537166221700700,-1.098257878493000
horned toad and Booted eagles,DN2 5SS,53.539892981502600,-1.096298630184960
Masked owl and thorn lizard,DN2 6AF,53.532411000000000,-1.090668000000000
Pitohui and Parrotbill,DN2 6AN,53.520212814721900,-1.113791160491070
amphisbaena and Old World vulture,DN2 6DR,53.524064478499700,-1.105942431443090
tiger snake and bushmaster,DN2 6DU,53.524181727592200,-1.102395166589130
water snake and Black cockatoo,DN2 6ET,53.525256304050200,-1.103051262342560
Piping shrike and pit viper,DN2 6EU,53.524536813071000,-1.104197785777760
Hawk and diamondback turtle,DN2 6JG,53.530914226963400,-1.088131744770940
python and cycling lizard,DN2 6JJ,53.528098757721700,-1.090228769488710
Booted eagles and deaf adder,DN2 6LD,53.528810118022600,-1.099898673720500
boa and Duck,DN2 6NR,53.526611581038300,-1.093247484523130
Chipmunk and kabaragoya,DN2 6NT,53.527639000000000,-1.094689000000000
Thrasher and thorn lizard,DN3 1BU,53.570882175631800,-1.063896279998080
rock snake and monitor,DN3 1HN,53.570572227694500,-1.062543921482190
diamondback turtle and Tree warbler,DN3 1JX,53.561477425490500,-1.067364820330680
bushmaster and Wallaby,DN3 1LX,53.571886709037600,-1.062816880197710
glass snake and box turtle,DN3 1PT,53.565275986789500,-1.062298638020910
Old World quail and Fox,DN3 1QH,53.561538982056700,-1.060297799637660
Tattler and Minke whale,DN3 1SA,53.564714547065500,-1.075796000000000
Wader and Thrasher,DN3 2AD,53.539256930589200,-1.068456722368930
Macaw and Puffleg,DN3 2AS,53.539056000000000,-1.073758000000000
moloch and anole,DN3 2DH,53.542748199073600,-1.059733010980600
monitor and Jay,DN3 2HZ,53.551567547941300,-1.064607000000000
Ice seal and galliwasp,DN3 2LY,53.554897955342400,-1.070860614611260
Mink and gavial,DN3 2NF,53.556846000000000,-1.068055000000000
Darwin's finches and Solitaire,DN3 2PG,53.553181485082300,-1.069751019098870
gopher snake and fer-de-lance,DN3 2RE,53.556232669315200,-1.065653559665560
bearded dragon and Old World vulture,DN3 2TP,53.557481495500100,-1.058984000000000
Linsang and Tree warbler,DN3 3EJ,53.540222903046500,-1.010761450056030
Towhee and Chipmunk,DN3 3ES,53.531135884009300,-1.061016097497550
water snake and leathery turtle,DN3 3EU,53.538799299992600,-1.050268838307700
python and Moluccan boobook,DN3 3FP,53.507335000000000,-1.042860000000000
worm lizard and dukite,DN3 3HF,53.539696434053500,-1.047789122708090
Rat and cayman,DN3 3JJ,53.532835117926200,-1.045166941971110
loggerhead and skink,DN3 3JZ,53.529929603818900,-1.048279726896070
lizard and Parakeet,DN3 3QT,53.501075163523800,-1.042578894669150
Goose and rock python,DN3 3TF,53.536002569916000,-1.043345429052960
cobra and agama,DN4 0AS,53.518688092512400,-1.143866832134970
asp and Ground sloth,DN4 0BS,53.518659484512300,-1.147411732785370
skink and Hawaiian honeycreeper,DN4 0BU,53.517802525473500,-1.149162000000000
krait and Fulmarine petrel,DN4 0DP,53.515562787733900,-1.155632768276340
American sparrow and Rabbit,DN4 0EW,53.515286497488600,-1.150887737110300
sand lizard and Scimitar babbler,DN4 0HQ,53.514601000000000,-1.154249000000000
cobra de capello and Goose,DN4 0LB,53.514137564377300,-1.143551355820360
coral snake and Macaw,DN4 0NN,53.504440000000000,-1.154904000000000
sea snake and blind snake,DN4 0NS,53.505369995441200,-1.155684513042280
black snake and Darwin's finches,DN4 0SQ,53.504233481289100,-1.161511771723680
Parrotbill and Jackal,DN4 0SR,53.505369385716300,-1.161986918678590
ringhals and Parrotlet,DN4 0SS,53.505737447985600,-1.161919350646050
lizard and flying dragon,DN4 5AS,53.515018284904500,-1.122450431115670
glass snake and thorn lizard,DN4 5BG,53.514691143324900,-1.115866856360700
boomslang and agama,DN4 5DH,53.515428994783700,-1.115972149673210
swift and slowworm,DN4 5JD,53.513010000000000,-1.129233000000000
Prion and Jerboa,DN4 5LJ,53.513662701434700,-1.094941440087960
flying lizard and lizard,DN4 5LP,53.512613150112100,-1.096411491353130
Moluccan boobook and Hawaiian honeycreeper,DN4 5PR,53.507127123453800,-1.100795273252870
tree snake and smooth snake,DN4 6AD,53.507749000000000,-1.083065000000000
moloch and Chipmunk,DN4 6DH,53.503771061304500,-1.075612284576140
harlequin snake and Fulmarine petrel,DN4 6JL,53.514281210357200,-1.068959210788260
adder and wall lizard,DN4 6NJ,53.508307846581100,-1.076598000000000
leguaan and Black cockatoo,DN4 6QG,53.504363000000000,-1.070621199211030
Stilt and leguaan,DN4 6QU,53.507196936400100,-1.066505892572750
alligator and Condor,DN4 6TJ,53.501740235342000,-1.064138148534070
Fulmarine petrel and death adder,DN4 7AF,53.510172237463200,-1.082771410723660
Jackal and Maya,DN4 7DP,53.507860115638000,-1.091928710656760
moloch and blindworm,DN4 7DS,53.507071738131900,-1.089910002899660
loggerhead and crocodile,DN4 7EP,53.504404620961200,-1.089062483417910
anole and boa,DN4 7EQ,53.505254544479400,-1.093265975544370
thorn lizard and caiman,DN4 7EU,53.501211646246600,-1.086447368318260
copperhead and horned toad,DN4 7RH,53.502213029859000,-1.095200342371830
blue racer and Chickadee,DN4 7RQ,53.502493593719300,-1.097832765771840
Rabbit and Pheasant,DN4 8AW,53.509342860337900,-1.143029759862320
python and dukite,DN4 8BA,53.507670170034600,-1.145430789417600
Francolin and Lemming,DN4 8BP,53.508518043706400,-1.144584414074180
Wader and Viscacha,DN4 8DR,53.506425875843600,-1.146149393316270
tree snake and bushmaster,DN4 8EJ,53.503616340032300,-1.153020588576060
Booted eagles and Gila monster,DN4 8EL,53.503501745486800,-1.153339485827360
flying dragon and thorn lizard,DN4 8HF,53.501483440170200,-1.150123245360150
box turtle and diamond snake,DN4 8JB,53.503526538515500,-1.147971632730410
Thicketbird and Elephant,DN4 8PR,53.504158758202600,-1.154728565452490
Warbler and Stilt,DN5 0AX,53.544463643861600,-1.148357283870660
Vulture and loggerhead,DN5 0AY,53.544927869755500,-1.147910312468810
rock python and Marsh harrier,DN5 0DJ,53.546037406550200,-1.145941170962740
Jackal and habu,DN5 0DP,53.545310118977000,-1.144673000000000
king snake and Kite,DN5 0GL,53.557476798108000,-1.123142275905800
Vole and saltwater crocodile,DN5 0HL,53.557531936203500,-1.146932535763940
Dorcopsis and Mockingbird,DN5 0JB,53.551497722043500,-1.147793467797600
chameleon and Flameback,DN5 0LT,53.587312397786700,-1.124700327717280
Stilt and flying dragon,DN5 0NQ,53.550597601127500,-1.138830862403040
Kite and Hawaiian honeycreeper,DN5 0PD,53.552748095568100,-1.146666464339550
boomslang and Vulture,DN5 0RX,53.548628759787800,-1.141118000000000
Siskin and amethystine python,DN5 0UE,53.555912393059900,-1.151765464752850
king snake and Goose,DN5 7XZ,53.549126140016500,-1.158149655371260
cobra de capello and cerastes,DN5 8AD,53.530156308329100,-1.148719705357520
Old World warbler and thorn lizard,DN5 8AU,53.529519943608500,-1.150059000000000
black snake and rat snake,DN5 8BP,53.524727382695700,-1.157637805735260
boomslang and Logrunners,DN5 8HD,53.526901094894300,-1.158695904031780
horned toad and goanna,DN5 9AD,53.527113501335900,-1.141888000000000
soft-shelled turtle and Kestrel,DN5 9AN,53.527800327278800,-1.142295265938500
Hawaiian honeycreeper and wall lizard,DN5 9AP,53.536227000000000,-1.147828000000000
boa constrictor and B,DN5 9BL,53.535483972558400,-1.159793232090900
Shearwater and fer-de-lance,DN5 9JG,53.544078874339100,-1.160045637298250
cayman and brown snake,DN5 9PN,53.540127399300200,-1.161828986856880
Pitohui and Duck,DN5 9SR,53.533410814838800,-1.142513849796950
gecko and alligator,DN5 9TJ,53.539356895632000,-1.148188135679690
constrictor and Scimitar babbler,DN55 1AP,53.512923750490100,-1.125720996155070
massasauga and Hawaiian honeycreeper,DN55 1DR,53.512923750490100,-1.125720996155070
diamondback turtle and Myna,DN55 1FP,53.512923750490100,-1.125720996155070
dugite and sidewinder,DN55 1NP,53.512923750490100,-1.125720996155070
Grosbeak and Mamo,DN55 1PT,53.512923750490100,-1.125720996155070
elapid and Skunk,DN55 1TE,53.512923750490100,-1.125720996155070
diamond python and mountain devil,DN55 1WW,53.512920908235600,-1.125720918306950
Grosbeak and Old World vulture,DN6 0BB,53.611297520832700,-1.160345008069190
Tahr and Mockingbird,DN6 0BF,53.619049000000000,-1.152862000000000
snake and bushmaster,DN6 0BG,53.611827103170500,-1.158959003092510
puff adder and death adder,DN6 0DD,53.616270293521100,-1.138885000000000
Francolin and Hawaiian honeycreeper,DN6 0FD,53.618524000000000,-1.158723000000000
Polecat and Zebra,DN6 0HE,53.620441384125600,-1.128006564253460
diamondback terrapin and Guillemot,DN6 0JF,53.616968030245200,-1.148713184532810
bushmaster and Coati,DN6 0PB,53.614710938824800,-1.138524742043290
Myna and viper,DN6 0PU,53.611911940453900,-1.160801400041670
flying dragon and Polecat,DN6 9HW,53.630293000000000,-1.162022500572920
mamba and coral snake,DN7 4AB,53.583768000000000,-1.020973405690110
Piping shrike and Schneider python,DN7 4AE,53.582079000000000,-1.019909159636580
hoop snake and tortoise,DN7 4AY,53.577824478274900,-1.017526391909770
Diving bird and Grosbeak,DN7 4BE,53.578981865765500,-1.016170423208280
Wader and amethystine python,DN7 4DL,53.564972083879200,-1.028075000000000
Puffleg and Fulmarine petrel,DN7 4DN,53.565103243507400,-1.027152281497750
deaf adder and bearded lizard,DN7 4DQ,53.563333415589300,-1.027268374610170
diamond python and Towhee,DN7 4EB,53.584100909150700,-1.025507728103490
hoop snake and brown snake,DN7 4EG,53.585421752355000,-1.024344390742450
diamond snake and bearded dragon,DN7 4ES,53.584816000000000,-1.017153000000000
Meadowlark and Kākāriki,DN7 4JG,53.574993011764900,-1.021911315180910
smooth snake and rock python,DN7 4JN,53.562943655490300,-1.032410676714350
slowworm and moloch,DN7 4NG,53.581963251363900,-1.016916875039070
moloch and chameleon,DN7 4NS,53.571312393577100,-1.018100145275880
Black jay and massasauga,DN7 4QJ,53.565111989809300,-1.021610783578200
Fulmarine petrel and crocodile,DN7 5AL,53.601142713308300,-1.028742433772170
Vole and thorn lizard,DN7 5AY,53.600567000000000,-1.026501326927590
hognose snake and Old World warbler,DN7 5BW,53.600492716215200,-1.016290336061320
crocodile and galliwasp,DN7 5GA,53.601493000000000,-1.019758000000000
River dolphin and anaconda,DN7 5JG,53.601182637691000,-1.035904489845580
cobra de capello and Kite,DN7 5JQ,53.610254201407500,-1.017363414027260
Triller and giant tortoise,DN7 5LL,53.614147511763700,-1.019103000000000
gavial and Darwin's finches,DN7 5LN,53.614376333793300,-1.022407324877140
Argus and giant tortoise,DN7 5SE,53.598919256624600,-1.036122234605170
green turtle and Kākāriki,DN7 5SY,53.605312457705600,-1.057860632849910
krait and Dorcopsis,DN7 6DD,53.543525653582400,-0.973876876186286
Warbler and Snipe,DN7 6DW,53.540891326866300,-0.974046000000000
bull snake and Black cockatoo,DN7 6JJ,53.576668331226400,-1.012478571667370
Mink and Elephant,DN7 6LR,53.575740453561100,-0.992821346566307
Chickadee and Kestrel,DN7 6RP,53.579284772416700,-1.004654289947640
Egret and Greenbul,DN7 6SA,53.576295000000000,-1.000929333276790
perentie and Tit-tyrant,DN8 4AZ,53.615498981343400,-0.968731456715431
garter snake and boa,DN8 4BE,53.614407540718600,-0.969332478928731
Grackle and Lemming,DN8 4DB,53.618138000000000,-0.959884000000000
agamid and sand lizard,DN8 4DG,53.616250054316900,-0.962031341518054
Kestrel and Elephant,DN8 4EG,53.620347449597000,-0.957727843282468
chuckwalla and Old World vulture,DN8 4HB,53.620144593958900,-0.962313783426401
Tahr and coral snake,DN8 4JD,53.622506000000000,-0.980717000000000
Goose and giant tortoise,DN8 4LD,53.619057143458200,-0.953042730229965
crocodile and mud turtle,DN8 4LW,53.631852489064500,-0.947402819619992
hawksbill and Ice seal,DN8 4PT,53.628765892267600,-0.949052281073230
cerastes and tokay,DN8 4PX,53.628688907656300,-0.947451293628487
green turtle and galliwasp,DN8 4QX,53.630478000000000,-0.943339000000000
tortoise and Civet,DN8 4SS,53.628972000000000,-0.954992722330296
diamond snake and Rat,DN8 5AG,53.611858294727400,-0.968699229479823
Ibex and Vole,DN8 5BA,53.612001806794800,-0.962422713780973
Old World warbler and Quetzal,DN8 5BF,53.565698000000000,-0.857423000000000
viper and soft-shelled turtle,DN8 5DA,53.611676756225900,-0.956051897226689
sea snake and Siskin,DN8 5DD,53.612394000000000,-0.957803000000000
puff adder and Gull,DN8 5ER,53.611023900796600,-0.972014704407967
horned toad and bandy-bandy,DN8 5GG,53.619854043700700,-0.951662346637122
Bronzewing pigeon and diamondback turtle,DN8 5HR,53.607800596837800,-0.953759432292120
Bronzewing pigeon and Vulture,DN8 5JU,53.617978000000000,-0.947793000000000
Kestrel and Quetzal,DN8 5LY,53.605800381724200,-0.954247151619831
Wader and worm lizard,DN8 5PD,53.604351401518300,-0.951985763648099
Puffleg and Dorcopsis,DN8 5PJ,53.609096782475800,-0.950750000000000
cerastes and Stint,DN8 5QF,53.605668269175700,-0.948401502896110
Komodo dragon and Tit-tyrant,DN8 5TT,53.604216267183300,-0.948875840703844
Komodo dragon and rat snake,DN8 5YR,53.603824049226500,-0.972023267555063
Skunk and frilled lizard,DN8 5YT,53.604433880866500,-0.970814535277290
dugite and Tree warbler,DN9 1DF,53.525485610853400,-0.826344297326019
Fox and slowworm,DN9 1EW,53.553566661494100,-0.862854000000000
turtle and whip snake,DN9 1GH,53.525813323800900,-0.824932314844470
goanna and puff adder,DN9 1GQ,53.528914990988400,-0.824982248564870
Greenbul and Bronzewing pigeon,DN9 1PS,53.548145266884700,-0.820721717546390
boa constrictor and king cobra,DN9 1PT,53.547860015025200,-0.821876718487915
Night heron and Viscacha,DN9 1QE,53.558864000000000,-0.840382000000000
frill-necked lizard and bearded dragon,DN9 1QW,53.569098000000000,-0.809659000000000
Old World quail and Black cockatoo,DN9 1SS,53.524836727617100,-0.817959961786831
Magpie and Chicken,DN9 1SZ,53.557672688897600,-0.839946445288896
swift and Magpie,DN9 2BJ,53.509922652021300,-0.917477401723066
sea snake and Cloud rat,DN9 2BP,53.519379910064200,-0.919574207772706
Ice seal and loggerhead,DN9 2DA,53.523594524225500,-0.933465183024312
Chicken and Meadowlark,DN9 3AY,53.513731007552200,-0.980778000000000
tuatara and Hawk,DN9 3LA,53.504534878449300,-1.023563799948880
swift and Ice seal,DN9 3PA,53.505798553997700,-1.019810544158530
