name,postcode,lat,lon
The Georgian Tearooms,DN1 1BB,53.5234,-1.1349
Subway,DN1 1DE,53.5228,-1.1335
Mercure Doncaster Danum Hotel,DN1 1DN,53.5226,-1.1331
KFC,DN1 1DW,53.5231,-1.1329
The grind,DN1 1DW,53.5231,-1.1330
ZEST BAR AND GRILL,DN1 1DW,53.5231,-1.1330
Bowers Coffee Shop,DN1 1HF,53.5236,-1.1323
CHINESE CATERING LIMITED,DN1 1HT,53.5241,-1.1311
JAVED RESTAURANTS DONCASTER LIMITED,DN1 1HZ,53.5242,-1.1306
RED CURRY LIMITED,DN1 1HZ,53.5242,-1.1306
lalezar,DN1 1JD,53.5236,-1.1297
Legends desserts & burger,DN1 1JE,53.5232,-1.1292
Mecca Bingo Club,DN1 1JG,53.5243,-1.1300
The Georgian Patisserie,DN1 1LA,53.5241,-1.1386
Burger King - Doncaster ,DN1 1LB,53.5241,-1.1386
Burger King,DN1 1LB,53.5241,-1.1386
KFC,DN1 1LB,53.5241,-1.1386
Subway,DN1 1LB,53.5241,-1.1386
Costa Coffee,DN1 1LD,53.5242,-1.1347
Debenhams Restaurant Doncaster,DN1 1LH,53.5241,-1.1386
Costa Coffee,DN1 1LJ,53.5241,-1.1386
C & P ROTHWELL LTD,DN1 1LQ,53.5250,-1.1333
D & L Rothwell Ltd,DN1 1LQ,53.5250,-1.1333
Olde Castle Hotel,DN1 1LQ,53.5250,-1.1333
MARKETPLACE ALEHOUSE & DELI,DN1 1ND,53.5249,-1.1317
MASONS ARMS,DN1 1ND,53.5249,-1.1317
magdalen sports cafe bar,DN1 1ND,53.5249,-1.1317
LYNNIES LUNCH STOP,DN1 1NE,53.5240,-1.1319
Hungry dragon,DN1 1NG,53.5254,-1.1315
Indian food hawker,DN1 1NG,53.5254,-1.1315
LollieJade’s Cupcake Emporium,DN1 1NG,53.5254,-1.1315
MARKET CAFE,DN1 1NG,53.5252,-1.1317
Movida Go Limited,DN1 1NG,53.5254,-1.1315
Scrapes,DN1 1NG,53.5254,-1.1315
Taste Peru,DN1 1NG,53.5254,-1.1315
The Rustic Pizza co ,DN1 1NG,53.5254,-1.1315
Zaytuna ,DN1 1NG,53.5254,-1.1315
Costa Coffee,DN1 1PE,53.5223,-1.1396
Costa Coffee,DN1 1PP,53.5221,-1.1389
Costa Coffee,DN1 1PP,53.5237,-1.1386
Starbucks,DN1 1PP,53.5221,-1.1389
Starbucks Doncaster Frenchgate,DN1 1QB,53.5240,-1.1367
McDonald's Restaurant,DN1 1RX,53.5217,-1.1366
McDonalds Restaurant,DN1 1RX,53.5217,-1.1366
Patisserie Valerie ,DN1 1SR,53.5236,-1.1371
Starbucks,DN1 1SR,53.5234,-1.1367
KFC,DN1 1ST,53.5232,-1.1375
Dunkin Donuts Frenchgate,DN1 1SW,53.5229,-1.1366
Flip Out Doncaster,DN1 1SW,53.5229,-1.1366
Taco Bell,DN1 1SW,53.5229,-1.1366
Sue's diner ,DN1 1SZ,53.5234,-1.1365
Cafe Nero,DN1 1TA,53.5240,-1.1367
Doncaster Jazz Cafe Limited,DN1 1TJ,53.5224,-1.1356
The Glass Strawberry Coffee House,DN1 1TR,53.5219,-1.1346
Dreambakes Ltd,DN1 1TS,53.5226,-1.1344
Movida Bar & Restaurant ,DN1 1TS,53.5226,-1.1344
Fish Bits,DN1 2BY,53.5160,-1.1283
Salutation Doncaster Ltd ,DN1 2DR,53.5214,-1.1269
The Regent Hotel LTD,DN1 2DS,53.5222,-1.1259
Doncaster Tandoori ,DN1 2PE,53.5260,-1.1303
El Boca Doncaster Ltd,DN1 2PH,53.5249,-1.1309
La Rustica Doncaster Ltd,DN1 2PH,53.5251,-1.1304
zammuto steak and grill house,DN1 2PH,53.5251,-1.1304
EL TORERO DONCASTER LIMITED,DN1 2PW,53.5250,-1.1298
KOZ TURKISH BARBECUE AND MEZZE BAR,DN1 2PW,53.5250,-1.1298
Sarahs desserts snack bar ,DN1 2QP,53.5268,-1.1283
SPICE AND ICE,DN1 2SD,53.5303,-1.1270
The Leopard,DN1 3AA,53.5208,-1.1378
All Things Nice Cafe,DN1 3EG,53.5217,-1.1349
La Familia,DN1 3EL,53.5217,-1.1332
La Familia ( Rbcgroup uk LTD),DN1 3EN,53.5376,-1.1020
Opera Restaurant,DN1 3EY,53.5198,-1.1332
THE HAREWOOD,DN1 3EY,53.5198,-1.1332
Cupcakes 2 Love ltd,DN1 3JH,53.5201,-1.1337
Java Cafe,DN1 3JU,53.5208,-1.1322
Bake battle and roll ,DN1 3LW,53.5220,-1.1326
Cactus Jacks,DN1 3NA,53.5225,-1.1303
Tortilla Hut,DN1 3NA,53.5225,-1.1303
Poppadoms and Cream,DN1 3NL,53.5223,-1.1286
poppadomsandcream,DN1 3NL,53.5223,-1.1286
The bayhorse inn,DN14 0BQ,53.6823,-1.1099
The Kings Head Pollington,DN14 0DN,53.6679,-1.0645
Whitley bridge truck stop ,DN14 0HH,53.6989,-1.1602
The George & Dragon,DN14 0HY,53.6849,-1.1520
Costa Coffee,DN14 5BT,53.7042,-0.8742
Supreme Coffee House,DN14 5DA,53.7038,-0.8728
The coffee lounge,DN14 5DE,53.7042,-0.8727
Razzar's cafe,DN14 5DL,53.7042,-0.8723
Stanleys Bar & Kitchen,DN14 5DR,53.7035,-0.8711
MR NessuNo,DN14 5QE,53.7026,-0.8709
Fullers Bakery,DN14 6AG,53.7054,-0.8787
Fullers Bakery,DN14 6DR,53.7094,-0.8732
Old Market Cafe ,DN14 6HD,53.7071,-0.8743
WESTFIELD FISHERIES,DN14 6JX,53.7102,-0.8716
Saltmarshe hall,DN14 7RX,53.7063,-0.8168
The Half Moon Inn,DN14 8ET,53.6983,-0.7936
Elior UK,DN14 8GA,53.7001,-0.9079
McDonald's,DN14 8JS,53.7050,-0.9143
Mcdonalds Restaurant,DN14 8JS,53.7050,-0.9143
The Percy Arms,DN14 8LD,53.7161,-0.9056
THE PEPPERED PIG ,DN14 9BY,53.6855,-0.9932
Park Lodge Shooting School,DN14 9ED,53.6848,-1.0169
Bon appetit,DN14 9HE,53.6917,-1.0295
The plough Inn,DN14 9JJ,53.6911,-1.0283
Brewers Arms Hotel,DN14 9JS,53.6908,-1.0301
Odddfellows Hotel bar and grill,DN14 9LY,53.7096,-1.0202
Carlton Towers Events Limited,DN14 9LZ,53.7066,-1.0174
Lakeside Bar and Restaurant,DN17 4BQ,53.5930,-0.8211
Hirst Priory Ltd,DN17 4BU,53.5828,-0.8259
Fullers Bakery,DN17 4LB,53.6065,-0.8329
The Red Lion,DN17 4NE,53.6096,-0.8351
Urban Fresh Burgers & Fries,DN2 4BG,53.5415,-1.1067
Astrabound,DN2 4PA,53.5437,-1.0974
Buzz Bingo,DN2 4PE,53.5430,-1.1001
JJ's Cafe and Sandwich Bar,DN2 4PW,53.5433,-1.0954
GO BOUNCE TRAMPOLINE PARK,DN2 4SQ,53.5433,-1.0795
The Wheatley,DN2 5DR,53.5418,-1.0959
KFC,DN2 5DX,53.5447,-1.0829
McDonald's Restaurant,DN2 5DX,53.5447,-1.0829
McDonalds,DN2 5DX,53.5447,-1.0829
The Landing Pad Cafe,DN2 5DX,53.5447,-1.0829
Sandall Park Cafe,DN2 5DZ,53.5439,-1.0878
Vivo’s ,DN2 6AA,53.5202,-1.1212
Earl Of Doncaster Hotel,DN2 6AD,53.5192,-1.1179
Crab & Moo T/As The Indus,DN2 6AX,53.5187,-1.1102
Grand St Leger Hotel & Bar,DN2 6AX,53.5187,-1.1102
Hilton Garden Inn Doncaster Racecourse,DN2 6BB,53.5203,-1.1079
Whitbys,DN2 6DR,53.5241,-1.1060
Amazing Thai Restaurant,DN3 1DB,53.5754,-1.0675
The Olive,DN3 1HA,53.5724,-1.0669
BRIX COFFEE CO,DN3 1HE,53.5632,-1.0730
The Glasshouse,DN3 1HP,53.5609,-1.0724
The Cabin,DN3 1JR,53.5623,-1.0686
Black coriander ,DN3 2BT,53.5381,-1.0708
La Fiesta,DN3 2BU,53.5380,-1.0685
GLN traders ltd,DN3 2JE,53.5529,-1.0682
The Beverley Inn,DN3 2JE,53.5531,-1.0677
Waterfall Elior @,DN3 2PP,53.5564,-1.0715
Shimla Restaurant,DN3 3AE,53.5354,-1.0538
Croziers Kitchen,DN3 3DL,53.5361,-1.0502
Elachi Indian restaurant limited ,DN3 3DL,53.5361,-1.0502
Joannes tearooms,DN3 3DL,53.5359,-1.0503
PACKERS REST RESTAURANT,DN3 3FF,53.5380,-1.0335
The Local,DN3 3FP,53.5073,-1.0429
horse and groom,DN3 3JU,53.5292,-1.0468
Yorkshire Wildlife Park Limited,DN3 3NH,53.5073,-1.0373
Canters Bistro ,DN3 3QL,53.5139,-1.0535
The Dell Cafe,DN4 0JD,53.5137,-1.1579
Suburb - Buns & Slice,DN4 0RG,53.5091,-1.1462
Daisy’s deli,DN4 0RS,53.5034,-1.1618
Gurkha Lounge ,DN4 5DP,53.5174,-1.1172
Colosseo restaurant ,DN4 5DS,53.5164,-1.1144
Innovation Cafe ,DN4 5HX,53.5128,-1.1306
Elior Uk,DN4 5JJ,53.5114,-1.1256
Costa Coffee,DN4 5PH,53.5075,-1.1141
KFC,DN4 5PH,53.5075,-1.1141
McDonald's Restaurant,DN4 5PH,53.5074,-1.1141
Pizza Hut,DN4 5PH,53.5075,-1.1141
McDonalds Restaurant,DN4 5PJ,53.5067,-1.1122
El Futuro Wine & Tapas,DN4 5PL,53.5089,-1.1010
Baxterstorey,DN4 5PN,53.5042,-1.1068
One Call Canteen,DN4 5RA,53.5035,-1.1106
Subway,DN4 6NN,53.5080,-1.0746
Burger King,DN4 7FW,53.5139,-1.1022
Costa Coffee,DN4 7FW,53.5139,-1.1022
Dunkin Donuts Herten,DN4 7FW,53.5144,-1.1026
Estabulo Bar & Grill,DN4 7FW,53.5139,-1.1022
TGI Fridays,DN4 7FW,53.5139,-1.1022
Urban Fresh Burgers & Fries,DN4 7FW,53.5139,-1.1022
The Counting House,DN4 7JA,53.5002,-1.0880
The Flying Childers,DN4 7JA,53.5002,-1.0880
Doncaster Tenpin,DN4 7NW,53.5129,-1.1053
McDonalds Restaurant,DN4 7NW,53.5123,-1.1046
Nandos,DN4 7NW,53.5123,-1.1046
Pizza Express,DN4 7NW,53.5123,-1.1046
Taco Bell,DN4 7NW,53.5129,-1.1054
Doncaster Golf Club,DN4 7PD,53.5141,-1.0968
Miller & Carter Bessacarr,DN4 7PD,53.5141,-1.0968
The Dome,DN4 7PD,53.5141,-1.0968
McDonald's Restaurant,DN4 8DD,53.5066,-1.1473
McDonalds Restaurant,DN4 8PL,53.5060,-1.1510
Cafè L.A.,DN5 0AT,53.5461,-1.1468
Moona Coffee,DN5 0AT,53.5461,-1.1468
The Tea Garden,DN5 0EU,53.5551,-1.1488
Thornhurst Manor,DN5 0LR,53.5895,-1.1483
The Plough Inn,DN5 0SF,53.5558,-1.1284
KFC,DN5 8BN,53.5290,-1.1499
Newton arms,DN5 8BP,53.5247,-1.1577
Trattoria Toscana,DN5 8HX,53.5346,-1.1607
NAAZ INDIAN RESTAURANT & TAKE-AWAY,DN5 9BG,53.5341,-1.1545
McDonald's Restaurant,DN5 9TP,53.5316,-1.1462
Mcdonalds Restaurant Ltd,DN5 9TP,53.5316,-1.1462
Baxter Arms,DN6 0HA,53.6395,-1.1033
The Old Hayloft Tearoom,DN6 0HH,53.6216,-1.1015
Lakeside Cafe,DN6 0HZ,53.6155,-1.1489
the happy cat cafe,DN6 0LE,53.6162,-1.1447
The Owston,DN6 9JG,53.5973,-1.1622
Sarah-janes tearooms and coffee lounge,DN7 4BY,53.5627,-1.0269
The tattooed goose ,DN7 5JE,53.6007,-1.0326
Boston Park Farm,DN7 6DS,53.5357,-0.9835
Kingswood Catering ,DN7 6EP,53.5929,-0.9801
Hatfield Outdoor Activity Centre,DN7 6EQ,53.5826,-0.9883
INGRAM ARMS PUBLIC HOUSE,DN7 6RS,53.5782,-0.9969
the Bay Horse Inn,DN7 6RS,53.5781,-0.9966
Punchbowl Inn,DN8 4BE,53.5376,-1.1020
BMW Thorne,DN8 4HT,53.6208,-0.9718
Bliss coffee shop,DN8 5DG,53.6110,-0.9615
Canal Tavern,DN8 5DZ,53.6090,-0.9637
Stonegate Club,DN8 5EE,53.6103,-0.9623
Burger King,DN8 5GS,53.5922,-0.9923
Costa Coffee,DN8 5GS,53.5922,-0.9923
Thorne Golf Club,DN8 5RJ,53.6055,-0.9721
The Reindeer Inn,DN8 5SZ,53.5647,-0.8813
McDonalds Restaurants,DN8 5TX,53.6134,-0.9796
McDonald's,DN8 5UG,53.6172,-0.9778
Curry Leaf Indian Restaurant,DN9 1EP,53.5257,-0.8221
Fullers Bakery,DN9 1EP,53.5257,-0.8221
Oceans 52 ,DN9 1EP,53.5258,-0.8217
The Khyber Restaurant (Epworth) Ltd,DN9 1ER,53.5255,-0.8202
Red Lion Coaching Inn,DN9 1EU,53.5253,-0.8199
Epworth Fields Holiday Park Ltd,DN9 1JA,53.5249,-0.7824
Holmes and Gardens,DN9 1JL,53.5288,-0.8237
The White Bear,DN9 1JL,53.5288,-0.8237
Belton Kitchen,DN9 1NY,53.5423,-0.8213
Happy Cafe,DN9 1PN,53.5630,-0.8513
The Wheatsheaf ,DN9 1QB,53.5581,-0.8363
Eagle & Child,DN9 3HS,53.5037,-1.0234
Eagle and Child,DN9 3HS,53.5037,-1.0234
