name,postcode,lat,lon
The Georgian Tearooms,DN1 1BB,53.523342537326400,-1.134888593784790
Mercure Doncaster Danum Hotel,DN1 1DN,53.522610335976800,-1.132958000000000
KFC,DN1 1DW,53.523086337162900,-1.133023419161800
The grind,DN1 1DW,53.523086337162900,-1.133023419161800
ZEST BAR AND GRILL,DN1 1DW,53.523086337162900,-1.133023419161800
Bowers Coffee Shop,DN1 1HF,53.523504000000000,-1.132318282564390
CHINESE CATERING LIMITED,DN1 1HT,53.524062000000000,-1.131105121274540
Legends desserts & burger,DN1 1JE,53.523220278968700,-1.129189382744250
The Georgian Patisserie,DN1 1LA,53.523142000000000,-1.138136000000000
C & P ROTHWELL LTD,DN1 1LQ,53.524984961616900,-1.133301434521180
D & L Rothwell Ltd,DN1 1LQ,53.524984961616900,-1.133301434521180
Olde Castle Hotel,DN1 1LQ,53.524984961616900,-1.133301434521180
MARKETPLACE ALEHOUSE & DELI,DN1 1ND,53.524927991124300,-1.131643305219800
LYNNIES LUNCH STOP,DN1 1NE,53.523969000000000,-1.131889000000000
Hungry dragon,DN1 1NG,53.525315000000000,-1.131545000000000
Indian food hawker,DN1 1NG,53.525315000000000,-1.131545000000000
Movida Go Limited,DN1 1NG,53.525315000000000,-1.131545000000000
Scrapes,DN1 1NG,53.525315000000000,-1.131545000000000
Taste Peru,DN1 1NG,53.525315000000000,-1.131545000000000
The Rustic Pizza co ,DN1 1NG,53.525315000000000,-1.131545000000000
Zaytuna ,DN1 1NG,53.525315000000000,-1.131545000000000
Starbucks Doncaster Frenchgate,DN1 1QB,53.523869000000000,-1.136700325057120
McDonald's Restaurant,DN1 1RX,53.521691974729200,-1.136596461337820
Patisserie Valerie ,DN1 1SR,53.523409212079500,-1.136998000000000
KFC,DN1 1ST,53.523156000000000,-1.137529167549210
Dunkin Donuts Frenchgate,DN1 1SW,53.522881461826200,-1.136677000000000
Flip Out Doncaster,DN1 1SW,53.522881461826200,-1.136677000000000
Taco Bell,DN1 1SW,53.522881461826200,-1.136677000000000
Doncaster Jazz Cafe Limited,DN1 1TJ,53.522368913441600,-1.135603000000000
The Glass Strawberry Coffee House,DN1 1TR,53.521910821382500,-1.134540670673960
Movida Bar & Restaurant ,DN1 1TS,53.522503440583600,-1.134453176939610
Fish Bits,DN1 2BY,53.515986549728900,-1.128130000000000
Salutation Doncaster Ltd ,DN1 2DR,53.521445000000000,-1.127220000000000
The Regent Hotel LTD,DN1 2DS,53.522171409416700,-1.125877434350990
El Boca Doncaster Ltd,DN1 2PH,53.525081435419700,-1.130493743575260
La Rustica Doncaster Ltd,DN1 2PH,53.525081435419700,-1.130493743575260
zammuto steak and grill house,DN1 2PH,53.525081435419700,-1.130493743575260
EL TORERO DONCASTER LIMITED,DN1 2PW,53.525057097977100,-1.129619339647460
SPICE AND ICE,DN1 2SD,53.530269142414200,-1.126962905982560
The Leopard,DN1 3AA,53.520757006117800,-1.137822105509130
La Familia ( Rbcgroup uk LTD),DN1 3EN,53.521079000000000,-1.132506000000000
Opera Restaurant,DN1 3EY,53.520909446052700,-1.131559548807750
THE HAREWOOD,DN1 3EY,53.520909446052700,-1.131559548807750
Cupcakes 2 Love ltd,DN1 3JH,53.519997532172100,-1.133478616003600
Java Cafe,DN1 3JU,53.520558000000000,-1.132487000000000
Bake battle and roll ,DN1 3LW,53.521895414709400,-1.132578000000000
Poppadoms and Cream,DN1 3NL,53.522334906746600,-1.128574026160550
The bayhorse inn,DN14 0BQ,53.682293004192800,-1.109758000000000
Whitley bridge truck stop ,DN14 0HH,53.698880100973900,-1.160208879232030
The George & Dragon,DN14 0HY,53.684854149630200,-1.151978336564420
Supreme Coffee House,DN14 5DA,53.703792873713800,-0.872804187405189
The coffee lounge,DN14 5DE,53.704160744470600,-0.872932000000000
Stanleys Bar & Kitchen,DN14 5DR,53.703691000000000,-0.870459000000000
WESTFIELD FISHERIES,DN14 6JX,53.710199720194400,-0.871632997496457
Saltmarshe hall,DN14 7RX,53.706281713112600,-0.816759663224550
McDonald's,DN14 8JS,53.704977000000000,-0.914281000000000
The Percy Arms,DN14 8LD,53.716122368389600,-0.905723000000000
THE PEPPERED PIG ,DN14 9BY,53.685494195144900,-0.993142321778086
Park Lodge Shooting School,DN14 9ED,53.684303000000000,-1.017367000000000
Bon appetit,DN14 9HE,53.691681000000000,-1.029184819459700
Brewers Arms Hotel,DN14 9JS,53.690742927689300,-1.030119529997830
Odddfellows Hotel bar and grill,DN14 9LY,53.709801000000000,-1.020318000000000
Carlton Towers Events Limited,DN14 9LZ,53.706549009371900,-1.017288000000000
Lakeside Bar and Restaurant,DN17 4BQ,53.592999000000000,-0.821125000000000
Hirst Priory Ltd,DN17 4BU,53.581388000000000,-0.819903000000000
The Red Lion,DN17 4NE,53.609634716905100,-0.835076721046800
Urban Fresh Burgers & Fries,DN2 4BG,53.540656000000000,-1.109215000000000
JJ's Cafe and Sandwich Bar,DN2 4PW,53.543228929523000,-1.095382000000000
GO BOUNCE TRAMPOLINE PARK,DN2 4SQ,53.543252315522000,-1.079476043531090
The Wheatley,DN2 5DR,53.541759360144400,-1.095866537405820
KFC,DN2 5DX,53.545633000000000,-1.081477000000000
McDonald's Restaurant,DN2 5DX,53.545633000000000,-1.081477000000000
The Landing Pad Cafe,DN2 5DX,53.545633000000000,-1.081477000000000
Vivo’s ,DN2 6AA,53.520031000000000,-1.120658000000000
Earl Of Doncaster Hotel,DN2 6AD,53.519199833055500,-1.117809145664400
Crab & Moo T/As The Indus,DN2 6AX,53.518739098575500,-1.109932000000000
Grand St Leger Hotel & Bar,DN2 6AX,53.518739098575500,-1.109932000000000
Whitbys,DN2 6DR,53.524064478499700,-1.105942431443090
Amazing Thai Restaurant,DN3 1DB,53.575348069047800,-1.067512743267990
The Olive,DN3 1HA,53.572682000000000,-1.066741000000000
The Glasshouse,DN3 1HP,53.561679000000000,-1.072359924781300
The Cabin,DN3 1JR,53.562286569164700,-1.068539755675850
La Fiesta,DN3 2BU,53.538034794383900,-1.068649000000000
The Beverley Inn,DN3 2JE,53.552936000000000,-1.068156000000000
Shimla Restaurant,DN3 3AE,53.535512938425400,-1.054114447648410
Croziers Kitchen,DN3 3DL,53.535922824410800,-1.050257752461350
Elachi Indian restaurant limited ,DN3 3DL,53.535922824410800,-1.050257752461350
Joannes tearooms,DN3 3DL,53.535922824410800,-1.050257752461350
The Local,DN3 3FP,53.507335000000000,-1.042860000000000
horse and groom,DN3 3JU,53.529153566616000,-1.046773427461400
Yorkshire Wildlife Park Limited,DN3 3NH,53.507148000000000,-1.037557000000000
Canters Bistro ,DN3 3QL,53.513760000000000,-1.052880000000000
The Dell Cafe,DN4 0JD,53.513630000000000,-1.157948000000000
Suburb - Buns & Slice,DN4 0RG,53.508847467474500,-1.146205000000000
Colosseo restaurant ,DN4 5DS,53.516369711711800,-1.114338858432660
KFC,DN4 5PH,53.507441846879600,-1.114057510440540
McDonald's Restaurant,DN4 5PH,53.507441846879600,-1.114057510440540
El Futuro Wine & Tapas,DN4 5PL,53.508882000000000,-1.100974201690090
Dunkin Donuts Herten,DN4 7FW,53.513882000000000,-1.102163000000000
Estabulo Bar & Grill,DN4 7FW,53.513882000000000,-1.102163000000000
Urban Fresh Burgers & Fries,DN4 7FW,53.513882000000000,-1.102163000000000
The Counting House,DN4 7JA,53.500225797003500,-1.088006283587230
The Flying Childers,DN4 7JA,53.500225797003500,-1.088006283587230
Taco Bell,DN4 7NW,53.512879000000000,-1.105394000000000
Campanile Doncaster,DN4 7PD,53.514279000000000,-1.096756717681770
Doncaster Golf Club,DN4 7PD,53.514279000000000,-1.096756717681770
McDonald's Restaurant,DN4 7PD,53.514279000000000,-1.096756717681770
The Dome,DN4 7PD,53.514279000000000,-1.096756717681770
McDonald's Restaurant,DN4 8DD,53.507268000000000,-1.148123000000000
Cafè L.A.,DN5 0AT,53.546070505988400,-1.146800747300730
Moona Coffee,DN5 0AT,53.546070505988400,-1.146800747300730
Thornhurst Manor,DN5 0LR,53.589522302392700,-1.148297000000000
The Plough Inn,DN5 0SF,53.556339000000000,-1.127211000000000
KFC,DN5 8BN,53.528978343207800,-1.150041000000000
Newton arms,DN5 8BP,53.524727382695700,-1.157637805735260
Trattoria Toscana,DN5 8HX,53.534573719314100,-1.160731606843420
McDonald's Restaurant,DN5 9TP,53.531489000000000,-1.146339000000000
Baxter Arms,DN6 0HA,53.639794000000000,-1.104723000000000
The Old Hayloft Tearoom,DN6 0HH,53.621602282501500,-1.101072000000000
Lakeside Cafe,DN6 0HZ,53.615477008403100,-1.148864105172130
the happy cat cafe,DN6 0LE,53.616166472638900,-1.144708192982940
The Owston,DN6 9JG,53.597175758527700,-1.162181000000000
The tattooed goose ,DN7 5JE,53.600670277631700,-1.032561385616590
Boston Park Farm,DN7 6DS,53.532197000000000,-0.979748000000000
Kingswood Catering ,DN7 6EP,53.593917000000000,-0.979123000000000
Hatfield Outdoor Activity Centre,DN7 6EQ,53.583009000000000,-0.988072000000000
INGRAM ARMS PUBLIC HOUSE,DN7 6RS,53.578135978468000,-0.996146000000000
the Bay Horse Inn,DN7 6RS,53.578135978468000,-0.996146000000000
Punchbowl Inn,DN8 4BE,53.614407540718600,-0.969332478928731
BMW Thorne,DN8 4HT,53.620774820477200,-0.971808080486407
Canal Tavern,DN8 5DZ,53.609028149604700,-0.963644309900729
The Reindeer Inn,DN8 5SZ,53.564674000000000,-0.881292000000000
McDonald's,DN8 5UG,53.617100000000000,-0.977919000000000
Curry Leaf Indian Restaurant,DN9 1EP,53.525893000000000,-0.821913000000000
The Khyber Restaurant (Epworth) Ltd,DN9 1ER,53.525505793841100,-0.820173932639629
Red Lion Coaching Inn,DN9 1EU,53.525242656806700,-0.819924798782206
Epworth Fields Holiday Park Ltd,DN9 1JA,53.524938245923100,-0.782386853192706
Holmes and Gardens,DN9 1JL,53.528776577566900,-0.823703746891066
The White Bear,DN9 1JL,53.528776577566900,-0.823703746891066
Belton Kitchen,DN9 1NY,53.542255000000000,-0.821278000000000
Happy Cafe,DN9 1PN,53.562929881397400,-0.852246000000000
The Wheatsheaf ,DN9 1QB,53.558095818663100,-0.836311670275163
Eagle & Child,DN9 3HS,53.503697478219500,-1.023387037646580
