name,postcode,lat,lon
Abercamlais Arms,LD3 8PH,51.94602203369140,-3.57152485847473
The Usk and Railway Inn,LD3 8RS,51.94636300000000,-3.56903400000000
Tanners Arms,LD3 8SF,51.93717800000000,-3.56392800000000
The Shoemakers Arms,LD3 8UB,51.98448944091797,-3.58972001075745
Stonecroft Inn,LD5 4RA,52.10761300000000,-3.63984600000000
Neuadd Arms Hotel,LD5 4RB,52.10730700000000,-3.63799500000000
Belle vue hotel,LD5 4RE,52.10760879516602,-3.63772892951965
The Goose and Cuckoo,SA19 9EE,51.93832400000000,-3.88295500000000
The King's Head Inn,SA20 0AB,51.99418600000000,-3.79695600000000
The Castle Hotel,SA20 0AP,51.99335200000000,-3.79735900000000
West End Cafe,SA20 0AR,51.99330200000000,-3.79828900000000
Llandovery Rugby Football Club Limited,SA20 0DT,51.99168777465820,-3.80625009536743
LlandoveryRFC ,SA20 0DT,51.99168777465820,-3.80625009536743
Myddfai Community Hall & Visitor Centre,SA20 0JD,51.95633400000000,-3.78844000000000
Llanerchindda Farm Guest House,SA20 0NB,52.07384109497070,-3.75183963775635
The Royal Oak inn ,SA20 0NY,52.07859802246094,-3.77460193634033
The Three Horseshoes,SA20 0PT,51.99423300000000,-3.79560200000000
la patisserie,SA20 0PT,51.99423300000000,-3.79560300000000
Penygawse Tea Rooms,SA20 0PU,51.99391900000000,-3.79441000000000
Neuadd Fawr Arms,SA20 0ST,52.04487400000000,-3.81965200000000
