name,id,postcode,lat,lon
Asiatic leopard and Chickadee,925789,LD5 4SD,52.114909000000000,-3.629951000000000
sand lizard and frill-necked lizard,411352,SA20 0BN,51.994188749929600,-3.797918731423150
cobra de capello and water snake,411366,SA20 0DE,51.994171076115100,-3.790227213026420
saltwater crocodile and Old World vulture,412265,SA19 9AE,51.939160199274900,-3.885173933587830
tokay and sea snake,412283,SA19 9BR,51.937022148176000,-3.882800311294430
loggerhead and Boto,411141,SA20 0TE,52.031601964909500,-3.843955848067090
brown snake and Civet,411367,SA20 0DF,51.995534869863000,-3.789830074106680
pit viper and Gila monster,411161,SA20 0UR,52.032207353939100,-3.765724368379900
Polecat and racer,412470,SA19 8EN,51.975526426515100,-3.853853137985190
Thicketbird and Perching duck,925699,LD4 4AR,52.134673506242000,-3.529795677292560
frilled lizard and Armadillo,411490,SA20 0NJ,51.959137164693700,-3.783838557364040
Bunting and king snake,412429,SA19 8AY,51.988306000000000,-3.891083000000000
coral snake and adder,925823,LD5 4UP,52.148241147936500,-3.578244281784250
Thicketbird and White ibis,412042,SA19 9YS,51.932990343308200,-3.762262082787740
thorn lizard and Maya,925781,LD5 4RQ,52.107120089100700,-3.634587782690700
Dolphin and Minke whale,925770,LD5 4RA,52.107604692718600,-3.639833237596140
bull snake and Wallaby,411397,SA20 0EX,51.960948000000000,-3.831695000000000
Treepie and horned viper,925788,LD5 4SB,52.123404290717700,-3.624125664508950
Flameback and Warbler,411370,SA20 0DJ,51.987570000000000,-3.805678000000000
Vulture and whip snake,411160,SA20 0UP,52.041708432859800,-3.768329837736480
Komodo dragon and iguana,925791,LD5 4SF,52.131510585766100,-3.617217611589520
Skunk and bearded dragon,925753,LD4 4ED,52.083479000000000,-3.600141000000000
American sparrow and River dolphin,411165,SA20 0UW,52.046642844848000,-3.770857947881960
horned toad and chameleon,412275,SA19 9AS,51.952574686829700,-3.850708621942500
constrictor and agamid,925697,LD4 4AN,52.134984517246800,-3.560943205230180
puff adder and milk snake,411510,SA20 0PJ,51.951972000000000,-3.767736000000000
Thicketbird and turtle,412916,SA19 8AF,51.968382978399900,-3.875103626767540
Grosbeak and Goose,925792,LD5 4SG,52.136466602684800,-3.616432763360920
frilled lizard and goanna,925830,LD3 8RL,51.946206450619700,-3.569263355220090
tree snake and Ground sloth,411164,SA20 0UU,52.014501081130000,-3.788474109492700
box turtle and Kākāriki,925860,LD3 8TN,51.947607000000000,-3.568177000000000
Thrasher and asp,925805,LD5 4TH,52.109833394619200,-3.649582437735330
python and mud turtle,925869,LD3 8UB,51.983107000000000,-3.586862000000000
sea snake and grass snake,411506,SA20 0PE,52.081696459913400,-3.797304106240240
Jay and massasauga,411466,SA20 0JZ,51.979577000000000,-3.757478000000000
massasauga and Old World quail,411521,SA20 0PZ,51.957329025247800,-3.785076620024760
