name,postcode,lat,lon
SUBWAY Newport Pagnell (62549),MK16 0AG,52.0849,-0.7274
The Rose & Crown ,MK16 0EG,52.0841,-0.7246
COSTA COFFEE,MK16 8AQ,52.0869,-0.7225
Out Of Office Coffee,MK16 8AR,52.0870,-0.7209
The Pin Petch Thai restaurant,MK16 8AR,52.0870,-0.7209
Moza,MK16 8AT,52.0866,-0.7230
The Red House,MK16 8BG,52.0824,-0.7404
e&k muratis pizza ltd,MK16 8HJ,52.0861,-0.7215
Capadocia Turkish Meze&Grill Restaurant ,MK16 8HN,52.0866,-0.7224
Gourmet Burger Joint,MK16 8HY,52.0862,-0.7222
KINGS ARMS,MK16 9BY,52.0845,-0.7180
Harben House Hotel,MK16 9EY,52.0831,-0.7144
The Chester Arms,MK16 9JE,52.1043,-0.6841
THE OLD SWAN AT ASTWOOD,MK16 9JS,52.1162,-0.6107
The White Hart,MK16 9PE,52.1127,-0.6996
Asá café & bistro,MK16 9PY,52.0796,-0.7036
MK Sports Bar & Lounge Ltd,MK16 9PY,52.0796,-0.7036
TREAT STREET ,MK40 1AS,52.1347,-0.4691
SOPRANO KEBAB HOUSE,MK40 1BZ,52.1360,-0.4731
dessert island bedford limited ,MK40 1EP,52.1381,-0.4698
Pepes Piri Piri ,MK40 1HJ,52.1365,-0.4715
BURGER KING-Harpur Street Bedford,MK40 1LA,52.1376,-0.4685
Bar Citrus ,MK40 1LA,52.1376,-0.4685
El Picante Mexican Grill,MK40 1LJ,52.1373,-0.4706
Subway,MK40 1LN,52.1379,-0.4700
Pauls cafe ,MK40 1LQ,52.1375,-0.4692
Bernie's Cafe,MK40 1LX,52.1379,-0.4711
Coffee With Art,MK40 1NN,52.1379,-0.4670
Eatalia ,MK40 1NN,52.1379,-0.4670
Poppins Restaurants ,MK40 1NN,52.1379,-0.4670
Sundaes Gelato,MK40 1NT,52.1373,-0.4669
YMARR LIMITED,MK40 1NT,52.1373,-0.4669
AFTERS ORIGINAL BEDFORD LTD,MK40 1NU,52.1385,-0.4666
Brewhouse and Kitchen Bedford,MK40 1NU,52.1385,-0.4666
The Library Cafe,MK40 1PG,52.1363,-0.4682
Subway,MK40 1PW,52.1364,-0.4709
Harpurs71 ,MK40 1QA,52.1355,-0.4700
Al Fairoz Bedford ,MK40 1QB,52.1359,-0.4725
Rizq,MK40 1QH,52.1357,-0.4734
McDonald's,MK40 1RN,52.1354,-0.4660
Nazar Turkish restaurant ,MK40 1RN,52.1354,-0.4660
Pen & Cob,MK40 1RW,52.1350,-0.4653
The Swan Hotel,MK40 1RW,52.1350,-0.4653
BBTEA,MK40 1RY,52.1358,-0.4661
Made in Bedford at Number 13,MK40 1SL,52.1359,-0.4670
starbucks,MK40 1TJ,52.1365,-0.4698
howard cafe,MK40 1UH,52.1356,-0.4699
Blue Orchid,MK40 2DX,52.1433,-0.4813
Jax Restaurant,MK40 2DX,52.1433,-0.4813
Verve Hotel ,MK40 2DX,52.1433,-0.4813
Three Rooms Fine Indian Dining,MK40 2NR,52.1403,-0.4627
The Park Pub and Kitchen ,MK40 2PF,52.1470,-0.4561
3 St Peters,MK40 2PN,52.1388,-0.4650
Amici,MK40 2PN,52.1388,-0.4650
St Bedes,MK40 2QN,52.1393,-0.4795
TAVISTOCK CURRY LTD T/A GRAND INDIA RESTAURANT,MK40 2RB,52.1403,-0.4691
Deshi Spice,MK40 2RD,52.1400,-0.4693
MAGNA,MK40 2RD,52.1400,-0.4693
Royal Gurkha,MK40 2RD,52.1400,-0.4693
The Cochin,MK40 2RP,52.1407,-0.4713
INDIAN SUMMER RESTAURANT ,MK40 2RR,52.1412,-0.4715
KFC - 63 Tavistock Street Bedford,MK40 2RR,52.1412,-0.4715
the tavistock pub and carvery ,MK40 2SB,52.1417,-0.4732
The Foresters Arms,MK40 2SF,52.1404,-0.4747
New Bombay,MK40 2SR,52.1388,-0.4685
Indiya,MK40 2TE,52.1389,-0.4673
Siam Heaven Thai restaurant,MK40 2TH,52.1397,-0.4681
D'Parys,MK40 2UA,52.1426,-0.4664
Tavistock Court,MK40 2UD,52.1422,-0.4721
Riverside Lawn Tennis Club Courtside Cafe,MK40 3EA,52.1405,-0.4522
Frescoes coffee house,MK40 3HD,52.1372,-0.4651
The Gallery,MK40 3HS,52.1376,-0.4653
Herd,MK40 3JG,52.1388,-0.4629
Rice Thai Restaurant ,MK40 3JG,52.1388,-0.4629
Roosters,MK40 3JG,52.1388,-0.4629
Vanilla Tree,MK40 3JG,52.1388,-0.4629
Lagos lounge,MK40 3JR,52.1374,-0.4617
Pizzeria Santaniello,MK40 3JR,52.1374,-0.4617
Dame Alice Court,MK40 3NR,52.1372,-0.4612
Baja,MK40 3NT,52.1356,-0.4647
FatCap Smokehouse,MK40 3NT,52.1356,-0.4647
Quay,MK40 3NT,52.1356,-0.4647
THE EMBANKMENT,MK40 3PD,52.1351,-0.4594
Radhuni Restaurant Bedford,MK40 3PF,52.1342,-0.4547
The Longholme Cafe & Hire,MK40 3QF,52.1329,-0.4537
Decant Wine and Cheese Bar,MK40 3US,52.1356,-0.4654
Thali & Tandoor,MK40 3US,52.1356,-0.4654
The Higgins Pantry,MK40 3XD,52.1364,-0.4637
The Eatery,MK40 4FU,52.1275,-0.5117
ChaaSha,MK40 4LL,52.1336,-0.4847
MCDONALD'S,MK41 0DX,52.1448,-0.4220
Subway,MK41 0PW,52.1526,-0.4274
Bellini's ,MK41 6EG,52.1598,-0.4900
Woodland Manor Hotel,MK41 6EP,52.1599,-0.4887
HORSE & GROOM,MK41 6EQ,52.1597,-0.4910
Sir William Harpur House,MK41 7FB,52.1595,-0.4585
Mowsbury golf club ,MK41 8BJ,52.1668,-0.4467
The pheasant pub,MK41 8YR,52.1619,-0.4530
Cloverdale Retreat,MK41 9DJ,52.1323,-0.4377
Club 2000 Bingo Ltd,MK41 9LN,52.1331,-0.4446
MCDONALD'S,MK41 9LN,52.1331,-0.4446
Ritz Bingo Limited,MK41 9LN,52.1331,-0.4446
Wendover caffè/daily ,MK41 9QN,52.1392,-0.4426
Proark UK Hotels Ltd t/a Mercure Bedford Centre Hotel ,MK42 0AR,52.1340,-0.4657
ISLANDS GREEK RESTAURANT LTD,MK42 0AS,52.1333,-0.4657
the kings arms,MK42 0AS,52.1333,-0.4657
THE ANCHOR PUB,MK42 0DA,52.1252,-0.4439
Friendly Nettle Cafe,MK42 0GE,52.1121,-0.4309
Zest Pizza,MK42 0NS,52.1276,-0.4610
Subway Alban Retail Park,MK42 0NW,52.1289,-0.4609
Gordon Colling House,MK42 0SJ,52.1201,-0.4401
Bar & Bistro at Wixams,MK42 6EA,52.0903,-0.4634
The King William IV,MK42 7AL,52.1156,-0.5033
BURGER KING-Kempston Hardwick Bedford,MK42 7AZ,52.1095,-0.4848
Coffee Square Limited,MK42 7AZ,52.1095,-0.4848
KFC - Interchange Retail Park Bedford,MK42 7AZ,52.1095,-0.4848
Blue Ginger Restaurant ,MK42 8BG,52.1212,-0.4889
Diya Royal,MK42 8BL,52.1192,-0.4938
KFC - 197 Bedford Road Bedford,MK42 8DD,52.1205,-0.4921
Subway Kempston,MK42 8DD,52.1205,-0.4921
Tana Thai,MK42 9AD,52.1325,-0.4673
Shan E Punjab,MK42 9HG,52.1268,-0.4704
The Bell,MK43 7AS,52.2090,-0.5900
Spices of paradise ,MK43 7DA,52.2015,-0.6088
The Sun,MK43 7EU,52.2079,-0.5510
The Fox Inn,MK43 7LA,52.1876,-0.6067
The Royal Oak Carlton ,MK43 7LP,52.1928,-0.6018
The Cock,MK43 7NJ,52.1889,-0.5525
Kathy Browns Garden,MK43 7QB,52.1697,-0.5538
The Red Lion Stevington ,MK43 7QD,52.1687,-0.5537
O For Coffee,MK43 7RB,52.1740,-0.5208
The Bedford Arms,MK43 7RH,52.1719,-0.5280
The Three Cranes,MK43 8EP,52.1627,-0.6262
Three Fyshes Inn,MK43 8ER,52.1618,-0.6279
The Prince of Wales,MK43 8PE,52.1455,-0.5361
Bromham Subway,MK43 8PU,52.1445,-0.5338
Corner 5 Restaurant,MK43 8RQ,52.1254,-0.5220
The Cable Cafe,MK43 8RQ,52.1254,-0.5220
Bedfordshire Golf Club,MK43 8SR,52.1301,-0.5557
The Cross key Country Pub,MK43 9BE,52.1099,-0.5388
Wootton Vale House,MK43 9JJ,52.0937,-0.5279
Giddy Goat Coffee Shop,MK44 1DR,52.2575,-0.4685
the fox & hounds ,MK44 1DT,52.2526,-0.4775
The Bedford Arms,MK44 1EY,52.2454,-0.5583
Colworth Park Conference & Events ,MK44 1LQ,52.2315,-0.5635
VesuviO Restaurant at The Sharnbrook Hotel ,MK44 1LX,52.2319,-0.5345
Ready Steady Roll,MK44 1ND,52.2315,-0.5278
Millhouse Hotel,MK44 1NP,52.2219,-0.5251
The swan with two nicks,MK44 1PF,52.2255,-0.5428
The Spice Tree Sharnbrook Ltd,MK44 1PX,52.2247,-0.5348
fordham arms,MK44 1PX,52.2247,-0.5348
The Falcon Inn,MK44 1QN,52.2109,-0.5090
Milton Ernest Garden Centre Ltd,MK44 1SH,52.1941,-0.5162
The Crown Inn,MK44 2BU,52.2561,-0.3892
cafe at the college ec,MK44 2JP,52.2429,-0.4333
The Anchor INN,MK44 3LF,52.1524,-0.3453
DANISH CAMP RIVERSIDE VISITOR CENTRE ,MK44 3QG,52.1385,-0.3735
The Crown at Willington,MK44 3QH,52.1370,-0.3743
Willington Garden Centre,MK44 3QP,52.1351,-0.3711
Barns Hotel Bedford,MK44 3SA,52.1249,-0.4312
The Barn Cafe and Deli  BRCC Services Ltd,MK44 3SH,52.1191,-0.4083
Woolpack Pub Wilstead,MK45 3HW,52.0817,-0.4496
Teapots of Olney,MK46 4AA,52.1520,-0.7019
The Swan Inn & Bistro,MK46 4AA,52.1520,-0.7019
OLNEY MEDITERRANEAN KITCHEN LTD ,MK46 4AJ,52.1525,-0.7015
Out Of Office Coffee,MK46 4AJ,52.1525,-0.7015
Olney Pancake Parlour,MK46 4BA,52.1530,-0.7010
olney pizzeria ltd,MK46 4BA,52.1530,-0.7010
The Two Brewers,MK46 4BB,52.1542,-0.7015
The Courtyard Olney Diner Ltd,MK46 4BY,52.1531,-0.7004
J&B Sweet Cafe,MK46 4EA,52.1527,-0.7024
The Bull,MK46 4EA,52.1527,-0.7024
The Cherry Tree,MK46 4EB,52.1546,-0.7020
The Horseshoe,MK46 4HA,52.1722,-0.6587
The Robin Hood pub,MK46 5DR,52.1520,-0.6802
Maya Indian Restaurant,MK46 5DX,52.1591,-0.7039
Cowpers oak,MK46 5JS,52.1463,-0.7380
SPICE GARDEN,MK46 5NH,52.1523,-0.7031
La Estrella ,NN10 0PQ,52.2920,-0.5984
ORIENTAL GOURMET VILLAGE LIMITED,NN10 0QE,52.2900,-0.5976
ROKKA TURKISH RESTAURANT,NN10 0QX,52.2865,-0.5973
Rushden Subway Ltd,NN10 6AA,52.2952,-0.6021
The New Inn,NN10 9LN,52.2695,-0.6036
Venezia Restaurants Ltd T/A PIZZERIA VENEZIA,NN10 9YT,52.2894,-0.5982
Venezia Restaurants Ltd T/A Pizzeria Venezia,NN10 9YT,52.2894,-0.5982
Watering Can,NN29 7HS,52.2537,-0.6224
The Stags Head,NN29 7TQ,52.2746,-0.7076
The Rose & Crown,NN7 1EX,52.2033,-0.7375
The Garden deli,NN8 1LD,52.2964,-0.6756
Kazper Restaurants Limited,NN8 2DP,52.2938,-0.6839
Starbucks,NN8 2DP,52.2938,-0.6839
subway,NN8 2DP,52.2938,-0.6839
Kazper Restaurants Limited,NN8 2DR,52.2855,-0.7108
Russello’s Cafe Bar,NN8 2NF,52.2836,-0.7000
The miller,NN8 2NF,52.2836,-0.7000
KFC - 25 Turnells Mill Lane Wellingborough,NN8 2RN,52.2890,-0.6887
The Snooty Tavern,PE19 5DG,52.2714,-0.3461
Olivers Cafe,PE28 0HA,52.2969,-0.3886
The Saddle,PE28 0HA,52.2969,-0.3886
The Three Compasses,PE28 0NE,52.2968,-0.4729
The Hare and Hounds,SG18 9HQ,52.0812,-0.3418
