name,id,postcode,lat,lon
Boto and Prion,791396,MK41 7JY,52.152680825205800,-0.458460212603914
Fulmarine petrel and brown snake,787535,MK45 3EY,52.077872040309300,-0.450152373267532
black snake and Linsang,790235,MK42 8HL,52.117067016524300,-0.493997364949165
Fulmarine petrel and dugite,791986,MK40 4PD,52.130149383678000,-0.491510000000000
Dolphin and rock python,790670,MK42 0UR,52.110812673613100,-0.431515418946856
indigo snake and Grouse,789051,MK43 8NJ,52.141777406749900,-0.535601639748474
snapping turtle and giant tortoise,681664,NN8 2UD,52.289499735085200,-0.722132187923381
boa and Coati,796401,MK16 9EZ,52.082162000000000,-0.709075000000000
sidewinder and Zebra,2611290,MK41 5BF,52.134440000000000,-0.475565000000000
Petrel and agama,789260,MK43 7RL,52.170813000000000,-0.527103000000000
blindworm and pit viper,687062,NN29 7PQ,52.254960817208300,-0.663204711224114
blue racer and Marsh harrier,790564,MK42 0QA,52.125213205653700,-0.458517113690948
saltwater crocodile and Meadowlark,796873,MK16 0PQ,52.081352096433200,-0.730653036209191
Guillemot and Old World vulture,694246,NN10 9HJ,52.282251441651800,-0.603657641017173
mamba and milk snake,789648,MK43 0HW,52.076526169500100,-0.597565329590653
Pheasant and Mole,796760,MK16 0EB,52.084492595758700,-0.726725601266091
mountain devil and amphisbaena,796362,MK16 9BS,52.086490191382800,-0.711971456970254
Stilt and anole,787545,MK45 3HG,52.081517164719600,-0.448377002549105
Solitaire and crocodile,790220,MK42 9LL,52.125036435224900,-0.464264204736425
Mink and iguana,790249,MK42 8JE,52.118389059924700,-0.489804734658562
Cuscus and gecko,791082,MK41 9HW,52.147461812871800,-0.429526396402180
Kangaroo and crocodile,796743,MK16 0DF,52.080972425446300,-0.722141306956728
sand viper and Gila monster,790598,MK42 0RW,52.117393016253700,-0.442267914284524
tuatara and cayman,694995,NN10 0QN,52.283882376401700,-0.585823660127991
diamondback turtle and frill-necked lizard,790067,MK42 9EA,52.126689641318300,-0.480832006199820
Pratincole and blue tongue,790921,MK42 0JR,52.127255988857500,-0.453158215983323
sand viper and dugite,788378,MK44 3SX,52.116755424545800,-0.413999346985000
Fox and mud turtle,694898,NN10 0HS,52.288865629389500,-0.582263457312757
Egret and Linsang,683750,NN6 0LG,52.270925785881800,-0.749955073741488
elapid and Tree warbler,790520,MK42 7RR,52.110625381183100,-0.492286770366643
Coati and American sparrow,789730,MK42 9NA,52.122808937231200,-0.460995681324521
carpet snake and water snake,790295,MK42 8NZ,52.121991851371000,-0.484687338233748
fer-de-lance and Tree warbler,694853,NN10 0EH,52.290701114096800,-0.592145950912346
Herring gull and Old World vulture,788773,MK44 2AP,52.201405496362800,-0.397802926809545
water snake and taipan,789957,MK42 8TZ,52.113133941549100,-0.498627982520791
snapping turtle and Meadowlark,787487,MK45 3DY,52.079596733066300,-0.445247662877837
Moluccan boobook and bearded dragon,1793459,MK43 9FJ,52.095617305000000,-0.525025000000000
Hawaiian honeycreeper and frill-necked lizard,2230951,MK43 0WF,52.134428000000000,-0.475586000000000
Cuscus and Schneider python,694366,NN10 9RJ,52.291003455099400,-0.610845653945609
Chipmunk and Puffleg,789140,MK43 7NN,52.186996066951300,-0.553996411764790
Mole and Hawaiian honeycreeper,788625,MK44 1HF,52.245219652394300,-0.558930147041683
whip snake and cerastes,789219,MK43 9DE,52.097666541594400,-0.533440583743572
Zebra and thorn lizard,790854,MK42 0DH,52.131654435007000,-0.464986324323853
rattlesnake and Maya,796773,MK16 0ET,52.078944107758200,-0.724971829131362
smooth snake and blue racer,791178,MK41 7YB,52.164115594335800,-0.454863127037506
diamond snake and Kite,682437,NN7 1JP,52.235129131109900,-0.711935025834965
green turtle and smooth snake,792056,MK40 3RL,52.137936226265600,-0.452364504739085
Vole and sidewinder,790234,MK42 8HJ,52.115985514280100,-0.488177161832953
Mockingbird and Mole,1793391,MK42 7GY,52.106031558900000,-0.506662000000000
Fulmarine petrel and Tattler,694768,NN10 6DQ,52.299386657856500,-0.594436950138512
Minke whale and krait,694870,NN10 0FN,52.299383000000000,-0.589495000000000
Meadowlark and Warbler,790851,MK42 0DE,52.124937762538300,-0.447117689455432
ringhals and Scimitar babbler,789291,MK43 7SZ,52.178168000000000,-0.522655539652931
dugite and hoop snake,789000,MK44 1DP,52.254952639330900,-0.469289440403014
Wader and Black jay,686832,NN29 7DR,52.280764000000000,-0.650393000000000
Darwin's finches and giant tortoise,790032,MK42 9AU,52.130941773838100,-0.468955528859870
rat snake and moloch,796680,MK16 8RP,52.085946410934100,-0.747452811388531
Booted eagles and gecko,791256,MK41 8DT,52.150822750257600,-0.453203956690459
Elephant and frill-necked lizard,791928,MK40 4HY,52.135078625165700,-0.481540220608362
giant tortoise and crocodile,790737,MK41 9QB,52.139129786346700,-0.441948077406978
Meadowlark and python,788247,MK44 3HX,52.156178333520000,-0.351405678919422
snapping turtle and leguaan,790246,MK42 8JA,52.117077472916900,-0.489191813747513
milk snake and blue racer,792611,MK40 2JR,52.145485417128700,-0.481843926046773
Dorcopsis and Logrunners,787488,MK45 3EA,52.079598450610400,-0.441292817294424
mud turtle and Ice seal,686955,NN29 7HP,52.254715757807300,-0.620022651206356
frill-necked lizard and thorny devil,786971,MK46 4EG,52.172240251048800,-0.660508784555068
constrictor and Argus,687013,NN29 7NP,52.200780000000000,-0.682171000000000
Philippine hawk-owl and Jackal,687004,NN29 7NB,52.222738452143600,-0.675269461432841
White ibis and tiger snake,790164,MK42 8BT,52.121790166868100,-0.495620222722321
deaf adder and green turtle,792177,MK40 3UJ,52.139768403528000,-0.447420269955612
hognose snake and Skunk,796817,MK16 0JX,52.078617055708700,-0.724660110650381
amethystine python and Macaw,2617865,MK40 4UH,52.125923000000000,-0.512026000000000
milk snake and chameleon,790889,MK42 0FR,52.108275101079900,-0.436246000000000
rat snake and Old World quail,796442,MK16 9JP,52.107085000000000,-0.641012000000000
diamond python and moloch,796652,MK16 8PZ,52.085406002975600,-0.745672786844219
Diving bird and Songlark,1793454,MK43 9ED,52.094844260800000,-0.523270725400000
frill-necked lizard and Shearwater,683428,NN6 0TW,52.275962972962700,-0.747482000000000
gaboon viper and horned viper,681526,NN8 2HN,52.287743000000000,-0.707697000000000
Dorcopsis and Old World warbler,791854,MK41 0NH,52.151965893956800,-0.422074024910357
Jackal and deaf adder,796393,MK16 9EJ,52.086090899437600,-0.716580379064076
Marsh harrier and Chickadee,791960,MK40 4LU,52.131220840241500,-0.482197342223954
Bronzewing pigeon and Scimitar babbler,792311,MK40 4EU,52.142132655110000,-0.498778267882044
water snake and snake,790176,MK42 8DR,52.119607779098000,-0.490495000000000
krait and Myna,2218052,MK42 0DP,52.116007000000000,-0.426944000000000
Dorcopsis and boomslang,695017,NN10 0RX,52.286075044344600,-0.584229120852807
tuatara and American sparrow,681914,NN8 2DR,52.285503000000000,-0.710783000000000
Marsh harrier and pit viper,695216,NN10 0AZ,52.292694350520400,-0.594372000000000
Old World quail and Coati,788813,MK44 2DX,52.214572428556300,-0.454035075911996
Petrel and bicycle lizard,790103,MK42 9GH,52.113848187114400,-0.453709948556245
jew lizard and Jay,694888,NN10 0HE,52.289111984612400,-0.594600868309835
massasauga and wall lizard,792294,MK40 4DY,52.135626575020700,-0.483596429174155
coral snake and habu,788642,MK44 1JG,52.228347076631200,-0.550516000000000
Gull and python,681618,NN8 2QR,52.291560000000000,-0.690153000000000
thorn lizard and krait,789886,MK42 9XD,52.117434098398200,-0.462524518012699
Thrasher and Kākāriki,790716,MK42 6AX,52.094215000000000,-0.461498000000000
brown snake and Grouse,796593,MK16 8LE,52.100692370615400,-0.723198440879510
gavial and mud turtle,791453,MK41 7PL,52.154719689273000,-0.473504622606948
gecko and Quetzal,790786,MK41 9SU,52.137178819559400,-0.432459814342468
Pratincole and boomslang,792008,MK40 4QQ,52.140277432521500,-0.509172063296736
pit viper and Marsh harrier,694235,NN10 9FJ,52.285339239666700,-0.605510430913051
Piping shrike and blue tongue,687089,NN29 7QZ,52.254305416777500,-0.669655870322384
agamid and Mockingbird,694960,NN10 0ND,52.283159669249300,-0.590801707968499
White ibis and bearded lizard,694368,NN10 9RQ,52.289920091606000,-0.611231431145966
taipan and Vole,791848,MK40 4HL,52.134469465285900,-0.492227083503089
king cobra and bicycle lizard,790749,MK41 9QW,52.139970156987400,-0.440223639565062
Civet and gavial,2218043,MK42 0AD,52.112050000000000,-0.427777000000000
giant tortoise and giant tortoise,694636,NN10 0SY,52.277034993958300,-0.563173000000000
Recurvebill and tuatara,792450,MK40 1TN,52.136235469878600,-0.468788650566826
Jerboa and Scimitar babbler,694886,NN10 0HB,52.291802252776800,-0.581979089919595
box turtle and goanna,789993,MK43 0AS,52.087494694399000,-0.608883415008325
boa constrictor and Siskin,791957,MK40 4LQ,52.133403761364100,-0.485542088470384
Herring gull and Songlark,791920,MK41 0SN,52.139286661829000,-0.426000004233080
Ground sloth and Marsh harrier,792376,MK40 3AZ,52.142354925432000,-0.446511949881579
Prion and agamid,574159,PE28 0HP,52.298927941545500,-0.392144379419571
diamondback and Stint,792562,MK40 2DT,52.144333724652400,-0.481780790656139
racer and White ibis,789264,MK43 7RR,52.169395222417400,-0.525248920435289
Dorcopsis and Petrel,789499,MK43 7BU,52.206056910340700,-0.622364700157131
Jerboa and Buzzard,1793338,MK42 6BN,52.093384000000000,-0.463278000000000
Hawaiian honeycreeper and bushmaster,792473,MK40 2AH,52.139699384454300,-0.480783955863229
carpet snake and jew lizard,796403,MK16 9FD,52.080379357511400,-0.708148825837126
crocodile and glass snake,681615,NN8 2QJ,52.291242000000000,-0.689018000000000
Fulmarine petrel and blind snake,789165,MK43 8TB,52.121575000000000,-0.569991000000000
massasauga and B,694672,NN10 0XE,52.277354595776000,-0.595588431543222
Black cockatoo and Minke whale,694847,NN10 0EA,52.293518000000000,-0.586983000000000
chameleon and Coati,787552,MK45 3HR,52.084501118664600,-0.455819074805460
Capuchin and pit viper,797707,MK14 5JD,52.075289086329300,-0.748028304424947
hoop snake and Tit-tyrant,790297,MK42 8PB,52.115899703903900,-0.499761892039476
Mink and coral snake,2628976,NN10 9FP,52.283791000000000,-0.596454000000000
tortoise and snapping turtle,695016,NN10 0RW,52.288563221131000,-0.594574248446726
Boto and Peafowl,792384,MK40 3BL,52.143041850336400,-0.447467187734854
diamond python and Booted eagles,790078,MK42 9FB,52.113833389916900,-0.463583076572774
Puffleg and Marsh harrier,789173,MK43 8TN,52.146977442823000,-0.539479464112041
Kestrel and cobra,789127,MK43 7LQ,52.179336695385300,-0.604864441786871
Condor and box turtle,792393,MK40 3DD,52.141607263192000,-0.454619265331375
Marmoset and Old World quail,791823,MK41 0NF,52.152291514545700,-0.418861364047176
Mockingbird and green turtle,788844,MK43 9HJ,52.104120087362700,-0.539302000000000
dugite and bandy-bandy,686735,NN29 7TZ,52.274630221834300,-0.726298000000000
Warbler and Asiatic leopard,2580955,MK44 1FF,52.222735000000000,-0.531256000000000
boa constrictor and bicycle lizard,787547,MK45 3HJ,52.080739145422200,-0.449381757845882
Philippine hawk-owl and saltwater crocodile,788929,MK43 8HY,52.155056508339400,-0.521834464067368
Buzzard and Grouse,2655082,MK16 6DW,52.079938000000000,-0.704522000000000
Francolin and Bunting,694386,NN10 9SU,52.292348362905100,-0.606712637913660
bandy-bandy and Marmoset,786743,MK46 5HX,52.154945466460600,-0.707614107890066
Cuscus and Towhee,791599,MK41 6BG,52.166694170866400,-0.502118993885982
Grackle and Old World quail,790510,MK42 7RD,52.112540523447000,-0.489476617054825
sea snake and adder,681701,NN8 3EA,52.297090076808000,-0.732340049520172
Chicken and constrictor,372389,SG18 9LU,52.084788000000000,-0.371548031276329
cerastes and Linsang,790221,MK42 9LN,52.126652458738300,-0.466151598195722
leathery turtle and copperhead,789877,MK42 9UX,52.116544358043800,-0.462555129763903
Recurvebill and White ibis,792167,MK40 3TX,52.137612723987500,-0.448956449365479
Myna and horned viper,791192,MK41 7YW,52.164120951014500,-0.458021062484052
Old World quail and flying dragon,788697,MK44 1PY,52.229445832611300,-0.529482897722253
Greenbul and River dolphin,2655906,NN8 3GR,52.299261000000000,-0.715543000000000
Hawk and green turtle,789123,MK43 8SP,52.142480260480500,-0.534277966474662
green turtle and copperhead,790998,MK41 9AD,52.150178095936700,-0.451355402798225
iguana and Elephant,796489,MK16 9PB,52.110234000000000,-0.701854000000000
horned toad and Pitohui,796867,MK16 0PE,52.077285561108400,-0.733759754891117
American sparrow and viper,694822,NN10 6UU,52.295005059183200,-0.607730000000000
puff adder and Peafowl,789505,MK43 7DG,52.200692594168900,-0.607166000000000
indigo snake and skink,792416,MK40 3EL,52.140153203878600,-0.445916353822097
Kākāriki and Tit-tyrant,789762,MK42 9PZ,52.117455741448200,-0.470410815123549
Thrasher and Tattler,790487,MK42 7PN,52.105733254676400,-0.497854413824215
perentie and hoop snake,792698,MK40 2NF,52.147590448031000,-0.457671390158460
indigo snake and crocodile,1793297,MK42 5SF,52.132759190700000,-0.470281320600000
American sparrow and hognose snake,796666,MK16 8QS,52.091309392960700,-0.747857325964106
death adder and king cobra,789488,MK43 7AU,52.208228450323400,-0.590026991641124
Piping shrike and Ground sloth,792290,MK40 4DT,52.137001449423700,-0.483535129216254
leathery turtle and king snake,694990,NN10 0QF,52.284608395846200,-0.586386960408146
B and Tahr,796474,MK16 9NH,52.109887250015100,-0.695000706775869
brown snake and Jackal,796477,MK16 9NN,52.105941725649800,-0.703292720368862
Puffleg and boa constrictor,791745,MK41 0DW,52.153147298973300,-0.423684018789815
Marsh harrier and saltwater crocodile,687306,NN29 7BE,52.279329000000000,-0.645273643987351
Siskin and Argus,791400,MK41 7LE,52.154155135024300,-0.476288000000000
thorn lizard and chuckwalla,694747,NN10 6BN,52.292314582726100,-0.619147808577825
bearded dragon and cycling lizard,790116,MK42 9HF,52.127343068121900,-0.468786698194794
cerastes and Logrunners,694782,NN10 6EH,52.295254714400300,-0.615317099910631
worm lizard and Wader,1793376,MK42 7GA,52.108614000000000,-0.480487867300000
Parakeet and chameleon,1796933,NN10 1AS,52.290882124500000,-0.598870356100000
sea snake and Skunk,2230955,MK43 0WT,52.134428000000000,-0.475586000000000
Hawk and Siskin,790294,MK42 8NY,52.121780469529800,-0.485030468684597
Boto and copperhead,789085,MK43 8QJ,52.142690984490600,-0.538216768201437
hoop snake and Marsh harrier,791250,MK41 8DL,52.156126179578300,-0.442845775456532
bushmaster and turtle,796661,MK16 8QL,52.090005102654200,-0.741048195278456
Cloud rat and boa constrictor,694334,NN10 9PH,52.282878076809000,-0.612580395980920
Parrotbill and blue tongue,787016,MK46 4JY,52.152038778036000,-0.697568977253825
Peafowl and diamondback,796510,MK16 9WD,52.079927000000000,-0.704543000000000
Tahr and tiger snake,682441,NN7 1JT,52.233452929449800,-0.717357633382690
Dorcopsis and goanna,796708,MK16 8TH,52.092292000000000,-0.743805617647229
Chicken and Darwin's finches,796870,MK16 0PH,52.082168025134300,-0.729608331952238
Thrasher and horned viper,791059,MK41 9EJ,52.146535025136400,-0.447813384228667
Jerboa and leguaan,796681,MK16 8RQ,52.087947872877600,-0.746272919035301
carpet snake and sea snake,786983,MK46 4EZ,52.173743579731200,-0.666225394740799
green turtle and bandy-bandy,790382,MK42 7EU,52.113623654039700,-0.499663043086849
sand viper and Guillemot,790244,MK42 8HX,52.117324234426600,-0.490088000000000
Hawaiian honeycreeper and crocodile,686987,NN29 7LF,52.220270497311500,-0.674874442968737
blue tongue and racer,790588,MK42 0RH,52.129422031594500,-0.464098813751447
asp and Egret,789897,MK42 9XT,52.114627000000000,-0.469923000000000
diamondback turtle and boomslang,790879,MK42 0FB,52.107741871135900,-0.436573421910522
Greenbul and flying lizard,694965,NN10 0NJ,52.282876398456500,-0.589667230946591
grass snake and Rat,2596935,MK45 3FZ,52.086076000000000,-0.467331000000000
hognose snake and Night heron,789084,MK43 8QH,52.141923000000000,-0.536338668923169
Puffleg and king snake,790644,MK42 0TE,52.109312455014300,-0.430940132250256
flying dragon and Recurvebill,791371,MK41 7HJ,52.154282018715800,-0.460582940273266
River dolphin and copperhead,686836,NN29 7DW,52.281320117140800,-0.654319829509063
Parakeet and asp,681765,NN8 1PA,52.297396186049100,-0.676635889558566
Shearwater and Fox,790631,MK42 0SN,52.116849074412800,-0.441249886833417
puff adder and Ground sloth,681807,NN8 1RS,52.299084199709900,-0.670030315222635
Tree warbler and Black jay,796853,MK16 0NF,52.081711099672500,-0.726425314514214
carpet snake and Kite,789825,MK42 9RG,52.118510549489800,-0.466474913155567
gaboon viper and Philippine hawk-owl,790263,MK42 8JY,52.118004413292800,-0.492067023042783
massasauga and Flameback,786654,MK46 5EX,52.158442730478400,-0.710056474463446
Prion and Zebra,791766,MK41 0GQ,52.156304466842500,-0.420414912393276
boa constrictor and bicycle lizard,2655176,MK42 5DW,52.134440000000000,-0.475565000000000
massasauga and leathery turtle,790731,MK41 9PR,52.133933748621700,-0.446790290280656
Grouse and tokay,791320,MK41 8LB,52.155646607033900,-0.441254510727478
Ground sloth and Buzzard,694682,NN10 0YA,52.287771215671600,-0.589980970083856
harlequin snake and diamondback,792032,MK40 3QB,52.138688317651300,-0.458300377631579
Linsang and box turtle,789853,MK42 9TJ,52.120684204241700,-0.465611549449238
Darwin's finches and dugite,790493,MK42 7PW,52.105556727927800,-0.497304000000000
racer and Scimitar babbler,791357,MK41 7FH,52.169833254403600,-0.461684000872780
Jay and horned toad,2628972,NN10 0FW,52.294434000000000,-0.597085000000000
Scimitar babbler and American sparrow,682905,NN7 1ER,52.203624144040300,-0.734298768579733
Petrel and worm lizard,792123,MK41 0AJ,52.144667272699500,-0.431685367847428
galliwasp and Flameback,792541,MK40 2BG,52.141196329387200,-0.484620178236160
Kākāriki and perentie,796766,MK16 0EJ,52.085095879632400,-0.722651115892941
Lemming and massasauga,694421,NN10 9XF,52.291783082024600,-0.612155571171787
Skunk and massasauga,789728,MK42 9LY,52.123383917924800,-0.464408655438817
Minke whale and rock python,791757,MK41 0GD,52.155221552608700,-0.422806754778349
sea snake and cobra de capello,789314,MK43 8AN,52.154271025499400,-0.655318147933256
box turtle and Hawaiian honeycreeper,790007,MK43 0BL,52.078051487886100,-0.594277982527660
death adder and Treepie,2581151,MK41 5AZ,52.134428000000000,-0.475586000000000
Fish eagle and Fulmarine petrel,788877,MK43 9LD,52.101966000000000,-0.527678000000000
black snake and Armadillo,796821,MK16 0LB,52.080472057038300,-0.739973831389040
Siskin and Condor,791898,MK41 0QU,52.149658069103700,-0.414248220736035
Piping shrike and Old World quail,680817,NN8 9SS,52.299119187480500,-0.690868249464825
New World blackbird and Kākāriki,791718,MK41 7BJ,52.150798000000000,-0.474720000000000
gopher snake and garter snake,791186,MK41 7YP,52.162840711385900,-0.452948133356068
Grackle and Civet,694797,NN10 6GA,52.297425756958100,-0.628007543369020
Jay and anaconda,694663,NN10 0UR,52.278287656963200,-0.594664783701532
New World blackbird and dukite,790344,MK42 7BX,52.116172329533000,-0.501403122518837
Goose and Elephant,791407,MK41 7LS,52.148821562102600,-0.474904843748446
diamondback and Chickadee,681889,NN8 2BH,52.294999276004400,-0.708644717822687
Black jay and Nukupuʻu,681539,NN8 2JE,52.289546244216300,-0.716471397639352
Goose and horned viper,694777,NN10 6EB,52.295656594429300,-0.599834069417203
iguana and gaboon viper,790034,MK42 9AX,52.130392556079500,-0.467513368931799
flying lizard and swift,788665,MK44 1LQ,52.231546423585600,-0.563531523857740
blue racer and pit viper,791354,MK41 7FE,52.151214352476800,-0.470131129959908
iguana and Francolin,788845,MK43 9HL,52.099469332020900,-0.539600905267973
Chipmunk and gecko,1793445,MK43 9AG,52.095631404100000,-0.520076878800000
constrictor and Ibex,788494,MK44 2PE,52.186160150655700,-0.405387164409881
Philippine hawk-owl and Jerboa,796487,MK16 9NZ,52.109302000000000,-0.704557784090320
Magpie and Fish eagle,790875,MK42 0EU,52.129504154472500,-0.457302533385517
cobra de capello and bearded dragon,791239,MK41 8BX,52.153544570827600,-0.449586809165576
Tahr and Buzzard,787490,MK45 3ED,52.080092556091000,-0.441261011922709
River dolphin and flying lizard,796345,MK16 9AT,52.086276604657500,-0.711350017767545
White ibis and Egret,372694,SG18 9AP,52.113644230835500,-0.340809572665750
hawksbill and Jackal,787530,MK45 3ES,52.075706044557700,-0.448855734527926
Peafowl and bearded dragon,788767,MK44 2AD,52.279705000000000,-0.447412000000000
copperhead and Night heron,789756,MK42 9PP,52.122896000000000,-0.472511017216616
constrictor and Fox,792018,MK40 4RB,52.140775643668200,-0.505911298740865
Dorcopsis and Mockingbird,789308,MK43 8AE,52.137938000000000,-0.636756000000000
bearded dragon and Snipe,792135,MK40 3SF,52.135464697338600,-0.447657570810429
Fish eagle and garter snake,2603812,MK43 6AZ,52.134440000000000,-0.475565000000000
Ground sloth and Grackle,790987,MK41 8RP,52.151047961396000,-0.451866036233753
Old World quail and Dolphin,790948,MK41 8NW,52.156532072659500,-0.432759482546384
black snake and terrapin,694623,NN10 9ES,52.285262456838000,-0.603577648801324
gavial and puff adder,796571,MK16 8HS,52.086463569863400,-0.731909154183754
saltwater crocodile and terrapin,789365,MK43 8BJ,52.159057136814500,-0.597530000000000
copperhead and Argus,796525,MK16 8DB,52.083187696005300,-0.740845974256999
bushmaster and Grosbeak,790363,MK42 7DW,52.110381406320800,-0.512009402419054
Goose and Nukupuʻu,792440,MK40 1SP,52.136163018439700,-0.466672430893891
Shearwater and constrictor,788254,MK44 3JH,52.156390321858000,-0.349205059359896
Nukupuʻu and habu,788492,MK44 2PB,52.185087514072700,-0.400539816792236
Magpie and Francolin,1793356,MK42 6DT,52.090565000000000,-0.464333135200000
Hawaiian honeycreeper and horned viper,791913,MK41 0SB,52.137373753314000,-0.426841881650567
jew lizard and monitor,1793267,MK42 0GH,52.115265721700000,-0.428847156300000
rattlesnake and Wallaby,2617285,NN10 9FR,52.275241000000000,-0.603306000000000
Egret and python,788957,MK44 1AE,52.260024115737800,-0.533072510092687
blindworm and slowworm,788635,MK44 1HX,52.226398343063900,-0.546216041870049
crocodile and Black cockatoo,788325,MK44 2EQ,52.205658686375300,-0.448973572638246
Myna and swift,790824,MK42 7AT,52.116336707007800,-0.504435493252371
wall lizard and Thicketbird,791998,MK40 4QA,52.141969457872900,-0.507171958307487
Scimitar babbler and Flameback,694810,NN10 6UB,52.295058112440900,-0.613886181378135
Scimitar babbler and lizard,790675,MK42 0UY,52.110185149612900,-0.438430201580949
massasauga and Gull,789057,MK43 8NT,52.149691614328700,-0.533588075699097
Francolin and Moluccan boobook,792518,MK40 3PH,52.135903331533000,-0.461231193601370
python and Kestrel,789339,MK43 0SX,52.076515920575000,-0.630339345902782
amethystine python and jew lizard,2655162,MK40 4UR,52.144489000000000,-0.504086000000000
Pitohui and Tattler,787120,MK46 5DD,52.136558710507100,-0.707605633624843
Rabbit and Argus,687099,NN29 7RN,52.257418936442400,-0.670690865239774
perentie and Grackle,788677,MK44 1NN,52.220885000000000,-0.521348000000000
king cobra and tree snake,792041,MK40 3QS,52.138244713724800,-0.455320141325278
Siskin and habu,1796932,NN10 1AN,52.290882124500000,-0.598870356100000
tree snake and Duck,790187,MK42 8EN,52.119174718772100,-0.486564826595636
Fish eagle and saltwater crocodile,792892,MK40 1LQ,52.137472604014900,-0.469199206247466
Pitohui and gecko,792529,MK40 2AR,52.144150694896100,-0.483628422185097
boa constrictor and Wallaby,792781,MK40 1DW,52.134969837023200,-0.476710000000000
frilled lizard and Polecat,792261,MK40 2ST,52.139859994660400,-0.468868936866895
Gull and Flameback,2655218,MK45 3PG,52.078134000000000,-0.444488000000000
death adder and box turtle,790862,MK42 0DZ,52.127763504218700,-0.456895160519425
cycling lizard and rattlesnake,694794,NN10 6FD,52.297682394730500,-0.612033000000000
gecko and dukite,791935,MK40 4JH,52.132565967184400,-0.482619167164677
Songlark and Herring gull,790645,MK42 0TF,52.108634474735000,-0.421910184596748
frill-necked lizard and Diving bird,792791,MK40 1EP,52.138055371383800,-0.469763722488291
Bunting and Marsh harrier,790585,MK42 0RE,52.117684407498800,-0.445953009957882
Nukupuʻu and bicycle lizard,790180,MK42 8DW,52.119300000000000,-0.490650000000000
python and cycling lizard,787110,MK46 5BQ,52.151948742151800,-0.706546171008555
dukite and Chicken,789217,MK43 9DB,52.098020849064400,-0.530844910392094
tuatara and moloch,791097,MK41 9LB,52.143038432498500,-0.437675896244572
Pheasant and Gull,694258,NN10 9HZ,52.284099112247800,-0.604801694237749
dugite and carpet snake,694347,NN10 9QJ,52.288188209814500,-0.612282568097167
Mamo and Ice seal,790822,MK42 7AR,52.114961154547000,-0.505006000000000
Piping shrike and brown snake,791887,MK41 0QB,52.152712228064200,-0.413364986111136
Ibex and Mink,786999,MK46 4HU,52.172918737210300,-0.656130605832799
Capuchin and Towhee,2218073,MK42 0NZ,52.114841000000000,-0.425130000000000
Viscacha and turtle,2230848,MK42 9AL,52.129283000000000,-0.475931000000000
Stilt and White ibis,790812,MK42 7AA,52.116618000000000,-0.501709000000000
Bunting and pit viper,694637,NN10 0SZ,52.284065929877500,-0.576654000000000
Myna and mountain devil,792327,MK40 2TH,52.139687791643600,-0.468071132265539
viper and Jerboa,791451,MK41 7PH,52.150807000000000,-0.474720000000000
cerastes and Thicketbird,687104,NN29 7RT,52.256658920469000,-0.669468250018189
Pratincole and Snipe,1797323,NN29 7UE,52.217028000000000,-0.687135000000000
frilled lizard and racer,792228,MK40 2QH,52.139256142922900,-0.475699188243572
Mink and Skunk,2218045,MK42 0AW,52.122407000000000,-0.425433000000000
soft-shelled turtle and Logrunners,796461,MK16 9LS,52.096257476796000,-0.655851428271175
Kestrel and constrictor,788686,MK44 1PJ,52.223013081894700,-0.545111464790949
elapid and anole,788985,MK44 1BT,52.258469734453200,-0.460421142992805
jew lizard and Chicken,681741,NN8 1LQ,52.297518098057300,-0.681104923983840
blind snake and black snake,790973,MK41 8QU,52.156826689777700,-0.436666913271751
gecko and leathery turtle,796682,MK16 8RR,52.085145977062300,-0.747431434818355
Old World vulture and Booted eagles,790524,MK42 7RX,52.111837233560900,-0.490727100972783
green turtle and fer-de-lance,790261,MK42 8JU,52.115183324404600,-0.497872707167014
Crow and Flameback,790891,MK42 0FT,52.131611723417900,-0.465849797936649
Pheasant and giant tortoise,790121,MK42 9HQ,52.126956000000000,-0.469340000000000
Chipmunk and Kite,694524,NN10 9XY,52.293202019525800,-0.613548214221399
Wader and Booted eagles,797327,MK14 5QA,52.076142041207100,-0.749609534253393
gopher snake and Jackal,796705,MK16 8TB,52.091119437348300,-0.742680848123488
massasauga and Tattler,791749,MK41 0EP,52.146274000000000,-0.421252000000000
thorn lizard and Parrotlet,791428,MK41 0SX,52.139296082264300,-0.424012324555433
Old World vulture and ringhals,1793227,MK41 0FD,52.155912282000000,-0.415838727400000
Vulture and Diving bird,1793272,MK42 0GQ,52.120477000000000,-0.438742000000000
snake and bandy-bandy,786964,MK46 4DU,52.176333268506600,-0.703352865962645
Parrotlet and king cobra,792706,MK40 2NX,52.142051000000000,-0.460961000000000
caiman and coral snake,791197,MK41 8AB,52.155785619388600,-0.454552228272994
rattlesnake and Shearwater,788250,MK44 3JA,52.156723841352700,-0.353768370173421
Petrel and Crow,788629,MK44 1HL,52.250401000000000,-0.554587000000000
Dolphin and Jay,791942,MK40 4JW,52.132068339912600,-0.484027000000000
Mouse and green turtle,792454,MK40 1TT,52.133623149931600,-0.472574779524562
thorny devil and elapid,789289,MK43 7SX,52.178538000000000,-0.551872000000000
moloch and copperhead,791326,MK41 7DH,52.155465521003700,-0.458261691577711
Prion and Lemming,790501,MK42 7QP,52.109558545400700,-0.499580447245656
soft-shelled turtle and rock python,789870,MK42 9UJ,52.118409835110500,-0.459438301289841
Moluccan boobook and boomslang,1793313,MK42 5TA,52.132759190700000,-0.470281320600000
whip snake and soft-shelled turtle,791907,MK41 0RQ,52.153085588085600,-0.416392128128382
perentie and smooth snake,790274,MK42 8LX,52.120216453956100,-0.480175711170408
anaconda and viper,1793464,MK44 1FD,52.196587880700000,-0.489818856600000
Ice seal and indigo snake,1793477,MK44 5AT,52.134428340300000,-0.475586448600000
swift and bushmaster,788829,MK43 9EW,52.101176474632800,-0.530215000000000
habu and Jackal,694648,NN10 0TU,52.282901854502600,-0.594064360045936
Black jay and rattlesnake,2635916,MK16 9FL,52.082255000000000,-0.708425000000000
Mink and tiger snake,694031,NN10 9YP,52.290267371383000,-0.609079000000000
python and viper,789575,MK43 7ES,52.207978390222200,-0.549363843186171
Darwin's finches and Goose,789183,MK43 8UD,52.144820973909900,-0.539593858150627
Mink and green turtle,791674,MK41 6GF,52.168315493773500,-0.507313927400766
green turtle and blue tongue,2628270,MK16 6DH,52.079938000000000,-0.704522000000000
blind snake and Kākāriki,791876,MK41 0PL,52.153753668988600,-0.426673823147660
jew lizard and Asiatic leopard,788788,MK44 2BL,52.253226269170800,-0.382956180996317
milk snake and caiman,796858,MK16 0NP,52.077479013854300,-0.731682193328755
cycling lizard and alligator,787483,MK45 3DS,52.083633626547200,-0.422894342647435
goanna and Buzzard,788649,MK44 1JR,52.222139863038300,-0.555270765548211
constrictor and Jay,786750,MK46 5JG,52.129962225938000,-0.702142669596154
swift and black snake,790555,MK42 0PL,52.127453377814200,-0.462062820718120
carpet snake and Viscacha,789262,MK43 7RP,52.169162748881300,-0.526791965990774
Wallaby and crocodile,791003,MK41 9AJ,52.151901925632000,-0.445697300005781
boomslang and Hawaiian honeycreeper,1793361,MK42 7FF,52.113935517500000,-0.512051810300000
Mink and boa,790064,MK42 9DX,52.126539964758900,-0.479683018394009
perentie and anaconda,792292,MK40 4DW,52.137194662904200,-0.483177878196149
rat snake and adder,681922,NN8 2EE,52.288538437917500,-0.677281028692124
Scimitar babbler and ringhals,796645,MK16 8PR,52.087426726059600,-0.742084047350382
Fulmarine petrel and bicycle lizard,789566,MK43 0FX,52.076130436265500,-0.627345215566437
tree snake and Minke whale,789116,MK43 8SA,52.118210595106500,-0.551549443864709
sand viper and White ibis,786804,MK46 5PS,52.153160044698500,-0.707139596793824
Magpie and Snipe,790486,MK42 7PL,52.114778209458300,-0.487283301248416
Old World vulture and brown snake,791862,MK41 0NT,52.154386310681200,-0.425569802262938
Armadillo and agamid,680804,NN8 9SA,52.299119187480500,-0.690868249464825
mountain devil and Capuchin,681395,NN8 3PX,52.295159059242800,-0.718362074593469
Songlark and Egret,791397,MK41 7JZ,52.153532136177900,-0.457553759214215
kabaragoya and Pheasant,792319,MK40 4FF,52.135449114173600,-0.514870991430848
swift and wall lizard,791487,MK41 7RH,52.146996505287400,-0.471444913459584
adder and Francolin,789590,MK43 7HN,52.209184872568200,-0.550231954472207
Solitaire and Kestrel,791461,MK41 7PY,52.149887929714800,-0.455969595770487
Chicken and box turtle,790825,MK42 0AH,52.132278301016600,-0.465943784888815
cerastes and Rat,791730,MK41 0DA,52.149020677217600,-0.423712831274767
milk snake and Old World quail,694645,NN10 0TR,52.290879978655500,-0.598870331302501
Chipmunk and python,790379,MK42 7ER,52.113231779970600,-0.502786891509069
Fulmarine petrel and diamondback turtle,687294,NN29 7AQ,52.281156840438000,-0.643975431984557
diamond snake and Goose,792554,MK40 2DG,52.143137148436800,-0.479629380392037
Scimitar babbler and Francolin,788335,MK44 3QQ,52.138206167222900,-0.372234726987558
Chipmunk and brown snake,2593952,MK43 8TW,52.121531000000000,-0.569798000000000
