name,id,postcode,lat,lon
bearded lizard and boa constrictor,796574,MK16 8HW,52.085755000000000,-0.729477000000000
Thrasher and boa constrictor,792250,MK40 2RZ,52.140427000000000,-0.474388000000000
Komodo dragon and Parakeet,792561,MK40 2DS,52.144243663462200,-0.481769239074708
king cobra and Crow,791624,MK41 6DW,52.161123480331000,-0.492539943781825
Cloud rat and Quetzal,791118,MK41 9NE,52.144294276641200,-0.436097427445153
horned toad and saltwater crocodile,1793206,MK40 4RR,52.130585014100000,-0.503344927300000
Chicken and Logrunners,681693,NN8 3DR,52.298240558912700,-0.727291892073199
Goose and hawksbill,796332,MK16 9AB,52.085262082915300,-0.718910120852303
hognose snake and Dorcopsis,792456,MK40 1UH,52.135638552004900,-0.469904986310724
Francolin and soft-shelled turtle,791086,MK41 9JA,52.147398210951600,-0.433533278989961
Capuchin and Moluccan boobook,790534,MK42 0NA,52.121495144563900,-0.441745116205871
Buzzard and puff adder,2617863,MK40 4TQ,52.141657000000000,-0.490736000000000
perentie and Shearwater,1793303,MK42 5SP,52.132759190700000,-0.470281320600000
garter snake and Dorcopsis,694870,NN10 0FN,52.299383000000000,-0.589495000000000
amphisbaena and Macaw,694889,NN10 0HF,52.289702984270900,-0.593643795921951
thorn lizard and asp,1793392,MK42 7GZ,52.105996000000000,-0.505015000000000
Hawaiian honeycreeper and cerastes,796762,MK16 0EE,52.084278771164800,-0.726074938039206
swift and viper,790656,MK42 0TX,52.109885741633000,-0.436191767865814
Solitaire and Songlark,789578,MK43 7EW,52.201237100628000,-0.613865720747168
Herring gull and horned viper,790517,MK42 7RN,52.110175542981600,-0.488052408734307
Magpie and Tree warbler,686840,NN29 7EA,52.280761160278300,-0.640058895583272
skink and Parakeet,790286,MK42 8NP,52.117189363650600,-0.483199770538633
goanna and alligator,789019,MK44 1EN,52.257254029271100,-0.469957436834555
monitor and Petrel,790859,MK42 0DU,52.128524527657500,-0.453216552087622
cobra and Parrotlet,788696,MK44 1PX,52.224657250291700,-0.534838536367998
massasauga and Cloud rat,790014,MK43 0BW,52.077719861138400,-0.595120168887611
Crow and sand lizard,788628,MK44 1HJ,52.246271000000000,-0.544820000000000
Buzzard and bearded lizard,796909,MK16 8BE,52.081636834471600,-0.742961892139911
Chicken and chuckwalla,789788,MK43 0QG,52.080437000000000,-0.576472000000000
Schneider python and Recurvebill,792274,MK40 4BY,52.140281717596100,-0.486214818328588
Thicketbird and ringhals,789311,MK43 8AH,52.152665639022000,-0.649373600401323
Elephant and worm lizard,788425,MK44 2ET,52.218729000000000,-0.428946000000000
gopher snake and Puffleg,789967,MK42 8UN,52.124161165105600,-0.495408914822456
galliwasp and gecko,790479,MK42 7PA,52.114793514804200,-0.484274208741186
Goose and Chickadee,790860,MK42 0DX,52.128821893568200,-0.454637973132319
whip snake and dugite,790394,MK42 7HG,52.109418030943900,-0.504798415625477
cerastes and slowworm,791017,MK41 9BJ,52.151955955485900,-0.442976663123059
brown snake and Mole,787543,MK45 3HD,52.079430005374000,-0.448288850863077
hawksbill and Tattler,787102,MK46 5BD,52.152083907912100,-0.704115898907713
caiman and Snipe,789203,MK43 9BB,52.108848342293100,-0.540418919505740
Grouse and Marsh harrier,792181,MK40 3UR,52.138661351510900,-0.453493766801396
grass snake and Ice seal,789317,MK43 8AS,52.153840245683300,-0.653810933275557
green turtle and Fulmarine petrel,683766,NN6 0NF,52.264427160837800,-0.747411000000000
mamba and Polecat,791297,MK41 8HY,52.148331677898600,-0.431381229131985
horned viper and gavial,791436,MK41 0TH,52.154323563494700,-0.418862456187672
soft-shelled turtle and anole,2628976,NN10 9FP,52.283791000000000,-0.596454000000000
viper and Skunk,789997,MK43 0AX,52.091036544039000,-0.596687131950231
rock snake and Tattler,789632,MK43 0HA,52.075594367371200,-0.592560371959853
Flameback and Nukupuʻu,791697,MK41 7AF,52.158176969292000,-0.458650432429800
Bunting and Grosbeak,1793189,MK40 3FD,52.139547095000000,-0.458504614600000
Buzzard and anaconda,2593723,MK40 4TF,52.141466000000000,-0.491941000000000
ringhals and tiger snake,1793221,MK40 9EA,52.134428340300000,-0.475586448600000
whip snake and Francolin,792568,MK40 2EA,52.139994084309600,-0.480627798878732
Jerboa and coral snake,791301,MK41 8JD,52.153408320787900,-0.434506341066858
Dorcopsis and Black jay,789773,MK42 9QZ,52.116053088599800,-0.478053509232162
hawksbill and horned viper,791956,MK40 4LP,52.134469402894000,-0.482408383076258
soft-shelled turtle and Linsang,792264,MK40 2SY,52.139800381422000,-0.468432592887763
Partridge and rat snake,790367,MK42 7EA,52.114255605593400,-0.504110813708397
carpet snake and black snake,792485,MK40 3JB,52.137551545416200,-0.463105000000000
swift and Thrasher,788687,MK44 1PL,52.223150890202200,-0.543891826611469
Fish eagle and slowworm,788227,MK44 3ET,52.175677000000000,-0.341442000000000
Eagle and Darwin's finches,2643840,MK42 7NY,52.105382000000000,-0.500298000000000
Bunting and black snake,789294,MK43 7TD,52.173373098266100,-0.521958629686355
Linsang and Armadillo,796808,MK16 0JL,52.077166764047900,-0.727736590006419
asp and moloch,796852,MK16 0NE,52.081493015051200,-0.726212618942518
Rabbit and Chipmunk,2230862,MK42 9EP,52.127602000000000,-0.473183000000000
goanna and Songlark,791942,MK40 4JW,52.132068339912600,-0.484027000000000
chameleon and agama,1793449,MK43 9BG,52.094070101900000,-0.521763507200000
Skunk and Jay,789620,MK43 7LD,52.186625230470200,-0.606874438180449
Marsh harrier and diamondback terrapin,2218043,MK42 0AD,52.112050000000000,-0.427777000000000
Tit-tyrant and gopher snake,683774,NN6 0NS,52.265268000000000,-0.733555000000000
thorn lizard and chuckwalla,790926,MK41 8LJ,52.154373674563100,-0.436109666708299
Fulmarine petrel and Masked owl,786958,MK46 4DJ,52.157752802155000,-0.700442855636882
bandy-bandy and tiger snake,2643841,MK43 1AD,52.076403000000000,-0.601270000000000
goanna and adder,681667,NN8 2UG,52.286529955476400,-0.730207755608061
glass snake and turtle,790858,MK42 0DT,52.127372261588000,-0.453796981187917
Macaw and Asiatic leopard,788665,MK44 1LQ,52.231546423585600,-0.563531523857740
Bronzewing pigeon and Duck,791019,MK42 0LE,52.121272867851100,-0.435822455635324
perentie and Bronzewing pigeon,792502,MK40 3ND,52.139824351074400,-0.454417941259183
Tahr and rock python,796733,MK16 0BT,52.082227854279400,-0.731824879369506
Stilt and Skunk,694397,NN10 9TH,52.291516647636300,-0.609378002544668
mud turtle and Parrotbill,790277,MK42 8NA,52.120417704935600,-0.479745274921906
carpet snake and indigo snake,790728,MK41 9PB,52.141880059109300,-0.434399127406332
boa and diamond snake,786642,MK46 5EF,52.161743602406100,-0.705238865862710
hoop snake and Wader,789942,MK42 8TE,52.122461373705800,-0.482743258098843
iguana and Elephant,787473,MK45 3DA,52.079791445129100,-0.443650220473522
puff adder and Linsang,790052,MK42 9DG,52.127474219375700,-0.478920777490474
tuatara and sidewinder,789276,MK43 7SF,52.170709433198900,-0.524649793024784
Egret and asp,792154,MK40 3TE,52.135742724427300,-0.450893000000000
Herring gull and Jerboa,788845,MK43 9HL,52.099469332020900,-0.539600905267973
blind snake and Jay,580587,PE19 5EN,52.298532644311700,-0.361420185778058
dukite and alligator,790460,MK42 7LP,52.114628044639100,-0.488193873803443
Ground sloth and Treepie,789622,MK43 7LF,52.178756985523000,-0.605262842714337
Black jay and Kestrel,791393,MK41 7JU,52.152531654173200,-0.459430095524039
sidewinder and Stint,792124,MK41 0AN,52.145573551300900,-0.429519753418409
Ice seal and Siskin,788590,MK44 3BF,52.129663000000000,-0.417033791449480
Minke whale and Goose,792802,MK40 1HS,52.136545433808400,-0.472975000000000
bearded dragon and bull snake,796668,MK16 8QW,52.086134290592800,-0.734735320744394
Prion and cobra de capello,791213,MK41 8AX,52.158505749405300,-0.450803241472723
Duck and jew lizard,788542,MK44 2RT,52.186699192811100,-0.458117823303013
blue racer and massasauga,792822,MK40 1LB,52.137503813019000,-0.468832831647559
viper and gecko,792218,MK40 4BF,52.133077684856300,-0.514336201447254
diamondback and Gila monster,681556,NN8 2LA,52.297883550563500,-0.695392045757830
Logrunners and leguaan,791767,MK41 0GY,52.159770667864600,-0.391476985950637
leguaan and bull snake,789256,MK43 7RF,52.172563143527000,-0.518314950811541
bearded lizard and Ibex,787534,MK45 3EX,52.077164894197900,-0.449709903811046
jew lizard and Ice seal,790879,MK42 0FB,52.107741871135900,-0.436573421910522
Tahr and sand lizard,681895,NN8 2BS,52.298893740373500,-0.703032110263977
diamondback turtle and cayman,682086,NN8 1BP,52.299247000000000,-0.690868249464825
Fulmarine petrel and cycling lizard,791883,MK41 0PW,52.152639442921400,-0.427400113351542
Rat and Dolphin,1793397,MK42 9AG,52.128942985300000,-0.474838659000000
Ice seal and elapid,788486,MK44 2NR,52.203339776719300,-0.374875162403273
Moluccan boobook and frilled lizard,789864,MK42 9TZ,52.116381003184700,-0.465890754886762
Mamo and Francolin,2231107,MK43 9QX,52.088357000000000,-0.496643000000000
ringhals and Chicken,791985,MK40 4PB,52.131061405508800,-0.491494751900688
B and mountain devil,791405,MK41 7LQ,52.145699161717500,-0.476107633680495
water snake and Magpie,791617,MK41 6DG,52.166875380152400,-0.498691417100677
slowworm and gavial,789790,MK43 0QJ,52.075531000000000,-0.582640000000000
rock python and Buzzard,787478,MK45 3DJ,52.082076641179300,-0.436959596431094
Old World vulture and Kite,796679,MK16 8RN,52.089848930705800,-0.748336089740024
cycling lizard and Zebra,681535,NN8 2HZ,52.291783437142900,-0.711377488600876
copperhead and Chipmunk,796757,MK16 0DY,52.084581367405300,-0.727452799927789
Tree warbler and rock snake,791890,MK41 0QF,52.153446404032600,-0.421173863139731
worm lizard and lizard,792776,MK40 1DN,52.135319327723100,-0.475688000000000
adder and death adder,789135,MK43 7NB,52.189040612830600,-0.580203635118889
bushmaster and horned viper,790707,MK42 6AB,52.093440000000000,-0.460678000000000
Black cockatoo and diamond snake,681914,NN8 2DR,52.285503000000000,-0.710783000000000
Grosbeak and boomslang,791380,MK41 7HX,52.156512114674100,-0.467508231646149
Vole and Polecat,796843,MK16 0LR,52.079879889596700,-0.730869910049179
Meadowlark and iguana,788397,MK44 3TZ,52.106237915791600,-0.382408561206051
Parakeet and Kākāriki,791472,MK41 7QN,52.153322348465300,-0.463524902539031
Old World vulture and alligator,792712,MK40 2PE,52.145599689500200,-0.457389415154819
New World blackbird and Piping shrike,791966,MK40 4NB,52.131436473822200,-0.497632961485789
Peafowl and goanna,694921,NN10 0JX,52.288845236033900,-0.592585987772466
horned toad and Marsh harrier,694947,NN10 0LL,52.287226538923500,-0.589543763832328
rock python and diamondback terrapin,790741,MK41 9QL,52.139687761766500,-0.441987058737926
Ground sloth and habu,796412,MK16 9HH,52.089980000000000,-0.660166000000000
Peafowl and Asiatic leopard,788975,MK44 1BE,52.279271073203900,-0.496391289860226
Tit-tyrant and Fox,788339,MK44 3QU,52.126502150856400,-0.361397899078525
amphisbaena and Zebra,694955,NN10 0LW,52.286131695425300,-0.588962774752993
American sparrow and worm lizard,687295,NN29 7AR,52.282301574626200,-0.645010633949145
Stint and B,686982,NN29 7JZ,52.217888202534600,-0.678912302198715
Civet and giant tortoise,694897,NN10 0HR,52.287845829841200,-0.581196402666038
Stint and monitor,788457,MK44 2JN,52.215546626005300,-0.378557576322959
Macaw and bearded lizard,2635932,MK41 7FU,52.155821000000000,-0.464441000000000
blue racer and Darwin's finches,1793396,MK42 9AF,52.129146183000000,-0.475255394700000
wall lizard and blue tongue,790644,MK42 0TE,52.109312455014300,-0.430940132250256
Jerboa and bicycle lizard,788471,MK44 2LJ,52.225302000000000,-0.351204000000000
Macaw and box turtle,694266,NN10 9JJ,52.283011545942200,-0.611696639668485
New World blackbird and hognose snake,790723,MK42 6BZ,52.090792000000000,-0.462454668692030
Chipmunk and bicycle lizard,686837,NN29 7DX,52.278580193154200,-0.649008572698073
Francolin and Partridge,792365,MK40 3AJ,52.143684489335500,-0.449666000000000
turtle and kabaragoya,2643855,MK43 9SR,52.091030000000000,-0.520806000000000
Kestrel and boomslang,786814,MK46 5QL,52.155812397459700,-0.712895268738677
Petrel and chuckwalla,791199,MK41 8AE,52.158114801614200,-0.453214325973127
Linsang and Puffleg,796805,MK16 0JG,52.078359236565000,-0.725761892802775
Badger and Meadowlark,792286,MK40 4DP,52.134360014947100,-0.481593876566089
cycling lizard and Grouse,694841,NN10 0DT,52.292368978171400,-0.589512400419207
Mole and Perching duck,789904,MK42 9YE,52.112437035837200,-0.466829353147616
Rat and Pitohui,792128,MK40 3RX,52.137427871597300,-0.449941887395331
Komodo dragon and Hawk,796346,MK16 9AU,52.085824797886800,-0.711144106851395
frilled lizard and Minke whale,681893,NN8 2BP,52.294054034628500,-0.711107000000000
Crow and Jay,789170,MK43 8TH,52.118725623676400,-0.544904000000000
Hawaiian honeycreeper and Jay,788985,MK44 1BT,52.258469734453200,-0.460421142992805
Rabbit and Jackal,791258,MK41 8DW,52.152645071366500,-0.454354023141005
Quetzal and mountain devil,574158,PE28 0HN,52.297531605329300,-0.389305953570611
Zebra and River dolphin,789581,MK43 7FB,52.202293000000000,-0.608721715337469
frilled lizard and River dolphin,694367,NN10 9RP,52.291067957999500,-0.609450702634961
mountain devil and Wader,694943,NN10 0LF,52.288076791656200,-0.589971268840558
Pheasant and Goose,790978,MK41 8RB,52.156413747380000,-0.435691000000000
Old World quail and sand viper,694872,NN10 0FR,52.285950000000000,-0.597017000000000
flying lizard and Fox,788998,MK44 1DL,52.255363827179700,-0.468410881356460
racer and asp,790499,MK42 7QL,52.108537877109200,-0.500040000000000
mud turtle and hognose snake,789133,MK43 7LX,52.179638000000000,-0.586280000000000
indigo snake and anaconda,788980,MK44 1BL,52.284406564797700,-0.469916575544124
krait and python,791703,MK41 7AP,52.159854252227600,-0.461092428889320
bicycle lizard and sidewinder,681876,NN8 2AQ,52.298190433568400,-0.699577127017691
perentie and Viscacha,687024,NN29 7PB,52.237539000000000,-0.668136000000000
whip snake and diamondback,790476,MK42 7NT,52.114679009062400,-0.481663851437148
Chicken and Egret,790645,MK42 0TF,52.108634474735000,-0.421910184596748
Thicketbird and soft-shelled turtle,789639,MK43 0HJ,52.076522040212300,-0.594953480817997
mamba and Jerboa,686931,NN29 7ER,52.289199815009600,-0.621121367657044
Chipmunk and diamondback turtle,788875,MK43 9LA,52.099287841555400,-0.525021844546172
mountain devil and Meadowlark,790318,MK42 8QH,52.118718974483400,-0.497330281157139
Buzzard and king snake,789204,MK43 9BD,52.107391237019000,-0.543284723029427
Komodo dragon and pit viper,681692,NN8 3DQ,52.293615669064600,-0.718641229232541
Greenbul and Old World quail,790413,MK42 8RN,52.127160000000000,-0.499262675236392
Mole and Buzzard,694243,NN10 9HF,52.281696031847900,-0.601549489254367
Wader and tokay,790774,MK41 9SE,52.140894384203700,-0.434652891364217
Philippine hawk-owl and cycling lizard,791280,MK41 8HA,52.157685305779200,-0.437002302230189
Grackle and Skunk,796738,MK16 0BZ,52.083299981738000,-0.724526643689840
amethystine python and Bunting,792547,MK40 2BU,52.140639195674000,-0.476967159852513
Wallaby and boa,789944,MK42 8TG,52.121191745778300,-0.479806579195918
sand viper and Komodo dragon,372340,SG18 9ES,52.095524000000000,-0.341205000000000
sea snake and Chicken,686634,NN29 7TF,52.273664094135600,-0.715244665400454
leguaan and garter snake,796570,MK16 8HR,52.087507689857300,-0.733689394960009
Linsang and B,792481,MK40 3HU,52.138310471506200,-0.464113000000000
Myna and Bunting,1793236,MK41 0GX,52.144375444400000,-0.420151000000000
worm lizard and Schneider python,1796940,NN10 6FB,52.298028000000000,-0.617856000000000
Darwin's finches and cobra de capello,792042,MK40 3QT,52.138238973870700,-0.454881966314670
Bronzewing pigeon and gavial,796675,MK16 8RG,52.088455722667000,-0.746681963580615
Schneider python and racer,791960,MK40 4LU,52.131220840241500,-0.482197342223954
Duck and Elephant,791826,MK40 4FS,52.130129000000000,-0.509306000000000
Polecat and perentie,1793298,MK42 5SG,52.132759190700000,-0.470281320600000
diamondback and Chickadee,791719,MK41 7BL,52.158658352816700,-0.461776917047185
blind snake and amphisbaena,789687,MK43 0LU,52.080717618209800,-0.552908000000000
River dolphin and Gila monster,788924,MK43 9PR,52.084729000000000,-0.492179296730479
Dorcopsis and Towhee,788737,MK43 9EH,52.080590419365200,-0.539823108565775
taipan and cobra,680729,NN8 6AN,52.299439000000000,-0.736763808144812
Bronzewing pigeon and Booted eagles,791089,MK41 9JE,52.147929277243400,-0.438323193508964
swift and adder,683795,NN6 0PT,52.263957990791200,-0.740655665191535
Siskin and copperhead,791619,MK41 6DP,52.161244023156100,-0.493530025906597
bushmaster and Condor,789482,MK43 7AJ,52.213342554751200,-0.582370997860262
gopher snake and gavial,796368,MK16 9BZ,52.084036072833200,-0.719441430257772
New World blackbird and Coati,789862,MK42 9TX,52.117088016542100,-0.464946335579895
Night heron and diamond snake,797680,MK14 5FH,52.075731012473600,-0.743930299798817
Elephant and king cobra,789415,MK43 8HA,52.160414520225100,-0.625894171223648
Mouse and habu,694305,NN10 9NN,52.290840522394600,-0.607698337738357
black snake and Argus,792398,MK40 3DJ,52.143534917574600,-0.453763000000000
Jackal and mud turtle,2608045,MK42 0US,52.110422000000000,-0.426162000000000
gopher snake and diamondback terrapin,789151,MK43 7PF,52.189010039673400,-0.546675120385257
perentie and Old World warbler,789209,MK43 9BL,52.111311958717100,-0.526684186019344
green turtle and elapid,694355,NN10 9QW,52.287975515106200,-0.618681596943947
rock snake and hognose snake,687086,NN29 7QW,52.254333959452900,-0.674592148865375
bull snake and Grackle,791215,MK41 8AZ,52.158750826108700,-0.449610578699849
Masked owl and caiman,786777,MK46 5NA,52.159414345540700,-0.707645491468372
Solitaire and Booted eagles,791891,MK41 0QH,52.153805287599800,-0.420444903478832
Boto and Moluccan boobook,789080,MK43 8QD,52.144797625221700,-0.537709356281204
Asiatic leopard and Night heron,792911,MK40 1PL,52.136854000000000,-0.469264000000000
Elephant and Wallaby,790528,MK42 0LT,52.124887322409700,-0.443292120724593
skink and Night heron,790254,MK42 8JL,52.114131546464000,-0.498594469509902
horned toad and bicycle lizard,791556,MK41 0WP,52.151020566035000,-0.406599119115550
Old World vulture and asp,791649,MK41 6DZ,52.165965768657200,-0.496455703192207
Jackal and ringhals,791825,MK40 4FR,52.136749741368900,-0.482140932914229
habu and king snake,792165,MK40 3TT,52.136770914799300,-0.447845954462966
Eagle and bull snake,791250,MK41 8DL,52.156126179578300,-0.442845775456532
Thicketbird and anole,790330,MK42 7BA,52.117575775370300,-0.503590716109437
Logrunners and Siskin,786979,MK46 4ET,52.171108893176500,-0.664607925936842
Goose and bushmaster,790239,MK42 8HR,52.117974185190900,-0.493922974419464
milk snake and crocodile,791965,MK40 4NA,52.131191213962700,-0.494616925290309
blue racer and Fulmarine petrel,790820,MK42 7AL,52.115620496558000,-0.503261854068678
Schneider python and anaconda,686842,NN29 7ED,52.280356000000000,-0.639089000000000
Francolin and iguana,796688,MK16 8RY,52.090511105802600,-0.745500456387274
boomslang and bicycle lizard,790418,MK42 8RX,52.127178325922600,-0.501457582033412
gavial and fer-de-lance,687092,NN29 7RD,52.254537758233700,-0.668258000000000
pit viper and soft-shelled turtle,792237,MK40 2RE,52.140557054807000,-0.469926408751482
Flameback and Quetzal,681241,NN8 3HS,52.299824374263800,-0.706729886939084
death adder and indigo snake,2643818,MK40 4WG,52.146337000000000,-0.513013000000000
diamondback turtle and water snake,787122,MK46 5DF,52.160308307669500,-0.708818381804931
Perching duck and Solitaire,797564,MK14 5AA,52.081087550106000,-0.747343000000000
diamondback turtle and tree snake,788838,MK43 9HA,52.096935278407000,-0.533201786116877
thorn lizard and terrapin,791208,MK41 8AR,52.157195508933800,-0.450307840650349
Parrotlet and Perching duck,791871,MK41 0PE,52.156032095171800,-0.426271888122998
thorny devil and Diving bird,792384,MK40 3BL,52.143041850336400,-0.447467187734854
Tattler and jew lizard,2655081,MK16 6DU,52.079938000000000,-0.704522000000000
White ibis and Crow,791081,MK41 9HU,52.146394564991500,-0.433787726643435
elapid and Cloud rat,682914,NN7 1HB,52.202829440342400,-0.738169877565322
hawksbill and jew lizard,792179,MK40 3UN,52.139666000000000,-0.445707992645384
crocodile and chameleon,694704,NN10 0ZW,52.290879978655500,-0.598870331302501
swift and Guillemot,580559,PE19 5BJ,52.240978000000000,-0.350828000000000
American sparrow and Solitaire,789908,MK42 9YL,52.109308740286000,-0.464118281623627
bandy-bandy and Herring gull,789041,MK43 8LX,52.144096651645200,-0.540640548374873
goanna and perentie,788835,MK43 9FD,52.091585586315300,-0.528881325652750
horned toad and River dolphin,791135,MK41 7UA,52.160618736484300,-0.461109919751611
Coati and sea snake,694235,NN10 9FJ,52.285339239666700,-0.605510430913051
Ice seal and elapid,681924,NN8 2EG,52.288536888909400,-0.710474703204284
tuatara and diamond snake,681239,NN8 3HQ,52.299892085640200,-0.705057000000000
chameleon and asp,788639,MK44 1JB,52.226873132133600,-0.550461179908179
Jay and hoop snake,792331,MK40 2TR,52.143308078716100,-0.466441657283566
Nukupuʻu and soft-shelled turtle,791292,MK41 8HS,52.152271224985600,-0.430131867694087
crocodile and hawksbill,796352,MK16 9BB,52.083305307502900,-0.711785849246519
Capuchin and hawksbill,683796,NN6 0PU,52.264511035144500,-0.740244353542938
Parrotbill and racer,789742,MK42 9NS,52.120963756280300,-0.467749145887660
Hawk and bandy-bandy,2579262,MK40 4SB,52.125782000000000,-0.513965000000000
frill-necked lizard and Logrunners,791149,MK41 7UU,52.160579971418500,-0.459517702660063
bull snake and Schneider python,372386,SG18 9LR,52.084205000000000,-0.359897000000000
grass snake and slowworm,789741,MK42 9NR,52.119867233643000,-0.468473250001943
diamondback and Quetzal,796379,MK16 9DQ,52.083408745689300,-0.718802647873384
habu and garter snake,2663523,MK41 5BR,52.134440000000000,-0.475565000000000
kabaragoya and Mockingbird,686975,NN29 7JQ,52.236118000000000,-0.610363000000000
chameleon and cobra de capello,791590,MK41 6AU,52.167956221814600,-0.504503883824569
Old World warbler and Cuscus,788508,MK44 2QG,52.183845351990000,-0.388545946065655
Cuscus and loggerhead,789172,MK43 8TL,52.146671249035700,-0.540892529113255
water snake and elapid,1793444,MK43 9AF,52.093266527700000,-0.522213397600000
python and Mole,791417,MK41 7NG,52.147814000000000,-0.473375000000000
Pratincole and Buzzard,694278,NN10 9JZ,52.278590371443000,-0.599712342499592
Black cockatoo and Hawk,2218044,MK42 0AN,52.110138000000000,-0.441586000000000
rat snake and cobra,791641,MK41 0BL,52.151171043561900,-0.427188752623508
carpet snake and Prion,788833,MK43 9FA,52.092397447112400,-0.528372910952580
Peafowl and Komodo dragon,786869,MK46 4AA,52.151978594686900,-0.701897238393314
blue racer and deaf adder,790540,MK42 0NH,52.123615649172400,-0.440955378827558
horned toad and Bunting,796734,MK16 0BU,52.084005168294200,-0.727381621224636
Old World warbler and thorny devil,790305,MK42 8PN,52.124661328706400,-0.487416130344372
Crow and Pheasant,797679,MK14 5FG,52.079723460236300,-0.749888886052550
Wallaby and boa,1792957,MK16 8FD,52.083395387600000,-0.734827465900000
Perching duck and Darwin's finches,682923,NN7 1HQ,52.199886782281500,-0.734565887850024
Greenbul and Booted eagles,682442,NN7 1JW,52.237270159240000,-0.712868881123158
milk snake and box turtle,791403,MK41 7LJ,52.146549556298200,-0.475815530672315
diamond python and Myna,580556,PE19 5BF,52.268591779604100,-0.347854240605713
Kite and Boto,1793270,MK42 0GN,52.114480105800000,-0.429269103600000
massasauga and iguana,797707,MK14 5JD,52.075289086329300,-0.748028304424947
Jerboa and Mouse,1797681,NN8 9TD,52.299121481900000,-0.690868281200000
Petrel and horned viper,681453,NN8 3SF,52.297259544369900,-0.718052151307455
Masked owl and rat snake,1793183,MK40 1EL,52.137940385300000,-0.478096771400000
worm lizard and Kangaroo,694232,NN10 9FF,52.293047406281700,-0.611866784056446
Dorcopsis and Bronzewing pigeon,790666,MK42 0UJ,52.111091412667900,-0.432192007011370
anole and agama,681763,NN8 1NW,52.298042879157100,-0.674974171979427
alligator and Buzzard,791152,MK41 7UY,52.162928724200200,-0.456921868741166
bearded dragon and Schneider python,790197,MK42 9JB,52.124318167426300,-0.470570282441334
perentie and Jay,796456,MK16 9LJ,52.092589912081400,-0.647276298265292
Ice seal and Tattler,788473,MK44 2LP,52.217909000000000,-0.344064098678924
alligator and amethystine python,792119,MK41 0AE,52.148314414266400,-0.421998491766382
Pratincole and pit viper,790178,MK42 8DT,52.118906600796900,-0.488092939227897
elapid and Warbler,796445,MK16 9JS,52.116162293201000,-0.610722370716544
Marsh harrier and Vulture,2618151,MK40 3FF,52.136860000000000,-0.465999000000000
Parakeet and Fulmarine petrel,790662,MK42 0UE,52.110877728613100,-0.433540000000000
chameleon and Eagle,787608,MK45 3PD,52.090635177453100,-0.469940000000000
Rabbit and Parakeet,1793389,MK42 7GW,52.105597644000000,-0.506839100600000
Linsang and Quetzal,683747,NN6 0LD,52.270342943712100,-0.748992000000000
Buzzard and asp,791127,MK41 7TR,52.161381387903200,-0.454797001314673
Gila monster and elapid,1793379,MK42 7GE,52.110625903100000,-0.516981082600000
moloch and carpet snake,788885,MK43 9LQ,52.134426375537200,-0.475586431539319
Parakeet and Grackle,580577,PE19 5DT,52.269684887630700,-0.342449559534196
blue tongue and Prion,1793459,MK43 9FJ,52.095617305000000,-0.525025000000000
swift and garter snake,2594694,NN10 1BR,52.290895000000000,-0.598854000000000
Grosbeak and Badger,687054,NN29 7PE,52.224383000000000,-0.669481000000000
Fox and Peafowl,2655199,MK43 7AQ,52.166726000000000,-0.514893000000000
Zebra and Condor,580575,PE19 5DP,52.268568003664300,-0.343590379327549
caiman and diamond snake,788556,MK44 2TE,52.179594564510200,-0.455935613724961
Old World quail and Thicketbird,694621,NN10 9EP,52.287887952338300,-0.601310550541450
cayman and Kākāriki,792396,MK40 3DG,52.142491454174800,-0.454851708901201
monitor and Thrasher,788517,MK44 2QT,52.178014000000000,-0.441599000000000
Treepie and frill-necked lizard,2628332,MK40 1AY,52.134738000000000,-0.468030000000000
Night heron and Francolin,796474,MK16 9NH,52.109887250015100,-0.695000706775869
Logrunners and asp,789218,MK43 9DD,52.097938151683700,-0.535037582087738
mountain devil and Solitaire,788515,MK44 2QR,52.182774791143700,-0.416390845629219
viper and Puffleg,2643815,MK40 4UD,52.146404000000000,-0.502005000000000
Bronzewing pigeon and slowworm,789313,MK43 8AL,52.154142000000000,-0.648724446825733
Macaw and Black jay,789747,MK42 9NY,52.123700011354400,-0.466588942300138
Dolphin and diamond python,790210,MK42 9JW,52.126442902230800,-0.465939664963577
hognose snake and Cuscus,796536,MK16 8DR,52.086451000000000,-0.723182000000000
Tahr and loggerhead,788896,MK43 9ND,52.076147611906600,-0.510273253707709
lizard and Jerboa,2655161,MK40 4UQ,52.145466000000000,-0.504623000000000
Argus and Quetzal,686725,NN29 7TN,52.273154951838400,-0.709777894084430
worm lizard and Towhee,790073,MK42 9ET,52.130010000000000,-0.471924000000000
Triller and Cloud rat,791383,MK41 7JA,52.157486575380100,-0.465004197891817
puff adder and Kākāriki,791416,MK41 7NE,52.147744817833000,-0.472296220697510
fer-de-lance and Dorcopsis,792387,MK40 3BT,52.145266968537200,-0.454638724457431
Kangaroo and New World blackbird,789181,MK43 8UA,52.145708379236800,-0.581188000000000
diamond python and habu,789761,MK42 9PX,52.121379000000000,-0.472628000000000
Parakeet and Elephant,2655214,MK45 3GQ,52.079447000000000,-0.483129000000000
New World blackbird and monitor,790943,MK41 8NP,52.158145296025700,-0.445275160764566
Flameback and Buzzard,791087,MK41 9JB,52.147036123012400,-0.436059829025819
New World blackbird and hoop snake,2643867,MK45 3GP,52.079121000000000,-0.484395000000000
Elephant and Chipmunk,792245,MK40 2RT,52.140732000000000,-0.472306686764910
cobra and New World blackbird,789860,MK42 9TU,52.118093776228800,-0.465539836486943
Stilt and Songlark,786626,MK46 5DL,52.141299210076800,-0.706167868282465
Nukupuʻu and Philippine hawk-owl,791186,MK41 7YP,52.162840711385900,-0.452948133356068
tokay and adder,790717,MK42 6AY,52.093748000000000,-0.462981597016027
turtle and Boto,694873,NN10 0FS,52.285840995961400,-0.590218174691186
blind snake and tokay,789925,MK42 8SF,52.125182851363700,-0.498675938237585
alligator and Fish eagle,694267,NN10 9JL,52.282333537095300,-0.610618360742314
snake and Mockingbird,792720,MK40 2PR,52.139375765653100,-0.462748162996165
Darwin's finches and gopher snake,788979,MK44 1BJ,52.288742000000000,-0.490924000000000
Guillemot and Fox,789506,MK43 7DH,52.204173941307100,-0.603676999158382
Diving bird and king cobra,682918,NN7 1HG,52.198548238770300,-0.739710397029046
Skunk and turtle,790743,MK41 9QP,52.140488300947200,-0.437107000000000
agama and Booted eagles,681868,NN8 2AB,52.299307080108800,-0.700556308387700
Parrotbill and Old World warbler,786791,MK46 5PA,52.158671049399600,-0.707915536889195
asp and diamondback,788494,MK44 2PE,52.186160150655700,-0.405387164409881
tortoise and bushmaster,786963,MK46 4DT,52.162670624911300,-0.701235305718020
Wader and Logrunners,681568,NN8 2LS,52.289032806165300,-0.695050913349108
Hawaiian honeycreeper and tokay,791728,MK41 0BY,52.153198068174300,-0.425465548894269
Warbler and B,2230859,MK42 9EJ,52.124999000000000,-0.479341000000000
python and Linsang,786932,MK46 4AT,52.152730817707600,-0.699989791979155
Stint and Argus,788525,MK44 1EW,52.253108882405700,-0.473590000000000
gecko and Shearwater,790870,MK42 0EP,52.127437078693900,-0.458060540935406
bull snake and Black jay,790246,MK42 8JA,52.117077472916900,-0.489191813747513
Cloud rat and bicycle lizard,1793387,MK42 7GT,52.107711089000000,-0.513281168000000
blue tongue and Hawk,788775,MK44 2AT,52.279068451500500,-0.411553280619751
leguaan and blue racer,694900,NN10 0HU,52.290576402062100,-0.583220544312558
Kākāriki and Parakeet,791491,MK41 7RQ,52.146099191438400,-0.470525000000000
goanna and hoop snake,790556,MK42 0PP,52.126826971634000,-0.461602299539404
Stint and dukite,791855,MK41 0NJ,52.151710730930900,-0.421147563381296
Francolin and Snipe,790415,MK42 8RS,52.123583992145000,-0.500920804349013
Magpie and iguana,789208,MK43 9BJ,52.105828367766000,-0.525331726057669
gavial and sand lizard,790227,MK42 8HA,52.116397000000000,-0.494224000000000
thorny devil and loggerhead,790378,MK42 7EQ,52.116359226083100,-0.502667508840518
jew lizard and B,694749,NN10 6BQ,52.296007225826700,-0.625089234710493
chuckwalla and dugite,796729,MK16 0BN,52.080590932854500,-0.733447332284085
horned viper and Myna,681553,NN8 2JX,52.294330000000000,-0.701563731888839
Jackal and bearded lizard,790373,MK42 7EH,52.114721842571300,-0.502590926196028
cerastes and flying lizard,788876,MK43 9LB,52.102252140529600,-0.529114420443742
Linsang and Quetzal,789612,MK43 7JR,52.191999905205600,-0.604424187732366
gopher snake and bearded dragon,686950,NN29 7HG,52.280750448297300,-0.636790264584397
glass snake and Vole,789242,MK43 7QL,52.168067789237200,-0.553104020078805
water snake and New World blackbird,686727,NN29 7TQ,52.274551182008100,-0.707553483745815
Eagle and Ground sloth,792504,MK40 3NF,52.140092937333200,-0.460516901065977
hoop snake and Masked owl,686829,NN29 7DN,52.280527904703200,-0.655809716536894
bicycle lizard and Francolin,694686,NN10 0YG,52.284270025501200,-0.582160915139656
diamond python and tree snake,791536,MK41 0UE,52.144158000000000,-0.421751000000000
racer and Skunk,788555,MK44 2TB,52.238830468063900,-0.388151426997566
