name,postcode,lat,lon
garter snake and amphisbaena,MK14 5BU,52.077732812137200,-0.744472401545180
Kangaroo and racer,MK14 5FG,52.079723460236300,-0.749888886052550
Flameback and Puffleg,MK16 0BS,52.081751784786500,-0.731867558303493
Darwin's finches and hawksbill,MK16 0EP,52.085752501825200,-0.722676154638706
Coati and rat snake,MK16 0EW,52.085657739664800,-0.723058326145061
fer-de-lance and dugite,MK16 0HA,52.078242897942200,-0.707641391200810
cayman and Fulmarine petrel,MK16 0JD,52.080027000000000,-0.726716000000000
Prion and Crow,MK16 0JY,52.082825000000000,-0.729531000000000
python and Marsh harrier,MK16 0NQ,52.081903321896400,-0.726740903439728
viper and Polecat,MK16 0YZ,52.083086303070500,-0.723890597940475
Logrunners and smooth snake,MK16 6BQ,52.079928539500000,-0.704542874800000
fer-de-lance and Shearwater,MK16 6DU,52.079938000000000,-0.704522000000000
diamondback and bushmaster,MK16 8DS,52.083148682454900,-0.749005120562061
diamondback terrapin and pit viper,MK16 8EB,52.084804400512800,-0.745748030024831
Condor and Armadillo,MK16 8EE,52.091856000000000,-0.741624000000000
Francolin and racer,MK16 8JA,52.086752710706900,-0.737067657991465
Jerboa and blind snake,MK16 8JG,52.084025624227600,-0.735130617653301
Fulmarine petrel and Logrunners,MK16 8JZ,52.096966152704900,-0.722837667928434
saltwater crocodile and whip snake,MK16 8PT,52.089855652873200,-0.743052080092494
rattlesnake and fer-de-lance,MK16 8PU,52.089066971869200,-0.742446613852117
chuckwalla and Bronzewing pigeon,MK16 8PW,52.088628212128600,-0.741772944721728
dugite and Fox,MK16 8RF,52.089398425627200,-0.747399951612209
Pheasant and frill-necked lizard,MK16 8RN,52.089848930705800,-0.748336089740024
Dorcopsis and diamondback turtle,MK16 8RT,52.084222000316300,-0.745093015117047
blue tongue and Gila monster,MK16 8TH,52.092292000000000,-0.743805617647229
indigo snake and Myna,MK16 8TP,52.086203971194700,-0.748846720724568
bearded dragon and diamond snake,MK16 9AL,52.085637830514600,-0.716257693596025
Duck and brown snake,MK16 9BU,52.083750408100700,-0.717975587747783
carpet snake and Condor,MK16 9EY,52.083065000000000,-0.714408994855689
Hawaiian honeycreeper and asp,MK40 1AY,52.134738000000000,-0.468030000000000
Duck and B,MK40 1HS,52.136545433808400,-0.472975000000000
copperhead and Songlark,MK40 1SL,52.135889729403900,-0.466959000000000
Goose and Old World warbler,MK40 1SP,52.136163018439700,-0.466672430893891
water snake and Buzzard,MK40 2AS,52.143643053240100,-0.482608058241509
garter snake and Scimitar babbler,MK40 2AU,52.143335876944000,-0.484591398579302
Wader and Thicketbird,MK40 2BA,52.139468237149300,-0.482384616855356
Petrel and bicycle lizard,MK40 2DT,52.144333724652400,-0.481780790656139
horned toad and blind snake,MK40 2EE,52.142014183164200,-0.476349000000000
cerastes and worm lizard,MK40 2EY,52.143589009818400,-0.480678000000000
black snake and green turtle,MK40 2FB,52.141581349193400,-0.481483000000000
Gull and wall lizard,MK40 2FL,52.138808000000000,-0.463966000000000
Argus and Marsh harrier,MK40 2HR,52.144238588250100,-0.458503299994811
copperhead and White ibis,MK40 2JN,52.142452637392200,-0.472579613106347
puff adder and tree snake,MK40 2JR,52.145485417128700,-0.481843926046773
caiman and boomslang,MK40 2JY,52.144286732660700,-0.468410213481533
glass snake and Tree warbler,MK40 2LR,52.146918628158800,-0.460617660342559
Solitaire and amethystine python,MK40 2NG,52.146626524140600,-0.457529312825369
Black jay and Chicken,MK40 2PG,52.145615948706100,-0.456570420855750
Diving bird and Logrunners,MK40 2PL,52.141789144175600,-0.462343569028140
Partridge and Hawk,MK40 2PU,52.141092832723800,-0.461241000000000
Tattler and moloch,MK40 2QS,52.139860821965900,-0.481450658214727
Kestrel and Thrasher,MK40 2SR,52.138804000000000,-0.468496000000000
blue tongue and Kite,MK40 2SS,52.139133616523600,-0.468323949017268
skink and sand lizard,MK40 2SX,52.141492757402500,-0.469280575530588
king cobra and Partridge,MK40 2TA,52.141476697825000,-0.481951011625036
Thicketbird and gavial,MK40 2TX,52.140520510359700,-0.466420498511628
worm lizard and Rat,MK40 3AR,52.143679554962400,-0.447415782328465
Asiatic leopard and bandy-bandy,MK40 3BA,52.141165787451400,-0.447020955339588
cayman and Treepie,MK40 3DX,52.143754201000300,-0.452411265710928
Stilt and Quetzal,MK40 3JD,52.137444607978000,-0.463589091443588
Grosbeak and B,MK40 3NH,52.139442557402700,-0.461664513703938
Masked owl and Masked owl,MK40 3QB,52.138688317651300,-0.458300377631579
Eagle and Gila monster,MK40 3QZ,52.138475695628200,-0.454420786452610
Egret and bearded lizard,MK40 3RJ,52.136427887492100,-0.451846917739453
Logrunners and Chickadee,MK40 3RP,52.136384873507900,-0.463684000119562
Rat and sidewinder,MK40 3TL,52.143676999213100,-0.457499695164491
Fish eagle and Siskin,MK40 4BU,52.140663503500300,-0.489343710439450
Myna and Tahr,MK40 4BY,52.140281717596100,-0.486214818328588
Quetzal and Chicken,MK40 4ED,52.134845615662800,-0.483696003771869
Linsang and Booted eagles,MK40 4GJ,52.130431000000000,-0.509033000000000
Coati and copperhead,MK40 4JE,52.133578641257400,-0.480962952878110
Treepie and Myna,MK40 4NG,52.131898862710700,-0.498640129271530
Logrunners and Tattler,MK40 4NQ,52.132303041467300,-0.497194719721874
racer and Mockingbird,MK40 4QH,52.141622681528100,-0.506058315462833
Kestrel and whip snake,MK40 4ST,52.126454000000000,-0.508503000000000
galliwasp and Vole,MK40 9FJ,52.134440000000000,-0.475565000000000
ringhals and Skunk,MK41 0AT,52.152126145774300,-0.428689883503073
milk snake and Greenbul,MK41 0DD,52.149958852176500,-0.422598088608811
amethystine python and Petrel,MK41 0GJ,52.155454988897400,-0.420094146525456
coral snake and Hawk,MK41 0JE,52.149173973390800,-0.387824846062698
thorny devil and crocodile,MK41 0PB,52.155193569033500,-0.426096807028527
Macaw and Stilt,MK41 0PT,52.149136731322700,-0.422305589402731
Hawk and Komodo dragon,MK41 0RW,52.134526977263200,-0.433181183387321
sand lizard and Hawaiian honeycreeper,MK41 0RX,52.146614072162500,-0.419910158866519
Polecat and anole,MK41 0SN,52.139286661829000,-0.426000004233080
flying dragon and Cuscus,MK41 0UJ,52.137261923652700,-0.428570058614090
cobra de capello and boomslang,MK41 0UY,52.149950662495800,-0.409268261908640
Ground sloth and Cuscus,MK41 0WA,52.136556418137000,-0.428930960819317
Flameback and diamondback terrapin,MK41 0WN,52.150029017961700,-0.407540000000000
Viscacha and bull snake,MK41 6AN,52.164250363057100,-0.505095986284514
Vole and monitor,MK41 6AT,52.170475183342900,-0.505326045515547
Thicketbird and rattlesnake,MK41 6BD,52.168883481422800,-0.502469523802881
Dolphin and Piping shrike,MK41 6BY,52.163947857331900,-0.499681807361948
turtle and Quetzal,MK41 6DX,52.164805060751100,-0.493570605972316
Minke whale and Macaw,MK41 6FA,52.164038000000000,-0.502876000000000
Coati and Treepie,MK41 6HA,52.164513998117600,-0.486986362543563
snake and Macaw,MK41 7AB,52.157151297307600,-0.454973000000000
Duck and Scimitar babbler,MK41 7AU,52.159440605680800,-0.465070000000000
copperhead and flying dragon,MK41 7BT,52.156428381212900,-0.461766078152898
Black cockatoo and thorn lizard,MK41 7DB,52.159055773170900,-0.459848092752417
king snake and Warbler,MK41 7DT,52.154782509727300,-0.456224169140893
Parrotlet and saltwater crocodile,MK41 7DU,52.154287611634500,-0.458945564785592
Rat and Bronzewing pigeon,MK41 7FY,52.147088000000000,-0.485145000000000
death adder and Goose,MK41 7HL,52.154151000000000,-0.462190164480092
snapping turtle and Snipe,MK41 7HR,52.155645281599700,-0.465842296935373
adder and crocodile,MK41 7HZ,52.155227673801100,-0.469686568769992
turtle and Cloud rat,MK41 7LG,52.142872168720600,-0.475122699115581
Polecat and Prion,MK41 7LW,52.148962184462000,-0.478831723554562
Hawaiian honeycreeper and worm lizard,MK41 7LZ,52.146574364010800,-0.474952389893840
Egret and Magpie,MK41 7NX,52.149585776389400,-0.474206389499996
blue racer and agamid,MK41 7SA,52.143748164664500,-0.476115773868276
Bronzewing pigeon and bull snake,MK41 7UX,52.162417964880500,-0.454307867617868
alligator and Goose,MK41 7YF,52.164185857838100,-0.451307800717475
Coati and Moluccan boobook,MK41 8ES,52.151856237370000,-0.436797177045109
Mouse and goanna,MK41 8NP,52.158145296025700,-0.445275160764566
dugite and gopher snake,MK41 8PE,52.157241777473900,-0.438815939139908
Herring gull and indigo snake,MK41 8PQ,52.155121000000000,-0.431376000000000
Booted eagles and bushmaster,MK41 8QU,52.156826689777700,-0.436666913271751
Gull and Kite,MK41 8WE,52.134426375537200,-0.475586431539319
Francolin and Mouse,MK41 9AR,52.148857913871200,-0.445320976058102
Kestrel and leguaan,MK41 9BN,52.150843864206700,-0.443190859036471
viper and Parrotbill,MK41 9DB,52.150137000000000,-0.443391000000000
Duck and leathery turtle,MK41 9HQ,52.146980983439400,-0.429879466555635
smooth snake and Coati,MK41 9HS,52.147876528542600,-0.432990329737123
Civet and habu,MK41 9HU,52.146394564991500,-0.433787726643435
Pitohui and Dolphin,MK41 9NT,52.141722330511300,-0.436742838639321
Magpie and habu,MK41 9QZ,52.137908497860500,-0.442063753691056
Towhee and galliwasp,MK41 9RQ,52.137590378978500,-0.437048233136246
Snipe and Linsang,MK41 9SR,52.139825566151400,-0.434062003646648
Bronzewing pigeon and Coati,MK42 0AP,52.109375489000000,-0.441132000000000
krait and Greenbul,MK42 0AZ,52.120569303140400,-0.448584121677987
bull snake and Goose,MK42 0BE,52.131619345290500,-0.463672606012412
sea snake and Fish eagle,MK42 0BS,52.133197528672500,-0.462654004992495
fer-de-lance and mountain devil,MK42 0FS,52.108694512147600,-0.436540102324690
Greenbul and Cuscus,MK42 0GQ,52.120477000000000,-0.438742000000000
terrapin and carpet snake,MK42 0HX,52.126814639822000,-0.452413845610055
diamondback terrapin and Badger,MK42 0LA,52.115079000000000,-0.426801000000000
swift and agamid,MK42 0LH,52.120577000000000,-0.436124000000000
cayman and tree snake,MK42 0QL,52.107360771166200,-0.432249841851205
Kestrel and cerastes,MK42 0RD,52.117363273830200,-0.441378006798527
Ice seal and mamba,MK42 0RE,52.117684407498800,-0.445953009957882
Magpie and mamba,MK42 0RG,52.117818132600600,-0.444502386374850
flying dragon and boa,MK42 0RL,52.132116016736600,-0.465218837483201
gaboon viper and Puffleg,MK42 0TR,52.112319682106600,-0.432601645356406
box turtle and Minke whale,MK42 6AH,52.094321984077400,-0.460413000000000
bicycle lizard and Cloud rat,MK42 6BZ,52.090792000000000,-0.462454668692030
krait and black snake,MK42 6DL,52.088519101900000,-0.463839730300000
swift and Buzzard,MK42 6ER,52.083390000000000,-0.464052000000000
Logrunners and Marmoset,MK42 6FA,52.082996000000000,-0.461424000000000
Diving bird and Herring gull,MK42 7AR,52.114961154547000,-0.505006000000000
harlequin snake and soft-shelled turtle,MK42 7DJ,52.111191298199000,-0.514202174033395
Parrotlet and gopher snake,MK42 7EP,52.113952511745000,-0.500776544492824
horned viper and Diving bird,MK42 7EX,52.112484217685000,-0.500562925741137
Ground sloth and chuckwalla,MK42 7GA,52.108614000000000,-0.480487867300000
Jackal and iguana,MK42 7GQ,52.108993171600000,-0.513124000000000
Myna and garter snake,MK42 7HR,52.111248963636900,-0.505248291820181
amphisbaena and Stint,MK42 7JJ,52.113041393974300,-0.488568835777967
Lemming and loggerhead,MK42 7LX,52.114476725842200,-0.490418894960573
green turtle and Minke whale,MK42 7PA,52.114793514804200,-0.484274208741186
Songlark and coral snake,MK42 7PN,52.105733254676400,-0.497854413824215
Grouse and Kangaroo,MK42 7QQ,52.112520926584300,-0.496384959804183
Treepie and smooth snake,MK42 7RD,52.112540523447000,-0.489476617054825
sea snake and Cuscus,MK42 7RE,52.112136666193800,-0.488132107241911
Mole and habu,MK42 7SB,52.109298790246400,-0.492608971944401
Triller and ringhals,MK42 8AX,52.119988144057800,-0.493212410197754
bicycle lizard and Triller,MK42 8DS,52.120130377482000,-0.488869493133688
viper and gopher snake,MK42 8HE,52.115762732111700,-0.498890188731071
Fish eagle and Kite,MK42 8JX,52.114625845003900,-0.496460188435572
Marmoset and Condor,MK42 8NP,52.117189363650600,-0.483199770538633
Chipmunk and Philippine hawk-owl,MK42 8NX,52.119406638880100,-0.483621117195226
brown snake and bushmaster,MK42 8PE,52.118383603019900,-0.484473764865695
Thrasher and blindworm,MK42 8PP,52.117848000000000,-0.495242000000000
Myna and Lemming,MK42 8RS,52.123583992145000,-0.500920804349013
asp and Quetzal,MK42 8RU,52.125794448216400,-0.501518612233044
Skunk and asp,MK42 8SJ,52.123733474372200,-0.483079855622847
adder and grass snake,MK42 8SZ,52.126950095883500,-0.489909764454043
Old World warbler and dugite,MK42 8UA,52.124815383432100,-0.491019090948527
bearded lizard and kabaragoya,MK42 8UF,52.124089008830000,-0.493278612494596
Gull and Gila monster,MK42 8UG,52.126559533397000,-0.497344118399431
cerastes and king snake,MK42 8UT,52.123675845358300,-0.495425259176771
Black jay and sand viper,MK42 9AE,52.128295000000000,-0.475547000000000
lizard and diamondback,MK42 9AS,52.131571452320000,-0.468977774531422
death adder and bearded dragon,MK42 9BQ,52.117793000000000,-0.467618000000000
water snake and hognose snake,MK42 9DH,52.129696063613700,-0.474126208435588
Pheasant and Shearwater,MK42 9EA,52.126689641318300,-0.480832006199820
Nukupuʻu and diamond python,MK42 9ET,52.130010000000000,-0.471924000000000
Bronzewing pigeon and sidewinder,MK42 9FR,52.123898924669600,-0.468057496596639
Tattler and frill-necked lizard,MK42 9JA,52.124279955706600,-0.471784042731635
blind snake and Snipe,MK42 9JB,52.124318167426300,-0.470570282441334
Quetzal and Dolphin,MK42 9JH,52.125049684304300,-0.465972899196553
Cloud rat and saltwater crocodile,MK42 9LS,52.124183000000000,-0.464287294480506
rattlesnake and slowworm,MK42 9ND,52.122741576982800,-0.462035124951360
Magpie and slowworm,MK42 9NJ,52.126753621711900,-0.463562388807963
Hawk and elapid,MK42 9NR,52.119867233643000,-0.468473250001943
Chickadee and Nukupuʻu,MK42 9PS,52.121664931379300,-0.471201566686560
blue tongue and adder,MK42 9QS,52.116952574726800,-0.475992717217367
moloch and Quetzal,MK42 9QT,52.116595274902300,-0.475479110336039
indigo snake and Kangaroo,MK42 9QZ,52.116053088599800,-0.478053509232162
Mockingbird and diamond snake,MK42 9SD,52.121621218226000,-0.465068125611272
White ibis and Komodo dragon,MK42 9SG,52.121935716269800,-0.465743854814174
giant tortoise and Argus,MK42 9TA,52.120309450559800,-0.456875080380802
mamba and horned toad,MK42 9TB,52.119701574262800,-0.455084882045564
Kite and galliwasp,MK42 9TP,52.120446269964900,-0.460463584633858
anole and Greenbul,MK42 9UB,52.119125468994300,-0.464671855318679
puff adder and chameleon,MK42 9UJ,52.118409835110500,-0.459438301289841
dugite and White ibis,MK42 9UT,52.117323711501700,-0.459577985032631
Wallaby and bandy-bandy,MK42 9XA,52.115408873477300,-0.463046948155386
Parrotbill and Snipe,MK42 9XP,52.117852484967600,-0.469111927969965
leathery turtle and Philippine hawk-owl,MK42 9XQ,52.116072235503800,-0.474664459100780
puff adder and Chicken,MK43 0GL,52.134428340300000,-0.475586448600000
River dolphin and gavial,MK43 0HH,52.075918513007900,-0.595614469778529
Ground sloth and Dorcopsis,MK43 0SU,52.075802135508600,-0.628493442794897
Mole and crocodile,MK43 0WS,52.134428000000000,-0.475586000000000
mamba and hognose snake,MK43 0ZU,52.076755000000000,-0.627632000000000
blindworm and Masked owl,MK43 6AZ,52.134440000000000,-0.475565000000000
harlequin snake and boa,MK43 6BH,52.134440000000000,-0.475565000000000
puff adder and Booted eagles,MK43 7HA,52.206529425714300,-0.549250049437464
Rat and king cobra,MK43 7HJ,52.208553710287500,-0.553750349640982
king cobra and wall lizard,MK43 7HT,52.206430680374700,-0.531091625097246
Egret and Myna,MK43 7NT,52.188451856204600,-0.557606372512756
Partridge and iguana,MK43 7QW,52.163560459522800,-0.561700901683489
Triller and Guillemot,MK43 7QZ,52.166293881219800,-0.550690526560572
flying lizard and mamba,MK43 7RY,52.165080622174800,-0.516735845219867
cycling lizard and terrapin,MK43 7SW,52.171646842437500,-0.530599705733398
Night heron and chameleon,MK43 7SX,52.178538000000000,-0.551872000000000
Jay and Chipmunk,MK43 7TH,52.167811000000000,-0.522850496241332
Buzzard and Buzzard,MK43 8AS,52.153840245683300,-0.653810933275557
dukite and River dolphin,MK43 8BF,52.158966560978100,-0.601378861188262
boa and Songlark,MK43 8GQ,52.152705949922500,-0.548310724822675
Mink and Ibex,MK43 8JE,52.148397977900500,-0.530064354859645
caiman and deaf adder,MK43 8LN,52.147209077877600,-0.529898890974200
deaf adder and anaconda,MK43 8LZ,52.144384924486900,-0.539958866164415
chuckwalla and brown snake,MK43 8PL,52.146336493911600,-0.530585301068155
Snipe and Black cockatoo,MK43 8QW,52.143132788985900,-0.531801404492636
Tattler and Thrasher,MK43 8RL,52.115332504636100,-0.528961442751082
Piping shrike and giant tortoise,MK43 8RU,52.125962891520800,-0.539302000000000
python and Viscacha,MK43 8SG,52.129656168612100,-0.566985777341050
box turtle and alligator,MK43 8SU,52.120545884585600,-0.592181984515110
Kākāriki and Bunting,MK43 8SX,52.118934639208500,-0.590523854579117
Greenbul and giant tortoise,MK43 8TA,52.121589941257700,-0.569114163817814
mud turtle and Black cockatoo,MK43 8TG,52.146567032611800,-0.539010595344978
gavial and amethystine python,MK43 8TJ,52.146253351531200,-0.541271561663827
deaf adder and diamond python,MK43 9AN,52.105488526588000,-0.560401369318522
tortoise and black snake,MK43 9BL,52.111311958717100,-0.526684186019344
Booted eagles and Goose,MK43 9BS,52.110421000000000,-0.523663343089106
Jackal and Tree warbler,MK43 9DT,52.099391948333300,-0.530478671768102
mountain devil and Goose,MK43 9LH,52.098753242371200,-0.529010520685660
rock snake and king cobra,MK43 9RR,52.092074000000000,-0.522363000000000
viper and snake,MK44 1BL,52.284406564797700,-0.469916575544124
bull snake and Marmoset,MK44 1DA,52.258273412197300,-0.500354226451582
American sparrow and gecko,MK44 1DJ,52.256423542872600,-0.470396250992734
soft-shelled turtle and horned toad,MK44 1DN,52.253893592723200,-0.476387398135085
bearded dragon and hognose snake,MK44 1DT,52.252604438741100,-0.477515667338751
Francolin and Black cockatoo,MK44 1DY,52.251951000000000,-0.481801000000000
Parakeet and Rat,MK44 1EA,52.251771142051500,-0.482627644043786
sidewinder and Dorcopsis,MK44 1EX,52.243177264421300,-0.557341227708305
alligator and Fulmarine petrel,MK44 1FB,52.254155043894700,-0.471573075345981
Meadowlark and Siskin,MK44 1FF,52.222735000000000,-0.531256000000000
cobra and coral snake,MK44 1JA,52.226551725646700,-0.548451149352762
Rabbit and Thrasher,MK44 1LQ,52.231546423585600,-0.563531523857740
bearded lizard and Vulture,MK44 1LX,52.231873226055600,-0.534527762704285
saltwater crocodile and Mouse,MK44 1RB,52.194226292907000,-0.510908000000000
Badger and Darwin's finches,MK44 1RR,52.191957357140300,-0.509770066994207
Bunting and alligator,MK44 1SJ,52.254087630453700,-0.475399167674360
Scimitar babbler and carpet snake,MK44 2AZ,52.269900402570200,-0.414445769352553
crocodile and deaf adder,MK44 2BA,52.269754834952800,-0.412311223414594
Asiatic leopard and Grackle,MK44 2DT,52.215504654898300,-0.457940279718194
Chickadee and Herring gull,MK44 2DY,52.215079960739400,-0.456403394913268
frill-necked lizard and tuatara,MK44 2DZ,52.217091323418400,-0.454825918407227
worm lizard and Argus,MK44 2HN,52.251703986156900,-0.423298532723439
Boto and jew lizard,MK44 2HU,52.249266012720000,-0.446251989683350
swift and Komodo dragon,MK44 2JN,52.215546626005300,-0.378557576322959
sea snake and diamondback terrapin,MK44 2JY,52.211267563442200,-0.387144027629612
Myna and Tattler,MK44 2ND,52.213570639237300,-0.361781972919581
Zebra and coral snake,MK44 2NJ,52.201415599418200,-0.391276120306120
Tit-tyrant and caiman,MK44 2NR,52.203339776719300,-0.374875162403273
chuckwalla and diamondback,MK44 2PF,52.185881000000000,-0.404622000000000
Kākāriki and ringhals,MK44 2QL,52.185599945307900,-0.376180277083918
thorny devil and flying dragon,MK44 2RF,52.173682084814700,-0.435067029355967
Pitohui and Parrotlet,MK44 2RG,52.177176898392400,-0.442330123854393
frill-necked lizard and sidewinder,MK44 2SP,52.275146000000000,-0.413936000000000
Jay and garter snake,MK44 3DD,52.117775363398500,-0.415628210387433
Herring gull and sand lizard,MK44 3DT,52.128957000000000,-0.419264000000000
python and blind snake,MK44 3HA,52.159202517601000,-0.354631000000000
Grosbeak and adder,MK44 3JA,52.156723841352700,-0.353768370173421
fer-de-lance and python,MK44 3LA,52.157675218262900,-0.349142902668828
rat snake and Ground sloth,MK44 3LG,52.152015129695000,-0.346253449240183
swift and Stilt,MK44 3PT,52.134656000000000,-0.379421000000000
Rat and Mockingbird,MK44 3QR,52.139588418020000,-0.366207599532246
king cobra and Civet,MK44 3SD,52.132828210364600,-0.417066700885638
Thrasher and skink,MK45 2FA,52.134428000000000,-0.475586000000000
Moluccan boobook and Ground sloth,MK45 3AT,52.093275416063300,-0.413737289269758
chuckwalla and Cloud rat,MK45 3DR,52.085963184274700,-0.425643729462961
copperhead and tree snake,MK45 3EY,52.077872040309300,-0.450152373267532
diamondback turtle and carpet snake,MK45 3FJ,52.082633036400000,-0.450352399200000
bushmaster and skink,MK45 3GR,52.079704000000000,-0.482872000000000
Egret and Polecat,MK45 3JE,52.095591205348400,-0.484516349588029
Logrunners and mamba,MK46 4BA,52.152993914560500,-0.701019928961507
Pitohui and king cobra,MK46 4BB,52.154179000000000,-0.701544599910972
bearded lizard and constrictor,MK46 4BS,52.158890914389700,-0.700102715547020
New World blackbird and Logrunners,MK46 4DT,52.162670624911300,-0.701235305718020
box turtle and rat snake,MK46 4EN,52.173550000000000,-0.665438000000000
rat snake and Scimitar babbler,MK46 4HW,52.188328000000000,-0.699201000000000
Partridge and jew lizard,MK46 4JL,52.153269751432700,-0.699126308924888
carpet snake and blindworm,MK46 5BY,52.140180172819600,-0.706609447781668
Nukupuʻu and Cloud rat,MK46 5DG,52.159659907394500,-0.707901522913498
horned toad and dugite,MK46 5DU,52.159644622941300,-0.708969157646078
leguaan and racer,MK46 5HS,52.153251721973600,-0.703204973513812
gopher snake and Darwin's finches,MK46 5JG,52.129962225938000,-0.702142669596154
anaconda and Chickadee,MK46 5PD,52.158560572726600,-0.709322132356957
mamba and dugite,MK46 5PE,52.158652085779300,-0.708647023253111
rat snake and horned viper,NN10 0AD,52.291588765527900,-0.596472618926672
moloch and Zebra,NN10 0AF,52.290685000000000,-0.596750000000000
Myna and Snipe,NN10 0DA,52.294126856345600,-0.592917147962026
Zebra and kabaragoya,NN10 0GP,52.286345962640700,-0.582079987804112
anole and turtle,NN10 0GY,52.299107607600000,-0.584444245400000
Grouse and Buzzard,NN10 0HJ,52.288644317200600,-0.586302489330969
Kangaroo and New World blackbird,NN10 0RX,52.286075044344600,-0.584229120852807
krait and Triller,NN10 0RZ,52.291158672399100,-0.582292891031322
cycling lizard and Black cockatoo,NN10 0SE,52.263517000000000,-0.573665000000000
B and Marsh harrier,NN10 0UT,52.297758000000000,-0.588168000000000
Grackle and ringhals,NN10 0WR,52.293954839246800,-0.577804580163086
milk snake and Lemming,NN10 0XJ,52.277372943701000,-0.597889151022351
Pitohui and worm lizard,NN10 0YH,52.283488816284400,-0.582244490179267
copperhead and Flameback,NN10 1AN,52.290882124500000,-0.598870356100000
hoop snake and cobra,NN10 1BX,52.290895000000000,-0.598854000000000
iguana and Hawaiian honeycreeper,NN10 6AY,52.297357000000000,-0.622730000000000
Songlark and leguaan,NN10 6DD,52.297951791307300,-0.598529848443984
Skunk and adder,NN10 6US,52.295346415368800,-0.607058480951372
loggerhead and Argus,NN10 9AF,52.292078722892700,-0.600636034644773
bull snake and Grouse,NN10 9FP,52.283791000000000,-0.596454000000000
Booted eagles and sand viper,NN10 9GF,52.287467582620100,-0.606821768443771
carpet snake and Pratincole,NN10 9JP,52.284896000000000,-0.594573000000000
king snake and diamondback terrapin,NN10 9LY,52.285216589984000,-0.596673975352813
black snake and Tree warbler,NN10 9NB,52.281033302700500,-0.609383679690826
Darwin's finches and Old World quail,NN10 9NY,52.285888988766100,-0.610961631894803
rock snake and diamondback turtle,NN10 9NZ,52.287314245842700,-0.609832128729040
boa constrictor and garter snake,NN10 9PH,52.282878076809000,-0.612580395980920
Towhee and whip snake,NN10 9PT,52.268145308805000,-0.601433659112695
king snake and Crow,NN10 9QG,52.288825911265300,-0.613758137471272
cobra and Logrunners,NN10 9QN,52.287716161865700,-0.615728072074983
black snake and coral snake,NN10 9RE,52.290313512436200,-0.614107582986237
Chickadee and anaconda,NN10 9TX,52.292102000000000,-0.607178576966498
cayman and anole,NN10 9XB,52.293727251091100,-0.609279447712958
Boto and Kangaroo,NN10 9XG,52.290957823721300,-0.614615322918182
Perching duck and viper,NN10 9YH,52.288346085316600,-0.604316406551976
krait and Recurvebill,NN29 7AG,52.289055828114300,-0.645761000000000
Ibex and cobra de capello,NN29 7DY,52.280107223592500,-0.646528780045014
Armadillo and Egret,NN29 7FA,52.280478145864200,-0.644377279303245
Francolin and Songlark,NN29 7FG,52.247503000000000,-0.669463000000000
diamond snake and cycling lizard,NN29 7FH,52.247503000000000,-0.669463000000000
Wader and tiger snake,NN29 7HR,52.253302000000000,-0.620426700955101
Herring gull and Dolphin,NN29 7HU,52.251478832624300,-0.623858685483776
diamondback and Stint,NN29 7ND,52.223188622703700,-0.674524066890284
dukite and Buzzard,NN29 7QR,52.252647190909300,-0.669309933630821
Mamo and viper,NN29 7QT,52.253759957173600,-0.671518095275689
Civet and Condor,NN29 7QZ,52.254305416777500,-0.669655870322384
Armadillo and alligator,NN29 7RA,52.253682423154300,-0.668152000000000
elapid and Minke whale,NN29 7TB,52.268413021522100,-0.720173924385567
New World blackbird and Treepie,NN29 7UU,52.275698596830100,-0.705481000000000
Old World warbler and sidewinder,NN6 0JE,52.272226709044200,-0.747998541852905
frill-necked lizard and Armadillo,NN6 0NR,52.257770159068000,-0.732054805474051
Chipmunk and fer-de-lance,NN6 0PG,52.266353020853300,-0.742668696229525
blind snake and Myna,NN7 1HB,52.202829440342400,-0.738169877565322
lizard and Pitohui,NN8 1NU,52.298536490458800,-0.686163362758997
Zebra and soft-shelled turtle,NN8 2AA,52.299560631820000,-0.699903621623106
Schneider python and puff adder,NN8 2AB,52.299307080108800,-0.700556308387700
deaf adder and Kite,NN8 2BN,52.296985944651400,-0.707795068726087
Polecat and Pratincole,NN8 2BT,52.299287404548700,-0.689822070539998
python and milk snake,NN8 2LT,52.288718067083100,-0.695045499206003
Mole and rock python,NN8 2PL,52.288804132314300,-0.699588060237538
B and bushmaster,NN8 2PN,52.287159288644800,-0.698815199421499
Argus and Nukupuʻu,NN8 2PS,52.288243296259700,-0.701730382204203
hognose snake and flying dragon,NN8 2PT,52.289562067917000,-0.700828000000000
Pheasant and Mink,NN8 2PX,52.284672000000000,-0.708798000000000
habu and python,NN8 2QW,52.288375123193000,-0.692489822647163
Diving bird and water snake,NN8 3EQ,52.298909008781900,-0.720922838101029
Jackal and tree snake,NN8 3HX,52.299417020781500,-0.708120269577708
sea snake and taipan,NN8 3JB,52.298863900977100,-0.710160118223007
Vole and habu,NN8 3JY,52.298147484169700,-0.712893890152019
Ibex and Night heron,NN8 3NL,52.299026916388300,-0.718529058621789
Old World vulture and hawksbill,NN8 3SE,52.298649972318300,-0.719419826292476
box turtle and water snake,PE19 5DU,52.270426928466700,-0.345353100590557
hawksbill and garter snake,PE19 5DX,52.269144111798100,-0.342997334481537
black snake and Prion,PE19 5EJ,52.290019428558800,-0.377804461917427
Herring gull and Stint,SG18 9AN,52.106466199443700,-0.338053345941654
