name,postcode,lat,lon
American sparrow and diamondback,MK14 5AE,52.079017579712000,-0.747763483926052
sea snake and galliwasp,MK14 5BN,52.076476051662500,-0.742129187921518
diamondback terrapin and Chicken,MK14 5FL,52.079849007977700,-0.748163414158123
B and White ibis,MK16 0AN,52.082924274117200,-0.730535468514228
Eagle and Schneider python,MK16 0BP,52.081096418667800,-0.731959097088646
taipan and frill-necked lizard,MK16 0BX,52.083505458410300,-0.726067766274657
Stilt and mud turtle,MK16 0EP,52.085752501825200,-0.722676154638706
turtle and Black jay,MK16 0FL,52.084530407500000,-0.722521416200000
racer and Philippine hawk-owl,MK16 0HN,52.075376000000000,-0.678468000000000
thorny devil and harlequin snake,MK16 0JW,52.083921407485400,-0.728785054351535
cayman and Ground sloth,MK16 0NP,52.077479013854300,-0.731682193328755
sand lizard and anaconda,MK16 0PP,52.081097781659500,-0.729580341655750
racer and Recurvebill,MK16 6BW,52.079928539500000,-0.704542874800000
Jay and skink,MK16 8ET,52.087452085910400,-0.722700608727066
rock snake and puff adder,MK16 8FA,52.085788389900000,-0.734263000000000
Asiatic leopard and Logrunners,MK16 8HA,52.086595214811100,-0.728271230776233
Solitaire and Moluccan boobook,MK16 8HG,52.086561425846400,-0.721645000000000
Gila monster and Bronzewing pigeon,MK16 8JB,52.085943205761400,-0.737878633994957
mamba and leguaan,MK16 8JE,52.084421597254400,-0.732652964547253
cobra and Elephant,MK16 8PQ,52.087477443818500,-0.740097643929720
Crow and Chickadee,MK16 8RN,52.089848930705800,-0.748336089740024
Warbler and diamondback,MK16 8TD,52.092143865819200,-0.744316105391001
frilled lizard and Condor,MK16 9AB,52.085262082915300,-0.718910120852303
Tahr and Parakeet,MK16 9DE,52.082328000000000,-0.719388000000000
Magpie and Diving bird,MK16 9DH,52.082537937414500,-0.718097888812184
rock snake and Viscacha,MK16 9DQ,52.083408745689300,-0.718802647873384
Wader and Treepie,MK16 9DU,52.081240729890500,-0.715391486230020
Pheasant and Dolphin,MK16 9FL,52.082255000000000,-0.708425000000000
hognose snake and blindworm,MK16 9HG,52.082243000000000,-0.691181000000000
wall lizard and Kestrel,MK16 9JX,52.122854072653800,-0.615509957260801
chameleon and Shearwater,MK40 1AQ,52.138313079483200,-0.480655773274088
Guillemot and Chickadee,MK40 1AS,52.134670000000000,-0.469069000000000
agama and sea snake,MK40 1BP,52.138475528289400,-0.467498997620874
sand viper and saltwater crocodile,MK40 1BS,52.138731156987000,-0.467797088602203
hoop snake and rat snake,MK40 1DN,52.135319327723100,-0.475688000000000
Dorcopsis and Hawk,MK40 1DY,52.136754541874700,-0.478327057508149
glass snake and Black jay,MK40 1JH,52.138825318956000,-0.475757733376154
Jackal and pit viper,MK40 1LB,52.137503813019000,-0.468832831647559
River dolphin and cobra de capello,MK40 1LD,52.138008190530100,-0.467515036830123
boa constrictor and gopher snake,MK40 1NP,52.137592000000000,-0.469268000000000
Tree warbler and Tree warbler,MK40 1NT,52.137272249425400,-0.466926584868803
Masked owl and Wallaby,MK40 1QX,52.135114662021500,-0.472494543136416
Pheasant and Jerboa,MK40 1SQ,52.135027833294000,-0.466958000000000
boa and viper,MK40 1ZJ,52.134426375537200,-0.475586431539319
Badger and Nukupuʻu,MK40 2AS,52.143643053240100,-0.482608058241509
agamid and iguana,MK40 2DD,52.143073909989800,-0.480303777675339
boomslang and Hawk,MK40 2DH,52.143992685978300,-0.480562000000000
Gull and Prion,MK40 2FN,52.141585000000000,-0.476066000000000
Darwin's finches and Myna,MK40 2LG,52.145481000000000,-0.464029000000000
Badger and Partridge,MK40 2LY,52.144934040347900,-0.458742349300652
Thrasher and anaconda,MK40 2LZ,52.145830264378000,-0.459208313910171
racer and Zebra,MK40 2NQ,52.147074552350800,-0.456869000000000
chuckwalla and Rabbit,MK40 2NZ,52.142998887794500,-0.459963663233290
diamond python and Buzzard,MK40 2PE,52.145599689500200,-0.457389415154819
mamba and thorny devil,MK40 2PS,52.143876220834000,-0.458983469626594
Petrel and boomslang,MK40 2QG,52.139186271732300,-0.473976000000000
Tahr and gecko,MK40 2RY,52.140982784137100,-0.473638216542915
Dorcopsis and gavial,MK40 2SA,52.141615296627400,-0.473879636316682
Capuchin and gecko,MK40 2ZR,52.134426375537200,-0.475586431539319
lizard and indigo snake,MK40 3EB,52.140518569109000,-0.447599000000000
Rat and Meadowlark,MK40 3JA,52.137768419802800,-0.462219007360716
Parrotbill and terrapin,MK40 3JG,52.138793688911400,-0.462928941476429
Ice seal and garter snake,MK40 3NF,52.140092937333200,-0.460516901065977
jew lizard and bushmaster,MK40 3PJ,52.136780841213900,-0.460952552097883
Peafowl and indigo snake,MK40 3PW,52.135581232021600,-0.457910853391466
Vulture and sea snake,MK40 3QF,52.132947000000000,-0.453692000000000
Siskin and Fox,MK40 3QJ,52.138552954752100,-0.456887633876553
Jackal and black snake,MK40 3RE,52.136280316228800,-0.453620063507769
python and Argus,MK40 3UN,52.139666000000000,-0.445707992645384
Schneider python and Black cockatoo,MK40 3US,52.135600738739500,-0.465361000000000
garter snake and Triller,MK40 4AY,52.139187626568700,-0.500513905109441
sand viper and sand viper,MK40 4EG,52.134289362909200,-0.484489279026706
copperhead and diamond snake,MK40 4FS,52.130129000000000,-0.509306000000000
Capuchin and Chicken,MK40 4LR,52.133477070222800,-0.482851207088625
swift and Triller,MK40 4LZ,52.131448154925500,-0.493614774035645
Gila monster and elapid,MK40 4NW,52.130892943194000,-0.487468084191015
bearded lizard and dukite,MK40 4TU,52.124000000000000,-0.513580000000000
turtle and flying lizard,MK41 0AH,52.144632734472700,-0.431116612342336
tree snake and deaf adder,MK41 0AS,52.150551265878600,-0.428584547386633
soft-shelled turtle and amethystine python,MK41 0DE,52.154550443075100,-0.429788567954766
Recurvebill and diamondback turtle,MK41 0DH,52.154011290621400,-0.428462713472564
bicycle lizard and Cloud rat,MK41 0DX,52.144800000000000,-0.421962000000000
tiger snake and Goose,MK41 0EN,52.146984916260600,-0.422089337932402
Greenbul and perentie,MK41 0GJ,52.155454988897400,-0.420094146525456
Chipmunk and Capuchin,MK41 0JT,52.161863551888600,-0.424633410381343
agamid and king cobra,MK41 0NW,52.153390342851900,-0.422359861739763
Marsh harrier and Fulmarine petrel,MK41 0PU,52.152393113565600,-0.426458679439235
cycling lizard and bearded dragon,MK41 0PX,52.153399080340800,-0.426379357309626
indigo snake and agama,MK41 0SA,52.137163153327100,-0.426557058192784
Condor and Triller,MK41 0SP,52.139646318243800,-0.426674134760666
Black cockatoo and Snipe,MK41 0SW,52.139365418426000,-0.425164294224741
Grackle and Thicketbird,MK41 0TL,52.153544998159700,-0.418466132661050
Viscacha and Mockingbird,MK41 0TN,52.153595169685200,-0.417514214136817
rat snake and Gila monster,MK41 5BP,52.134440000000000,-0.475565000000000
wall lizard and python,MK41 6AL,52.162610583756000,-0.503411109573410
Piping shrike and Grouse,MK41 6AQ,52.161219415777600,-0.497946070608651
Towhee and Skunk,MK41 6BL,52.184713000000000,-0.490777000000000
diamond snake and Ibex,MK41 6BQ,52.167403720087800,-0.502767776038726
Flameback and flying dragon,MK41 6DB,52.166687142104500,-0.499590000000000
Snipe and terrapin,MK41 6EN,52.150439967020100,-0.483970182396796
Philippine hawk-owl and horned toad,MK41 6ER,52.162574058511300,-0.487856274296975
Guillemot and Philippine hawk-owl,MK41 6GD,52.170103165337300,-0.506479091567799
Ibex and slowworm,MK41 6GF,52.168315493773500,-0.507313927400766
milk snake and indigo snake,MK41 6HA,52.164513998117600,-0.486986362543563
Triller and Perching duck,MK41 6HJ,52.169741373029000,-0.504180820927214
Egret and rattlesnake,MK41 6HP,52.169110310851800,-0.504757638763674
brown snake and glass snake,MK41 7BH,52.159134674881800,-0.461760495988339
jew lizard and coral snake,MK41 7DP,52.143071509373200,-0.474545944445849
Egret and mountain devil,MK41 7DU,52.154287611634500,-0.458945564785592
bearded dragon and Coati,MK41 7EL,52.160163540935900,-0.456549676122475
New World blackbird and Kangaroo,MK41 7EP,52.158910878857500,-0.457016965710671
Darwin's finches and Pitohui,MK41 7FD,52.168814000000000,-0.459248000000000
agamid and viper,MK41 7FX,52.169194000000000,-0.464265000000000
box turtle and bearded lizard,MK41 7HN,52.154582313064900,-0.462926046302298
Kangaroo and Pitohui,MK41 7JE,52.158440552157800,-0.465073713183991
chuckwalla and mamba,MK41 7JN,52.150694483145600,-0.456453272167580
indigo snake and bearded lizard,MK41 7LJ,52.146549556298200,-0.475815530672315
glass snake and Chicken,MK41 7LW,52.148962184462000,-0.478831723554562
Recurvebill and chuckwalla,MK41 7LY,52.147487873492400,-0.473284249757164
Dorcopsis and Boto,MK41 7NT,52.148030478124700,-0.481187358193792
agamid and pit viper,MK41 7QG,52.154149673930400,-0.466990035999275
Magpie and python,MK41 7RE,52.144391694825700,-0.470262646756374
Songlark and bearded dragon,MK41 7RF,52.145254093414000,-0.470203865404089
swift and whip snake,MK41 7TH,52.143420139452300,-0.471611208368240
leguaan and python,MK41 7YG,52.166599888450600,-0.455756731460215
Tattler and Pitohui,MK41 7YW,52.164120951014500,-0.458021062484052
Night heron and terrapin,MK41 7YZ,52.163999534171500,-0.455469000000000
cycling lizard and diamondback turtle,MK41 8AN,52.167941510003900,-0.447682700714918
Mouse and bull snake,MK41 8AS,52.157438229912300,-0.448252785739276
Old World warbler and goanna,MK41 8AT,52.157573700393400,-0.449666097885303
Cuscus and Marsh harrier,MK41 8BN,52.153583851654300,-0.451207985520700
snapping turtle and Guillemot,MK41 8DJ,52.156561825803100,-0.445198765841927
Philippine hawk-owl and Songlark,MK41 8EJ,52.148907519777000,-0.438186655287885
Hawaiian honeycreeper and Komodo dragon,MK41 8HF,52.154431307360900,-0.441823200498145
White ibis and pit viper,MK41 8HP,52.151083957473500,-0.430100545803647
blind snake and indigo snake,MK41 8HU,52.150070555522100,-0.430296971211761
gavial and Boto,MK41 8JE,52.152525839511000,-0.434405742453237
gecko and Maya,MK41 8JY,52.155510449053100,-0.437836000000000
Kestrel and Warbler,MK41 8LE,52.154564941577000,-0.434261116723383
Marsh harrier and box turtle,MK41 8PQ,52.155121000000000,-0.431376000000000
Mink and chameleon,MK41 9BT,52.148183049753400,-0.439834351381587
bushmaster and hognose snake,MK41 9BU,52.146509475373600,-0.442465117573688
thorny devil and boa constrictor,MK41 9DE,52.149270031227300,-0.443845013145401
gaboon viper and Grosbeak,MK41 9EE,52.148004157412300,-0.451503906074149
chuckwalla and cobra de capello,MK41 9EL,52.145935031226000,-0.445948913651790
Mink and boomslang,MK41 9HW,52.147461812871800,-0.429526396402180
bearded lizard and mamba,MK41 9NH,52.141621473286600,-0.439990586697047
Piping shrike and Parrotbill,MK41 9PD,52.141154786076600,-0.436660416359656
Chipmunk and Prion,MK41 9QT,52.139161893256700,-0.440295713106623
Tit-tyrant and grass snake,MK41 9RR,52.136396429887800,-0.433802348856734
bicycle lizard and Dorcopsis,MK41 9SF,52.140834770447300,-0.432872154097598
Kākāriki and loggerhead,MK41 9TH,52.141723580567100,-0.432095660963576
Hawaiian honeycreeper and slowworm,MK41 9TW,52.138413851819200,-0.431349741563755
Cloud rat and tortoise,MK42 0BG,52.129711735246500,-0.451188524882994
carpet snake and Rabbit,MK42 0FQ,52.134440000000000,-0.475565000000000
garter snake and Buzzard,MK42 0FY,52.112412480500000,-0.429445000000000
swift and turtle,MK42 0GJ,52.113770121900000,-0.429294056900000
taipan and hognose snake,MK42 0HG,52.122561458884000,-0.439429179584554
giant tortoise and Prion,MK42 0HJ,52.123268710725200,-0.452843437824401
Old World quail and indigo snake,MK42 0JF,52.126169647513800,-0.451910284241975
Marmoset and Ice seal,MK42 0JL,52.127340586701700,-0.450014374879351
Hawk and Mink,MK42 0JT,52.110056000000000,-0.428365000000000
harlequin snake and American sparrow,MK42 0QS,52.122621455864600,-0.457657059909742
Dolphin and diamondback terrapin,MK42 0TU,52.108896674149500,-0.433481027705564
Tattler and rat snake,MK42 0YG,52.121352000000000,-0.455108000000000
Jerboa and Shearwater,MK42 5TP,52.132759190700000,-0.470281320600000
king snake and carpet snake,MK42 6AQ,52.089614164800000,-0.461627238800000
soft-shelled turtle and Siskin,MK42 6BA,52.088775000000000,-0.464867000000000
Chickadee and rat snake,MK42 6BG,52.092555739900000,-0.464268000000000
boomslang and leguaan,MK42 6BT,52.092315000000000,-0.461943000000000
Piping shrike and hognose snake,MK42 6DF,52.095852460900000,-0.462186379100000
blind snake and Macaw,MK42 6EL,52.084379000000000,-0.461347000000000
elapid and Ground sloth,MK42 7AS,52.115386340908900,-0.505358196099322
galliwasp and Treepie,MK42 7EF,52.108166000000000,-0.494662000000000
Peafowl and Wallaby,MK42 7FE,52.117346922800000,-0.507366693400000
Nukupuʻu and Elephant,MK42 7FF,52.113935517500000,-0.512051810300000
Argus and saltwater crocodile,MK42 7GA,52.108614000000000,-0.480487867300000
leguaan and Cuscus,MK42 7GB,52.110639039900000,-0.480589093900000
Old World warbler and Tahr,MK42 7GY,52.106031558900000,-0.506662000000000
water snake and bull snake,MK42 7GZ,52.105996000000000,-0.505015000000000
Grouse and alligator,MK42 7JD,52.113050906393000,-0.490715324762053
sea snake and Kākāriki,MK42 7LH,52.115707092512500,-0.488201185777524
lizard and bearded lizard,MK42 7NE,52.109315000000000,-0.513382000000000
diamondback and whip snake,MK42 7PP,52.113818990933400,-0.486804614104906
Pheasant and horned viper,MK42 7PS,52.113861471659800,-0.485211293441037
mountain devil and Francolin,MK42 7QG,52.112413581419000,-0.497133371738408
anaconda and sand viper,MK42 7RT,52.110102895581800,-0.487295499996957
cobra and anaconda,MK42 7SX,52.110540468379200,-0.487061641182963
blue racer and Bunting,MK42 7TH,52.110096927222300,-0.496670946599376
Armadillo and racer,MK42 7UH,52.108390206138400,-0.494463000000000
Nukupuʻu and lizard,MK42 8HT,52.116654063005300,-0.491937325303311
chameleon and Duck,MK42 8LX,52.120216453956100,-0.480175711170408
Marmoset and Dorcopsis,MK42 8PJ,52.121030239660000,-0.486823325665924
anole and Rat,MK42 8RJ,52.122273946457700,-0.500042000000000
Jay and rattlesnake,MK42 8SE,52.125509372464100,-0.498898696467450
Skunk and Rat,MK42 8TF,52.121958425720100,-0.482088412116387
Mamo and Chickadee,MK42 8TS,52.125921470588300,-0.493844967655731
Badger and leathery turtle,MK42 9AU,52.130941773838100,-0.468955528859870
Hawk and Warbler,MK42 9BE,52.130240000000000,-0.467475000000000
Jackal and Warbler,MK42 9DR,52.126824358550200,-0.475246909775591
agamid and galliwasp,MK42 9EZ,52.130388000000000,-0.465575447010083
mountain devil and frill-necked lizard,MK42 9FL,52.122439229815100,-0.469203092218565
Elephant and Skunk,MK42 9GD,52.113871702040500,-0.457564717468625
Maya and goanna,MK42 9GJ,52.114089664154200,-0.452241138123478
smooth snake and loggerhead,MK42 9HJ,52.126750587225700,-0.469552049122459
Skunk and Parrotbill,MK42 9HW,52.121358000000000,-0.458657915512699
copperhead and Kākāriki,MK42 9JQ,52.125277911745600,-0.466929202814876
bearded lizard and Chickadee,MK42 9NE,52.126340159892300,-0.464263210976473
fer-de-lance and brown snake,MK42 9PA,52.119891085771600,-0.468925231640026
Herring gull and giant tortoise,MK42 9PR,52.122446734599500,-0.471861356115695
Viscacha and Magpie,MK42 9QA,52.120043229650700,-0.473725547223310
horned toad and Capuchin,MK42 9QG,52.120423000000000,-0.475202000000000
Coati and Warbler,MK42 9SF,52.120309177743000,-0.463740180708979
hognose snake and wall lizard,MK42 9SH,52.121514891090700,-0.462427917744809
Night heron and Mockingbird,MK42 9SL,52.121163535208900,-0.460307408280039
Partridge and Condor,MK42 9TJ,52.120684204241700,-0.465611549449238
Mouse and Condor,MK42 9TP,52.120446269964900,-0.460463584633858
Parrotlet and rock python,MK42 9UZ,52.118327982011900,-0.463501570858538
asp and slowworm,MK42 9YZ,52.116374593927100,-0.474405849200182
flying dragon and sand viper,MK43 0AA,52.079019398182600,-0.601573198600970
Coati and mountain devil,MK43 0WF,52.134428000000000,-0.475586000000000
Kite and Puffleg,MK43 0ZT,52.134426375537200,-0.475586431539319
king cobra and thorn lizard,MK43 7BE,52.202684695086800,-0.613103648560537
Snipe and Kākāriki,MK43 7DU,52.199491523891600,-0.604599254985418
skink and alligator,MK43 7ED,52.199739146997100,-0.617233869015312
terrapin and blue racer,MK43 7LH,52.182796227271900,-0.616911063366375
Stint and Guillemot,MK43 7LW,52.188461678548100,-0.605544347707093
Warbler and Gull,MK43 7NH,52.189337715257600,-0.552852524662417
Stilt and horned viper,MK43 7NW,52.188109597013500,-0.554618577202401
Cloud rat and Fulmarine petrel,MK43 7PJ,52.189855171007900,-0.534315117437636
Recurvebill and tree snake,MK43 7QN,52.167303000000000,-0.556594000000000
Bunting and sand lizard,MK43 7RD,52.176774000000000,-0.522639020049294
bearded dragon and Armadillo,MK43 7SE,52.171502633537500,-0.526246733712067
Mink and sidewinder,MK43 8BJ,52.159057136814500,-0.597530000000000
dukite and Tahr,MK43 8DY,52.164537259189000,-0.623223173731111
Eagle and Egret,MK43 8EU,52.160564481320800,-0.627190687798555
Argus and snake,MK43 8LE,52.152237261198900,-0.533679839820125
Stilt and harlequin snake,MK43 8LL,52.148430406056100,-0.528338638198345
Kite and bearded lizard,MK43 8LY,52.145423555748900,-0.540334108289558
mud turtle and turtle,MK43 8QZ,52.142361210860200,-0.531213003190399
Recurvebill and blind snake,MK43 8SG,52.129656168612100,-0.566985777341050
diamondback and Badger,MK43 8SL,52.133620790747200,-0.569167072170619
gavial and carpet snake,MK43 8SN,52.128165176935000,-0.582738240953548
terrapin and bull snake,MK43 8TG,52.146567032611800,-0.539010595344978
cobra and Linsang,MK43 8TP,52.133019850610700,-0.561895652706750
boomslang and habu,MK43 9AF,52.093266527700000,-0.522213397600000
horned viper and Grosbeak,MK43 9BZ,52.094205778400000,-0.523262611100000
skink and caiman,MK43 9DD,52.097938151683700,-0.535037582087738
Marsh harrier and Marsh harrier,MK43 9ED,52.094844260800000,-0.523270725400000
cobra and Ground sloth,MK43 9FF,52.111385002800000,-0.523016374100000
milk snake and Tit-tyrant,MK43 9HD,52.093989972515700,-0.534232644309169
boa constrictor and ringhals,MK43 9HJ,52.104120087362700,-0.539302000000000
cobra and Magpie,MK43 9JF,52.094243333683400,-0.530750031248824
Dolphin and Rabbit,MK43 9JQ,52.100649000000000,-0.521666319575384
iguana and Dolphin,MK43 9SP,52.091030000000000,-0.520806000000000
cycling lizard and Buzzard,MK43 9ST,52.103676000000000,-0.509715000000000
bearded lizard and wall lizard,MK44 1AT,52.292031429556100,-0.517895015128403
cycling lizard and sea snake,MK44 1AU,52.293522966608400,-0.518534411587927
Eagle and Thicketbird,MK44 1AW,52.289481234857000,-0.517437627761623
River dolphin and goanna,MK44 1BF,52.252266084909400,-0.484061092076365
sidewinder and Bunting,MK44 1DJ,52.256423542872600,-0.470396250992734
Boto and Triller,MK44 1DP,52.254952639330900,-0.469289440403014
chuckwalla and iguana,MK44 1DS,52.256240641437100,-0.469464866696636
diamond python and python,MK44 1JE,52.227336704520000,-0.550870687856833
Myna and amphisbaena,MK44 1LQ,52.231546423585600,-0.563531523857740
Darwin's finches and gopher snake,MK44 1LZ,52.231943000000000,-0.565715000000000
hoop snake and Shearwater,MK44 1NH,52.221251000000000,-0.514008270463568
whip snake and gecko,MK44 1NX,52.223318183623400,-0.532469000000000
python and diamond python,MK44 1QS,52.233778000000000,-0.508468704328849
giant tortoise and Moluccan boobook,MK44 1QT,52.223962097545800,-0.500251311231622
Philippine hawk-owl and smooth snake,MK44 1SA,52.195142218501400,-0.516349935934423
gaboon viper and Buzzard,MK44 1SB,52.192901914768300,-0.514800559545065
sidewinder and bicycle lizard,MK44 2AQ,52.247485000000000,-0.380172000000000
Fulmarine petrel and cycling lizard,MK44 2BB,52.274599532023200,-0.414204799555776
Wallaby and Lemming,MK44 2BD,52.272598813310700,-0.414525365555645
Quetzal and dukite,MK44 2EL,52.223652000000000,-0.409871000000000
Scimitar babbler and Pheasant,MK44 2ET,52.218729000000000,-0.428946000000000
gavial and Parakeet,MK44 2JN,52.215546626005300,-0.378557576322959
Mamo and iguana,MK44 2JY,52.211267563442200,-0.387144027629612
bandy-bandy and Pratincole,MK44 2PE,52.186160150655700,-0.405387164409881
Stilt and krait,MK44 2QS,52.182872000000000,-0.413535000000000
python and Pitohui,MK44 2SP,52.275146000000000,-0.413936000000000
diamond snake and Polecat,MK44 2YP,52.220022000000000,-0.483124000000000
snapping turtle and constrictor,MK44 3JS,52.157251736053300,-0.356161004992706
Fox and Vole,MK44 3JW,52.127704904545400,-0.421221929114287
bearded dragon and whip snake,MK44 3LN,52.166397961624000,-0.338336202418959
blue tongue and grass snake,MK44 3LW,52.128829000000000,-0.413089000000000
dugite and Goose,MK44 3QH,52.136977000000000,-0.374296000000000
Stilt and Linsang,MK44 3TH,52.125474000000000,-0.389162000000000
Logrunners and Mole,MK44 3US,52.125291484524900,-0.422285977643412
Vole and Partridge,MK45 3EE,52.078248511887900,-0.441879775281538
Ice seal and Buzzard,MK45 3FU,52.083612000000000,-0.486323000000000
Thrasher and terrapin,MK45 3FW,52.081884918900000,-0.448845935300000
Chicken and anole,MK45 3HD,52.079430005374000,-0.448288850863077
thorn lizard and slowworm,MK45 3JE,52.095591205348400,-0.484516349588029
Condor and diamondback terrapin,MK45 3PG,52.078134000000000,-0.444488000000000
water snake and Dolphin,MK46 4AT,52.152730817707600,-0.699989791979155
python and cobra,MK46 4BJ,52.161025474372400,-0.701253952747277
Songlark and Dolphin,MK46 4EQ,52.156946162679200,-0.702191000000000
mud turtle and Bunting,MK46 4HG,52.174515576430600,-0.658978044518696
rat snake and Tit-tyrant,MK46 5AA,52.150717288196000,-0.709037367985632
snake and blue racer,MK46 5BW,52.139684335259300,-0.708128900376929
horned toad and gaboon viper,MK46 5DF,52.160308307669500,-0.708818381804931
habu and anaconda,MK46 5DP,52.145603487885500,-0.684004482319667
swift and Mamo,MK46 5HU,52.154645494595000,-0.707315828200064
leguaan and sidewinder,MK46 5JY,52.148090000000000,-0.737789000000000
tokay and python,MK46 5PL,52.156097000000000,-0.712463000000000
Tree warbler and Wader,NN10 0AD,52.291588765527900,-0.596472618926672
Polecat and worm lizard,NN10 0BE,52.296374259249200,-0.589121209482340
River dolphin and cayman,NN10 0BP,52.295591269455100,-0.586799851376172
Capuchin and skink,NN10 0GW,52.298879698700000,-0.585683379000000
Ground sloth and rattlesnake,NN10 0HE,52.289111984612400,-0.594600868309835
Hawk and amethystine python,NN10 0JW,52.287342021169900,-0.590932916197232
cycling lizard and Parrotbill,NN10 0NY,52.287924315050800,-0.592263295891901
Solitaire and skink,NN10 0RQ,52.284309275516700,-0.583933554930928
Guillemot and mamba,NN10 0RZ,52.291158672399100,-0.582292891031322
Old World warbler and Maya,NN10 0SJ,52.267575664950300,-0.570383529317334
garter snake and Coati,NN10 0SS,52.280984000000000,-0.538904000000000
American sparrow and chuckwalla,NN10 0TS,52.281463410678700,-0.593318281306639
bearded lizard and Siskin,NN10 0UJ,52.281014549255000,-0.594886365606018
Jerboa and Cloud rat,NN10 0UT,52.297758000000000,-0.588168000000000
Thicketbird and Rabbit,NN10 0XH,52.288006616110100,-0.599943297525252
anaconda and rock snake,NN10 0XJ,52.277372943701000,-0.597889151022351
Siskin and habu,NN10 6AT,52.293457719390700,-0.622338172434211
bushmaster and gecko,NN10 6BW,52.298844464668500,-0.623429000000000
adder and Rat,NN10 6BX,52.295449539233400,-0.597538362544024
alligator and Polecat,NN10 6EE,52.292763141799500,-0.616758453268683
boa constrictor and dugite,NN10 6FD,52.297682394730500,-0.612033000000000
tokay and Old World vulture,NN10 9JT,52.284720000000000,-0.594857000000000
massasauga and Mamo,NN10 9NB,52.281033302700500,-0.609383679690826
Grouse and gecko,NN10 9NS,52.288168255323400,-0.609057661466274
Pratincole and hoop snake,NN10 9NZ,52.287314245842700,-0.609832128729040
Parrotlet and Kite,NN10 9RT,52.290558616379100,-0.605903713417334
Macaw and snake,NN10 9SS,52.291844695019000,-0.605174191897509
Mole and cayman,NN29 7AR,52.282301574626200,-0.645010633949145
Capuchin and Civet,NN29 7AX,52.280082513898200,-0.635007728204735
python and carpet snake,NN29 7ED,52.280356000000000,-0.639089000000000
diamondback and Recurvebill,NN29 7FG,52.247503000000000,-0.669463000000000
snapping turtle and Parakeet,NN29 7HD,52.281178596208900,-0.641174871503209
Viscacha and Scimitar babbler,NN29 7HT,52.252317124838400,-0.622499626874542
slowworm and cayman,NN29 7PD,52.260920751266700,-0.676681568175986
Myna and smooth snake,NN29 7PG,52.245892513440800,-0.656387867577440
Skunk and viper,NN29 7RF,52.253062267196800,-0.672637674184905
New World blackbird and sea snake,NN29 7RT,52.256658920469000,-0.669468250018189
boa constrictor and mamba,NN29 7RY,52.256069351064900,-0.669808209284365
Old World warbler and iguana,NN29 7TR,52.275017000000000,-0.708976000000000
amethystine python and diamond python,NN29 7TS,52.270400000000000,-0.697034000000000
cobra and Pitohui,NN29 7TY,52.275774158285700,-0.703472507179153
Towhee and Darwin's finches,NN29 7UT,52.260076545655000,-0.676765303861298
Songlark and Komodo dragon,NN6 0JE,52.272226709044200,-0.747998541852905
Bronzewing pigeon and Guillemot,NN6 0LG,52.270925785881800,-0.749955073741488
Old World quail and Triller,NN6 0LZ,52.262140553791300,-0.743066235045862
blindworm and tokay,NN6 0NJ,52.263448204804900,-0.746824427729745
agama and fer-de-lance,NN6 0PE,52.249074751441400,-0.739495070920131
blue tongue and Jackal,NN7 1EJ,52.204260689048400,-0.734968467130207
indigo snake and Darwin's finches,NN7 1EN,52.205759725710000,-0.736418585091932
galliwasp and Polecat,NN7 1EW,52.206857224737200,-0.736475261785451
Grouse and flying dragon,NN7 1EZ,52.203401899112300,-0.735373320096106
Francolin and leguaan,NN7 1JN,52.227188715548900,-0.710978863531830
rat snake and Jackal,NN8 1NL,52.298443741946700,-0.677851173306158
Grackle and gavial,NN8 2AW,52.296158845440500,-0.710268025690275
Moluccan boobook and ringhals,NN8 2AY,52.296936436024000,-0.702458720835934
tortoise and sea snake,NN8 2BQ,52.294724796762900,-0.709855108511447
cobra de capello and Linsang,NN8 2ES,52.290500809495000,-0.705080666955559
Marsh harrier and frill-necked lizard,NN8 2HL,52.289533085280600,-0.711134883949545
Mamo and Piping shrike,NN8 2JB,52.287633671975000,-0.712568151390122
Thicketbird and moloch,NN8 2JN,52.293553848321500,-0.698187943239824
boa and bearded dragon,NN8 2NX,52.284601000000000,-0.707246000000000
Greenbul and garter snake,NN8 2QD,52.287760320579700,-0.696246537213920
Treepie and River dolphin,NN8 2UA,52.282804941713300,-0.731618930506823
hawksbill and Puffleg,NN8 3DQ,52.293615669064600,-0.718641229232541
mud turtle and giant tortoise,NN8 3DZ,52.297077799720500,-0.731196587503172
tiger snake and caiman,NN8 3JZ,52.298627040989400,-0.713173284088077
Black cockatoo and Songlark,NN8 3NB,52.296927575848100,-0.714806275505153
Old World warbler and tortoise,NN8 9SU,52.299119187480500,-0.690868249464825
copperhead and racer,NN8 9SW,52.299119187480500,-0.690868249464825
Francolin and perentie,PE28 0LU,52.299216591133600,-0.463688000000000
giant tortoise and alligator,SG18 9LS,52.083099000000000,-0.367658000000000
