name,postcode,lat,lon
snake and flying lizard,MK16 0AD,52.086355352061700,-0.722717324148007
thorny devil and skink,MK16 0BA,52.082775890804400,-0.733458458214759
Gila monster and bicycle lizard,MK16 0BE,52.081072270792900,-0.734732516480362
Philippine hawk-owl and Night heron,MK16 0BL,52.080777337433000,-0.733223157854457
Stilt and Coati,MK16 0DL,52.081010834025300,-0.739068468964023
Logrunners and blind snake,MK16 0EQ,52.083728264622100,-0.724222551041987
Civet and Triller,MK16 0NB,52.080702986236600,-0.726322666070821
taipan and racer,MK16 6DR,52.079938000000000,-0.704522000000000
Dolphin and tuatara,MK16 8EF,52.095180851436500,-0.740756537655198
gavial and sidewinder,MK16 8EU,52.087390612369300,-0.727825354674973
black snake and cobra de capello,MK16 8LF,52.105042628482300,-0.743648000000000
Quetzal and milk snake,MK16 8QE,52.087068547708700,-0.745596986291001
Gila monster and snake,MK16 8QH,52.089692578949300,-0.742093316521238
thorny devil and Tahr,MK16 8TH,52.092292000000000,-0.743805617647229
mud turtle and mountain devil,MK16 9BP,52.086136175758400,-0.714959033142192
diamondback and green turtle,MK16 9BT,52.086424022503300,-0.712498786143164
adder and Fulmarine petrel,MK16 9EJ,52.086090899437600,-0.716580379064076
crocodile and Shearwater,MK16 9HR,52.084047680045200,-0.631320000000000
Kākāriki and smooth snake,MK16 9JQ,52.104074141055000,-0.683241432728551
tiger snake and Jay,MK16 9LR,52.094343307668800,-0.651996747345516
Wallaby and horned viper,MK16 9PR,52.106783247580500,-0.703080000000000
green turtle and kabaragoya,MK16 9PZ,52.111055830270000,-0.706400880526186
Chipmunk and Dorcopsis,MK40 1AE,52.134426375537200,-0.475586431539319
gopher snake and frilled lizard,MK40 1AL,52.136172446072200,-0.465765000000000
Condor and Cloud rat,MK40 1HT,52.137226369472400,-0.474482612951081
skink and leathery turtle,MK40 1JJ,52.138480537200200,-0.473431503001465
Marmoset and diamond python,MK40 1RA,52.135413266165400,-0.468480777969073
copperhead and wall lizard,MK40 1TU,52.134365311673300,-0.472257173117880
horned viper and Gila monster,MK40 2AR,52.144150694896100,-0.483628422185097
python and Linsang,MK40 2DL,52.144133408668000,-0.482284490433551
cayman and sidewinder,MK40 2EQ,52.141890000000000,-0.476968000000000
Kangaroo and garter snake,MK40 2FP,52.139830000000000,-0.475922000000000
thorny devil and milk snake,MK40 2JE,52.141982050668400,-0.469570686768697
saltwater crocodile and Logrunners,MK40 2LB,52.145555812620500,-0.464362209453285
Jerboa and Black jay,MK40 2LH,52.143757269584100,-0.459513688707868
Philippine hawk-owl and Meadowlark,MK40 2NR,52.140346000000000,-0.462676185831550
Tit-tyrant and milk snake,MK40 2QH,52.139256142922900,-0.475699188243572
Moluccan boobook and blindworm,MK40 2SG,52.139908628355100,-0.475399266909477
Old World warbler and fer-de-lance,MK40 2TW,52.141442000000000,-0.467386295240266
jew lizard and Warbler,MK40 2UT,52.140697731630000,-0.474539368129327
taipan and lizard,MK40 2UX,52.142731451062700,-0.480242365301150
Kākāriki and White ibis,MK40 3AE,52.142737926062400,-0.457882874698248
Bunting and Magpie,MK40 3BD,52.142404770080800,-0.448249261202038
bull snake and Mamo,MK40 3BE,52.142288273714000,-0.447595689699979
Crow and skink,MK40 3DB,52.143510647959800,-0.455780970036870
Meadowlark and Fish eagle,MK40 3EB,52.140518569109000,-0.447599000000000
tortoise and Grosbeak,MK40 3EF,52.140527649002600,-0.444310479663612
Logrunners and Ice seal,MK40 3EG,52.140215533679000,-0.443824508604452
Gila monster and python,MK40 3EQ,52.139627391260500,-0.444224943196218
Night heron and Rabbit,MK40 3NZ,52.135500777409000,-0.462077922750947
Linsang and Francolin,MK40 3PZ,52.137986370534800,-0.457564770466362
perentie and green turtle,MK40 3QJ,52.138552954752100,-0.456887633876553
carpet snake and Mouse,MK40 3QZ,52.138475695628200,-0.454420786452610
boa constrictor and bushmaster,MK40 3RG,52.137380188145500,-0.453158221623531
rattlesnake and Mamo,MK40 3SJ,52.139592824423300,-0.449896000000000
Cuscus and boomslang,MK40 3TF,52.135735106046600,-0.451812488772666
Cloud rat and Triller,MK40 3UZ,52.140885000000000,-0.454264393877928
Mamo and Masked owl,MK40 4BF,52.133077684856300,-0.514336201447254
Maya and Eagle,MK40 4DU,52.136475350994900,-0.484575822928080
Tree warbler and skink,MK40 4EU,52.142132655110000,-0.498778267882044
Vole and hawksbill,MK40 4GL,52.130358000000000,-0.511008000000000
Night heron and Old World warbler,MK40 4HD,52.134377029183800,-0.489921646075963
Condor and Prion,MK40 4JG,52.132731684897000,-0.482920359587043
Rabbit and Philippine hawk-owl,MK40 4JH,52.132565967184400,-0.482619167164677
Thicketbird and whip snake,MK40 4JU,52.132042527040400,-0.484565520315886
tiger snake and Fulmarine petrel,MK40 4LJ,52.133844311883900,-0.484840433800146
Black cockatoo and Solitaire,MK40 4PQ,52.134600599621400,-0.487021067666104
Shearwater and bicycle lizard,MK40 4PR,52.131527655722100,-0.485781026721944
king cobra and Kite,MK40 4QG,52.141888433005900,-0.504325022647082
Cloud rat and dugite,MK40 4QQ,52.140277432521500,-0.509172063296736
Crow and leguaan,MK40 4QU,52.142101327376300,-0.509067320860840
Booted eagles and Ice seal,MK40 4QW,52.141948965615900,-0.507684118792490
Armadillo and blue tongue,MK40 4SG,52.126918000000000,-0.511774000000000
boomslang and Condor,MK40 4SH,52.123645000000000,-0.512692316300000
Wader and Tit-tyrant,MK40 4TG,52.141516000000000,-0.492378000000000
Chickadee and Crow,MK40 4UU,52.145420000000000,-0.508030000000000
Asiatic leopard and king cobra,MK40 4WF,52.143950000000000,-0.507012000000000
Kestrel and hawksbill,MK40 4WR,52.143950000000000,-0.507012000000000
Hawaiian honeycreeper and amphisbaena,MK41 0AN,52.145573551300900,-0.429519753418409
gopher snake and coral snake,MK41 0BE,52.151421386134000,-0.424388117727664
Rat and rat snake,MK41 0ET,52.146162782199200,-0.424486045627278
Parakeet and Quetzal,MK41 0FG,52.156692189500000,-0.415664853700000
skink and Skunk,MK41 0LP,52.158539185143400,-0.393480356415243
Maya and carpet snake,MK41 0NR,52.153837351661600,-0.422841058101535
tokay and horned toad,MK41 0NS,52.153868766230800,-0.425865796180267
gopher snake and Magpie,MK41 0NZ,52.154748699531000,-0.426448709289979
Armadillo and Mouse,MK41 0PH,52.156119410945900,-0.426751214571264
Triller and Coati,MK41 0PW,52.152639442921400,-0.427400113351542
krait and habu,MK41 0PZ,52.151427242762000,-0.420792171360866
giant tortoise and Kangaroo,MK41 0QF,52.153446404032600,-0.421173863139731
tokay and elapid,MK41 0RQ,52.153085588085600,-0.416392128128382
turtle and Gull,MK41 0SL,52.138787200277900,-0.428326414310221
Kākāriki and brown snake,MK41 0SW,52.139365418426000,-0.425164294224741
Zebra and Prion,MK41 0UN,52.135251000000000,-0.433419000000000
Thicketbird and diamondback terrapin,MK41 6BW,52.160750993785000,-0.494350759888752
Badger and Tattler,MK41 6DP,52.161244023156100,-0.493530025906597
amphisbaena and Pratincole,MK41 6EJ,52.158247038482000,-0.487681299453728
Logrunners and python,MK41 7AR,52.159884770397300,-0.462743383436578
Mink and Triller,MK41 7BU,52.158451320035300,-0.460380624168333
ringhals and adder,MK41 7DS,52.154915773945400,-0.458163741238776
Bunting and Old World quail,MK41 7DT,52.154782509727300,-0.456224169140893
Kestrel and tokay,MK41 7EB,52.158444120259600,-0.456389867569476
loggerhead and Condor,MK41 7EQ,52.161210642845400,-0.456995000000000
moloch and blind snake,MK41 7GD,52.168856666628300,-0.462783000000000
Hawk and cerastes,MK41 7GH,52.169919043000000,-0.456402284000000
Parakeet and Pheasant,MK41 7JP,52.153769060335800,-0.456420020175521
American sparrow and Myna,MK41 7LG,52.142872168720600,-0.475122699115581
Jay and Triller,MK41 7NL,52.149580016840100,-0.473066527813017
frill-necked lizard and Tahr,MK41 7NP,52.150296914244600,-0.471492666868717
Philippine hawk-owl and gaboon viper,MK41 7PN,52.144577000000000,-0.480370000000000
viper and crocodile,MK41 7RU,52.144447047120500,-0.473841291954295
soft-shelled turtle and indigo snake,MK41 7TT,52.162759498105000,-0.456357523112888
Grackle and Vole,MK41 7XY,52.165987594458000,-0.454315773690834
Parakeet and blue tongue,MK41 7YY,52.164563626373100,-0.456806833025380
Mockingbird and elapid,MK41 8AW,52.156659625824900,-0.452636173227942
cayman and Viscacha,MK41 8DW,52.152645071366500,-0.454354023141005
brown snake and gopher snake,MK41 8DY,52.164201898920600,-0.447739727454621
slowworm and goanna,MK41 8EE,52.152433089319400,-0.438940307376536
Dolphin and blind snake,MK41 8HR,52.151803852462000,-0.430820686789234
Macaw and Towhee,MK41 8JB,52.151640448770300,-0.434085996349121
Badger and massasauga,MK41 8JN,52.152390438317900,-0.432334860640766
thorn lizard and gaboon viper,MK41 8PB,52.156813975491700,-0.439781113288764
iguana and Gila monster,MK41 8PX,52.159244243343700,-0.434550116167127
blue tongue and cobra,MK41 8QH,52.155767000000000,-0.433254000000000
caiman and Tattler,MK41 8QJ,52.157137171158700,-0.436349043274465
diamond python and blindworm,MK41 8RB,52.156413747380000,-0.435691000000000
cycling lizard and Parrotbill,MK41 8RQ,52.158237383717000,-0.442713623102900
Egret and gavial,MK41 9AH,52.153878195067500,-0.444195945767768
bearded lizard and whip snake,MK41 9BF,52.144666635600000,-0.440662000000000
Black cockatoo and carpet snake,MK41 9BY,52.146459872125400,-0.443475294729284
blue racer and Maya,MK41 9DP,52.149096268204800,-0.453877660227058
frill-necked lizard and Elephant,MK41 9HF,52.146101712030200,-0.431371900793447
Stint and grass snake,MK41 9JD,52.147189130545100,-0.437428317182509
Moluccan boobook and Warbler,MK41 9JE,52.147929277243400,-0.438323193508964
diamondback terrapin and Old World vulture,MK41 9JY,52.141831553909100,-0.438200380132931
Argus and leathery turtle,MK41 9LW,52.133310114030400,-0.445862273918886
saltwater crocodile and Mouse,MK41 9QL,52.139687761766500,-0.441987058737926
Boto and ringhals,MK41 9QW,52.139970156987400,-0.440223639565062
loggerhead and sand lizard,MK41 9SU,52.137178819559400,-0.432459814342468
Philippine hawk-owl and Thrasher,MK41 9SY,52.136948614328400,-0.436793066692792
puff adder and White ibis,MK42 0AE,52.133685505447200,-0.462841760481192
Tree warbler and Buzzard,MK42 0AG,52.121598000000000,-0.437841000000000
Egret and bearded dragon,MK42 0AU,52.133957000000000,-0.465667000000000
diamond snake and coral snake,MK42 0GW,52.111761000000000,-0.427013000000000
viper and bearded lizard,MK42 0GX,52.113435530800000,-0.427801564700000
Cuscus and Bronzewing pigeon,MK42 0GY,52.114753000000000,-0.427295000000000
Puffleg and bicycle lizard,MK42 0HS,52.125094489889900,-0.454942213841791
Scimitar babbler and Ibex,MK42 0HX,52.126814639822000,-0.452413845610055
habu and Mouse,MK42 0JP,52.126716471609900,-0.450415856400819
Petrel and thorny devil,MK42 0NF,52.123081244073200,-0.441339215533683
Grackle and Diving bird,MK42 0QP,52.123635283331400,-0.458177151298178
Mole and Eagle,MK42 0QU,52.121819886166200,-0.456180201902000
Wader and leguaan,MK42 0QZ,52.108473877242700,-0.431436856434944
Kestrel and perentie,MK42 0TW,52.108828170422200,-0.430358414129631
gavial and Eagle,MK42 0XJ,52.112633587858200,-0.433218613516987
Lemming and horned viper,MK42 5TD,52.132759190700000,-0.470281320600000
River dolphin and Mamo,MK42 5TN,52.132759190700000,-0.470281320600000
Condor and Chicken,MK42 6AQ,52.089614164800000,-0.461627238800000
tree snake and blindworm,MK42 6AU,52.087383276300000,-0.463616009600000
carpet snake and sand lizard,MK42 6EE,52.083808000000000,-0.461002000000000
diamond snake and Dolphin,MK42 6EG,52.084597000000000,-0.461514000000000
Puffleg and tokay,MK42 6EX,52.086642000000000,-0.466626000000000
slowworm and Hawk,MK42 7AT,52.116336707007800,-0.504435493252371
Towhee and Black cockatoo,MK42 7EL,52.114855000000000,-0.500206000000000
Grouse and rat snake,MK42 7FE,52.117346922800000,-0.507366693400000
Solitaire and Black cockatoo,MK42 7HA,52.110221794861100,-0.500828663086751
Grouse and Tree warbler,MK42 7HS,52.111496170790200,-0.504889537763296
frill-necked lizard and Jackal,MK42 7JU,52.114332008123000,-0.494571480616205
deaf adder and Shearwater,MK42 7ND,52.115566282255200,-0.489140667843654
agama and gavial,MK42 7PE,52.116017157093900,-0.487139127319201
rock snake and worm lizard,MK42 7PP,52.113818990933400,-0.486804614104906
B and Dorcopsis,MK42 7RQ,52.111315256723300,-0.487181451249505
hognose snake and blue tongue,MK42 8AE,52.124914010111800,-0.479796784282834
Crow and Gull,MK42 8BG,52.121154003310100,-0.488867000000000
tree snake and Macaw,MK42 8BT,52.121790166868100,-0.495620222722321
Parakeet and soft-shelled turtle,MK42 8DX,52.117173000000000,-0.488122000000000
Civet and Puffleg,MK42 8EA,52.118861846850000,-0.488810150247614
cobra de capello and hognose snake,MK42 8EG,52.114416789374200,-0.497694007055287
skink and Songlark,MK42 8JQ,52.115582147187300,-0.495303432006951
turtle and gopher snake,MK42 8JR,52.113295465592900,-0.497191342881133
milk snake and Rat,MK42 8JS,52.112457095799100,-0.498431659821914
Pratincole and Rat,MK42 8LH,52.118712331484400,-0.482768317890085
skink and Mockingbird,MK42 8NH,52.116973943995500,-0.481133108668427
hoop snake and Duck,MK42 8NW,52.118247832425400,-0.483704258900473
Tahr and Goose,MK42 8PB,52.115899703903900,-0.499761892039476
Rat and Maya,MK42 8RB,52.122261569186900,-0.498744888274565
rock snake and green turtle,MK42 8RN,52.127160000000000,-0.499262675236392
Magpie and harlequin snake,MK42 8TS,52.125921470588300,-0.493844967655731
Songlark and Scimitar babbler,MK42 8UF,52.124089008830000,-0.493278612494596
swift and mud turtle,MK42 8UW,52.124462823999500,-0.495091990055648
constrictor and turtle,MK42 9AF,52.129146183000000,-0.475255394700000
Badger and Old World quail,MK42 9AH,52.133284681865400,-0.468552000000000
Argus and snapping turtle,MK42 9AN,52.130862480052000,-0.468388456370671
Old World quail and Kite,MK42 9BA,52.131484000000000,-0.467023000000000
diamond python and garter snake,MK42 9BX,52.131423998488700,-0.473555819955038
blindworm and elapid,MK42 9DN,52.130730472136700,-0.472176000000000
Rabbit and puff adder,MK42 9EP,52.127602000000000,-0.473183000000000
Booted eagles and death adder,MK42 9EZ,52.130388000000000,-0.465575447010083
diamond snake and elapid,MK42 9HS,52.125618105767400,-0.470277436969361
milk snake and Marsh harrier,MK42 9JU,52.127053531979200,-0.472112812687158
viper and Pitohui,MK42 9LX,52.123634558597500,-0.465013562098076
Chicken and taipan,MK42 9LZ,52.123558465866100,-0.461933965744191
Thrasher and cayman,MK42 9PR,52.122446734599500,-0.471861356115695
racer and slowworm,MK42 9UY,52.116816168926900,-0.463600000000000
hawksbill and diamondback terrapin,MK42 9XJ,52.118493000000000,-0.464314000000000
leathery turtle and Marsh harrier,MK42 9XS,52.116434407238800,-0.470694063894082
Guillemot and Cloud rat,MK42 9XU,52.116019531581500,-0.468517487887759
hawksbill and diamondback terrapin,MK42 9YG,52.108070000000000,-0.467665000000000
mountain devil and amphisbaena,MK43 0BD,52.079354359684500,-0.596469782380908
adder and gopher snake,MK43 0WF,52.134428000000000,-0.475586000000000
Crow and gaboon viper,MK43 1AP,52.077377000000000,-0.601561000000000
water snake and gaboon viper,MK43 7JB,52.209859827730500,-0.548819583819415
Grouse and black snake,MK43 7JT,52.189943270355400,-0.606141678806510
snake and hoop snake,MK43 7LE,52.183244000000000,-0.598394000000000
gopher snake and Partridge,MK43 7NR,52.188719783807600,-0.555988530236225
mountain devil and box turtle,MK43 7PX,52.191959597503200,-0.550368086293937
Partridge and amethystine python,MK43 7QL,52.168067789237200,-0.553104020078805
Crow and Herring gull,MK43 7SS,52.170532518588800,-0.522008896193124
Guillemot and Jackal,MK43 8AJ,52.153797403010100,-0.648491551101650
alligator and Quetzal,MK43 8GP,52.153341912003700,-0.548845494055733
Night heron and Badger,MK43 8HS,52.149626436984500,-0.547212367621104
pit viper and Warbler,MK43 8HU,52.152312384880700,-0.522407709931588
Elephant and asp,MK43 8JX,52.154246004394300,-0.526204000000000
habu and grass snake,MK43 8LE,52.152237261198900,-0.533679839820125
Kākāriki and milk snake,MK43 8LF,52.150881322324900,-0.533095878291151
Magpie and kabaragoya,MK43 8NX,52.149330208411500,-0.534169971138752
boa constrictor and Kestrel,MK43 8QN,52.143586363405000,-0.538640487787441
Gull and anole,MK43 8TH,52.118725623676400,-0.544904000000000
Maya and viper,MK43 8TP,52.133019850610700,-0.561895652706750
carpet snake and amethystine python,MK43 8TT,52.145614928108800,-0.561767631260233
deaf adder and rat snake,MK43 9AB,52.101565834124500,-0.505995434105890
puff adder and gavial,MK43 9DG,52.097781088785900,-0.535422303702719
Boto and American sparrow,MK43 9DJ,52.097164641470500,-0.536464414511395
Ibex and tokay,MK43 9ER,52.100258649799200,-0.530041391138482
boa and Kite,MK43 9FA,52.092397447112400,-0.528372910952580
Elephant and krait,MK43 9FS,52.097837000000000,-0.520844000000000
horned toad and Rat,MK43 9FW,52.096895000000000,-0.519605000000000
Solitaire and Macaw,MK43 9FZ,52.093702000000000,-0.519031000000000
Piping shrike and Perching duck,MK43 9GH,52.075207000000000,-0.509538000000000
Francolin and Schneider python,MK43 9JH,52.092890000000000,-0.523817000000000
Pitohui and mamba,MK43 9PH,52.093406031030400,-0.523464101564891
Mockingbird and boa constrictor,MK43 9QS,52.090036000000000,-0.527627000000000
Old World vulture and sea snake,MK43 9QU,52.091044000000000,-0.529842000000000
Vulture and pit viper,MK44 1AS,52.290308398684400,-0.516720882603422
Mockingbird and diamondback,MK44 1ER,52.254950604477500,-0.478871109384225
sidewinder and Wallaby,MK44 1FG,52.223170000000000,-0.531181000000000
harlequin snake and loggerhead,MK44 1HT,52.225001922482900,-0.548822000000000
Logrunners and Tattler,MK44 1LT,52.226873409038200,-0.542452327693232
Komodo dragon and rock snake,MK44 1LZ,52.231943000000000,-0.565715000000000
Kite and Old World warbler,MK44 1ND,52.231496778251900,-0.527775000000000
caiman and Macaw,MK44 1NJ,52.220736449772300,-0.517502756803584
lizard and cobra,MK44 1NN,52.220885000000000,-0.521348000000000
Capuchin and Capuchin,MK44 1QE,52.213260225669900,-0.501475335632483
thorny devil and Greenbul,MK44 1QG,52.212889392115000,-0.504137086993185
Mink and Jerboa,MK44 1RG,52.192657617399100,-0.511824140148440
lizard and adder,MK44 1SN,52.248619187288200,-0.481533992556337
Hawaiian honeycreeper and pit viper,MK44 1TL,52.213621829678900,-0.500716000000000
American sparrow and thorn lizard,MK44 2AE,52.281421936419600,-0.450639496146058
Quetzal and leguaan,MK44 2AH,52.280795597692000,-0.456363818702622
Black jay and Piping shrike,MK44 2AY,52.270178404339900,-0.414391882798567
diamondback terrapin and Perching duck,MK44 2BJ,52.252007000000000,-0.382458000000000
chuckwalla and blue tongue,MK44 2BT,52.249731596680800,-0.382511936602408
Badger and Tahr,MK44 2DX,52.214572428556300,-0.454035075911996
alligator and boa constrictor,MK44 2JN,52.215546626005300,-0.378557576322959
king snake and Crow,MK44 2JX,52.210832984052400,-0.386266946709718
iguana and massasauga,MK44 2QQ,52.186489481068000,-0.389254916102021
Ice seal and Philippine hawk-owl,MK44 2QS,52.182872000000000,-0.413535000000000
chuckwalla and rock snake,MK44 2RA,52.175474060690700,-0.443427959439500
alligator and thorny devil,MK44 2SX,52.265620000000000,-0.382476000000000
tokay and Black cockatoo,MK44 3PY,52.137231159984000,-0.380438523093086
gecko and Darwin's finches,MK44 3QR,52.139588418020000,-0.366207599532246
giant tortoise and Hawk,MK44 3QT,52.133285000000000,-0.371318000000000
diamondback terrapin and Towhee,MK44 3RW,52.124643370567300,-0.342913689037731
Armadillo and Booted eagles,MK44 3SF,52.118551502549100,-0.411832321472797
Maya and horned toad,MK44 3SG,52.127769575901500,-0.422695160663353
Old World warbler and puff adder,MK44 3SR,52.119168082021100,-0.414220442976475
Macaw and Solitaire,MK44 3SW,52.120055011512000,-0.403321668427311
flying lizard and Bronzewing pigeon,MK44 3TH,52.125474000000000,-0.389162000000000
rock snake and milk snake,MK44 3TR,52.131255000000000,-0.393059000000000
crocodile and Pitohui,MK44 3UE,52.120267028685500,-0.387845624437061
dugite and mountain devil,MK44 3US,52.125291484524900,-0.422285977643412
Polecat and harlequin snake,MK45 3DB,52.080600105263200,-0.443344000000000
fer-de-lance and Black jay,MK45 3EY,52.077872040309300,-0.450152373267532
Tit-tyrant and rattlesnake,MK45 3EZ,52.134426375537200,-0.475586431539319
boomslang and Parakeet,MK45 3FT,52.083548959200000,-0.486751000000000
blue racer and slowworm,MK45 3GY,52.080341000000000,-0.482763000000000
thorn lizard and Rabbit,MK45 3HS,52.087246114200200,-0.460832844855075
Booted eagles and diamondback terrapin,MK45 3NG,52.078700609125200,-0.482738973578533
diamond snake and cobra de capello,MK45 3NS,52.080656000000000,-0.484883000000000
turtle and Asiatic leopard,MK45 3NT,52.080915000000000,-0.484743000000000
Macaw and galliwasp,MK45 3NU,52.081034000000000,-0.485586000000000
Mink and Scimitar babbler,MK45 3XN,52.134440000000000,-0.475565000000000
agamid and swift,MK45 4YS,52.134440000000000,-0.475565000000000
Dolphin and Marmoset,MK46 4AJ,52.152504553490300,-0.701487289839887
Recurvebill and hognose snake,MK46 4DJ,52.157752802155000,-0.700442855636882
Vole and krait,MK46 4DW,52.154784000000000,-0.698446082371584
Vole and carpet snake,MK46 4EP,52.170183673300200,-0.666273355504591
turtle and bearded dragon,MK46 4ER,52.169416448650700,-0.665214242901461
Stint and Black jay,MK46 4HR,52.161916960689000,-0.643845025145754
Condor and diamond python,MK46 4HX,52.173342724539400,-0.651526006958688
puff adder and Parrotlet,MK46 4JJ,52.153655235314600,-0.698208811850053
Cuscus and Darwin's finches,MK46 5BN,52.153894209847000,-0.702762407203848
saltwater crocodile and Condor,MK46 5DN,52.136974522916500,-0.693931701882051
Jerboa and Perching duck,MK46 5DY,52.159819006839000,-0.706011048228067
Eagle and cerastes,MK46 5EQ,52.161517135963000,-0.704265918237889
Macaw and B,MK46 5JX,52.160142334694500,-0.746087000000000
mountain devil and grass snake,MK46 5JY,52.148090000000000,-0.737789000000000
Shearwater and Masked owl,MK46 5LQ,52.152243114145800,-0.680549000000000
Kite and leguaan,MK46 5LZ,52.152753280308200,-0.711872609089542
blue tongue and Magpie,MK46 5PR,52.152952532693000,-0.706253977958964
Tahr and Pitohui,NN10 0AE,52.292085062883100,-0.597380690495524
habu and bicycle lizard,NN10 0AJ,52.294817959050000,-0.589801201205959
tokay and fer-de-lance,NN10 0BB,52.295440062790300,-0.591453131771125
Mockingbird and loggerhead,NN10 0BD,52.294920534392700,-0.591616249999639
bearded lizard and dugite,NN10 0BQ,52.296040374780200,-0.588266635025820
Badger and horned toad,NN10 0DE,52.291455000000000,-0.595670000000000
Magpie and Scimitar babbler,NN10 0HH,52.289390370505200,-0.590046859636539
Linsang and Jerboa,NN10 0HT,52.290612898102800,-0.582515587110821
frill-necked lizard and bushmaster,NN10 0JF,52.289319608695800,-0.586383627138728
hoop snake and kabaragoya,NN10 0JT,52.288068908026400,-0.592932000000000
Armadillo and Old World vulture,NN10 0LQ,52.286381000000000,-0.593896000000000
White ibis and sea snake,NN10 0QH,52.284213202730400,-0.587924201125732
Tahr and Wader,NN10 0QP,52.286212636275200,-0.585207015124250
Tit-tyrant and Masked owl,NN10 0UU,52.298347000000000,-0.588896000000000
Meadowlark and Recurvebill,NN10 0XG,52.276567765847200,-0.596712628777250
Night heron and Skunk,NN10 0YD,52.288159814630700,-0.591654708865984
Badger and Bunting,NN10 6AT,52.293457719390700,-0.622338172434211
Cloud rat and Songlark,NN10 6AY,52.297357000000000,-0.622730000000000
thorn lizard and caiman,NN10 6BX,52.295449539233400,-0.597538362544024
Lemming and leathery turtle,NN10 6BY,52.295872613203100,-0.595310725078302
New World blackbird and Magpie,NN10 9BX,52.296198812337600,-0.597793315057671
bearded dragon and Mouse,NN10 9EP,52.287887952338300,-0.601310550541450
Solitaire and anaconda,NN10 9EU,52.282705206749000,-0.600815000000000
asp and Black jay,NN10 9GB,52.287082783300000,-0.601467949400000
jew lizard and Grouse,NN10 9GP,52.290199974465300,-0.600665910094511
terrapin and blind snake,NN10 9HX,52.283459458179800,-0.607739115328525
Ground sloth and constrictor,NN10 9JA,52.283737858948800,-0.603904117803770
Francolin and Old World quail,NN10 9LB,52.278303762303800,-0.599047095583112
sand lizard and sidewinder,NN10 9ND,52.295813000000000,-0.624538000000000
frilled lizard and indigo snake,NN10 9NT,52.287590893833400,-0.611949359625136
American sparrow and diamondback turtle,NN10 9PW,52.286476354777000,-0.607395314802439
cobra and agama,NN10 9QW,52.287975515106200,-0.618681596943947
Viscacha and dukite,NN10 9RQ,52.289920091606000,-0.611231431145966
Stilt and skink,NN10 9YG,52.289136009712500,-0.601168612422540
puff adder and rat snake,NN10 9YP,52.290267371383000,-0.609079000000000
Eagle and Thicketbird,NN29 7AH,52.282828290754100,-0.642912000000000
diamondback and worm lizard,NN29 7BY,52.277661935283200,-0.651264505254717
smooth snake and Kangaroo,NN29 7DR,52.280764000000000,-0.650393000000000
king cobra and Wallaby,NN29 7EG,52.279040453440600,-0.639759763192642
Parakeet and cycling lizard,NN29 7FH,52.247503000000000,-0.669463000000000
cayman and frilled lizard,NN29 7GA,52.256257000000000,-0.666485393165400
agama and habu,NN29 7JL,52.220381041610500,-0.673509720158317
gaboon viper and Grosbeak,NN29 7JT,52.215099347405000,-0.675555266463860
ringhals and agama,NN29 7PN,52.258148881071700,-0.674156000000000
White ibis and snake,NN29 7QD,52.252101900991500,-0.671186737498696
Snipe and wall lizard,NN29 7QS,52.252471000000000,-0.674311000000000
cayman and leathery turtle,NN29 7RB,52.254147809552600,-0.667638859275692
garter snake and Buzzard,NN29 7RF,52.253062267196800,-0.672637674184905
gaboon viper and Boto,NN29 7RW,52.256828178136700,-0.667734358854044
goanna and adder,NN29 7SJ,52.259264171519200,-0.670078925880737
Treepie and Greenbul,NN29 7SS,52.258264928904800,-0.677332000000000
Coati and Chickadee,NN29 7TJ,52.273708845410800,-0.709454024458827
lizard and Old World vulture,NN29 7TZ,52.274630221834300,-0.726298000000000
American sparrow and Macaw,NN29 7XA,52.239544000000000,-0.612658000000000
Myna and frill-necked lizard,NN6 0LL,52.269142865601200,-0.748847471604633
puff adder and River dolphin,NN6 0PQ,52.266386419611900,-0.747503608847959
Civet and bearded lizard,NN6 0RA,52.266267991835500,-0.746510468895430
flying lizard and Treepie,NN7 1JG,52.231174725708600,-0.716207957170205
diamond python and grass snake,NN7 1LA,52.224838084700000,-0.727795720100000
Prion and Shearwater,NN8 2DX,52.287555971055100,-0.677061046593109
garter snake and caiman,NN8 2EX,52.289141870494100,-0.707422171553890
Warbler and adder,NN8 2FH,52.289408585500000,-0.746121498700000
gaboon viper and leguaan,NN8 2LD,52.287824240200200,-0.714380620531736
Mamo and American sparrow,NN8 2LJ,52.292572324470600,-0.697234307173282
python and White ibis,NN8 2NF,52.283575894413900,-0.699990331856002
Pratincole and bearded dragon,NN8 2QF,52.290957729561100,-0.687018061701234
Kestrel and Badger,NN8 2UJ,52.289653211367900,-0.720529633123310
slowworm and Pheasant,NN8 3EH,52.298837730873100,-0.729313188106003
chuckwalla and caiman,NN8 3NP,52.299128483356900,-0.717118290859853
slowworm and Kite,NN8 3SF,52.297259544369900,-0.718052151307455
cycling lizard and blue tongue,NN8 9SH,52.299119187480500,-0.690868249464825
diamondback terrapin and iguana,NN8 9SL,52.299119187480500,-0.690868249464825
ringhals and bicycle lizard,PE19 5BG,52.268904596324300,-0.346435674342275
tokay and Siskin,PE19 5BX,52.268589981221600,-0.345157697754162
rock snake and king cobra,PE19 5DT,52.269684887630700,-0.342449559534196
loggerhead and deaf adder,PE19 5EN,52.298532644311700,-0.361420185778058
gecko and gaboon viper,SG18 9HD,52.085662457715000,-0.341208000000000
Lemming and habu,SG18 9LR,52.084205000000000,-0.359897000000000
