name,postcode,lat,lon
The Queens Arms Litton,BD23 5QJ,54.1630,-2.1461
Knight Stainforth Hall Caravan and Camping Park,BD24 0DP,54.1007,-2.2858
Helwith Bridge Ltd ,BD24 0EH,54.1210,-2.2918
The Crown Hotel,BD24 0HF,54.1493,-2.2959
Cherish Glamping,DL8 3JH,54.3144,-2.1415
Simonstone Hall Hotel,DL8 3LY,54.3207,-2.2014
Stage 1 Cycles,DL8 3NT,54.3034,-2.1907
Stone House Hotel Ltd.,DL8 3PT,54.3136,-2.1808
White Hart Country Inn,DL8 3QL,54.3039,-2.1963
Laburnum House Hawes,DL8 3QR,54.3043,-2.1970
The Folly ,DL8 3QZ,54.3041,-2.1978
The Fountain Hotel (Hawes) Ltd,DL8 3RD,54.3043,-2.1993
1897 Coffee Shop c/o Wensleydale Dairy Products Ltd,DL8 3RN,54.3019,-2.2003
Calverts Restaurant c/o Wensleydale Dairy Products Ltd,DL8 3RN,54.3019,-2.2003
Al Forno,LA10 5BL,54.3236,-2.5277
Smatt's Duo Cafe,LA10 5BL,54.3236,-2.5277
The Black Bull Inn,LA10 5BL,54.3236,-2.5277
The coach house hotel,LA2 7HE,54.1181,-2.5099
The Black Bull Hotel,LA2 7HF,54.1179,-2.5095
The Dalesbridge,LA2 8AZ,54.1038,-2.3648
The Game Cock,LA2 8BB,54.1119,-2.3574
Feizor refreshments ltd ,LA2 8DF,54.1046,-2.3229
Goat Gap Cafe,LA2 8HS,54.1250,-2.4191
Ireby Green Farm Cafe,LA6 2JH,54.1694,-2.5372
Wheatsheaf ,LA6 3AD,54.1540,-2.4666
The Station Inn,LA6 3AS,54.2148,-2.3396
Craven Heifer,LA6 3HG,54.1520,-2.4706
MASONS FREEHOUSE,LA6 3HL,54.1483,-2.4747
The Brook House Bar and Restaurant,LA6 3HR,54.1427,-2.5000
The Punch Bowl,LA6 3LF,54.1441,-2.5330
Country Harvest,LA6 3PE,54.1528,-2.4890
