name,postcode,lat,lon
Prion and adder,BD23 5QN,54.184993740000000,-2.185682457000000
perentie and Puffleg,BD24 0HF,54.149263840000000,-2.295892456000000
harlequin snake and python,BD24 0HU,54.162939860000000,-2.328197811000000
boa constrictor and Snipe,BD24 0JD,54.151833720000000,-2.296109842000000
king cobra and Pratincole,DL8 3NS,54.302509926386600,-2.186810949329680
Tahr and Parrotbill,DL8 3PN,54.299209148474100,-2.163809040338720
gavial and Vulture,DL8 3PU,54.315837368741000,-2.181306805614250
tokay and Komodo dragon,DL8 3QQ,54.303249970936600,-2.196172877298910
Wallaby and Gila monster,DL8 3RG,54.304328793878400,-2.201402969795750
Chipmunk and Philippine hawk-owl,DL8 3SW,54.296437000000000,-2.197108000000000
Condor and sand viper,LA10 5AB,54.323703751309000,-2.526444446101920
cycling lizard and whip snake,LA10 5BX,54.322907202851100,-2.527741112924440
Cloud rat and bearded dragon,LA10 5DF,54.324064357171300,-2.530292816197190
puff adder and Cloud rat,LA10 5DS,54.323118000000000,-2.537185626416390
thorn lizard and viper,LA10 5DU,54.322583558546400,-2.535916204012270
Myna and wall lizard,LA10 5HD,54.324716837010500,-2.535175182980140
snapping turtle and fer-de-lance,LA10 5HQ,54.317401293678100,-2.537170863302080
galliwasp and Skunk,LA10 5JJ,54.323033180041400,-2.519425032763360
Lemming and sidewinder,LA10 5PL,54.310101624155300,-2.352592172029840
swift and jew lizard,LA10 5QQ,54.285321184629000,-2.483329000000000
mountain devil and Buzzard,LA10 5SX,54.298547132318900,-2.499665000000000
death adder and Goose,LA2 7BA,54.118486511851100,-2.502879678182880
Zebra and Black cockatoo,LA2 7BG,54.117745000000000,-2.501880415003620
python and hognose snake,LA2 7BL,54.120230258357400,-2.519760841035630
Triller and krait,LA2 7FD,54.119084357831800,-2.506053825992360
Schneider python and Songlark,LA2 7FE,54.119035428857600,-2.507001770739550
leguaan and Old World quail,LA2 7HU,54.117587192625400,-2.515750139121640
Elephant and cycling lizard,LA2 7JQ,54.121604585105200,-2.509435245060350
Parrotlet and Thrasher,LA2 7NA,54.116229018763500,-2.511786380206540
Diving bird and leguaan,LA2 7NG,54.119826007264600,-2.513437149300670
cycling lizard and wall lizard,LA2 8BX,54.114060330583800,-2.355453172903480
flying dragon and Warbler,LA2 8DJ,54.124338000000000,-2.344677000000000
Quetzal and cerastes,LA2 8DT,54.120618721778500,-2.391019583132450
Egret and kabaragoya,LA2 8ES,54.106025572397800,-2.409143446294380
Thrasher and anaconda,LA6 2JE,54.191823059119900,-2.536582702244090
Piping shrike and Grouse,LA6 3AE,54.153135289654700,-2.464423607685300
hoop snake and lizard,LA6 3AF,54.153104898177900,-2.465311339007140
Mouse and dukite,LA6 3AX,54.207849236500900,-2.399800637846680
Marmoset and Badger,LA6 3DH,54.147425834117500,-2.467208000000000
bull snake and worm lizard,LA6 3DL,54.145727433662800,-2.469606905231120
hoop snake and Towhee,LA6 3DR,54.136276000000000,-2.464449000000000
Flameback and Pitohui,LA6 3EL,54.154015771229200,-2.469134228534010
mamba and Kangaroo,LA6 3FJ,54.149386754288000,-2.465760000000000
Moluccan boobook and mud turtle,LA6 3FL,54.149029933022600,-2.465189370930170
lizard and Gila monster,LA6 3HT,54.145263846097300,-2.480042186520540
Siskin and goanna,LA6 3JY,54.144083000000000,-2.534527377986020
gaboon viper and rat snake,LA6 3PB,54.157026543321400,-2.485017289225950
Shearwater and Goose,LA6 3PL,54.159390416031800,-2.480496711948160
