name,postcode,lat,lon
blind snake and Puffleg,BD23 5JR,54.228856000000000,-2.200636000000000
krait and puff adder,BD24 0HW,54.134139220000000,-2.298998505000000
Moluccan boobook and Old World warbler,BD24 9PS,54.104446140000000,-2.140924864000000
Bunting and diamond snake,DL8 3DF,54.273271623312200,-2.157348634363280
milk snake and hognose snake,DL8 3PF,54.299489087141100,-2.169341807937020
Pheasant and Ice seal,DL8 3RN,54.301851000000000,-2.200345358807430
mountain devil and wall lizard,LA10 5AR,54.322921908740400,-2.522298684322650
tiger snake and loggerhead,LA10 5BJ,54.323821229484400,-2.528506000000000
flying lizard and Duck,LA10 5DB,54.323598261128600,-2.529795000000000
jew lizard and Quetzal,LA10 5LP,54.321715948168000,-2.497177392545780
Partridge and anaconda,LA10 5PF,54.301073226167000,-2.400304412422850
tokay and mud turtle,LA10 5QG,54.293234000000000,-2.497817000000000
Vole and Cloud rat,LA10 5RD,54.257958576802500,-2.419550246656960
Grackle and turtle,LA2 7BQ,54.117851934313300,-2.499873464913180
hognose snake and cobra de capello,LA2 7BX,54.118896756959400,-2.536894344214230
Schneider python and frill-necked lizard,LA2 7DF,54.113430000000000,-2.529588000000000
Cuscus and swift,LA2 7EN,54.121395778339500,-2.536788961202870
perentie and Parrotbill,LA2 7ER,54.123138929067200,-2.536888003077030
gecko and Warbler,LA2 7ET,54.128273137780400,-2.536372917707970
Tree warbler and Hawaiian honeycreeper,LA2 7FG,54.119996212318600,-2.507212395566040
Buzzard and copperhead,LA2 7JJ,54.120740072488000,-2.509837728404200
bushmaster and Peafowl,LA2 7JW,54.120053028654100,-2.510777856099630
Mole and Capuchin,LA2 7LB,54.117872154183500,-2.507920782342210
chuckwalla and New World blackbird,LA2 7LX,54.108254634724500,-2.497356630274220
Chicken and Francolin,LA2 7NA,54.116229018763500,-2.511786380206540
bearded lizard and sea snake,LA2 8BH,54.109811746032600,-2.357634660521520
glass snake and sand viper,LA2 8BJ,54.110910061020600,-2.357016985444940
massasauga and Linsang,LA2 8DR,54.118349498416700,-2.392359795786770
Komodo dragon and Ibex,LA2 8EF,54.119340585167100,-2.388835073827890
Civet and Tahr,LA2 8ER,54.116376839239700,-2.393702674920370
amphisbaena and tuatara,LA2 8HR,54.125765556986400,-2.418626004503920
agamid and Minke whale,LA6 2JZ,54.174811628132700,-2.530066007903370
Grosbeak and smooth snake,LA6 3AD,54.154044000000000,-2.466639000000000
Guillemot and Mouse,LA6 3AT,54.221302199348900,-2.335408996158330
skink and Rabbit,LA6 3BJ,54.151499000000000,-2.467131000000000
water snake and rattlesnake,LA6 3DB,54.148386547832700,-2.469912591373110
Chicken and king cobra,LA6 3HA,54.152389955369600,-2.471198174493640
Badger and Marmoset,LA6 3JU,54.144647000000000,-2.535008000000000
Thicketbird and rock python,LA6 3LG,54.144613875884100,-2.532022254687250
