name,postcode,lat,lon
The Queens Arms Litton,BD23 5QJ,54.162993290000000,-2.146070866000000
Knight Stainforth Hall Caravan and Camping Park,BD24 0DP,54.100719780000000,-2.285805388000000
Helwith Bridge Ltd ,BD24 0EH,54.121044210000000,-2.291774511000000
The Crown Hotel,BD24 0HF,54.149263840000000,-2.295892456000000
Cherish Glamping,DL8 3JH,54.314400000000000,-2.141520000000000
Simonstone Hall Hotel,DL8 3LY,54.320724255133100,-2.201422000000000
Stage 1 Cycles,DL8 3NT,54.303402598010100,-2.190672156427800
Stone House Hotel Ltd.,DL8 3PT,54.313565000000000,-2.180805000000000
White Hart Country Inn,DL8 3QL,54.303914618853000,-2.196299000000000
Laburnum House Hawes,DL8 3QR,54.304282314007300,-2.197038000000000
The Folly ,DL8 3QZ,54.304110148779500,-2.197759818511580
The Fountain Hotel (Hawes) Ltd,DL8 3RD,54.304304875641400,-2.199313000000000
1897 Coffee Shop c/o Wensleydale Dairy Products Ltd,DL8 3RN,54.301851000000000,-2.200345358807430
Calverts Restaurant c/o Wensleydale Dairy Products Ltd,DL8 3RN,54.301851000000000,-2.200345358807430
Smatt's Duo Cafe,LA10 5BL,54.323581278922200,-2.527734370702020
The Black Bull Inn,LA10 5BL,54.323581278922200,-2.527734370702020
The coach house hotel,LA2 7HE,54.118142536816300,-2.509867027704750
The Black Bull Hotel,LA2 7HF,54.117892906392100,-2.509512000000000
The Dalesbridge,LA2 8AZ,54.103786494143300,-2.364816530194770
The Game Cock,LA2 8BB,54.111933978391300,-2.357392000000000
Feizor refreshments ltd ,LA2 8DF,54.104607650847700,-2.322919000000000
Goat Gap Cafe,LA2 8HS,54.125017806205900,-2.419138703408950
Ireby Green Farm Cafe,LA6 2JH,54.169351634823400,-2.537180140539170
Wheatsheaf ,LA6 3AD,54.154044000000000,-2.466639000000000
The Station Inn,LA6 3AS,54.214828649970200,-2.339558106495010
The Brook House Bar and Restaurant,LA6 3HR,54.142667000000000,-2.500050000000000
The Punch Bowl,LA6 3LF,54.144088292365500,-2.532995245347840
Country Harvest,LA6 3PE,54.152795426593300,-2.488964095933770
