name,postcode,lat,lon
The Queens Arms Litton,BD23 5QJ,54.16300201416020,-2.14608693122864
Knight Stainforth Hall Caravan and Camping Park,BD24 0DP,54.10073089599610,-2.28582191467285
Helwith Bridge Ltd ,BD24 0EH,54.12152780000000,-2.29048060000000
The Crown Hotel,BD24 0HF,54.14934539794920,-2.29592490196228
Cherish Glamping,DL8 3JH,54.31442870000000,-2.14166220000000
The Old Dairy Farm,DL8 3LX,54.27425900000000,-2.29299600000000
Simonstone Hall Hotel,DL8 3LY,54.32073300000000,-2.19973100000000
Stage 1 Cycles,DL8 3NT,54.30341200000000,-2.19068900000000
Stone House Hotel Ltd.,DL8 3PT,54.31357192993160,-2.18082141876221
White Hart Country Inn,DL8 3QL,54.30392400000000,-2.19643900000000
Laburnum House Hawes,DL8 3QR,54.30429077148438,-2.19691658020020
The Folly ,DL8 3QZ,54.30412000000000,-2.19777600000000
The Fountain Hotel (Hawes) Ltd,DL8 3RD,54.30431400000000,-2.19959100000000
1897 Coffee Shop c/o Wensleydale Dairy Products Ltd,DL8 3RN,54.30174300000000,-2.20036200000000
Calverts Restaurant c/o Wensleydale Dairy Products Ltd,DL8 3RN,54.30174300000000,-2.20036200000000
Al Forno,LA10 5BL,54.32359100000000,-2.52775100000000
Smatt's Duo Cafe,LA10 5BL,54.32359100000000,-2.52775100000000
The Black Bull Inn,LA10 5BL,54.32359100000000,-2.52775100000000
Coach House Hotel,LA2 7HE,54.11836960000000,-2.51019300000000
Ruposhi indian restaurant ,LA2 7HE,54.11802370000000,-2.50908730000000
The coach house hotel,LA2 7HE,54.11836960000000,-2.51019300000000
The Black Bull Hotel,LA2 7HF,54.11785820000000,-2.50997260000000
The Dalesbridge,LA2 8AZ,54.10379409790040,-2.36483311653137
The Game Cock,LA2 8BB,54.11188888549800,-2.35740900039673
Feizor refreshments ltd ,LA2 8DF,54.10462070000000,-2.32280010000000
Goat Gap Cafe,LA2 8HS,54.12502670288090,-2.41915488243103
Ireby Green Farm Cafe,LA6 2JH,54.16936100000000,-2.53719700000000
Wheatsheaf ,LA6 3AD,54.15357208251950,-2.46588397026062
The Station Inn,LA6 3AS,54.21483993530270,-2.33957505226135
Craven Heifer,LA6 3HG,54.15142330000000,-2.47111350000000
MASONS FREEHOUSE,LA6 3HL,54.14825057983400,-2.47473502159119
The Brook House Bar and Restaurant,LA6 3HR,54.14247894287110,-2.49960494041443
The Punch Bowl,LA6 3LF,54.14383000000000,-2.53325400000000
Country Harvest,LA6 3PE,54.15280532836910,-2.48898100852966
