name,postcode,lat,lon
chuckwalla and Cloud rat,BD24 0HJ,54.148821490000000,-2.300313862000000
Myna and anole,BD24 9PE,54.101529590000000,-2.273821659000000
monitor and taipan,DL8 3DE,54.277518323847600,-2.138905092337560
Pitohui and Magpie,DL8 3DF,54.273271623312200,-2.157348634363280
adder and Capuchin,DL8 3NT,54.303402598010100,-2.190672156427800
Marsh harrier and Moluccan boobook,DL8 3PL,54.298649865651900,-2.165327990777190
Zebra and terrapin,DL8 3RH,54.303877168724500,-2.203121000000000
Skunk and crocodile,LA10 5AB,54.323703751309000,-2.526444446101920
Francolin and Black jay,LA10 5DJ,54.323444655203100,-2.532237444159270
sand lizard and Chipmunk,LA10 5DS,54.323118000000000,-2.537185626416390
bushmaster and Old World vulture,LA10 5DT,54.322752188465500,-2.536395008632460
glass snake and Tree warbler,LA10 5RQ,54.268604911804700,-2.402169851031190
Parrotbill and Parakeet,LA10 5RZ,54.320693000000000,-2.528635000000000
Chickadee and habu,LA10 5SJ,54.316241254274600,-2.523013379358670
iguana and galliwasp,LA10 5SW,54.315767552586100,-2.518242063322490
cobra and blindworm,LA10 5SY,54.295283000000000,-2.484476591354250
Perching duck and monitor,LA10 5TQ,54.276728442673800,-2.388780620737700
boomslang and fer-de-lance,LA2 7AQ,54.126840518150000,-2.508214142772010
mamba and taipan,LA2 7BA,54.118486511851100,-2.502879678182880
anaconda and Booted eagles,LA2 7BN,54.119083904154300,-2.516732572430430
frilled lizard and Myna,LA2 7DU,54.119301311963200,-2.536868977102140
thorn lizard and Siskin,LA2 7HE,54.118142536816300,-2.509867027704750
cycling lizard and Pitohui,LA2 7JE,54.120630881534400,-2.512269030462970
Marmoset and Mockingbird,LA2 7LR,54.113753757122300,-2.514754108479970
Peafowl and python,LA2 8DX,54.125745012055200,-2.392735735839320
Siskin and milk snake,LA6 3AE,54.153135289654700,-2.464423607685300
blind snake and moloch,LA6 3AH,54.152464147883300,-2.463665835073640
indigo snake and Hawaiian honeycreeper,LA6 3AJ,54.151949135979500,-2.462037094241170
milk snake and hawksbill,LA6 3AS,54.214828649970200,-2.339558106495010
Thicketbird and Quetzal,LA6 3BA,54.149697000000000,-2.468335000000000
habu and Hawk,LA6 3BD,54.152725780713100,-2.465735805139150
Shearwater and thorny devil,LA6 3BP,54.151389203289200,-2.469701640815050
New World blackbird and Black cockatoo,LA6 3DD,54.147717970326100,-2.470808282454030
Marsh harrier and Crow,LA6 3DJ,54.148100284976000,-2.467260763393750
Skunk and Masked owl,LA6 3DY,54.148471373057800,-2.468903100767880
tokay and Schneider python,LA6 3JG,54.188878221152600,-2.404751239813330
crocodile and Flameback,LA6 3JT,54.144517907190800,-2.533398785456150
tuatara and dukite,LA6 3NU,54.146665000000000,-2.471409000000000
New World blackbird and Black jay,LA6 3PA,54.159557879474500,-2.501141899825840
Pitohui and saltwater crocodile,LA6 3PP,54.148844542442400,-2.474587335069950
