name,postcode,lat,lon
Royal Golf Hotel,IV25 3LG,57.879484849383400,-4.022917841444590
Dornoch Castle Hotel Limited,IV25 3SD,57.879625000000000,-4.028778000000000
The coach house bar and restaurant ltd,IV25 3SD,57.879625000000000,-4.028778000000000
Luigis,IV25 3SN,57.880469706477600,-4.031944000000000
Eagle hotel ,IV25 3SR,57.880779159644900,-4.033565469734590
Stag on the Green,KW10 6TG,57.973261000000000,-3.976222000000000
Stags Head Hotel,KW10 6TG,57.973261000000000,-3.976222000000000
sutherland inn,KW9 6NX,58.010946945794300,-3.855293816886540
Royal Marine Hotel,KW9 6QS,58.012870000000000,-3.848436000000000
