name,postcode,lat,lon
rock snake and bearded lizard,IV25 3NE,57.903908779558100,-4.108793505283900
turtle and sand viper,IV25 3NF,57.907193556524700,-4.133747135535670
coral snake and amethystine python,IV25 3PW,57.896192403193400,-4.023131157749350
diamond snake and sidewinder,IV25 3QZ,57.879120703886200,-4.033336915224740
diamondback terrapin and Mockingbird,IV25 3RL,57.870632000000000,-4.175709000000000
sand lizard and Argus,IV25 3SF,57.879414352171600,-4.034313000000000
sand viper and snapping turtle,KW10 6RQ,57.977508432151600,-3.972312703054510
Schneider python and Logrunners,KW10 6RS,57.977323928111200,-3.965081557563270
thorn lizard and anole,KW10 6SF,57.985321640549300,-3.948029823394260
sand lizard and Recurvebill,KW10 6SU,57.973417525294200,-3.983484685650860
Chipmunk and Fox,KW10 6TJ,57.973773789777500,-3.979649032678010
milk snake and python,KW9 6PW,58.006973192859900,-3.857339083934330
box turtle and rock python,KW9 6PX,58.008995213770400,-3.848659556155150
Ibex and giant tortoise,KW9 6QD,58.009420823854200,-3.848427625168560
Eagle and Darwin's finches,KW9 6QX,58.013775075112700,-3.851716144476650
