id,postcode,lat,lon
PPL,EDMONDBYERS,54.84508,-1.97568
PPL,EDMONDSHAM,50.90255,-1.91285
PPL,EDMONDSLEY,54.83572,-1.63224
PPL,EDMONDTHORPE,52.74991,-0.72604
PPL,EDMONTON,51.62561,-0.05798
PPLX,EDMONTONGREEN,51.6187,-0.05372
