id,postcode,lat,lon
PPL,EDMONDBYERS,54.8451,-1.9757
PPL,EDMONDSHAM,50.9025,-1.9128
PPL,EDMONDSLEY,54.8357,-1.6322
PPL,EDMONDTHORPE,52.7499,-0.7260
PPL,EDMONTON,51.6256,-0.0580
PPLX,EDMONTONGREEN,51.6187,-0.0537
