name,postcode,lat,lon
American sparrow and Jerboa,LE15 7DU,52.715748843773300,-0.666647082035159
Bronzewing pigeon and Kestrel,PE9 4SW,52.658053012731900,-0.432610424490623
Argus and Parrotlet,LE13 0HF,52.759585036418500,-0.894975296432230
Perching duck and B,NN18 0DX,52.488430269855000,-0.727420876238371
Elephant and Duck,LE15 7TT,52.683455000000000,-0.746292000000000
Kestrel and Tit-tyrant,PE9 2RS,52.651737025697900,-0.504608302236907
Songlark and Thicketbird,LE15 7PF,52.727933297767000,-0.682979469561825
Gull and Piping shrike,NN17 9EW,52.494759110700000,-0.677966436300000
Shearwater and Chipmunk,LE13 0QA,52.773425361670100,-0.891481000000000
Fulmarine petrel and Mole,LE13 0HU,52.764982551918900,-0.906028363731637
Badger and Petrel,LE16 8XQ,52.504051143890000,-0.749761887584920
Magpie and Diving bird,LE15 7NW,52.720215330659300,-0.629436773057966
Greenbul and Civet,PE9 2DP,52.650963758629300,-0.478469113747940
Grackle and Jerboa,LE15 6JL,52.663418000000000,-0.724651000000000
River dolphin and Booted eagles,PE8 5BE,52.500402145732900,-0.492528000000000
Jackal and Booted eagles,NN18 0SB,52.485476618902500,-0.706255226210255
Thicketbird and Marsh harrier,LE15 7QE,52.738506033271200,-0.686245350264272
Siskin and Goose,NN18 0EZ,52.489069727780800,-0.720023658995046
Mole and Fish eagle,LE16 9QU,52.482391153997200,-0.933224646269383
Chicken and Diving bird,LE13 0AF,52.761582982329000,-0.891353204191689
Pratincole and Parrotlet,NN17 2LG,52.503516781069200,-0.721622512609679
Guillemot and Eagle,NN18 0DF,52.491241796940200,-0.730535875721232
Tattler and Linsang,LE13 0BX,52.754465758634000,-0.887814759107346
Lemming and Prion,NN17 1RY,52.489637965453800,-0.696309359143430
Asiatic leopard and American sparrow,LE15 9AZ,52.593370747622600,-0.772096900104361
Maya and Lemming,LE14 4QG,52.815865822663300,-0.852729028384277
Boto and Chickadee,LE15 8LP,52.671670248609200,-0.813916168403401
Hawk and Grouse,LE14 3LJ,52.807194185545800,-0.968730453407473
Puffleg and Coati,NG33 5LJ,52.784464589262500,-0.626766563961178
Elephant and Black jay,LE15 9AJ,52.628658083058400,-0.751488506375122
Peafowl and Old World warbler,NG33 4PT,52.752411213566300,-0.496732964665973
Perching duck and Civet,LE15 9EQ,52.585569230985200,-0.694940950086047
Kite and Parrotlet,PE9 1SS,52.661667887135100,-0.479590850082263
Tit-tyrant and Tit-tyrant,LE13 1QB,52.770412590545300,-0.874320085110344
Diving bird and Philippine hawk-owl,LE13 0TU,52.765014000000000,-0.887976000000000
Tree warbler and Parrotbill,LE13 0DX,52.754467650751500,-0.892822928179911
Kangaroo and Egret,LE14 4AP,52.812277869811600,-0.815107972445325
Maya and Greenbul,PE8 6EG,52.607349803294000,-0.434258890536626
Kite and Magpie,LE15 6BU,52.676856087582800,-0.721242599814083
Recurvebill and Fulmarine petrel,LE15 6DG,52.673706713055300,-0.720594000000000
Mouse and Marmoset,PE9 4JP,52.685985000000000,-0.467350510635502
Puffleg and Crow,LE16 7AP,52.482029685669800,-0.926062100382246
Herring gull and Goose,LE13 1LQ,52.780019566065900,-0.885399245949948
Treepie and Black jay,NG33 4PG,52.782436000000000,-0.494987000000000
Black jay and Partridge,NN17 3LX,52.493861000000000,-0.626173000000000
Mink and Moluccan boobook,LE15 7GJ,52.679429483105800,-0.744925000000000
Ice seal and Kestrel,LE16 7HG,52.486027379853800,-0.913064000000000
Linsang and Cuscus,PE9 3SB,52.627128887582100,-0.558192944032968
Black jay and Pitohui,LE15 6SW,52.664841036993100,-0.737637305983006
American sparrow and Old World warbler,LE15 6JN,52.668123943708700,-0.728521906286210
Armadillo and Parrotbill,LE15 8QD,52.650144000000000,-0.587193000000000
Greenbul and Shearwater,LE14 2PU,52.684261000000000,-0.844301000000000
Skunk and Duck,LE14 3NA,52.794914757757300,-0.968813212191222
Parrotlet and Warbler,NN17 2DQ,52.497299284271700,-0.707911658088864
Marsh harrier and Crow,LE15 0SS,52.668245856489600,-0.724806516296631
Goose and Old World warbler,NN17 3AZ,52.558931451592700,-0.606646760268542
Maya and Cloud rat,LE13 0DS,52.755868924320900,-0.891735347880459
Tattler and Duck,LE14 2EP,52.706125844370700,-0.884884961502043
Puffleg and B,LE13 0TJ,52.760012189887100,-0.892578613485305
Triller and Partridge,LE13 0FQ,52.752871859366900,-0.900064277977692
Pitohui and Marmoset,LE16 8SD,52.520994000000000,-0.775029000000000
Pratincole and Badger,LE14 2RG,52.693862000000000,-0.839638000000000
Dolphin and Perching duck,LE14 2ED,52.756689930433200,-0.944303341812349
Condor and Crow,LE16 7SZ,52.534966000000000,-0.932040000000000
B and Jerboa,NN17 4AE,52.507028577958400,-0.703942866268078
Logrunners and Bronzewing pigeon,NN17 5EF,52.505300097300000,-0.639460748300000
Grouse and Polecat,LE15 8JL,52.619204104669900,-0.615118483585032
Chicken and Guillemot,PE8 4HA,52.483451839751900,-0.480014094700976
Hawk and Old World vulture,PE9 4QN,52.668453533940700,-0.468248985181193
Jerboa and Chickadee,LE15 8QE,52.667945024530000,-0.585007020305857
Crow and Rabbit,PE9 2TG,52.657070341716800,-0.500493543523643
B and Siskin,LE14 4RE,52.810967898241000,-0.730990473368486
Diving bird and Scimitar babbler,LE13 0EG,52.756624668444800,-0.896620906417198
Goose and Hawk,PE9 4NG,52.713381381912300,-0.449754880051474
Dolphin and Nukupuʻu,LE15 6NU,52.670709480569900,-0.743457000000000
Scimitar babbler and Jay,LE13 1SE,52.766447549389400,-0.878068368660107
Philippine hawk-owl and Stilt,LE14 3JE,52.789596000000000,-0.911754662121012
Mockingbird and Civet,PE9 2RQ,52.649541080356500,-0.472709031598685
Zebra and Mink,PE9 4UT,52.702347065812700,-0.455725601556258
Mink and Chipmunk,LE7 9FZ,52.592529000000000,-0.964270000000000
Black jay and Nukupuʻu,NN17 1HQ,52.495942511669200,-0.699776057116963
Jerboa and Cuscus,LE15 6PH,52.672946087669600,-0.745715606028716
Pitohui and Kestrel,LE14 3SJ,52.766661707662500,-0.938474594911672
Polecat and Marmoset,LE13 0SR,52.774784767333500,-0.902476898145086
Piping shrike and Jerboa,LE13 0JS,52.749829533504500,-0.881399107165720
Buzzard and Flameback,LE15 6JB,52.664792450639200,-0.724700010299168
B and Towhee,LE14 2QU,52.676870235663000,-0.913732728669765
Black cockatoo and Mockingbird,NN17 2SB,52.496472379157200,-0.727011960152317
Kākāriki and Diving bird,PE9 2PY,52.652897135342100,-0.488336490946767
Tahr and Kangaroo,NG33 4LN,52.791977746980100,-0.529019883223724
Tahr and Linsang,PE8 6BY,52.610512886202800,-0.443538000000000
Mamo and Philippine hawk-owl,NN17 5XN,52.503400000000000,-0.661398000000000
Tattler and Logrunners,PE9 2UG,52.657851212298800,-0.501812268402421
Argus and Zebra,LE7 9EA,52.581696282801900,-0.975830201943371
Kestrel and Maya,PE9 1HH,52.660642143231500,-0.483736977260811
Dorcopsis and Stint,PE8 5FB,52.500997000000000,-0.489427000000000
Dolphin and Kestrel,NG33 5LE,52.785017493539200,-0.646722430670501
Viscacha and Zebra,NN17 1AP,52.492506628015700,-0.682778000000000
Tahr and Magpie,LE16 7AD,52.485262790048900,-0.926675521909413
Triller and Magpie,NN17 2PG,52.495747069421900,-0.718121072439872
B and Mockingbird,LE15 7LE,52.723404068948200,-0.779970000000000
Marsh harrier and Armadillo,LE14 3SD,52.763382614993900,-0.950855058765679
Triller and Cloud rat,NN17 4AP,52.511539000000000,-0.701150908608986
Darwin's finches and Grackle,LE14 2NQ,52.753223423938100,-0.971323893100153
Boto and Marmoset,LE13 9SN,52.769494088033800,-0.893271877103485
Fox and Marsh harrier,NG33 5LZ,52.787091000000000,-0.602943000000000
Boto and Kite,LE15 7PS,52.738280332963100,-0.685348603053782
Darwin's finches and Vulture,PE9 1JP,52.662121048224900,-0.487604241913138
Cuscus and Condor,NG33 4QG,52.771712335587500,-0.519519222009662
Moluccan boobook and Puffleg,LE16 0HU,52.483703000000000,-0.905510000000000
Warbler and Crow,NN17 3JF,52.492070524949400,-0.638484408498909
Marsh harrier and Rabbit,LE15 8TU,52.630747286372200,-0.661223793971611
Capuchin and Greenbul,PE9 4SP,52.660544323516200,-0.429963300579632
Ice seal and Nukupuʻu,LE15 7SS,52.734658835634100,-0.564511837361515
Bronzewing pigeon and Dorcopsis,PE9 1PG,52.653655161425300,-0.478348000000000
Myna and Scimitar babbler,NN17 1HN,52.496737231092600,-0.699281234790457
Capuchin and Perching duck,PE8 4ND,52.490044771662700,-0.471847984255444
Mouse and Duck,NN17 9SQ,52.487430497108800,-0.703237664608967
Mink and Shearwater,LE16 8XZ,52.501907886003600,-0.750279387903798
Magpie and Francolin,PE8 4QN,52.489852983641900,-0.481739000000000
Duck and Macaw,PE9 1LG,52.657368647670800,-0.485772294210094
Mink and Ground sloth,PE9 3SX,52.636783427161000,-0.546200000000000
Cloud rat and Mockingbird,LE16 8HU,52.515932978978300,-0.857947501524060
Warbler and Mouse,PE9 1UR,52.661460930820700,-0.467014819108764
Vulture and Minke whale,LE16 8SZ,52.528481559298800,-0.752635693931585
Booted eagles and Bronzewing pigeon,NN17 5FE,52.504614008500000,-0.636386000000000
Perching duck and Puffleg,LE14 3LZ,52.814518446509900,-0.977800919940189
Booted eagles and Kangaroo,PE9 2AT,52.651935180188500,-0.479204115662770
Duck and Wallaby,PE9 2SE,52.653361242476200,-0.502941473274895
Perching duck and Mole,PE9 4AQ,52.700952000000000,-0.568711000000000
White ibis and Buzzard,NN17 3HZ,52.497300346112200,-0.637468480753598
Night heron and Quetzal,PE9 1EG,52.654220602191200,-0.479346569992396
Logrunners and Pitohui,LE13 1HJ,52.760507068400600,-0.875420167744893
Coati and Mole,LE15 6NF,52.671665317678700,-0.748724945482071
Goose and Egret,PE8 5EQ,52.539768443733200,-0.478512107881656
Macaw and Gull,LE13 0AB,52.753884248405300,-0.882376903975876
Partridge and Peafowl,LE15 9PU,52.589672365421900,-0.719146529620295
Thrasher and Moluccan boobook,LE15 8AE,52.655945000000000,-0.708003267255743
Prion and Gull,LE7 9AZ,52.613895583040500,-0.935659054790216
Ground sloth and Darwin's finches,LE16 8XB,52.503420824706900,-0.761639688126077
Quetzal and Jackal,PE9 3PN,52.611184426178600,-0.532944271527487
Bronzewing pigeon and Argus,LE7 4XJ,52.722442688829800,-0.968316987003191
Shearwater and Peafowl,NN17 3FE,52.511274000000000,-0.641560000000000
Pitohui and Chipmunk,LE13 1SG,52.766675000000000,-0.877262000000000
Moluccan boobook and Stilt,PE9 2RU,52.650959386748800,-0.502831333098221
Peafowl and Goose,LE15 6SP,52.663980460867600,-0.735340572841808
Solitaire and Prion,PE9 2FF,52.660319261845300,-0.511457029585146
Bunting and Parakeet,LE13 1PW,52.777566615059600,-0.880762354953383
Egret and Argus,PE8 4AL,52.482805384394300,-0.466149398880941
Goose and Elephant,LE15 7PL,52.736707000000000,-0.685263000000000
Fox and River dolphin,PE9 1BT,52.661444223943400,-0.489520257510722
Greenbul and Grosbeak,LE14 3RX,52.761939728969000,-0.957484479262299
American sparrow and Myna,LE13 0BG,52.759747000000000,-0.889058000000000
Grouse and Grackle,LE13 9AE,52.768344870886000,-0.867703530418370
Zebra and Francolin,LE14 3RZ,52.764177568789200,-0.948242380984662
Boto and Pheasant,PE9 4EY,52.686482806384800,-0.469201233026798
Logrunners and Shearwater,NN17 5YF,52.496584672379300,-0.674994919636101
Zebra and Magpie,LE13 1XR,52.764628676112500,-0.885392060924429
Kestrel and Egret,LE15 7TR,52.683109058211600,-0.745025178516478
Coati and Asiatic leopard,PE8 5HX,52.525948000000000,-0.469217000000000
New World blackbird and Perching duck,LE15 7TQ,52.683132000000000,-0.743042000000000
Vole and Polecat,NN17 4ET,52.513557953406800,-0.696780518080250
Fulmarine petrel and New World blackbird,NG33 4SW,52.759801000000000,-0.558202000000000
Myna and Flameback,LE14 3UJ,52.765756131638500,-0.960787468581402
Linsang and River dolphin,PE9 2HU,52.652694979705300,-0.475363629894470
Black jay and Zebra,LE13 0AJ,52.750520479202500,-0.881262885940725
Moluccan boobook and Petrel,PE8 6DD,52.610471811720600,-0.439623000000000
Lemming and Grosbeak,PE9 2UN,52.658643946305800,-0.499094225053501
River dolphin and Maya,LE15 8DA,52.670508000000000,-0.771237000000000
Hawaiian honeycreeper and Meadowlark,LE13 1BP,52.764663500494900,-0.874794381319983
Bronzewing pigeon and Mink,NN17 2GE,52.501022437100000,-0.717717304000000
Fox and Solitaire,LE15 6LJ,52.667621091480200,-0.740366925268049
Elephant and Egret,LE16 7PN,52.488450356607300,-0.907569884917732
Stint and Rabbit,LE16 7AU,52.482450268555600,-0.925845702030071
Ibex and Condor,PE9 4HL,52.685536317820900,-0.471098440881984
Nukupuʻu and Parrotlet,PE8 5AH,52.493230273071200,-0.566170215453254
Gull and Flameback,NN17 1XD,52.490111148243300,-0.681404886717103
Armadillo and Mouse,PE8 6XX,52.587253000000000,-0.507070000000000
Myna and Capuchin,LE13 1HX,52.778538315512000,-0.882753685651787
Gull and Black cockatoo,PE9 4EJ,52.663551000000000,-0.511618000000000
Piping shrike and Coati,PE9 2JH,52.658105761614800,-0.511310443648937
Badger and Solitaire,NN17 1SY,52.491428000000000,-0.701281208368534
Cuscus and Darwin's finches,PE8 4PN,52.490558919452800,-0.476160480129073
Triller and Stilt,NN17 3ES,52.518651000000000,-0.648996000000000
Chipmunk and Jackal,LE15 7GY,52.721275385350800,-0.778250535907200
Prion and Armadillo,LE7 3RB,52.686124821802700,-0.979632395152786
Tree warbler and B,LE15 6HN,52.665789716263600,-0.717972274927751
Mockingbird and Marmoset,NG33 4NF,52.792252283143000,-0.535224647282531
Partridge and Viscacha,LE13 0PL,52.773166501952100,-0.890866280511148
Rabbit and Marsh harrier,LE16 7FR,52.508828382960100,-0.928606000000000
Cuscus and Rat,NG33 5JQ,52.803953209304000,-0.615753759630229
Fulmarine petrel and Vulture,PE9 2QW,52.650333988796100,-0.485453585302387
Stint and Wader,LE16 8XY,52.502540790215300,-0.751469509105024
Chicken and Prion,LE15 6RP,52.672492380200800,-0.738524000000000
Darwin's finches and Crow,LE7 9XG,52.586009000000000,-0.849987000000000
Kākāriki and Grosbeak,LE14 2QS,52.683094000000000,-0.891552000000000
Warbler and Kākāriki,NN17 3NB,52.492865000000000,-0.623229000000000
Dorcopsis and Piping shrike,LE13 0QQ,52.751861562979200,-0.894859560020621
Tree warbler and Perching duck,NN18 0BU,52.490873542282600,-0.728057334444910
Chickadee and Petrel,NN18 0DU,52.489615974900200,-0.726488232684114
Puffleg and Partridge,NN17 4AN,52.506690176497500,-0.702597292340443
Bronzewing pigeon and Bronzewing pigeon,PE8 4PJ,52.489923915044100,-0.474326604994677
Warbler and Nukupuʻu,NN17 1AJ,52.496603068898200,-0.687942607606764
Night heron and B,NN18 0DG,52.491682000000000,-0.729595000000000
Goose and Wallaby,LE14 2BG,52.760772000000000,-0.749721000000000
Pratincole and Grosbeak,NN17 5ED,52.506184586000000,-0.639757585500000
Warbler and Chicken,PE9 3TW,52.627678420913900,-0.553121886503651
Masked owl and Lemming,LE16 7BY,52.488630000000000,-0.938143000000000
New World blackbird and Elephant,PE9 1AQ,52.654783019705900,-0.483244845697383
Kestrel and Kangaroo,LE13 1HB,52.757911441564300,-0.870004203762952
Philippine hawk-owl and Meadowlark,LE16 7DL,52.482578084075600,-0.912280280809014
Recurvebill and Coati,PE9 4EW,52.680335262702800,-0.471442782777865
Meadowlark and Moluccan boobook,NN17 5XG,52.490475000000000,-0.676872000000000
Hawk and Nukupuʻu,NN17 2HY,52.504156560868000,-0.710981372401811
Kangaroo and Vulture,NG33 5LF,52.784261000000000,-0.650340202304733
Logrunners and Grouse,NG33 5JZ,52.787332298251700,-0.628307444433287
Fulmarine petrel and Kite,LE7 9DR,52.640828147394100,-0.915615857025847
Snipe and Flameback,PE9 2UR,52.659666320765000,-0.501735422502555
Parrotlet and Pitohui,LE15 8BZ,52.689280500472500,-0.634178419763726
Kite and Fish eagle,LE15 8RT,52.617439000000000,-0.680053000000000
Moluccan boobook and Wader,PE9 1QX,52.657264448134100,-0.478339064305196
Chicken and Tree warbler,LE15 6RA,52.674433664028700,-0.733426617709456
Duck and Philippine hawk-owl,LE15 6UJ,52.669013001742700,-0.717582175640586
Peafowl and Solitaire,LE15 7UU,52.675731393100000,-0.740252106900000
Parakeet and Parrotbill,LE16 8RQ,52.521305520904700,-0.778337045350171
Grouse and Elephant,LE16 8UA,52.560916194589300,-0.839003699075046
Thicketbird and Prion,LE15 9LZ,52.564269142623500,-0.709544553999995
Viscacha and Duck,LE13 0JB,52.766367095991100,-0.896330222550448
Warbler and Petrel,PE8 6BX,52.612048000000000,-0.439364000000000
Minke whale and Buzzard,PE9 3JX,52.637732162821600,-0.458489740005643
Fox and Warbler,LE14 2TG,52.703002544749800,-0.963758302177162
Goose and Thicketbird,LE15 9TH,52.587145579963300,-0.723264688685867
Mamo and Old World warbler,PE9 1EN,52.655056109354800,-0.477898294918497
Parrotlet and Chickadee,PE9 2NZ,52.649716894871800,-0.470175000000000
Old World warbler and Gull,NN18 0SL,52.484931397444200,-0.702442275409588
Fox and Cuscus,LE15 8BJ,52.668930981313100,-0.634576370942719
Kākāriki and New World blackbird,LE15 9DW,52.605196681515800,-0.632114328853578
Myna and Crow,NG33 5SD,52.796180049167500,-0.695409648630983
Boto and Ground sloth,LE15 9PT,52.587532462605400,-0.717467106831893
Jerboa and Tattler,NN17 1HS,52.494860690942600,-0.702783432133048
Viscacha and Lemming,LE15 9BH,52.558606920534500,-0.682759894772597
Pratincole and Black jay,LE14 2UZ,52.714469133524800,-0.820809085217336
Maya and Mamo,PE9 2HR,52.652318166119600,-0.474433000000000
Vole and Magpie,PE9 3HW,52.643971000000000,-0.427571000000000
Triller and Tit-tyrant,LE13 1NR,52.768344870886000,-0.867703530418370
White ibis and Hawaiian honeycreeper,NN17 2HF,52.504407220337100,-0.707585400723378
Recurvebill and Mole,LE15 9AS,52.613547878453400,-0.772374440113528
Chicken and Hawaiian honeycreeper,LE16 0HS,52.483703000000000,-0.905510000000000
Herring gull and Mockingbird,NN17 2QD,52.497781045025500,-0.721641553138265
Philippine hawk-owl and Duck,NG33 5HH,52.823601276601100,-0.672298000000000
Magpie and Asiatic leopard,NN17 1UR,52.489818586354000,-0.685007360488240
Bronzewing pigeon and Mockingbird,LE7 9WN,52.601504000000000,-0.877759000000000
Towhee and Armadillo,PE9 2QP,52.650427552390800,-0.485036438504456
Jerboa and Polecat,NN17 2SQ,52.502204901604100,-0.717535475026275
Herring gull and Skunk,LE16 8TP,52.510581980882400,-0.721285011301345
Nukupuʻu and Chickadee,PE9 1HY,52.658352068511900,-0.485339107962765
Chicken and Pitohui,LE15 7AE,52.722114700872100,-0.648448149568453
Treepie and Ground sloth,LE15 9JU,52.603409288973000,-0.796269234588672
Mockingbird and Black cockatoo,NN17 9FU,52.494759110700000,-0.677966436300000
Badger and Old World warbler,NN17 5XZ,52.500403000000000,-0.669061000000000
Grosbeak and Marsh harrier,LE13 0DA,52.762899000000000,-0.894521000000000
Dorcopsis and Wallaby,LE14 2AG,52.760345376665900,-0.741176106712179
Meadowlark and Treepie,NN17 3DP,52.535793172011900,-0.671057924641789
Tree warbler and Fulmarine petrel,LE13 1XQ,52.765951834363200,-0.885565774526644
Marmoset and Kestrel,LE13 1RD,52.770216796735200,-0.872635360246514
Piping shrike and Masked owl,LE13 9BP,52.768347392491700,-0.867703578228349
Black jay and Black jay,LE15 7TP,52.749602919334100,-0.683881928579136
Maya and Perching duck,LE15 8BT,52.655170124118000,-0.701266699018942
Goose and Thrasher,NN17 9HY,52.494774000000000,-0.677952000000000
Macaw and Tahr,PE9 2NX,52.650892035187100,-0.481989910849598
Kākāriki and Crow,NN17 3AQ,52.560010000000000,-0.655545000000000
Francolin and American sparrow,LE15 9EG,52.595008740249200,-0.723567737776162
Parakeet and Jay,LE15 7FS,52.682108000000000,-0.736356000000000
Old World quail and Fox,LE13 0BS,52.756600806907900,-0.891168511024360
Mockingbird and Zebra,NG33 4JR,52.819133298100600,-0.546207638529070
Jackal and Tahr,PE9 2WG,52.651046574974200,-0.480018438980482
Jerboa and Kākāriki,PE8 6DN,52.609611551759900,-0.437368315247986
Myna and Fulmarine petrel,NN17 2TU,52.498249029652300,-0.720022286654068
Recurvebill and Partridge,LE15 6PG,52.671596000000000,-0.735307556622886
Chickadee and Solitaire,NN17 1TA,52.491710400431800,-0.699179148295467
Civet and Marsh harrier,PE9 2AL,52.652356978048300,-0.479027000000000
Philippine hawk-owl and Recurvebill,LE15 9UL,52.593407275058300,-0.727851163474286
Puffleg and Boto,LE15 6BN,52.677966483812300,-0.721668714139038
Darwin's finches and Capuchin,NN18 0AU,52.486518415162400,-0.722704431844783
Petrel and Tahr,LE15 7SD,52.719540780145700,-0.636431425503562
Herring gull and Armadillo,LE15 7SZ,52.689702327772400,-0.685816725355937
Jerboa and Vole,NN17 1RW,52.488088945909500,-0.696885357269066
Jackal and Old World quail,LE13 1EA,52.759542745192300,-0.880602112157197
Treepie and Diving bird,LE16 7SW,52.547889635760900,-0.881068296183841
Stilt and Night heron,PE9 4EA,52.736713219319500,-0.485364387208103
Chicken and Tattler,LE15 9TT,52.586632252115500,-0.724017642929770
Jay and Pheasant,NN17 1XQ,52.502433369304000,-0.689153904931328
Warbler and Parrotlet,LE15 7JJ,52.690036742299700,-0.750848275106959
Cloud rat and Flameback,LE15 8QQ,52.659121000000000,-0.566559000000000
Black cockatoo and Vole,LE16 8TR,52.517827671301800,-0.724553000000000
Vole and Argus,NN17 9GJ,52.494759110700000,-0.677966436300000
Elephant and Asiatic leopard,LE16 7RW,52.494766665416000,-0.965153748675280
Mamo and Quetzal,LE13 1JH,52.774371424574800,-0.890894954846865
Old World warbler and Songlark,LE15 7AB,52.700998000000000,-0.682784000000000
Vulture and Macaw,LE15 7DB,52.713427509951400,-0.657717244624874
Eagle and Mink,LE15 9UD,52.587512350866800,-0.731461176569116
Philippine hawk-owl and Chicken,NG33 5JG,52.803099000000000,-0.617991000000000
Minke whale and B,LE15 7BU,52.715400325485200,-0.664437063732696
New World blackbird and Maya,NN17 2EP,52.505141255958900,-0.705648522550608
American sparrow and Fish eagle,PE9 4QD,52.685886879433300,-0.444145111430696
Tit-tyrant and Warbler,LE7 9BF,52.598743000000000,-0.984136163721500
Pheasant and Parakeet,LE15 7DD,52.712807014047100,-0.642695991091498
Chickadee and Hawk,LE15 8PZ,52.667187965399200,-0.590887568243306
Macaw and Snipe,NN17 1FQ,52.497819000000000,-0.692224000000000
Mole and Skunk,NN18 0SP,52.484524896288700,-0.700628139475491
Chickadee and Diving bird,NN17 5EP,52.505631962000000,-0.638610679100000
Eagle and Piping shrike,NN17 1QB,52.487430497108800,-0.703237664608967
Pheasant and Partridge,NG33 4SE,52.748228797905700,-0.533204963891206
Dorcopsis and Kite,PE9 4AG,52.679295000000000,-0.571727000000000
Condor and Lemming,LE15 6FT,52.673267004920100,-0.736773402471779
Capuchin and Masked owl,LE15 7LG,52.690131924833500,-0.717658943081103
Guillemot and Dorcopsis,LE14 2DT,52.751832452901900,-0.938938734184817
Petrel and Myna,LE16 8ZB,52.483703000000000,-0.905510000000000
Vulture and Tree warbler,LE16 9WN,52.483684529261700,-0.905523205234798
Shearwater and Hawaiian honeycreeper,NN18 0EW,52.488425239155400,-0.716964244274008
Logrunners and Quetzal,PE9 2WN,52.660444513396600,-0.517145371947082
Ibex and Jerboa,PE9 2FH,52.652682165314100,-0.472274340967177
Guillemot and Masked owl,LE13 9EX,52.768408000000000,-0.867598000000000
Rabbit and Rat,LE16 8QA,52.482790049523900,-0.814540077574252
Tree warbler and Moluccan boobook,PE9 2EX,52.655256164096500,-0.462057366435526
Meadowlark and New World blackbird,LE8 0PD,52.543918903822700,-0.945049642276038
Condor and Jay,PE9 1AF,52.655176237883400,-0.480954462639249
Wader and Jerboa,NN17 3DY,52.536926378300900,-0.581583000000000
Stilt and Tahr,PE8 5DJ,52.547256875500000,-0.492352264300000
Marmoset and Siskin,LE15 8HS,52.637023808103500,-0.641584571829503
Zebra and Cloud rat,NN17 2LU,52.501232688173400,-0.709976707807156
Pheasant and Rat,LE13 1UT,52.772812983384800,-0.879075799912054
Kite and Tahr,LE15 6GE,52.672963000000000,-0.736190000000000
Guillemot and Fish eagle,LE16 7LB,52.484978349498500,-0.921101127366800
Treepie and American sparrow,LE13 1XA,52.765236148094400,-0.886252000000000
Condor and Marmoset,PE9 2QT,52.650317274815200,-0.483443728892096
Macaw and Solitaire,NN18 0RH,52.484283191732500,-0.706466954536641
Buzzard and Elephant,LE15 6QB,52.679679064368700,-0.725420295556796
Skunk and Booted eagles,PE8 6PR,52.567689302250900,-0.423085000000000
Macaw and Ice seal,LE15 6LN,52.670041020506300,-0.735446600839314
Songlark and Puffleg,LE13 1PT,52.766439722118400,-0.881047649112030
Petrel and Vulture,LE15 7PY,52.736695978929200,-0.682730201077301
Skunk and Asiatic leopard,PE8 6YH,52.567306761355900,-0.513899946136896
Mink and Masked owl,PE9 3JR,52.627557789052800,-0.466338197309088
New World blackbird and Kangaroo,NN17 1HG,52.497490161550000,-0.699892446845622
Vole and Peafowl,LE13 1SN,52.765626347202600,-0.880594224326781
Wader and Vole,NN18 0AE,52.488945019340100,-0.725962674209773
Triller and Parrotbill,PE9 4BY,52.661254550918100,-0.515062670879359
Booted eagles and Thrasher,PE8 4JB,52.485145226711400,-0.469793983773460
Fish eagle and Grouse,PE9 2GX,52.656143547484900,-0.502565522130909
Badger and Mamo,PE8 5BD,52.500261759957700,-0.488921937023785
Macaw and Treepie,LE15 8PS,52.668387594642600,-0.591972906850098
Duck and Piping shrike,NG33 5PW,52.768598654328100,-0.630808348432856
Recurvebill and Shearwater,PE9 4LA,52.704004000000000,-0.451700000000000
Booted eagles and Towhee,LE14 2RR,52.771596000000000,-0.787174000000000
Chipmunk and Fulmarine petrel,NN18 0LH,52.486603000000000,-0.727882652126031
Scimitar babbler and Prion,PE9 2PA,52.651822380438300,-0.482005000000000
Minke whale and Chicken,NN17 2QB,52.496985508371000,-0.722902004011735
Fulmarine petrel and Viscacha,LE15 8RY,52.620939587236700,-0.695957432899314
Grackle and Chicken,PE9 2LQ,52.648933251208800,-0.477874398757660
Mouse and Shearwater,PE9 1AY,52.654667111126100,-0.488245872155150
Fulmarine petrel and Mockingbird,LE16 7ES,52.487826911178100,-0.906259862768170
Capuchin and Kestrel,NG33 5HJ,52.818553000000000,-0.694977000000000
Towhee and Hawaiian honeycreeper,PE9 1EL,52.654164099317700,-0.478446711954523
Armadillo and Egret,NN17 1PN,52.488713226324800,-0.699694681435532
Logrunners and Vulture,LE15 9EX,52.585560467102600,-0.696594380235910
Philippine hawk-owl and Solitaire,LE15 6LU,52.669636425729200,-0.736286448015121
Buzzard and Grouse,LE13 1QR,52.765703650345500,-0.882118809045882
Skunk and Jackal,LE16 7JZ,52.483474059943200,-0.919797864648797
Peafowl and Mamo,PE8 6HB,52.614093000000000,-0.447164000000000
Towhee and Parrotbill,LE13 0GX,52.776148000000000,-0.911782000000000
Grackle and Fish eagle,PE9 4AA,52.671135000000000,-0.523587000000000
Shearwater and Coati,PE9 2YU,52.658570857989900,-0.508973344239764
Crow and Songlark,PE9 4SA,52.674554147370600,-0.459619636196003
Buzzard and Mink,LE7 9AQ,52.618950000000000,-0.940712156617249
Booted eagles and Mole,PE9 2EZ,52.650649476459000,-0.475700870631640
Piping shrike and Parrotbill,LE14 4DG,52.813826000000000,-0.812255000000000
Bunting and Meadowlark,NN17 2QT,52.500398519851100,-0.720092452266669
Solitaire and Fox,NN17 1BY,52.497568334918600,-0.685807348244575
Zebra and Wallaby,LE15 7HR,52.720941839695300,-0.784285895822538
Quetzal and Maya,NN18 8BZ,52.482557270852100,-0.699110435337760
Boto and Pheasant,NN18 0RZ,52.485504088101600,-0.707123307572797
Siskin and Petrel,NG33 4JS,52.821633982911100,-0.549997576458446
Recurvebill and Quetzal,PE8 6DY,52.605383074079300,-0.440560936922429
Parrotlet and Parrotlet,LE16 7WB,52.495394029232800,-0.939244023013589
Meadowlark and Capuchin,LE15 6JE,52.668686303440900,-0.719795213163925
Tree warbler and Buzzard,PE8 6YA,52.563214617455300,-0.523849148036249
Macaw and Bronzewing pigeon,PE9 2ZF,52.647472605904300,-0.481753564250603
Parrotbill and Condor,LE16 9QT,52.481934236377900,-0.934399003384120
Condor and Siskin,LE13 1HP,52.780216893490100,-0.880575766157398
Myna and Partridge,NN17 1HZ,52.494652405688600,-0.701007235111815
Triller and Buzzard,PE9 4JW,52.669970000000000,-0.453377000000000
Skunk and American sparrow,PE9 2AJ,52.651909959329800,-0.480742438153154
Coati and Mink,LE15 8RE,52.642113204107800,-0.744366037370395
B and Grouse,NG33 5PX,52.767435044519800,-0.634372484760014
Stilt and Shearwater,PE9 2EF,52.651127000000000,-0.472820216512444
Hawk and Black jay,PE8 6HF,52.620607126192200,-0.450375567904435
B and Minke whale,PE9 2AN,52.651393214210000,-0.473413209229913
Tahr and Cuscus,PE8 5DL,52.549574582181800,-0.490945369976735
Black cockatoo and Magpie,LE14 3BZ,52.790242516822400,-0.983693608319019
Snipe and Moluccan boobook,NG33 4NY,52.810043283299400,-0.517787111168749
Buzzard and Viscacha,LE13 1UY,52.776371986832600,-0.868547816031607
Rabbit and Philippine hawk-owl,PE9 4JE,52.686719781448500,-0.461810274573032
Hawaiian honeycreeper and Bunting,NN17 2TQ,52.491439786367500,-0.717215285670736
Cloud rat and Tattler,LE13 0QJ,52.758793286367800,-0.884340701159719
Francolin and Perching duck,NN17 5ZZ,52.494756862056700,-0.677966405632099
Masked owl and Siskin,LE15 8SS,52.628413000000000,-0.705900000000000
Ground sloth and Solitaire,LE16 8TE,52.534398023757400,-0.719030440865953
Marsh harrier and Grouse,LE13 1LF,52.776018689324200,-0.891119931976947
Perching duck and Lemming,PE8 6AU,52.604738000000000,-0.440672000000000
Goose and Stilt,LE15 9SU,52.591685822932300,-0.728993000000000
Magpie and Mouse,LE7 9FN,52.617880000000000,-0.917882000000000
Mockingbird and Eagle,LE15 7BQ,52.721989602524500,-0.654048892747996
Magpie and Ibex,NN17 5AF,52.512923037948600,-0.664821943004358
Wader and Recurvebill,LE15 7NJ,52.719338286429500,-0.629583000000000
Diving bird and Siskin,LE15 8LR,52.669518882444600,-0.812746966548163
Rat and Jay,LE15 8ED,52.589583000000000,-0.606073178414772
Mockingbird and Hawaiian honeycreeper,LE15 6HU,52.663704960690200,-0.723060763317524
Tit-tyrant and Snipe,NG33 5GY,52.803414175694600,-0.616557092495168
Vulture and Scimitar babbler,LE15 8EY,52.637736628412000,-0.630094685688164
Fulmarine petrel and Petrel,LE15 6LG,52.669181048524300,-0.734051723871053
Goose and Jackal,PE10 0JQ,52.732087074901900,-0.429675051849219
Polecat and Tahr,PE9 3RT,52.627954401333400,-0.555846148051744
Songlark and Triller,PE9 1XP,52.664416000000000,-0.466046541562912
Chickadee and Condor,LE16 7NA,52.482676362904400,-0.919081117052642
Viscacha and Grackle,LE16 7LJ,52.483261666631900,-0.915252774350684
Zebra and Quetzal,PE8 5TW,52.489595297699900,-0.459373657054702
Minke whale and Marsh harrier,LE15 6AD,52.669211452125300,-0.732690296861751
Cloud rat and Flameback,NG33 4HT,52.813830664087700,-0.521590344797010
Wallaby and American sparrow,LE13 9ES,52.768347392491700,-0.867703578228349
Kite and Mole,LE13 0JN,52.749626254503600,-0.879863492309687
Capuchin and Tattler,LE13 0LQ,52.770075743495500,-0.899749385438379
Mouse and Dorcopsis,PE9 1SL,52.661783433360900,-0.470404430433565
Magpie and Polecat,LE15 6RR,52.669693659567400,-0.734704000000000
Thicketbird and Old World quail,LE16 7US,52.487888896709800,-0.930750005495829
Darwin's finches and Maya,NG33 4PN,52.790856562584600,-0.494653000000000
Duck and Lemming,PE8 4NG,52.489091317686300,-0.470422911576399
Grosbeak and Black jay,LE15 9PZ,52.588174420770400,-0.720297296090321
Tit-tyrant and Jackal,LE15 8QY,52.653779827273600,-0.767226893128301
Solitaire and Kite,PE8 4PR,52.489518540539400,-0.476358453903423
Kākāriki and Minke whale,LE15 8SR,52.631801569250800,-0.698398000000000
Pitohui and Skunk,PE9 2UT,52.658831517012700,-0.501128192137154
Duck and Logrunners,LE15 6RW,52.679963158646800,-0.729272793509402
Fish eagle and Grosbeak,PE8 4NE,52.490725431473700,-0.472664000000000
Cuscus and Crow,NN17 4XT,52.494756862056700,-0.677966405632099
Chicken and Tahr,LE15 7NE,52.719442053846400,-0.624767596187771
Condor and Linsang,NG33 5LN,52.764952000000000,-0.610129000000000
Peafowl and Recurvebill,LE15 6HQ,52.663285880761700,-0.733438366692261
White ibis and Snipe,PE9 2GZ,52.655749296605200,-0.501248397033802
River dolphin and Mamo,LE13 0JQ,52.771475389076600,-0.901389099937332
Fulmarine petrel and Coati,LE15 9DD,52.595525407766900,-0.636224627693947
Goose and Old World quail,NG33 4BB,52.809971537300000,-0.514050796300000
Quetzal and Puffleg,LE14 2UQ,52.718344000000000,-0.851854000000000
Lemming and Fulmarine petrel,NG33 5PT,52.767159224566500,-0.635403825313826
Recurvebill and Cloud rat,LE15 6LQ,52.668257441138600,-0.740584000000000
Towhee and Greenbul,LE13 1JD,52.778477764578900,-0.891635632479344
Recurvebill and Philippine hawk-owl,LE16 8QL,52.483574088367200,-0.801339133564750
Armadillo and Rabbit,NN17 3BG,52.527954429900000,-0.549222297400000
Thrasher and Chicken,LE13 0SX,52.776033586991300,-0.903364611645879
Tattler and Gull,NG33 5JU,52.803771545259600,-0.619453289259436
Thicketbird and Tattler,NN17 3DF,52.537577000000000,-0.675336907357005
Wader and Treepie,NN17 1XB,52.489515122780900,-0.684397823278274
Tattler and Parrotlet,NN17 1HJ,52.498305368609800,-0.698807756559887
Diving bird and Piping shrike,PE9 1BZ,52.662035883510200,-0.490091322067142
Perching duck and Francolin,PE9 3HX,52.614758570631500,-0.426830792895759
Logrunners and Logrunners,LE14 2HU,52.683323000000000,-0.922227000000000
Rabbit and Rabbit,LE7 9FD,52.617555177948600,-0.951862578597982
Fulmarine petrel and Philippine hawk-owl,LE15 9NZ,52.611628935918100,-0.713322098949104
Herring gull and Lemming,PE9 2UW,52.658782300948500,-0.497951007668992
Eagle and B,LE14 4SP,52.819606148173400,-0.910029240143468
Magpie and Asiatic leopard,PE8 4EZ,52.483089000000000,-0.482501000000000
American sparrow and Parrotbill,LE15 7QA,52.683127307662200,-0.801756519953724
Kite and Pheasant,NN17 5EE,52.505644000000000,-0.639031404300000
Goose and Rabbit,NN17 3HW,52.497387754986900,-0.641943995743834
Flameback and Skunk,PE9 1HR,52.660613000000000,-0.486896506419602
Quetzal and Gull,NN17 1SX,52.490468621712700,-0.695813483935242
Treepie and Darwin's finches,LE16 8HG,52.510263628617900,-0.827709000000000
Fox and Gull,LE13 1XD,52.764393518304200,-0.886198376225926
Pitohui and Mamo,LE14 2QN,52.702037000000000,-0.822639000000000
Black jay and Peafowl,LE16 9QX,52.482421266113200,-0.932474000000000
Grouse and Lemming,NN18 0JQ,52.484934352346000,-0.722544138336992
Grackle and Condor,LE15 7LF,52.677187000000000,-0.739485000000000
Kite and Minke whale,NN17 2HT,52.502196758493800,-0.719274142760999
Civet and Jerboa,LE16 8EQ,52.530543438833200,-0.822115000000000
Grosbeak and Moluccan boobook,NN17 3HE,52.496706159232900,-0.636617732915533
Wader and Recurvebill,LE16 7BD,52.483490647694500,-0.925570024489034
Piping shrike and Tree warbler,NN18 0PA,52.483299939528200,-0.720220570752970
Boto and Rabbit,NN18 0TD,52.482676178816100,-0.732431739337147
Towhee and Black cockatoo,NN17 2LE,52.504712024351700,-0.711628124265540
Puffleg and Old World quail,LE13 0JX,52.769604194614400,-0.902221779100005
Piping shrike and Black jay,PE9 2GY,52.655449523792600,-0.502426608927261
Fish eagle and Chipmunk,LE13 0FG,52.751546519497000,-0.899653166976072
Guillemot and Nukupuʻu,NN17 3EE,52.498613690411600,-0.636750238437489
Mole and Partridge,LE14 3YS,52.765549644050600,-0.950906729878679
Herring gull and Triller,LE15 7FZ,52.679921000000000,-0.746315000000000
Myna and Flameback,LE14 4AX,52.814313000000000,-0.812579833005283
Masked owl and Tit-tyrant,NN18 0EH,52.485886416458700,-0.720793499317042
Shearwater and Nukupuʻu,LE15 9PJ,52.586137861884000,-0.715707020133291
Polecat and Crow,PE8 6YJ,52.564767863060700,-0.512185800278130
Parrotbill and Pratincole,LE13 0DZ,52.763456000000000,-0.892551000000000
Duck and Hawaiian honeycreeper,LE15 6JX,52.670354246565500,-0.724404994074386
Tahr and Flameback,LE94 0AD,52.483684529261700,-0.905523205234798
Wallaby and Snipe,NN17 2RS,52.495662597363100,-0.725282442257966
Chipmunk and New World blackbird,LE13 1JY,52.769221598888200,-0.888165119936964
Lemming and Solitaire,LE14 2SG,52.742661426138800,-0.782884000000000
Bunting and Towhee,PE8 6TZ,52.507208453517000,-0.426592240408886
Vulture and Parrotbill,LE15 6LA,52.667603190605000,-0.744611599611971
Egret and Marsh harrier,PE9 3QP,52.625701000000000,-0.510922000000000
Eagle and Tahr,NN18 0NP,52.482119909292800,-0.719179831642957
Eagle and Civet,PE9 1JQ,52.661009922284300,-0.487893960927379
Triller and Marmoset,LE14 3HU,52.801704000000000,-0.946433000000000
Eagle and Kestrel,LE15 6BZ,52.669310000000000,-0.727640347309589
Jackal and Nukupuʻu,NN17 5BD,52.501134000000000,-0.639339000000000
Jay and Old World quail,NG33 4SN,52.745870538086900,-0.539536017029420
Hawk and Badger,PE9 1HW,52.660587261460500,-0.485069622644828
Argus and Shearwater,LE15 7SQ,52.729857614304400,-0.540174811190316
Coati and Guillemot,NG33 4RT,52.756804642164200,-0.536606000000000
Pratincole and Fulmarine petrel,LE15 9LX,52.561372241312100,-0.708122000000000
Marsh harrier and Booted eagles,LE14 2SJ,52.779452559176700,-0.765443460083346
Marmoset and Armadillo,LE15 6NR,52.672210467979100,-0.734866335235171
Siskin and Goose,PE8 6QF,52.554497022640000,-0.427733249468588
Philippine hawk-owl and Kangaroo,LE15 8GD,52.592663279347400,-0.598800908846759
Black jay and Marmoset,LE7 9BS,52.600756000000000,-0.874657000000000
Eagle and Solitaire,LE7 9BX,52.601940000000000,-0.972486050461399
Minke whale and Eagle,LE13 1YT,52.768344870886000,-0.867703530418370
Meadowlark and Puffleg,LE14 2RZ,52.772616339342100,-0.809054932900490
Puffleg and Parakeet,LE7 9DY,52.613147000000000,-0.936238000000000
Herring gull and Puffleg,LE7 9ED,52.585800015962000,-0.971129397200037
Cuscus and Kangaroo,PE9 1FA,52.654670630067800,-0.487817012883426
Nukupuʻu and Ground sloth,PE8 6EQ,52.606784449551800,-0.433658797200253
Grosbeak and Piping shrike,LE16 8WY,52.483684529261700,-0.905523205234798
Fulmarine petrel and Logrunners,LE15 6EZ,52.669184592047100,-0.731019966322140
Rabbit and Fulmarine petrel,LE15 8NG,52.612812622668200,-0.605217638365640
Cloud rat and Kite,NN17 3LA,52.493396563159500,-0.630297959199645
Polecat and Grouse,LE15 6AY,52.670615551913700,-0.732841932883604
Grosbeak and Chipmunk,NN17 5XH,52.507203145690200,-0.659086844060249
Mink and Minke whale,LE7 9HB,52.622938707663700,-0.979491809879235
Mamo and Tahr,PE9 2BJ,52.652334515794300,-0.475997067591101
Kākāriki and Masked owl,LE16 8QG,52.486903000000000,-0.804064528571287
Parrotlet and Warbler,NN17 4UB,52.506959174451600,-0.684762000000000
Goose and Maya,NN18 9ZQ,52.494756862056700,-0.677966405632099
Darwin's finches and Quetzal,PE8 5BW,52.521934000000000,-0.482179000000000
Kākāriki and Argus,PE9 3SA,52.626534674717000,-0.558123825751826
Chickadee and Capuchin,LE16 7LG,52.486260852529100,-0.919597000000000
Siskin and Herring gull,PE8 6UY,52.498519548637800,-0.424280204692507
Kestrel and Pitohui,LE15 7HN,52.718171823545000,-0.769365375455500
New World blackbird and Kākāriki,LE15 8AR,52.688365529638700,-0.627992000000000
Shearwater and Mouse,NN17 1RA,52.488776000000000,-0.701225000000000
American sparrow and Pratincole,LE14 2EE,52.754972655010200,-0.937232540178182
Civet and Parakeet,NN17 2NF,52.500336639887700,-0.708603407537904
Crow and Quetzal,LE14 4BF,52.813439000000000,-0.813111000000000
Elephant and Polecat,PE9 1HB,52.657227249974800,-0.481046000545537
Mamo and Myna,LE15 6DH,52.670314000000000,-0.725530000000000
Ibex and Linsang,LE15 8AU,52.691183692432200,-0.629265893799803
Kangaroo and Pheasant,LE14 2NT,52.754162000000000,-0.970605000000000
Eagle and Marsh harrier,PE9 4LJ,52.700572000000000,-0.452538434910007
Greenbul and Crow,PE8 4LY,52.488311000000000,-0.471142000000000
Chipmunk and Old World warbler,LE14 2BA,52.758873245086700,-0.736313484447521
Hawk and Perching duck,PE9 1QT,52.657212165811400,-0.479168836385899
Kite and Ice seal,NN18 0AN,52.486974881308000,-0.722514481718054
Duck and Elephant,PE8 5EF,52.539355245141100,-0.478541138375581
Vulture and Zebra,LE16 8UF,52.561187357561900,-0.830927164651083
Civet and Fox,LE16 7FG,52.489968000000000,-0.939937000000000
Puffleg and Francolin,NG33 5EU,52.821633005793100,-0.669671230500850
Towhee and Mockingbird,LE7 9WE,52.604347000000000,-0.874152000000000
Polecat and Magpie,LE15 7RA,52.731828000000000,-0.596091000000000
Solitaire and Mole,PE8 6HH,52.604652000000000,-0.422630000000000
Herring gull and Pheasant,PE8 6QW,52.555256162238300,-0.435494488947089
Snipe and Kangaroo,LE7 4XD,52.718428105614200,-0.970839697351584
Pheasant and Masked owl,NN17 4JN,52.504173000000000,-0.685384344169630
Kākāriki and Linsang,NN17 5XL,52.505772707372900,-0.656625634291895
Towhee and Piping shrike,NN18 0HF,52.489253970618000,-0.717941643394418
Logrunners and Armadillo,PE9 2WQ,52.652022000000000,-0.480946000000000
Ice seal and Darwin's finches,LE15 6HS,52.668370921258300,-0.716403118615794
Vulture and Myna,LE15 8BE,52.642224466061600,-0.712010590506781
New World blackbird and Rat,LE13 1SH,52.769645000000000,-0.871939000000000
American sparrow and Peafowl,LE13 1UZ,52.776394999725400,-0.866249392608681
Tattler and Prion,LE13 0TR,52.765069361657900,-0.888285689620715
Myna and Ice seal,LE16 7TS,52.525604000000000,-0.909994000000000
Booted eagles and Crow,LE16 8UT,52.562124674549300,-0.834811628509099
Kākāriki and Cuscus,LE14 2JX,52.750143264627200,-0.732047202372099
Kākāriki and Dolphin,PE8 6AX,52.605263287347400,-0.441022984240089
Kite and Dolphin,LE16 7TD,52.524135720934800,-0.929369000000000
