name,postcode,lat,lon
Parrotbill and turtle,EX22 6SE,50.738544661959100,-4.409375399753610
Hawk and blue racer,EX22 6TW,50.767711015177000,-4.480638687575660
agamid and Scimitar babbler,EX22 6UT,50.744089000000000,-4.495167000000000
Myna and diamond python,EX22 6XA,50.753506381990400,-4.498282000000000
sidewinder and sand lizard,EX22 7EQ,50.798505690827400,-4.459065783075060
boomslang and coral snake,EX22 7LD,50.798898755128100,-4.451933591125720
Masked owl and cycling lizard,EX23 0AX,50.763513000000000,-4.549367000000000
Diving bird and python,EX23 0AZ,50.730814000000000,-4.576558000000000
Maya and Scimitar babbler,EX23 0BZ,50.706268393988000,-4.540437789754070
python and mamba,EX23 0DY,50.761562000000000,-4.531577000000000
anaconda and Rabbit,EX23 0EE,50.749669828876700,-4.554682636653290
Bunting and Guillemot,EX23 0JG,50.741076526973400,-4.631241221451570
Tahr and kabaragoya,EX23 0JP,50.736201275326700,-4.616071473740950
Condor and deaf adder,EX23 0NW,50.744337004515100,-4.624662152655290
tiger snake and Quetzal,EX23 0NY,50.741929319842800,-4.594008215020480
Macaw and Tree warbler,EX23 0PH,50.733021430857500,-4.615483209652290
Stint and Crow,PL15 0BN,50.627383000000000,-4.379793000000000
Elephant and caiman,PL15 7AS,50.635499000000000,-4.363709000000000
Petrel and Mouse,PL15 7BN,50.634702422547300,-4.364333378090730
Logrunners and mamba,PL15 7DB,50.629453527469000,-4.369457583681930
Ibex and boa constrictor,PL15 7DJ,50.631710300905600,-4.369938777772310
Fulmarine petrel and wall lizard,PL15 7DP,50.633010243281400,-4.365280795888370
Rat and Armadillo,PL15 7DQ,50.633255803980700,-4.368687193562220
Darwin's finches and mamba,PL15 7DX,50.632208073927100,-4.370670903420430
Dolphin and Hawaiian honeycreeper,PL15 7EA,50.630267860885000,-4.409546118335500
Partridge and Egret,PL15 7EJ,50.636090786937900,-4.370809760582710
alligator and Tree warbler,PL15 7FE,50.599483601100000,-4.435728676000000
Buzzard and Dolphin,PL15 7JZ,50.611359978476600,-4.391744194668260
American sparrow and boa,PL15 7LN,50.631714145791600,-4.367096532637190
boa constrictor and flying dragon,PL15 7QJ,50.584713562173000,-4.421572551048300
amphisbaena and terrapin,PL15 7QS,50.595950810502500,-4.469815000000000
habu and Elephant,PL15 7SF,50.597322192888600,-4.524531046277870
Armadillo and cobra,PL15 8AA,50.636591840242700,-4.360312631442160
frilled lizard and Thicketbird,PL15 8DA,50.640868806163700,-4.364515669422390
monitor and wall lizard,PL15 8DT,50.644233167885200,-4.364048081511140
Stint and Coati,PL15 8DZ,50.644877877333300,-4.356201450169380
Wallaby and Myna,PL15 8FG,50.643902038300000,-4.367045059600000
ringhals and Viscacha,PL15 8HH,50.639610834922100,-4.366889000000000
Chickadee and dukite,PL15 8JP,50.646191829844500,-4.362378199616670
Nukupu ªu and adder,PL15 8LB,50.660375000000000,-4.400744000000000
boa and Mamo,PL15 8LX,50.693528000000000,-4.493260000000000
Komodo dragon and Gila monster,PL15 8PP,50.633628142307300,-4.529319160849400
sand lizard and Triller,PL15 8PW,50.629341000000000,-4.514269000000000
Linsang and Ibex,PL15 8QJ,50.629696491303700,-4.535570583226590
racer and flying lizard,PL15 8QN,50.636059000000000,-4.541683627526780
Magpie and diamondback,PL15 8QS,50.637438105742800,-4.356720244485770
king cobra and mountain devil,PL15 8QT,50.660089000000000,-4.500275000000000
thorny devil and Scimitar babbler,PL15 8RG,50.655714877859000,-4.504103959907870
Ibex and blue tongue,PL15 8SG,50.653297000000000,-4.440521000000000
dukite and Chicken,PL15 8TJ,50.660476287481200,-4.380853656987670
Jay and Bronzewing pigeon,PL15 8UJ,50.675453219499600,-4.553607269435670
blindworm and Masked owl,PL15 8US,50.646620795247100,-4.371806788945060
Duck and Lemming,PL15 9DN,50.634701626297300,-4.356385327986520
sidewinder and snapping turtle,PL15 9ER,50.634754590109800,-4.355101021684780
Triller and Viscacha,PL15 9FQ,50.626565000000000,-4.353196000000000
blue racer and Flameback,PL15 9JA,50.630010686250100,-4.342081000000000
Stint and tokay,PL15 9JB,50.630498000000000,-4.362411000000000
Fish eagle and horned viper,PL15 9JE,50.634026435567800,-4.363960033995620
grass snake and Kangaroo,PL15 9LQ,50.628288773023800,-4.339091000000000
Logrunners and leguaan,PL15 9NB,50.636562827112000,-4.351075852786940
Mamo and Chicken,PL15 9NH,50.613635403008000,-4.326946959365850
racer and Tattler,PL15 9QW,50.638569084136800,-4.352830799262260
tokay and bicycle lizard,PL30 3JB,50.592932170054000,-4.734400890311230
sidewinder and cobra de capello,PL30 3JQ,50.594352298715200,-4.723319707762720
ringhals and rattlesnake,PL30 3JS,50.594207817213500,-4.736001001493230
garter snake and constrictor,PL30 3LQ,50.591442804768600,-4.735388437580490
carpet snake and American sparrow,PL30 3PD,50.577902832378300,-4.713216567915010
caiman and hoop snake,PL32 9LE,50.625226000000000,-4.670805000000000
Solitaire and B,PL32 9QW,50.602182218715300,-4.682064493351880
Lemming and bearded dragon,PL32 9QX,50.620025000000000,-4.683058573576670
perentie and Marsh harrier,PL32 9WZ,50.622840288078700,-4.678673274159960
Stint and horned viper,PL32 9XA,50.624199195045800,-4.674338895324090
crocodile and slowworm,PL32 9XR,50.652626997494100,-4.628712513407390
Gila monster and Skunk,PL32 9XY,50.649995000000000,-4.612225000000000
alligator and indigo snake,PL33 9BP,50.627824000000000,-4.728230267460790
Mole and pit viper,PL33 9BX,50.619407711946300,-4.733858672068530
Coati and Skunk,PL33 9DP,50.630516000000000,-4.725099000000000
alligator and Mamo,PL33 9EP,50.613480336526600,-4.729171000000000
coral snake and indigo snake,PL33 9ZX,50.625187005040200,-4.729061118454270
diamondback turtle and Asiatic leopard,PL34 0BG,50.671650927179400,-4.721890865437110
Booted eagles and Diving bird,PL34 0HN,50.663196630308800,-4.731845666122720
rattlesnake and hognose snake,PL35 0AU,50.685459401017800,-4.691716000000000
Tattler and milk snake,PL35 0BQ,50.683889000000000,-4.690362000000000
Jackal and Diving bird,PL35 0DJ,50.685767245863400,-4.697252000000000
Philippine hawk-owl and hognose snake,PL35 0EB,50.676422528451500,-4.703552343647780
