name,postcode,lat,lon
Tree warbler and amethystine python,EX1 1AE,50.722775269560600,-3.531951132604060
snapping turtle and blindworm,EX1 1BB,50.719776340717500,-3.534318311302780
moloch and horned toad,EX1 1DB,50.720755000000000,-3.531070279150530
elapid and ringhals,EX1 1GG,50.723729000000000,-3.527888000000000
racer and Schneider python,EX1 1GJ,50.723368000000000,-3.528027698310680
Jay and fer-de-lance,EX1 1GQ,50.724639770833100,-3.528273000000000
Booted eagles and blue racer,EX1 1QL,50.723320746372200,-3.526018500281750
Piping shrike and leathery turtle,EX1 2AG,50.729463061211000,-3.514995855144230
Quetzal and Meadowlark,EX1 2AH,50.727163306882300,-3.523082901705150
rock snake and thorn lizard,EX1 2EL,50.728069502937500,-3.514965062671500
Tit-tyrant and saltwater crocodile,EX1 2QL,50.721322261777600,-3.506119684343520
Vole and boa,EX1 2QY,50.724385537959700,-3.507776399058740
Jackal and Treepie,EX1 2SG,50.725627142365700,-3.502163093554220
sand lizard and Masked owl,EX1 2SS,50.724665438106000,-3.505603504840280
Bronzewing pigeon and Logrunners,EX1 2SU,50.726269848687100,-3.507411842838180
jew lizard and Mole,EX1 3BA,50.725457000000000,-3.495215000000000
Badger and Jay,EX1 3BH,50.723724000000000,-3.527604000000000
swift and habu,EX1 3EP,50.722206393325500,-3.481341098235870
Marsh harrier and taipan,EX1 3EY,50.723211886978500,-3.487833233134320
skink and bearded lizard,EX1 3FW,50.726316000000000,-3.478495000000000
bearded dragon and cobra,EX1 3JF,50.732221974064300,-3.485808980021060
diamond python and Masked owl,EX1 3PX,50.727079634985700,-3.483549290976300
Siskin and flying dragon,EX1 3RA,50.734185276635300,-3.477099329859820
anaconda and Prion,EX1 3RD,50.733296018393400,-3.477014669222590
carpet snake and Grackle,EX1 3RU,50.723868575583100,-3.473062000000000
giant tortoise and king cobra,EX1 3SB,50.738427866403900,-3.470160919294950
bushmaster and Dolphin,EX1 3SF,50.738397319001100,-3.468303410467220
cobra and horned toad,EX1 3SS,50.740047316269100,-3.468680996499520
Ibex and saltwater crocodile,EX1 3WJ,50.748999000000000,-3.467785000000000
rock python and Ibex,EX1 3XP,50.735315000000000,-3.466081000000000
diamond python and Francolin,EX1 9UX,50.726237664708000,-3.522203263408240
Mamo and Perching duck,EX1 9YZ,50.726310000000000,-3.522262000000000
cerastes and White ibis,EX15 2NW,50.791816581786500,-3.382236771024970
Egret and amethystine python,EX17 1BQ,50.792468364633400,-3.651540869853580
galliwasp and coral snake,EX17 1BW,50.792386000000000,-3.574995792319700
krait and Cuscus,EX17 1BX,50.794331205734300,-3.643178094699760
Booted eagles and tiger snake,EX17 1BZ,50.794118069986000,-3.641709126945140
tiger snake and Partridge,EX17 1DY,50.794679011052800,-3.651661376061790
Night heron and cycling lizard,EX17 1EB,50.793182698951600,-3.651268084822380
Old World warbler and cayman,EX17 1EH,50.791180525047900,-3.649126014553680
worm lizard and rattlesnake,EX17 2DA,50.792462854202200,-3.658266145461590
Black jay and hognose snake,EX17 2DR,50.792797000000000,-3.665887927920030
agama and flying dragon,EX17 2EG,50.793946132108200,-3.661468656389540
Partridge and jew lizard,EX17 3BG,50.788073396067500,-3.648803841092500
rock snake and Darwin's finches,EX17 3BU,50.784430570014000,-3.647569132727660
glass snake and green turtle,EX17 3ES,50.787402684220700,-3.651078568373640
elapid and leathery turtle,EX17 3PA,50.793694408609900,-3.676542793216140
Magpie and flying dragon,EX17 3PF,50.788047004811100,-3.671502792345360
terrapin and Magpie,EX17 3PN,50.790997482017300,-3.668316363743270
death adder and horned toad,EX17 3YZ,50.790159495447900,-3.646919303787030
Cloud rat and Schneider python,EX17 5BL,50.776462572154200,-3.728322003539870
moloch and thorny devil,EX17 5BW,50.789917854026600,-3.700101662731740
kabaragoya and Macaw,EX17 5DE,50.795906614199800,-3.744605684424170
Scimitar babbler and rattlesnake,EX17 5EY,50.767147392564200,-3.751689617434150
Dolphin and tortoise,EX17 5JQ,50.785483281781200,-3.745806496305100
Greenbul and Eagle,EX2 4DX,50.718351199280200,-3.535320058161760
agama and Kite,EX2 4EH,50.720298692076100,-3.520536944858660
terrapin and Cloud rat,EX2 4ES,50.718842110460100,-3.523266392001440
Tree warbler and horned toad,EX2 4NX,50.719687985698700,-3.514255551927100
sidewinder and Argus,EX2 4RT,50.713735000000000,-3.520512391340850
Dolphin and Kangaroo,EX2 4RZ,50.713015414630700,-3.512142432051370
python and Komodo dragon,EX2 4TA,50.721111747837300,-3.520945775238480
Marmoset and pit viper,EX2 4TD,50.720837877357600,-3.520568566866200
jew lizard and diamondback turtle,EX2 4TH,50.721849531422800,-3.517470362831980
terrapin and Egret,EX2 5BB,50.712958306131800,-3.506134834151510
Crow and Coati,EX2 5DF,50.716292334125500,-3.500051390074730
Black jay and python,EX2 5ES,50.720514171336900,-3.503232078329170
Parrotbill and saltwater crocodile,EX2 5ET,50.720747717570200,-3.503253719731850
ringhals and Condor,EX2 5JY,50.716783237998000,-3.493338374615970
Grouse and Thicketbird,EX2 5NL,50.718203230934200,-3.489898659637700
dugite and puff adder,EX2 5NX,50.717255272872100,-3.488777826895370
Puffleg and chameleon,EX2 5PG,50.717171778064300,-3.483335525380180
New World blackbird and terrapin,EX2 5QE,50.721218979030500,-3.479779921900450
Parakeet and snake,EX2 5RR,50.712859334678400,-3.485819795268290
Greenbul and Flameback,EX2 5RS,50.713254159645100,-3.488707693296100
ringhals and frill-necked lizard,EX2 6BR,50.710059138431400,-3.508478049918310
python and Guillemot,EX2 6BW,50.710927000000000,-3.507571000000000
asp and diamondback terrapin,EX2 6DH,50.712509338489200,-3.501899454553790
Dorcopsis and Guillemot,EX2 6DY,50.708585185484800,-3.507014411322220
Logrunners and Linsang,EX2 6FD,50.707153468050900,-3.508399430881120
chuckwalla and Shearwater,EX2 6HD,50.701091534052500,-3.493915999199640
Capuchin and habu,EX2 6HH,50.708441480863900,-3.502123512270350
horned toad and Cloud rat,EX2 6LD,50.703408958156600,-3.499739283935040
gaboon viper and diamond python,EX2 6NW,50.705227000000000,-3.498324000000000
thorny devil and anaconda,EX2 7AG,50.692502296297900,-3.482698672797440
monitor and wall lizard,EX2 7BT,50.696237599295100,-3.490915690984150
Crow and mamba,EX2 7FG,50.704161000000000,-3.474003000000000
snake and Cloud rat,EX2 7GP,50.699098000000000,-3.484620000000000
habu and galliwasp,EX2 7GY,50.693749000000000,-3.477966000000000
rock python and bushmaster,EX2 7HL,50.717924084197100,-3.479336140139360
Bronzewing pigeon and slowworm,EX2 7HQ,50.719153500358100,-3.478128219407390
Old World warbler and python,EX2 7PT,50.694960000000000,-3.478160000000000
skink and swift,EX2 7QW,50.716084257467200,-3.480453933413270
smooth snake and New World blackbird,EX2 7SH,50.706291434467200,-3.475982125196660
Guillemot and sand viper,EX2 7XE,50.715119466978600,-3.482066686341500
sand viper and Mouse,EX2 8AB,50.695604174134000,-3.535539884930570
alligator and bushmaster,EX2 8AQ,50.698598705760700,-3.534193360678650
harlequin snake and rock snake,EX2 8AT,50.716118492864300,-3.536182010502580
Ice seal and fer-de-lance,EX2 8EA,50.714735346127400,-3.531943913724640
Dorcopsis and Fox,EX2 8EN,50.713426900957400,-3.532963600643180
Songlark and Triller,EX2 8ES,50.714125704616800,-3.533850462109620
Badger and Guillemot,EX2 8FL,50.695221667881200,-3.531803517844720
Myna and skink,EX2 8GP,50.715773966725500,-3.529555498879390
Kangaroo and Pheasant,EX2 8JB,50.709324815262200,-3.538509318642010
Pratincole and Crow,EX2 8LR,50.715291277529700,-3.536169125732510
diamond python and sand lizard,EX2 8LT,50.708107832047400,-3.527790498110560
Armadillo and Jerboa,EX2 8SR,50.704602291822000,-3.536541970422170
hognose snake and chuckwalla,EX2 8TZ,50.695153498864600,-3.534250837026110
bushmaster and Night heron,EX2 8UX,50.700055676684500,-3.536237570254100
Zebra and sea snake,EX2 8XN,50.698202569450300,-3.529436794920830
Prion and rattlesnake,EX2 9AL,50.713656804916600,-3.539401909509010
Songlark and gavial,EX2 9AY,50.712945348582400,-3.542197346460270
B and diamond python,EX2 9DG,50.711214030611400,-3.546616357421940
Siskin and flying lizard,EX2 9DJ,50.709293516074500,-3.545632517104140
lizard and rattlesnake,EX2 9DY,50.708168967631700,-3.541587361847670
kabaragoya and Flameback,EX2 9FB,50.703947000000000,-3.552015000000000
Pheasant and Dorcopsis,EX2 9HY,50.705004114213000,-3.540166461007610
cerastes and Civet,EX2 9NA,50.712082929846800,-3.550936747580940
diamond python and saltwater crocodile,EX2 9NH,50.710142929665300,-3.552770651560590
diamond python and tortoise,EX2 9QA,50.712331547099600,-3.561950693919490
Rat and Schneider python,EX2 9QB,50.711547314917000,-3.561414712459680
python and frilled lizard,EX2 9SZ,50.711291000000000,-3.569253000000000
sand viper and adder,EX2 9TT,50.676350117186900,-3.584519580498390
cerastes and black snake,EX2 9UG,50.679624607614000,-3.585776404640030
Civet and racer,EX2 9UW,50.671918978094400,-3.562349445215470
River dolphin and Polecat,EX3 0AG,50.681624017097600,-3.461052391310960
Bronzewing pigeon and habu,EX3 0AN,50.679886302910800,-3.463362218127980
Night heron and gavial,EX3 0FB,50.725914000000000,-3.464073000000000
Snipe and rock python,EX3 0HW,50.682406764260700,-3.465323285977830
Duck and amphisbaena,EX3 0QN,50.684013511768200,-3.443955712661060
Mouse and saltwater crocodile,EX3 0QQ,50.684591648026300,-3.459629898742860
chuckwalla and Fish eagle,EX4 1BD,50.717502046315500,-3.542417770359160
Linsang and Rat,EX4 1BE,50.717504476017700,-3.542913658127790
rock snake and tokay,EX4 1BU,50.719105316092200,-3.544269552740210
galliwasp and blind snake,EX4 1BX,50.719075173845000,-3.543829402804290
Condor and gopher snake,EX4 1FH,50.712628000000000,-3.559464085848790
Scimitar babbler and Armadillo,EX4 1LH,50.712742973792500,-3.549995349100380
Mamo and Ground sloth,EX4 1LT,50.712741616863800,-3.556171035008970
Ground sloth and giant tortoise,EX4 1QY,50.719669278556600,-3.552589723645920
mud turtle and Marsh harrier,EX4 1TA,50.714577000000000,-3.560240000000000
Wallaby and Old World quail,EX4 1TB,50.715421117470800,-3.558228774986960
Ground sloth and rattlesnake,EX4 1TW,50.711900932994800,-3.554471806313900
Parakeet and Petrel,EX4 2AD,50.728941071632200,-3.547880310039270
Crow and rock snake,EX4 2DN,50.725991440913800,-3.552600377775670
chameleon and black snake,EX4 2JS,50.730461745664400,-3.605221000000000
New World blackbird and chameleon,EX4 2JT,50.731710870950300,-3.606381498823660
cerastes and Kestrel,EX4 2LX,50.732095653773700,-3.552093713444490
Myna and Vole,EX4 2ND,50.733993372689800,-3.556804519033850
Asiatic leopard and sidewinder,EX4 2NT,50.733894092971000,-3.559522041299420
giant tortoise and bandy-bandy,EX4 2PG,50.732408737600600,-3.560974770493160
rat snake and Vulture,EX4 3AB,50.721797284891000,-3.539286191717290
Chickadee and Asiatic leopard,EX4 3BA,50.722424083187000,-3.534036454782560
blindworm and giant tortoise,EX4 3EU,50.724918402344900,-3.536385000000000
Ice seal and dugite,EX4 3FF,50.720053000000000,-3.537856000000000
Black cockatoo and Magpie,EX4 3JB,50.721320431877000,-3.533844569938930
Badger and Kākāriki,EX4 3PL,50.725769250392400,-3.529159000000000
worm lizard and cerastes,EX4 3RA,50.725845000000000,-3.535910345805610
tree snake and cerastes,EX4 3RB,50.723786602186300,-3.535058539932980
frill-necked lizard and bearded dragon,EX4 3SN,50.724907683228300,-3.532559083250010
Dorcopsis and snake,EX4 3TT,50.724439163782800,-3.533308866973120
B and Marsh harrier,EX4 4EZ,50.728133621365100,-3.527280097699660
Cloud rat and box turtle,EX4 4GG,50.736370307181900,-3.542258709760190
whip snake and Parakeet,EX4 4GL,50.727411566222100,-3.529396617382220
box turtle and cobra de capello,EX4 4HH,50.727696665149600,-3.535894808590570
Schneider python and rattlesnake,EX4 4LX,50.729744700538900,-3.529925540891640
Treepie and turtle,EX4 4NY,50.737099629689400,-3.544748000000000
Myna and sidewinder,EX4 4QR,50.735464000000000,-3.537533271350220
Fox and indigo snake,EX4 5BL,50.745140108817000,-3.525891632934170
thorn lizard and B,EX4 5BN,50.747105642596100,-3.526196519331640
Maya and Fox,EX4 5DG,50.741099684757500,-3.520572939708470
Chipmunk and galliwasp,EX4 5EG,50.742004026227400,-3.513969132545240
Mockingbird and frilled lizard,EX4 6BQ,50.729419870765800,-3.525890813696610
Thicketbird and agama,EX4 6BZ,50.730951598199800,-3.524296875380400
Tahr and amethystine python,EX4 6DJ,50.734740000000000,-3.523659084077250
ringhals and agama,EX4 6DS,50.740117767381300,-3.522766249181640
wall lizard and thorn lizard,EX4 6ET,50.734996467675800,-3.516874961804880
Capuchin and Kangaroo,EX4 6JQ,50.733027113138500,-3.522380376813460
box turtle and Lemming,EX4 6LF,50.730224932006800,-3.518647892747470
worm lizard and Shearwater,EX4 6NJ,50.734370846316900,-3.517065000000000
skink and Nukupuʻu,EX4 6NN,50.726374480705600,-3.525832000000000
blindworm and sand lizard,EX4 6PE,50.727927516616600,-3.523787804182490
Kākāriki and Capuchin,EX4 6PH,50.729058827760500,-3.521174838932890
asp and racer,EX4 6PZ,50.731867655926700,-3.522328610567910
Darwin's finches and smooth snake,EX4 6QX,50.729442531588400,-3.522094118741760
Mockingbird and Quetzal,EX4 7HA,50.736336862061200,-3.509917509449360
chuckwalla and cobra de capello,EX4 7HS,50.730366340696000,-3.511227498018980
Parrotlet and king cobra,EX4 8BL,50.733913506285400,-3.496292242475710
Cloud rat and Gila monster,EX4 8BU,50.732933811656100,-3.492038199215980
mountain devil and Diving bird,EX4 8BY,50.733868367233200,-3.492096241823400
Tattler and python,EX4 8EL,50.732483331792900,-3.482940662588490
Parrotlet and Zebra,EX4 8HQ,50.736970778240400,-3.475869006391360
Logrunners and bushmaster,EX4 8HR,50.739621044551200,-3.471105332547280
Argus and indigo snake,EX4 8HW,50.738817076550800,-3.472100539926410
amethystine python and Triller,EX4 8LG,50.736261786364700,-3.496211204339950
diamondback and dugite,EX4 8NG,50.741202785376600,-3.492414433512100
blue racer and dukite,EX4 8QA,50.741044675913800,-3.487193749857340
milk snake and Mole,EX4 8QT,50.730550827977200,-3.497630399870000
Nukupuʻu and harlequin snake,EX4 9AJ,50.738185957697800,-3.500439141439200
Meadowlark and bicycle lizard,EX4 9DY,50.741431800625500,-3.495596490302160
Skunk and Armadillo,EX4 9EE,50.741631059594800,-3.505268941445470
anole and cycling lizard,EX4 9EZ,50.742933659419700,-3.470146150348430
Francolin and gavial,EX4 9HD,50.742550909663900,-3.468405005185160
Duck and Armadillo,EX4 9HQ,50.743493000000000,-3.467953000000000
New World blackbird and constrictor,EX4 9JD,50.746919295912500,-3.480675269307240
copperhead and tokay,EX4 9JN,50.750349067613700,-3.505690371885590
Jay and coral snake,EX4 9JY,50.742288722948200,-3.493993860717100
goanna and Herring gull,EX5 1AN,50.694654496525500,-3.426272364760670
death adder and horned viper,EX5 1EN,50.700729275480700,-3.385659671823190
puff adder and Eagle,EX5 1JT,50.677083836423500,-3.404622404841450
saltwater crocodile and rat snake,EX5 1NL,50.671434426412600,-3.396528694366000
puff adder and blindworm,EX5 1NT,50.673559148125200,-3.403073617046910
Hawk and amphisbaena,EX5 1NU,50.674016788523700,-3.403158028006340
cerastes and gecko,EX5 1QL,50.710489102314600,-3.431611105057870
Badger and Dolphin,EX5 1QU,50.676286482239600,-3.400014000000000
leathery turtle and Gull,EX5 1RB,50.673378422178900,-3.400902898916580
Macaw and mud turtle,EX5 1RD,50.675534474333600,-3.401844592888480
Mole and mountain devil,EX5 2AF,50.723022832635300,-3.451473404568540
box turtle and mud turtle,EX5 2AW,50.732087826957000,-3.447148306318970
wall lizard and coral snake,EX5 2EG,50.747183847840600,-3.390546282671860
horned viper and puff adder,EX5 2FG,50.724676309105200,-3.371192749355860
Viscacha and Petrel,EX5 2JU,50.704047000000000,-3.398659000000000
rock python and loggerhead,EX5 2LJ,50.730229000000000,-3.413395722290260
crocodile and Pheasant,EX5 2PG,50.756434000000000,-3.385660000000000
rock python and Hawk,EX5 3AA,50.761605917290400,-3.442599932421220
Masked owl and Treepie,EX5 3DB,50.770836490523200,-3.395005844957690
python and gaboon viper,EX5 3DR,50.798422422135000,-3.429571645371880
crocodile and anole,EX5 3EN,50.766780755166100,-3.444474989295550
Bunting and Pheasant,EX5 3HB,50.762255936401500,-3.441669911205830
leathery turtle and ringhals,EX5 3HT,50.766066663377900,-3.441134760185570
adder and blindworm,EX5 3HW,50.764772130255300,-3.438911244850850
Capuchin and Minke whale,EX5 3NA,50.762266609376400,-3.438621683464900
amethystine python and Jay,EX5 3NF,50.763437510449500,-3.439933772422210
Jackal and Pheasant,EX5 4AN,50.770213000000000,-3.507342903337330
habu and taipan,EX5 4BB,50.772679907121600,-3.507031476982720
bearded dragon and Nukupuʻu,EX5 5AG,50.765810808366100,-3.560228733980330
boomslang and Parakeet,EX5 5AY,50.773026564182900,-3.603088084497490
Prion and tree snake,EX5 5DP,50.773866319758300,-3.523692013907620
iguana and Kestrel,EX5 5EB,50.758533438417600,-3.548899183876120
Quetzal and Wader,EX5 7BE,50.747223475758200,-3.411030423239620
Triller and Solitaire,EX5 7DE,50.749862456239200,-3.412187123691540
Capuchin and Kangaroo,EX5 7DH,50.745082860512600,-3.415501773906390
Boto and cycling lizard,EX5 7EG,50.750227000000000,-3.400828000000000
Fox and Kangaroo,EX5 7EQ,50.751601554920800,-3.406696624172250
Cloud rat and Old World quail,EX5 7EX,50.749775000000000,-3.406315000000000
Condor and Argus,EX5 7EY,50.750045655700000,-3.401685000000000
rat snake and bushmaster,EX5 7FE,50.750459221500000,-3.405571000000000
Parakeet and anaconda,EX5 7FG,50.749353000000000,-3.405409000000000
Parakeet and Mink,EX5 7GE,50.755375000000000,-3.392192000000000
Nukupuʻu and bandy-bandy,EX5 7GH,50.752843000000000,-3.397858000000000
anaconda and Flameback,EX6 6EA,50.735040106302900,-3.679010323245190
horned toad and bushmaster,EX6 6ED,50.735041964172000,-3.680753474844030
tree snake and ringhals,EX6 6EY,50.736843025756300,-3.719436655282360
Hawaiian honeycreeper and Mouse,EX6 6HY,50.727545197116300,-3.739343994779110
Old World warbler and deaf adder,EX6 6NE,50.718071679132500,-3.766475999916570
Fulmarine petrel and Songlark,EX6 7AB,50.691034000000000,-3.672313000000000
cobra and krait,EX6 7BA,50.693231534489200,-3.650812000000000
thorn lizard and Egret,EX6 7DB,50.690104677954300,-3.683040026251290
goanna and amphisbaena,EX6 7EF,50.685163218739400,-3.685582000000000
Capuchin and massasauga,EX6 7JE,50.672628810233600,-3.662473774880240
Cloud rat and Maya,EX6 7JT,50.688234000000000,-3.649180000000000
Goose and alligator,EX6 7LB,50.670708567286700,-3.648876614690080
Chickadee and python,EX6 7LY,50.652544326874600,-3.648056495020440
Songlark and wall lizard,EX6 7QQ,50.646870408148500,-3.610572751844310
dugite and blue racer,EX6 7SN,50.708677219531700,-3.610409469746280
frilled lizard and green turtle,EX6 7TB,50.667641840466500,-3.535688589799830
whip snake and Ibex,EX6 7TH,50.668652395136600,-3.535438544623110
Black jay and flying dragon,EX6 7UB,50.661326945092900,-3.536487127915730
tuatara and flying lizard,EX6 7UY,50.662972808432700,-3.537501000000000
sea snake and massasauga,EX6 7XE,50.657806385595700,-3.525167038583270
Meadowlark and leathery turtle,EX6 7XW,50.639035000000000,-3.540497000000000
Vole and Prion,EX6 8AN,50.679482684883300,-3.496555899847810
Darwin's finches and Grosbeak,EX6 8AQ,50.681505000000000,-3.491152648045520
snapping turtle and Mink,EX6 8BN,50.675836701651600,-3.491231488973520
gavial and Capuchin,EX6 8BY,50.677461645550500,-3.494962990897100
smooth snake and blind snake,EX6 8DE,50.677357036623000,-3.494704898367550
Petrel and Badger,EX6 8EH,50.624584210903400,-3.448411418993100
smooth snake and constrictor,EX6 8ER,50.653106970941400,-3.490101217931690
python and Snipe,EX6 8EW,50.623810724259300,-3.448415924495500
rat snake and Duck,EX6 8FG,50.683694237707100,-3.496902735684850
hognose snake and Moluccan boobook,EX6 8FJ,50.682468833231700,-3.496382454159030
water snake and Diving bird,EX6 8GZ,50.620882162020700,-3.492178743984050
Jackal and Thicketbird,EX6 8JE,50.638305108957500,-3.464474297778890
Eagle and blind snake,EX6 8LE,50.640139555580500,-3.472338025175950
alligator and gaboon viper,EX6 8NN,50.636669000000000,-3.503355000000000
Pratincole and Linsang,EX6 8NS,50.639822048732700,-3.470418867167790
Bronzewing pigeon and Maya,EX6 8PE,50.630299938576500,-3.453790469001210
Kite and galliwasp,EX6 8SX,50.679962000000000,-3.500615311988830
perentie and Ice seal,EX6 8TZ,50.682711562976700,-3.504217623424690
Warbler and thorny devil,EX6 8UL,50.682588813179500,-3.503973056321740
horned toad and Jerboa,EX7 0AQ,50.587806724964500,-3.455899759727000
tuatara and Argus,EX7 0FJ,50.587882000000000,-3.470057000000000
diamond python and sidewinder,EX7 0FZ,50.599807000000000,-3.462671000000000
Old World quail and smooth snake,EX7 0GE,50.600739000000000,-3.454292000000000
Rat and fer-de-lance,EX7 0HD,50.588781823718300,-3.463487870509760
Jerboa and Capuchin,EX7 0PF,50.599829571962500,-3.448075124345070
Armadillo and Tit-tyrant,EX7 0PX,50.582901910868400,-3.496895000000000
leguaan and cycling lizard,EX7 0RE,50.593390753094000,-3.464577432079370
saltwater crocodile and Towhee,EX7 0SR,50.599313421275100,-3.447635371388680
Capuchin and ringhals,EX7 0WR,50.580263967252600,-3.470709827611700
Coati and Minke whale,EX7 9BD,50.586212278952600,-3.481066192831320
habu and Flameback,EX7 9DA,50.580628585424900,-3.472458529274630
Perching duck and loggerhead,EX7 9EN,50.578483790966600,-3.474765000000000
box turtle and dugite,EX7 9FD,50.579437273368400,-3.469229262103610
Mole and Eagle,EX7 9HS,50.581115617213400,-3.465933905281050
Zebra and Fulmarine petrel,EX7 9JT,50.580837430332500,-3.471589306596390
Fish eagle and Fulmarine petrel,EX7 9LJ,50.581650458550700,-3.473436782706910
black snake and deaf adder,EX7 9LT,50.580886926281700,-3.464810944162380
diamondback and amphisbaena,EX7 9LX,50.582915993794700,-3.470792458427240
cobra de capello and Siskin,EX7 9NF,50.582793399467900,-3.475506515200860
hognose snake and elapid,EX7 9QB,50.575679000000000,-3.477826000000000
Eagle and Diving bird,EX8 1AU,50.618491217855800,-3.416601916887210
anole and harlequin snake,EX8 1BH,50.616993356822300,-3.419963578211340
frilled lizard and hawksbill,EX8 1ED,50.618733688157400,-3.421797145290430
Black cockatoo and Dorcopsis,EX8 1ER,50.616885922751300,-3.423607309408610
Black cockatoo and wall lizard,EX8 1HQ,50.618761205476900,-3.412143027227100
Meadowlark and kabaragoya,EX8 1LP,50.620949735660100,-3.410541000000000
gecko and Polecat,EX8 1PZ,50.623151966891800,-3.410493258707140
Herring gull and black snake,EX8 1RD,50.620785004368000,-3.412118834380090
viper and flying dragon,EX8 1RR,50.621229343313000,-3.414040616822090
bushmaster and horned viper,EX8 1RW,50.620461268270200,-3.412858375673020
Pitohui and River dolphin,EX8 1SG,50.625073696306300,-3.412954225624860
smooth snake and agamid,EX8 1TE,50.626066717071800,-3.409675640878220
coral snake and Grouse,EX8 1XT,50.618407954610700,-3.421221881684980
Thrasher and Logrunners,EX8 2DZ,50.617790528527800,-3.402416802261870
black snake and Parakeet,EX8 2EE,50.618035687432400,-3.400727793056730
Kākāriki and soft-shelled turtle,EX8 2EL,50.620006000000000,-3.394821000000000
Meadowlark and soft-shelled turtle,EX8 2ER,50.618919779844500,-3.400499612200560
Kestrel and green turtle,EX8 2FB,50.618880000000000,-3.411369000000000
Coati and Parrotlet,EX8 2FF,50.625027000000000,-3.382980000000000
Kākāriki and Myna,EX8 2HN,50.621799639066900,-3.388314283450950
king cobra and sand lizard,EX8 2JF,50.621147104803500,-3.401498814823100
swift and Bronzewing pigeon,EX8 2JU,50.624466553337000,-3.398430655916540
worm lizard and Black cockatoo,EX8 2JW,50.620950289241900,-3.402906635805110
Jay and Mink,EX8 2LZ,50.624305647120200,-3.393095959099790
Pitohui and Bronzewing pigeon,EX8 2NQ,50.626063000000000,-3.390688000000000
Diving bird and B,EX8 2PD,50.627311416807000,-3.383118112163350
Linsang and racer,EX8 2QY,50.623305843336600,-3.377345604528760
Minke whale and racer,EX8 2QZ,50.625084936788100,-3.376718974606200
Towhee and cobra,EX8 2RD,50.622983000000000,-3.375102000000000
Francolin and Parrotlet,EX8 2RQ,50.622155368649400,-3.373480844065320
Hawk and Mink,EX8 2TF,50.624986379971900,-3.382003674464220
Komodo dragon and Kākāriki,EX8 3AJ,50.631555625974000,-3.401978052995800
king cobra and Marmoset,EX8 3DL,50.628411511660400,-3.410622396893630
gecko and Pheasant,EX8 3DT,50.626651317264900,-3.408929651025740
Viscacha and taipan,EX8 3EA,50.632493945114900,-3.409924480992300
Grosbeak and White ibis,EX8 3HR,50.629200024988600,-3.407888854390710
fer-de-lance and Stilt,EX8 3JX,50.630700227538400,-3.405049186776780
sea snake and Darwin's finches,EX8 4BH,50.628534328373100,-3.386914973368080
caiman and Chicken,EX8 4DA,50.630816683249800,-3.392355223953460
Mole and harlequin snake,EX8 4DX,50.632821000000000,-3.388794000000000
Warbler and dugite,EX8 4EN,50.637182376775100,-3.382672530306330
Magpie and cerastes,EX8 4HX,50.634185361976900,-3.394929392709900
snake and Duck,EX8 4JU,50.636339299848400,-3.391388000000000
anole and anaconda,EX8 4LH,50.636826255391600,-3.388417657267520
Parakeet and Thrasher,EX8 4NA,50.637890600427500,-3.384376189543540
monitor and horned viper,EX8 4ND,50.630987411051100,-3.394622625187270
puff adder and Gull,EX8 4NL,50.632457239490100,-3.395797342669880
cycling lizard and American sparrow,EX8 4PW,50.638172940420200,-3.397635429978650
Francolin and Songlark,EX8 4PX,50.640303802915600,-3.387148330189990
Buzzard and Myna,EX8 4QQ,50.641241000000000,-3.406622000000000
chuckwalla and Logrunners,EX8 4RD,50.636390876198700,-3.403734052895270
crocodile and gaboon viper,EX8 5BN,50.629326278626600,-3.377776068960900
Puffleg and Ground sloth,EX8 5EF,50.647494811564500,-3.373031583280780
Marmoset and leguaan,EX8 5HQ,50.646700960402000,-3.431509909598510
Linsang and Fulmarine petrel,EX8 5LQ,50.648333963771300,-3.419324147099940
Bunting and bandy-bandy,EX8 5NS,50.642121143166400,-3.391614486040790
Polecat and Darwin's finches,EX8 5NT,50.640228717487500,-3.393439530869510
fer-de-lance and carpet snake,EX8 5PA,50.639534004300600,-3.398877907271200
carpet snake and Coati,EX8 5PS,50.643503051085800,-3.391117863104750
whip snake and Condor,EX8 5PW,50.642580748954300,-3.393791975791120
gecko and Mouse,EX8 5QU,50.643842559472100,-3.389798393855490
mamba and death adder,EX8 5RJ,50.642013137469500,-3.384073059380120
hognose snake and amethystine python,EX8 5SD,50.643493207839600,-3.395700060640910
Mouse and glass snake,EX8 5SG,50.643127503804300,-3.396198385460840
giant tortoise and tuatara,EX8 9DT,50.619286000000000,-3.411805000000000
king snake and smooth snake,TQ12 3RR,50.577562000000000,-3.618052000000000
Macaw and Mole,TQ12 6RD,50.579160000000000,-3.643473000000000
python and turtle,TQ12 6RQ,50.575179359572200,-3.650763628645210
elapid and Duck,TQ13 0AD,50.592954182532900,-3.585800428035550
Skunk and Myna,TQ13 0AQ,50.585004000000000,-3.607514000000000
pit viper and anaconda,TQ13 0AY,50.585386821989900,-3.566814693305930
Mamo and Tattler,TQ13 0BD,50.586402318624400,-3.562186636751530
Hawaiian honeycreeper and Towhee,TQ13 0BJ,50.581981000000000,-3.553975000000000
sea snake and Peafowl,TQ13 0DS,50.619494623104500,-3.596291809865040
gecko and Pitohui,TQ13 0DY,50.635629861227100,-3.588990000516800
leguaan and Armadillo,TQ13 0ED,50.606727278542200,-3.598007787360940
Magpie and bicycle lizard,TQ13 0ER,50.586455299296600,-3.629840833686270
milk snake and bearded lizard,TQ13 0HB,50.586026941492500,-3.632171047991270
pit viper and Crow,TQ13 0LE,50.604028286351800,-3.599386057206950
habu and sand viper,TQ13 0LH,50.602979000000000,-3.596623000000000
Parrotlet and Myna,TQ13 0NP,50.627911003448000,-3.620500204263950
pit viper and Tattler,TQ13 0QG,50.602502552225000,-3.606343518913630
death adder and Komodo dragon,TQ13 0QH,50.605726285844400,-3.597549897690790
Grosbeak and Argus,TQ13 8LN,50.661499659512000,-3.766049800407600
Parrotlet and Ibex,TQ13 8NW,50.660144974022700,-3.760480869418140
Francolin and Dorcopsis,TQ13 9BT,50.589741010496300,-3.677126686602600
dugite and Parrotbill,TQ13 9DA,50.585842635104000,-3.681155483464880
diamond snake and Minke whale,TQ13 9DG,50.582994989401800,-3.682169984170630
Recurvebill and Piping shrike,TQ13 9DR,50.582163962404300,-3.673057697266960
gecko and bushmaster,TQ13 9EF,50.583382128488600,-3.682141404425360
Maya and hawksbill,TQ13 9FP,50.579896197795000,-3.676904007735900
Nukupuʻu and American sparrow,TQ13 9FZ,50.579632301666400,-3.680537000000000
River dolphin and goanna,TQ13 9GD,50.594642000000000,-3.688435000000000
sidewinder and River dolphin,TQ13 9GW,50.590774000000000,-3.660379000000000
coral snake and Coati,TQ13 9HG,50.596391778386800,-3.673689383635070
Marsh harrier and blindworm,TQ13 9HH,50.597384070080400,-3.676607110943340
Wallaby and Mole,TQ13 9JE,50.597461446811400,-3.679351088752700
Fish eagle and Asiatic leopard,TQ13 9JW,50.577767336387900,-3.678368000000000
coral snake and ringhals,TQ13 9PU,50.611031336698700,-3.656216272984980
diamond snake and loggerhead,TQ13 9QF,50.616090724726700,-3.654598788839750
agamid and Greenbul,TQ13 9QG,50.616773292486000,-3.654665152737650
Francolin and Fox,TQ13 9ST,50.616038000000000,-3.717331000000000
adder and rock python,TQ13 9TY,50.580515000000000,-3.672619000000000
Pratincole and Siskin,TQ13 9YN,50.583579679971600,-3.674675852751410
Fulmarine petrel and Pratincole,TQ13 9YR,50.590366943716700,-3.663586145203450
