name,postcode,lat,lon
Prion and Shearwater,EX22 6LG,50.782670578542000,-4.415006230498290
diamond snake and New World blackbird,EX22 6NB,50.791404000000000,-4.352142000000000
anaconda and black snake,EX22 6PT,50.769275000000000,-4.359442000000000
horned toad and thorny devil,EX22 6QY,50.742535904730800,-4.351803425618120
boa and River dolphin,EX22 6RJ,50.756387461804100,-4.388044933852710
Fox and Logrunners,EX22 6RL,50.748499727321900,-4.414664257351160
pit viper and Triller,EX22 6TR,50.777488551089400,-4.472559733163380
Komodo dragon and Mouse,EX22 6TS,50.776217590309200,-4.451399174367340
Pratincole and Boto,EX22 6UQ,50.799817589313900,-4.395623908956280
dugite and whip snake,EX22 6UR,50.747185653333300,-4.499598750756670
tortoise and frill-necked lizard,EX22 7EA,50.794718184592000,-4.457830962163730
Coati and Cuscus,EX23 0BA,50.730225540415100,-4.577885908286390
Duck and Piping shrike,EX23 0BG,50.724066587173800,-4.582252053154550
snapping turtle and massasauga,EX23 0DQ,50.770462034638200,-4.576467332242780
K훮k훮riki and Badger,EX23 0NX,50.757106794332600,-4.597471009523410
Mouse and rock snake,EX23 0NY,50.741929319842800,-4.594008215020480
flying lizard and Kestrel,EX23 0PF,50.733979796327500,-4.617265706925760
Tit-tyrant and Tattler,EX23 0PH,50.733021430857500,-4.615483209652290
Grackle and tiger snake,PL15 7DZ,50.630839032908300,-4.369880803334000
White ibis and Mole,PL15 7ES,50.627782492359800,-4.392676803094710
Parrotbill and tree snake,PL15 7FE,50.599483601100000,-4.435728676000000
Marsh harrier and terrapin,PL15 7FJ,50.630855000000000,-4.366972000000000
gopher snake and snake,PL15 7FP,50.630855000000000,-4.366972000000000
Komodo dragon and tree snake,PL15 7FR,50.633607000000000,-4.367888000000000
Old World quail and Viscacha,PL15 7HF,50.629798061925500,-4.363125646234890
Bronzewing pigeon and gaboon viper,PL15 7HN,50.629922706564900,-4.364517710691740
Wallaby and mamba,PL15 7HT,50.629022397461800,-4.409751089567420
soft-shelled turtle and Boto,PL15 7QD,50.600739059770400,-4.438930193479090
Maya and diamondback,PL15 7QH,50.588891648730200,-4.412250109494400
iguana and Recurvebill,PL15 7SX,50.619595494078400,-4.500643044363140
Shearwater and massasauga,PL15 7TG,50.597280469848100,-4.516488011248350
Tahr and Schneider python,PL15 8AF,50.637030681299800,-4.360405339614220
Eagle and Linsang,PL15 8AP,50.637545000000000,-4.360466471188240
tokay and frilled lizard,PL15 8AX,50.639323069097700,-4.361793174821210
Lemming and amphisbaena,PL15 8BT,50.637958054970800,-4.357693866984430
tree snake and death adder,PL15 8BZ,50.642920560621800,-4.358253520797180
Petrel and blue tongue,PL15 8DR,50.645431416553200,-4.365720843952220
Asiatic leopard and Booted eagles,PL15 8ED,50.643899285380300,-4.362772400828610
flying dragon and tokay,PL15 8EJ,50.641106616784300,-4.365206536901870
moloch and sand viper,PL15 8HF,50.647460965754900,-4.373391054271650
asp and gavial,PL15 8HG,50.647144231797000,-4.371719989696370
carpet snake and Chipmunk,PL15 8JJ,50.647310564991200,-4.364867475361820
kabaragoya and death adder,PL15 8NB,50.702961000000000,-4.458211000000000
Scimitar babbler and Grackle,PL15 8ND,50.689423000000000,-4.430417000000000
tortoise and agama,PL15 8NW,50.696781135887200,-4.400818624830430
horned viper and bull snake,PL15 8PB,50.639353629530200,-4.366490439861250
Treepie and Mouse,PL15 8RA,50.650937743487700,-4.406458833663020
Jackal and anaconda,PL15 8RQ,50.684173616514100,-4.520768017130230
fer-de-lance and alligator,PL15 8RX,50.665834431417800,-4.454204922503360
Ground sloth and Cloud rat,PL15 8SE,50.646668819642300,-4.367678581424050
Badger and worm lizard,PL15 8UH,50.674306000000000,-4.533728000000000
brown snake and thorn lizard,PL15 8UQ,50.664416789313600,-4.537979095742340
racer and Mink,PL15 8XN,50.644110530401700,-4.362556678080980
agama and Recurvebill,PL15 9DA,50.629905407355800,-4.355608059458880
smooth snake and Vole,PL15 9DB,50.630224302083300,-4.355850261551130
Old World quail and Capuchin,PL15 9EF,50.627708305100000,-4.354820157100000
Perching duck and Argus,PL15 9EP,50.637196849028600,-4.355308004335010
Kite and Komodo dragon,PL15 9EZ,50.635599000000000,-4.355666000000000
Rabbit and skink,PL15 9FB,50.629654556100000,-4.359979864600000
River dolphin and Bunting,PL15 9HT,50.626335412924700,-4.358681731401910
goanna and Pratincole,PL15 9JS,50.630203699788500,-4.345285907155110
New World blackbird and alligator,PL15 9LP,50.625482990819100,-4.363460661661120
Zebra and leguaan,PL15 9QT,50.636940690522300,-4.332284521906010
Fish eagle and smooth snake,PL15 9SU,50.686233373620600,-4.332067257582010
Chicken and Viscacha,PL30 3PB,50.575164000000000,-4.720800000000000
Lemming and massasauga,PL32 9AH,50.676690006200000,-4.613130000000000
Greenbul and Solitaire,PL32 9NB,50.625761387367400,-4.675247718633720
diamondback turtle and Chipmunk,PL32 9PJ,50.621418000000000,-4.680331000000000
deaf adder and amphisbaena,PL32 9SQ,50.663171203152700,-4.637353820234200
Capuchin and Schneider python,PL32 9TR,50.630406000000000,-4.675464875034880
Rat and Vulture,PL32 9XQ,50.638444000000000,-4.664723000000000
Ice seal and brown snake,PL32 9YT,50.624026273019200,-4.676775269329840
Badger and Mockingbird,PL33 9BW,50.626850704209000,-4.726004106024110
Black jay and Kite,PL35 0AB,50.685509018845700,-4.693767594901000
green turtle and K훮k훮riki,PL35 0AF,50.683690000000000,-4.692114000000000
adder and Pratincole,PL35 0AS,50.683680282802100,-4.693889331201640
Goose and skink,PL35 0AW,50.684631928585100,-4.695133145996090
tuatara and alligator,PL35 0EB,50.676422528451500,-4.703552343647780
hognose snake and monitor,PL35 0HE,50.689967778274800,-4.692323967407430
caiman and box turtle,PL35 0HS,50.672348080216000,-4.628894584074250
