name,id,postcode,lat,lon
Viscacha and cobra de capello,1184463,EX4 2JT,50.731710870950300,-3.606381498823660
Old World vulture and Kite,1181980,EX6 8BZ,50.677987666652800,-3.493918159595080
rattlesnake and box turtle,1193809,EX2 5NX,50.717255272872100,-3.488777826895370
lizard and rock python,1183827,EX4 6DA,50.731585305964600,-3.523977365074060
caiman and loggerhead,1180786,EX8 4NZ,50.637040860023700,-3.396795775971280
diamondback terrapin and sand viper,1184670,EX4 1NX,50.718959599285800,-3.559266972757880
blindworm and cobra de capello,1181919,EX7 0HB,50.588064816291800,-3.462575637821760
terrapin and Jay,1193974,EX2 4RA,50.712532889079000,-3.513288383119460
water snake and mud turtle,1201207,EX1 3NU,50.728104362920300,-3.485707025520950
Marsh harrier and Badger,1195032,EX17 3JZ,50.790803954774800,-3.664237439156050
River dolphin and crocodile,172860,TQ13 8LT,50.661435701657100,-3.764335326931230
Goose and Vulture,1182424,EX6 7XU,50.648011145025300,-3.547099881615460
leguaan and smooth snake,1182137,EX6 7HU,50.657044000000000,-3.677631266624510
Asiatic leopard and cycling lizard,1774468,EX4 7BX,50.733107293986400,-3.504981957611750
Civet and mamba,1773633,EX1 9RQ,50.726237664708000,-3.522203263408240
Grouse and Stint,1181320,EX8 1SE,50.625475000000000,-3.411942188958750
amethystine python and tuatara,1774436,EX4 3EX,50.722593811235300,-3.533985828088320
Vulture and thorn lizard,1184732,EX4 1RE,50.718706748085400,-3.555306174680820
python and White ibis,1195255,EX17 2BG,50.791378628439500,-3.664300418664330
grass snake and coral snake,1193979,EX2 4RG,50.712565754105800,-3.516986354591270
mountain devil and Siskin,1183347,EX5 1HF,50.655924629936700,-3.387948066454380
giant tortoise and Crow,1183598,EX4 9DU,50.744193475223900,-3.499738246208080
indigo snake and Treepie,1201149,EX1 3HR,50.724234842236300,-3.490826732623970
Greenbul and asp,1180765,EX8 4LX,50.638766846752100,-3.384048388581970
Crow and puff adder,1181748,EX6 8RA,50.617048000000000,-3.449292368922410
death adder and grass snake,1180680,EX8 4HH,50.632493861796600,-3.394992437141660
crocodile and Macaw,1182467,EX6 7AE,50.695346662582500,-3.673132003968380
Black cockatoo and elapid,1182583,EX5 5ER,50.754625486823000,-3.553321020047190
cayman and chameleon,1201273,EX1 2EZ,50.722738445535900,-3.508573569379090
Fulmarine petrel and Grosbeak,1182172,EX6 7LQ,50.666142702851400,-3.661338987897130
king snake and Tree warbler,1181205,EX8 2QJ,50.624457400717400,-3.382624362718100
hognose snake and carpet snake,172541,TQ13 8WS,50.660694000000000,-3.766501000000000
bandy-bandy and Flameback,1184172,EX4 5AR,50.745433189842200,-3.543930952224770
blind snake and diamond python,1183138,EX5 2EL,50.748165325659000,-3.388179791488720
gecko and Goose,1189872,EX3 0RE,50.690841677874900,-3.440866628409910
diamondback and Darwin's finches,1774727,EX5 7EP,50.751124063951400,-3.406767363861900
death adder and Partridge,1184167,EX4 5AJ,50.745104523557500,-3.543622479315270
monitor and Rabbit,1184510,EX4 4LY,50.729994050972900,-3.530798017048620
Tahr and constrictor,1182266,EX6 7RX,50.714850620656100,-3.585194521414770
Egret and Macaw,1183042,EX5 2DR,50.731157462684000,-3.400358922969200
mountain devil and Flameback,1183233,EX5 1DD,50.706555000000000,-3.449611128420410
rock python and Black jay,1180932,EX8 2AL,50.615373211188700,-3.409709262464000
Piping shrike and Meadowlark,2641403,EX6 8XF,50.677942000000000,-3.494610000000000
Ground sloth and Chicken,1180971,EX8 3LZ,50.634006852552700,-3.411242412630200
diamondback turtle and Hawk,1194013,EX2 4TA,50.721111747837300,-3.520945775238480
Pitohui and brown snake,1182279,EX6 7SW,50.706589786739500,-3.615677287872220
Recurvebill and Wallaby,1180332,EX8 4RJ,50.631251818260900,-3.384520491772350
Mamo and Kestrel,1182085,EX6 8JY,50.641155348058700,-3.471662632481590
skink and glass snake,2586511,EX1 3FN,50.734887000000000,-3.463616000000000
Parrotlet and Kangaroo,1184786,EX4 2AX,50.729729460881500,-3.548784817537280
Badger and gavial,1183242,EX5 1DQ,50.716215000000000,-3.442905000000000
Polecat and Shearwater,172453,TQ13 9TP,50.620547242406000,-3.713974988031870
Capuchin and frill-necked lizard,1774754,EX7 0EP,50.601190672581200,-3.450562029184580
Dolphin and constrictor,1183992,EX4 6QD,50.730137630897600,-3.523958716476240
Tahr and Asiatic leopard,1180779,EX8 4NR,50.633324003389000,-3.400758031344500
Night heron and hoop snake,172628,TQ13 9DJ,50.582271991100100,-3.687384777985160
Eagle and diamondback,1200932,EX1 3UP,50.723758356249300,-3.477394744520390
Grouse and soft-shelled turtle,1774476,EX4 8FS,50.739971000000000,-3.481902000000000
Tattler and constrictor,1182158,EX6 7JW,50.678611808159000,-3.658523833021430
New World blackbird and Ibex,1180542,EX8 4BB,50.629489922998400,-3.393503721250800
horned viper and ringhals,2625733,EX1 3FW,50.726316000000000,-3.478495000000000
hognose snake and hawksbill,1184812,EX4 2DH,50.726692546358400,-3.551277529249720
Jerboa and Tattler,1183700,EX5 1AG,50.702751368994300,-3.431899372615680
bearded lizard and Old World warbler,1193882,EX2 5SE,50.711018981707800,-3.485563302682430
deaf adder and Tattler,1183547,EX4 8QN,50.741479333319000,-3.485549269203810
krait and mountain devil,173494,TQ13 0DQ,50.616134985702800,-3.573532962189590
glass snake and amphisbaena,1182116,EX6 8NN,50.636669000000000,-3.503355000000000
Rabbit and box turtle,1181764,EX6 8RW,50.615402912989600,-3.454829386782540
flying lizard and copperhead,1182041,EX6 8EW,50.623810724259300,-3.448415924495500
galliwasp and Stint,1193690,EX2 7DA,50.696718751054300,-3.496877988566830
Mouse and worm lizard,2662844,EX7 0GS,50.592066000000000,-3.467517000000000
gavial and Tahr,1184070,EX4 4RJ,50.736531902333500,-3.531407000000000
hognose snake and Treepie,1182554,EX5 5BX,50.770366615946100,-3.589141336886390
gavial and Zebra,1200828,EX1 3RB,50.730975187993600,-3.484139982792250
Hawk and Prion,1765550,TQ13 9FZ,50.579632301666400,-3.680537000000000
Tree warbler and worm lizard,1773601,EX1 2UJ,50.729799229168300,-3.507653167458480
loggerhead and gaboon viper,1183475,EX5 1QE,50.687856389679500,-3.409205358797260
Tattler and Old World vulture,172703,TQ13 9JE,50.597461446811400,-3.679351088752700
dugite and horned toad,1184447,EX4 2HY,50.725842000000000,-3.548373000000000
Perching duck and diamondback turtle,2641399,EX5 7GG,50.751666000000000,-3.397823000000000
rat snake and king cobra,1193659,EX2 7AG,50.692502296297900,-3.482698672797440
Thicketbird and Shearwater,1182122,EX6 8NU,50.616631516888100,-3.450061232505350
bandy-bandy and Old World quail,1180990,EX8 3NZ,50.640430000000000,-3.417120000000000
Siskin and Asiatic leopard,1195153,EX17 3QU,50.785921705756600,-3.670448089753440
hawksbill and bearded lizard,173192,TQ13 0NA,50.627254097334400,-3.604938981803100
blue tongue and puff adder,1193129,EX2 8FW,50.695926368412100,-3.529504334493340
Prion and Warbler,1774158,EX2 7SE,50.704338406041900,-3.478937270876020
Herring gull and gecko,1184511,EX4 4LZ,50.729012026950200,-3.529956000000000
Fish eagle and Pitohui,1184251,EX4 3QH,50.726083623400900,-3.528616107447000
blue racer and tokay,1201449,EX1 1BQ,50.720533460153000,-3.533507199659390
dukite and Recurvebill,1201173,EX1 3JZ,50.726618053353600,-3.493636936172510
pit viper and frill-necked lizard,1193743,EX2 5HL,50.718437302083000,-3.497598309088340
Condor and flying dragon,1195138,EX17 3PZ,50.776588000000000,-3.648329000000000
chuckwalla and rock snake,1193193,EX2 8LD,50.697075117649900,-3.516613850776110
White ibis and Schneider python,1184333,EX4 4AF,50.734834919458700,-3.542887983486160
White ibis and dukite,1774699,EX5 7BS,50.748189778598300,-3.408465447871870
Condor and monitor,1193308,EX2 8UB,50.695872432164600,-3.537021226193980
Greenbul and Booted eagles,172889,TQ13 8PH,50.653563917689200,-3.763304664604500
Nukupuʻu and Fox,1184614,EX4 3DL,50.723077132481200,-3.531564285959690
Masked owl and Schneider python,1195585,EX17 1BQ,50.792468364633400,-3.651540869853580
Diving bird and Francolin,1181233,EX8 1JL,50.620608372601900,-3.411109841912490
gecko and Komodo dragon,1184661,EX4 1NJ,50.716202150956700,-3.557659728132820
Thrasher and lizard,1181646,EX7 0RF,50.592087367382800,-3.460227891258150
smooth snake and B,173182,TQ13 0LP,50.602881640209600,-3.595121840148650
Badger and Boto,1181156,EX8 1FB,50.617873103194700,-3.425983667719110
bull snake and Cuscus,1183436,EX4 8LZ,50.739079159700300,-3.496568000000000
brown snake and python,1185005,EX4 1EL,50.720050329046200,-3.544215622123130
carpet snake and Thicketbird,1193376,EX2 7NR,50.723157713026000,-3.473692284001170
carpet snake and Polecat,1183137,EX5 2EJ,50.745021956371000,-3.389207000000000
Ice seal and Fulmarine petrel,1182611,EX5 5JP,50.792710043091000,-3.541260251412030
crocodile and rock snake,1182532,EX5 5AP,50.780527760137800,-3.586592091633030
Perching duck and glass snake,1195277,EX17 2DJ,50.794139644054000,-3.660510649310670
loggerhead and bicycle lizard,1194047,EX2 4TY,50.720499527026100,-3.516165900843440
bushmaster and Pheasant,1184375,EX4 4DT,50.726297775182200,-3.538314389429510
Booted eagles and krait,1183361,EX5 1HY,50.678283000000000,-3.399265000000000
krait and tiger snake,1181773,EX6 8SH,50.660181389542600,-3.486844598270070
Towhee and Goose,1183457,EX5 1PF,50.674505214018500,-3.401431798651920
snake and Stilt,1183426,EX4 8LN,50.735674108189900,-3.499253489077770
terrapin and asp,1184195,EX4 5BY,50.740002518383900,-3.512969174315330
grass snake and Parrotbill,1180850,EX8 3BA,50.629392298375500,-3.398647522248520
goanna and Buzzard,2641325,EX17 3FH,50.784785000000000,-3.642278000000000
monitor and Linsang,1182156,EX6 7JT,50.688234000000000,-3.649180000000000
Fish eagle and Wallaby,1193109,EX2 9NE,50.709844435653300,-3.550197167686900
slowworm and Logrunners,2625897,EX7 0GB,50.600542000000000,-3.457126000000000
Masked owl and Grackle,1201608,EX1 1XT,50.726230512013200,-3.522202534601020
Kangaroo and Logrunners,2652460,EX5 7GF,50.754953000000000,-3.393654000000000
soft-shelled turtle and snake,1182053,EX6 8HG,50.611017964301400,-3.519328196884460
Maya and Dolphin,1181819,EX7 9EL,50.576632712737000,-3.471966689386260
whip snake and Boto,172709,TQ13 9JP,50.577703299561100,-3.681162217862670
Parrotlet and Ice seal,1182165,EX6 7LE,50.668461161650800,-3.645627968285630
death adder and coral snake,1181438,EX7 9NP,50.582619277426500,-3.474342795187020
American sparrow and copperhead,1201623,EX1 2AQ,50.723049588212100,-3.508158536439170
Kite and Viscacha,1773967,EX17 2FU,50.791075877911400,-3.660189757439900
bicycle lizard and Komodo dragon,1183841,EX4 6DX,50.739054000000000,-3.521725000000000
goanna and Moluccan boobook,1184723,EX4 3JF,50.720925684438300,-3.534229000000000
crocodile and gavial,1193794,EX2 5ND,50.715019160856900,-3.486412213056180
diamond snake and Meadowlark,1184789,EX4 2BB,50.727636022084500,-3.549310867304250
Dorcopsis and sea snake,172346,TQ13 9PZ,50.613384580330900,-3.651365898002950
Warbler and turtle,1201482,EX1 1EZ,50.722947861036300,-3.529080745873020
brown snake and Mink,1182545,EX5 5BJ,50.771861323120000,-3.589007629504040
dukite and Goose,1181152,EX8 1ET,50.617641060652600,-3.422159993614980
Pitohui and diamondback terrapin,1193348,EX2 7JP,50.707069028720900,-3.468683942000930
Parrotlet and Black cockatoo,2613399,TQ13 0FN,50.605613000000000,-3.598508000000000
Ibex and sea snake,1193531,EX2 6AU,50.711834296641900,-3.503336786664630
Vulture and tokay,1181581,EX7 0PX,50.582901910868400,-3.496895000000000
Booted eagles and Solitaire,1183687,EX4 9JU,50.743727412565600,-3.495414517572820
frilled lizard and agamid,1180963,EX8 2DD,50.612364434196700,-3.395937446947240
Piping shrike and horned viper,1183537,EX4 8PT,50.739506253771500,-3.477337632399520
Kestrel and dukite,1181385,EX8 1SS,50.622493856299700,-3.414333021164170
Parakeet and Fox,1193226,EX2 8NA,50.707321268803600,-3.537678926518300
Jay and River dolphin,1200880,EX1 3TU,50.728077535678100,-3.492734032121280
sea snake and Chipmunk,1182047,EX6 8GA,50.670930040436400,-3.493750678355570
Vole and Kangaroo,1180657,EX8 4EG,50.634693533811800,-3.386261964199920
Pratincole and puff adder,1183737,EX4 7HB,50.736899349483400,-3.509538792992310
Stint and mud turtle,1184811,EX4 2DG,50.729413997924200,-3.552217611729770
White ibis and Wader,1189830,EX3 0NX,50.694234814206300,-3.439922865490500
Tahr and River dolphin,1193656,EX2 7AB,50.699484857789200,-3.490862920771120
Hawaiian honeycreeper and Mockingbird,1193587,EX2 6EU,50.704936126038900,-3.506146802238920
Grackle and viper,173178,TQ13 0LH,50.602979000000000,-3.596623000000000
smooth snake and cerastes,2606196,EX3 0FA,50.691235000000000,-3.442436000000000
diamondback turtle and Egret,1201160,EX1 3JH,50.731898395214600,-3.487910101794990
Flameback and Coati,1180989,EX8 3NX,50.642053460949700,-3.412926078344160
grass snake and monitor,1184773,EX4 2AE,50.733359890268000,-3.548323580559090
Treepie and Scimitar babbler,1194122,EX2 5ER,50.720601181413400,-3.504155706722840
iguana and tokay,1184255,EX4 3QS,50.723032339278700,-3.533602959174710
Marmoset and agamid,1183334,EX5 1EQ,50.679803829618300,-3.398305832415920
boa and Mink,172436,TQ13 9SP,50.611003950655900,-3.710377208138650
Polecat and soft-shelled turtle,1180874,EX8 3DS,50.626370572711100,-3.409090918372820
Macaw and Night heron,1183210,EX5 2LX,50.731300388297400,-3.432996571320260
gavial and Perching duck,173187,TQ13 0LU,50.627744025563900,-3.621512473300470
anole and Polecat,172457,TQ13 9TT,50.594690675875100,-3.674406142641480
box turtle and Cuscus,1184469,EX4 2LA,50.728908008894200,-3.598308199294930
flying dragon and Mink,1773598,EX1 2FE,50.727485000000000,-3.521936845637910
jew lizard and cobra de capello,1181263,EX8 1NN,50.618244905839100,-3.413187756061700
box turtle and Old World warbler,1194753,EX17 5PY,50.775203973536200,-3.728289781711760
rock python and Macaw,172676,TQ13 9GA,50.591768608667000,-3.680589555435810
garter snake and Bronzewing pigeon,1181975,EX6 8BT,50.677960796690000,-3.494610850636040
Crow and Chickadee,1184821,EX4 2DU,50.727828033062300,-3.551102505019990
White ibis and Masked owl,1200940,EX1 3XA,50.736054466680900,-3.470809333135820
Warbler and Night heron,1181693,EX7 9AL,50.581714744035600,-3.474752419745520
Bronzewing pigeon and hoop snake,1184446,EX4 2HX,50.726026651142600,-3.557376336480240
agama and python,1184017,EX4 6RY,50.728003289821400,-3.522118311130070
ringhals and Booted eagles,1181986,EX6 8DG,50.677075271113200,-3.495203000000000
Maya and viper,1201015,EX1 9JS,50.726230512013200,-3.522202534601020
Grosbeak and Warbler,1195043,EX17 3LP,50.790022539404500,-3.664167117849570
Lemming and tortoise,1200935,EX1 3UT,50.728937078719000,-3.466108884336420
Kangaroo and Old World vulture,1190129,EX3 0AX,50.679131407635200,-3.462602711257880
Old World quail and Booted eagles,1195345,EX17 2ET,50.794948336145900,-3.665604974358380
Viscacha and saltwater crocodile,1194008,EX2 4SU,50.721125811039700,-3.523312120982490
rock snake and bandy-bandy,1184945,EX4 0BQ,50.765732232877500,-3.464366146850220
box turtle and Vulture,1180445,EX8 5AL,50.663562526647600,-3.431584055005280
anaconda and Jay,1193039,EX2 9DY,50.708168967631700,-3.541587361847670
Logrunners and alligator,1774111,EX2 6EQ,50.712463000000000,-3.506983000000000
Minke whale and anole,1181003,EX8 3QD,50.625490919953200,-3.398350000000000
chameleon and sand lizard,1180666,EX8 4ET,50.636753996592500,-3.380878135629100
flying lizard and Warbler,2594010,EX5 4BH,50.768936000000000,-3.507975000000000
Mink and Macaw,1201716,EX1 2AW,50.727878062736700,-3.521377461548730
Marmoset and Wallaby,1200852,EX1 3SH,50.738380364721800,-3.466077853268640
Grackle and Lemming,1183674,EX4 9JA,50.751068668251500,-3.486760132516270
Kite and Civet,1183880,EX4 8EN,50.733515357385200,-3.482406432918950
Kangaroo and giant tortoise,1200640,EX1 9SD,50.724726348723100,-3.525129079583950
bushmaster and Songlark,1182051,EX6 8HE,50.618416099387400,-3.515453013820270
Mouse and Egret,1193126,EX2 8FS,50.698686123518200,-3.515830373961960
Badger and Bunting,2662813,EX1 3ZT,50.737575000000000,-3.450704000000000
Rabbit and Mamo,1184496,EX4 4LE,50.729681579854000,-3.534726979639160
Maya and pit viper,1182415,EX6 7XE,50.657806385595700,-3.525167038583270
Marsh harrier and python,1183964,EX4 6NA,50.732975000000000,-3.519615000000000
mud turtle and Tattler,1181144,EX8 1EE,50.618865433707500,-3.422055569033730
Herring gull and garter snake,1180511,EX8 5HH,50.646680977969000,-3.430208009657420
Asiatic leopard and giant tortoise,1183871,EX4 8EA,50.734238000000000,-3.500554000000000
Piping shrike and Dolphin,1201550,EX1 1QA,50.723971876815100,-3.524624000000000
sand viper and Rabbit,1201525,EX1 1JG,50.721996682004800,-3.527548047034620
turtle and Tree warbler,1765208,TQ13 0FJ,50.593792490628400,-3.613041254398300
galliwasp and diamondback terrapin,1183549,EX4 8QQ,50.740655500390400,-3.485976725726750
Guillemot and Puffleg,1195520,EX17 3JF,50.789718174071100,-3.660283000876150
Tit-tyrant and tortoise,1183715,EX5 1BB,50.709894024987300,-3.452809927370610
Zebra and horned viper,1192727,EX2 9QF,50.688696518555900,-3.542407087854010
Pitohui and cycling lizard,172903,TQ13 8QA,50.684737778650800,-3.756616497936300
Marmoset and galliwasp,173190,TQ13 0LY,50.628392984795100,-3.625849000000000
leguaan and Mockingbird,1193468,EX2 8AX,50.716400694441300,-3.530454171881340
Jay and gopher snake,1183802,EX4 8BW,50.733576819788000,-3.494495999673790
caiman and hognose snake,1195015,EX17 5BL,50.776462572154200,-3.728322003539870
dukite and Quetzal,1193819,EX2 5PJ,50.717811959290600,-3.488143835717720
Old World warbler and diamond python,1183071,EX5 3JB,50.764144183958900,-3.442422772445520
Mouse and Viscacha,1184148,EX4 4UD,50.727404401957400,-3.529395885613870
Kite and alligator,1184222,EX4 5EH,50.738186158604600,-3.515716713745570
Fox and snapping turtle,1774171,EX2 9EY,50.714717834142400,-3.542001060935140
Mink and Songlark,1201226,EX1 2BP,50.726130000000000,-3.518983000000000
saltwater crocodile and giant tortoise,1181170,EX8 1HW,50.620186265724000,-3.411942000000000
snake and whip snake,172585,TQ13 9BY,50.586678133315600,-3.679348760497100
gopher snake and Old World vulture,1183437,EX4 8NA,50.736070900259800,-3.497069580939150
Dorcopsis and giant tortoise,173475,TQ13 0BP,50.591098008152700,-3.552692684278400
Fox and boa constrictor,1181921,EX7 0HE,50.588290686831800,-3.463924704188810
tortoise and Viscacha,1194074,EX2 5BA,50.708693876864700,-3.488761496506130
B and brown snake,1201589,EX1 1TS,50.723794678747800,-3.526912304665780
leguaan and White ibis,1193610,EX2 6JH,50.705479202863800,-3.493998824576740
Warbler and Booted eagles,1184150,EX4 4UX,50.731450092188600,-3.530179493138680
Pitohui and Wader,2625872,EX4 3FG,50.726976000000000,-3.534625000000000
soft-shelled turtle and Maya,2652469,EX7 0GE,50.600739000000000,-3.454292000000000
cerastes and Cuscus,1182584,EX5 5ES,50.755627112363400,-3.554417496324650
Fulmarine petrel and Parakeet,172474,TQ13 9UY,50.625211316354700,-3.757068922523650
B and Kākāriki,1183893,EX4 8FG,50.721010000000000,-3.530193000000000
snake and saltwater crocodile,1181825,EX6 8TR,50.683220826448800,-3.503780932968820
gavial and sidewinder,1193386,EX2 7PJ,50.723547080063900,-3.464920545665560
racer and blue racer,1181584,EX7 0QA,50.602810919982500,-3.510726279379860
flying lizard and Macaw,1195253,EX17 2BD,50.791562534282400,-3.664760000000000
whip snake and Bunting,2625752,EX1 9YB,50.726310000000000,-3.522262000000000
Songlark and thorn lizard,1181994,EX6 8DS,50.675323746043600,-3.491257689002570
Flameback and Songlark,1182777,EX5 4EU,50.782188425933100,-3.497747857534230
Armadillo and water snake,1189850,EX3 0PX,50.667210595805700,-3.438416591489460
Tit-tyrant and Coati,1193729,EX2 5GL,50.714502693901500,-3.471834298168860
rock snake and Booted eagles,1184094,EX4 6TR,50.730568296895100,-3.526098173891920
soft-shelled turtle and agama,1181204,EX8 2QH,50.624756000000000,-3.384824000000000
Eagle and Duck,1194080,EX2 5BJ,50.719116257680100,-3.504235652846380
Duck and Philippine hawk-owl,1193952,EX2 4PF,50.717895881136300,-3.515826873642190
goanna and Perching duck,1774765,EX7 0FL,50.587982000000000,-3.469227000000000
Guillemot and tokay,1184426,EX4 2EZ,50.732662359982000,-3.552084107188980
cobra and Diving bird,172858,TQ13 8LR,50.664038641629600,-3.767644993553100
Grosbeak and Tahr,1181872,EX7 0BH,50.583779593498500,-3.467923606434920
terrapin and tree snake,1193710,EX2 7EE,50.693566416737000,-3.485294947329560
death adder and Condor,1181471,EX7 9QN,50.580773145134400,-3.478084699991090
Old World quail and ringhals,1201072,EX1 3DB,50.720392621024800,-3.494501465954750
Shearwater and pit viper,1182623,EX6 7HB,50.687813750435200,-3.681627252461010
Fish eagle and Coati,1189834,EX3 0PB,50.683146677467800,-3.450752035944350
chuckwalla and cycling lizard,1181075,EX8 2JE,50.616408529220000,-3.392424399135610
cayman and python,1184944,EX4 0BD,50.761609000000000,-3.465499000000000
bushmaster and Buzzard,1193136,EX2 8GE,50.696916647919700,-3.527370117509520
agama and Viscacha,1192945,EX2 8YG,50.696237266460200,-3.537316345104330
iguana and blind snake,1181104,EX8 2LR,50.625309568527100,-3.395402000000000
bushmaster and Night heron,1181048,EX8 2ET,50.624619185614800,-3.388680090624200
krait and Perching duck,1182775,EX5 4ES,50.787609817234900,-3.492955666671680
water snake and Marsh harrier,1181184,EX8 2PH,50.627907414036300,-3.379120187920890
Mole and cerastes,1184429,EX4 2HA,50.712860799228600,-3.566741749586980
skink and Tattler,1201416,EX1 2SP,50.723904277617400,-3.506046641135490
Dorcopsis and Moluccan boobook,172652,TQ13 9ER,50.592192955384400,-3.666080617416060
Mouse and giant tortoise,1193920,EX2 6AB,50.711551207439500,-3.512704364514500
Zebra and galliwasp,1765549,TQ13 8WQ,50.660655229885400,-3.766485586080020
blind snake and thorn lizard,2664697,TQ13 0FQ,50.598110000000000,-3.609176000000000
blind snake and Old World warbler,173455,TQ13 0AD,50.592954182532900,-3.585800428035550
Perching duck and Marsh harrier,1184004,EX4 6QT,50.728332598462900,-3.523758441952970
Tree warbler and Peafowl,1192773,EX2 9TG,50.702222000000000,-3.569502000000000
Night heron and Viscacha,173505,TQ13 0ED,50.606727278542200,-3.598007787360940
adder and Nukupuʻu,1181068,EX8 2HW,50.620155675902500,-3.388916143715550
Old World quail and iguana,1182473,EX6 7AN,50.716604807207900,-3.728753552186810
black snake and Condor,1193154,EX2 8HD,50.699712749354600,-3.519177048807910
Rat and Nukupuʻu,1181415,EX8 1XR,50.618074670285000,-3.422738509917970
Ice seal and Grosbeak,1195563,EX17 1AL,50.786179563610700,-3.585634321047290
elapid and turtle,1183580,EX4 9BL,50.739915835140400,-3.500891273946590
alligator and Snipe,172326,TQ13 9NX,50.628651000000000,-3.693103000000000
Capuchin and lizard,1182701,EX6 6BD,50.744380004102500,-3.673051106567160
B and cobra,1193155,EX2 8HE,50.698690801973400,-3.517543913539650
massasauga and New World blackbird,1201377,EX1 2QH,50.722130956040900,-3.506173951694980
Kākāriki and flying lizard,1184743,EX4 1RZ,50.720839571116000,-3.554526781366000
turtle and Buzzard,1181082,EX8 2JP,50.621062657738400,-3.404776032766840
hawksbill and agamid,1183110,EX5 3RZ,50.744892819323700,-3.429031790918240
Polecat and ringhals,1193576,EX2 6EB,50.710606000000000,-3.503821000000000
rat snake and Schneider python,1182120,EX6 8NS,50.639822048732700,-3.470418867167790
saltwater crocodile and indigo snake,1201061,EX1 3BJ,50.721760176814500,-3.497959267890860
giant tortoise and Skunk,1181596,EX8 1AD,50.620054111889800,-3.414542548948760
cobra and Solitaire,1200863,EX1 3SX,50.742341254853700,-3.466485044520200
Tahr and bushmaster,1183691,EX4 9LA,50.741450603023200,-3.494831741600450
Scimitar babbler and swift,1193427,EX2 7RJ,50.715214326537800,-3.475298727922800
puff adder and mamba,1193770,EX2 5JY,50.716783237998000,-3.493338374615970
copperhead and Francolin,1774137,EX2 7GH,50.697686193390500,-3.482961781656780
puff adder and Black jay,1184643,EX4 1LN,50.712390060106400,-3.554884593134690
loggerhead and mamba,1193422,EX2 8XB,50.698223846773200,-3.530556136199540
cayman and agamid,1201219,EX1 3PJ,50.730784336028300,-3.480053027178320
rock python and Petrel,173481,TQ13 0BX,50.588787744477900,-3.557999162253180
glass snake and indigo snake,1193747,EX2 5HR,50.718825393510300,-3.500288110065140
Dorcopsis and Rat,1181071,EX8 2HZ,50.618550189840200,-3.397576615616020
chuckwalla and Siskin,1195038,EX17 3LG,50.790829447337300,-3.659925110486250
grass snake and indigo snake,172787,TQ13 8GB,50.659121122631000,-3.759791737138430
Duck and Black cockatoo,1201147,EX1 3HP,50.724350505192200,-3.490221182845240
boa constrictor and pit viper,1182733,EX5 4BE,50.771969385765100,-3.508426872655290
boomslang and Prion,2652470,EX7 0GL,50.591167000000000,-3.468153000000000
gopher snake and Badger,1195109,EX17 5HB,50.765394957702800,-3.744406177421600
gecko and Chickadee,1201281,EX1 2HN,50.729383656476000,-3.514185632212010
Linsang and diamondback terrapin,1181875,EX7 0BQ,50.584821000000000,-3.468168000000000
Kākāriki and Gull,173172,TQ13 0LA,50.607318442981100,-3.598183280908850
gopher snake and Thicketbird,1181342,EX7 9HR,50.581565569642700,-3.466625878917860
Grosbeak and American sparrow,1183859,EX4 6HB,50.738494264813800,-3.521749867254390
Quetzal and bicycle lizard,1193091,EX2 9JX,50.707756202808600,-3.541517168562370
leguaan and Hawk,1201380,EX1 2QN,50.721672854572500,-3.506130926816740
Dolphin and Marsh harrier,1201559,EX1 1QT,50.723408881484100,-3.525186000000000
Guillemot and Minke whale,1184680,EX4 1PJ,50.718051443251700,-3.551842109552240
Songlark and lizard,1193876,EX2 5RU,50.711877000000000,-3.486021029754930
Bunting and Magpie,173198,TQ13 0NH,50.621027113134300,-3.615598310770850
alligator and horned toad,1189855,EX3 0QH,50.684733253291300,-3.448281217874690
Maya and Puffleg,1184525,EX4 2NG,50.724254589178500,-3.560094498926010
agamid and dugite,1181124,EX8 2NR,50.630668000000000,-3.375440000000000
adder and Duck,173238,TQ13 0PU,50.605646368036200,-3.599440930087900
wall lizard and kabaragoya,1774437,EX4 3TL,50.726728206472900,-3.534177555132820
viper and Buzzard,1193933,EX2 4NA,50.717823069497400,-3.524168303372460
cobra de capello and Pratincole,1193676,EX2 7BH,50.697671236931900,-3.489219492697860
terrapin and galliwasp,1181667,EX7 0WR,50.580263967252600,-3.470709827611700
Eagle and boa constrictor,1190195,EX3 0HQ,50.684218695469700,-3.466413113261590
whip snake and Herring gull,1184173,EX4 5AS,50.744234644814200,-3.541396895109920
Diving bird and blind snake,1194638,EX17 5JR,50.789984000000000,-3.738412000000000
Wader and Peafowl,1184816,EX4 2DP,50.727254598560100,-3.550941874449530
Coati and B,1774701,EX5 7BU,50.745948353397900,-3.411615754414870
constrictor and horned viper,1181981,EX6 8DA,50.677595123523100,-3.494372770746710
Dorcopsis and Grosbeak,1190215,EX3 0JR,50.684949703954000,-3.467639169463740
tiger snake and Goose,1181398,EX8 1TQ,50.625159604532300,-3.407344015516920
Pratincole and leathery turtle,1183569,EX4 9AG,50.738897920570600,-3.502417683459370
habu and Myna,1184120,EX4 7AZ,50.730902026427600,-3.512222465990850
Lemming and Jay,1195561,EX17 1AH,50.784492114090400,-3.603806562401960
pit viper and boa,1183517,EX5 2BD,50.731255574177100,-3.416798959414970
Towhee and constrictor,1201054,EX1 3AX,50.725023530392200,-3.499451836186200
tiger snake and brown snake,1194312,EX2 4HX,50.720501663296900,-3.526337745583540
Pheasant and Petrel,1183567,EX4 9AE,50.737876763373300,-3.502101558476920
Hawk and tree snake,1195151,EX17 3QR,50.790837436885500,-3.665970000000000
Parakeet and anaconda,1182763,EX5 4EB,50.786604290386800,-3.503322529890360
tuatara and B,1194324,EX2 4LA,50.720062994373300,-3.519990980735900
asp and Myna,1181723,EX7 9BZ,50.582149429347100,-3.476644650859460
Greenbul and cycling lizard,1184758,EX4 1SU,50.725135954551000,-3.564119230697750
adder and whip snake,1192742,EX2 9RD,50.707555990685500,-3.556579980711430
Jay and krait,1195703,EX17 1EW,50.792219655229700,-3.648779499178850
Fox and Jerboa,1180871,EX8 3DN,50.629286195652200,-3.409687111768090
Boto and iguana,1182574,EX5 5ED,50.759583764310800,-3.550394270330640
Mink and pit viper,1180992,EX8 3PB,50.634511152968600,-3.411186813941910
Gull and carpet snake,1182524,EX6 7GZ,50.674447022497100,-3.659212039399090
glass snake and Grackle,1182259,EX6 7RG,50.651089488583700,-3.635783358169700
Bunting and milk snake,1193644,EX2 6NH,50.705121783367400,-3.500119673089010
milk snake and Vole,1181504,EX7 9SD,50.576515128873400,-3.474152166007560
Snipe and perentie,1774152,EX2 7PP,50.713793029135200,-3.468767134620790
Maya and harlequin snake,1201483,EX1 1GA,50.724871000000000,-3.525893539615690
krait and Tree warbler,1180842,EX8 3AN,50.628980585989900,-3.400727894312230
Parrotbill and Badger,1181865,EX7 0AS,50.589055350673800,-3.458890873002790
worm lizard and snapping turtle,1194278,EX2 4DY,50.718255299674400,-3.535090265131020
Parrotbill and horned viper,1193925,EX2 4LQ,50.718766401504700,-3.518730722483010
giant tortoise and American sparrow,1184940,EX4 0AY,50.755486900662000,-3.471673704246550
cerastes and Jerboa,1181951,EX6 8AL,50.679480118529700,-3.498155268542000
adder and Ibex,1194087,EX2 5BT,50.714468385092200,-3.502712826103300
snake and Zebra,1181760,EX6 8RR,50.613459787262100,-3.465031000000000
thorn lizard and blind snake,1180705,EX8 4JQ,50.638115697600800,-3.393405312541290
Perching duck and Darwin's finches,1183047,EX5 3EY,50.762999328897400,-3.442642792989820
krait and flying dragon,1183944,EX4 6LA,50.729242932106000,-3.520160602471350
Guillemot and Gila monster,1183799,EX4 8BS,50.733212872931400,-3.493421617783260
saltwater crocodile and Rabbit,1193122,EX2 9NX,50.712134736320300,-3.551774153473710
copperhead and black snake,1182063,EX6 8HU,50.679570674017400,-3.494605384778180
lizard and blue racer,1193671,EX2 7BA,50.699553579458600,-3.493923761116740
Egret and diamondback turtle,1183747,EX4 7HU,50.730513657052500,-3.508185727214340
Komodo dragon and cobra,1774695,EX5 7BN,50.746558313930800,-3.416935385576630
Pitohui and diamond snake,1195521,EX17 3JH,50.790792551948400,-3.673329000000000
Badger and Guillemot,1193875,EX2 5RT,50.711848482465600,-3.486807647977670
carpet snake and anaconda,1201536,EX1 1LT,50.723954866369300,-3.529099364639070
Goose and gaboon viper,1185002,EX4 1EG,50.720604000000000,-3.543270000000000
Schneider python and Siskin,1193614,EX2 6LA,50.703939406312200,-3.500450139088900
diamondback and green turtle,1193434,EX2 7TG,50.712698255223300,-3.474426513464810
habu and Perching duck,2652323,EX1 3FG,50.727428000000000,-3.481591000000000
Viscacha and Dorcopsis,1183615,EX4 9EU,50.741170843764600,-3.470870447889580
Thrasher and Argus,1184805,EX4 2BZ,50.721217044542600,-3.549141619375280
Schneider python and habu,1184966,EX4 1BE,50.717504476017700,-3.542913658127790
skink and brown snake,1195413,EX17 3EF,50.789280199033200,-3.655032184375770
Eagle and agama,1201210,EX1 3NY,50.728716017799300,-3.488517721318670
adder and krait,1180991,EX8 3PA,50.636081157633700,-3.410017690989960
Argus and Lemming,1183899,EX4 8HL,50.735412566733400,-3.478895182243040
Hawaiian honeycreeper and rat snake,1182145,EX6 7JE,50.672628810233600,-3.662473774880240
jew lizard and Chicken,1193801,EX2 5NN,50.717568225020600,-3.489623532977260
python and Old World warbler,1182546,EX5 5BL,50.771385666143200,-3.591572683747960
Bunting and giant tortoise,1193377,EX2 7NT,50.714763089504400,-3.483216976793240
constrictor and bicycle lizard,1183350,EX5 1HJ,50.670086020720000,-3.400974694727880
Diving bird and Boto,173207,TQ13 0NU,50.618974974598400,-3.631841399602630
gopher snake and Tattler,1773605,EX1 3BQ,50.731134000000000,-3.488722000000000
diamond python and moloch,172532,TQ13 8SX,50.679191000000000,-3.722197000000000
anole and turtle,1180586,EX8 5LW,50.647826793288400,-3.417399311590950
elapid and rock snake,1201042,EX1 3AG,50.726804427762900,-3.498035157337870
death adder and flying lizard,1180708,EX8 4JT,50.636061449641800,-3.391463768683550
mud turtle and Fulmarine petrel,1184209,EX4 5DR,50.739353788921700,-3.517214186197750
Jackal and leathery turtle,1184681,EX4 1PL,50.718222165854100,-3.550501963507580
indigo snake and diamond snake,1195036,EX17 3LE,50.791183000000000,-3.662378000000000
Herring gull and asp,2042931,EX1 3YG,50.746188000000000,-3.465230000000000
Linsang and Mouse,1184705,EX4 3EU,50.724918402344900,-3.536385000000000
Bronzewing pigeon and Pratincole,1195387,EX17 3BW,50.785713340553600,-3.648437063424710
Dolphin and diamond snake,1193870,EX2 5RN,50.720186356605300,-3.487425727404910
bull snake and Herring gull,1193862,EX2 5RB,50.718649065930600,-3.485266281638520
Tit-tyrant and viper,1182242,EX6 7QJ,50.644979474948200,-3.637947358751610
chuckwalla and boomslang,1182294,EX6 7TT,50.666539112230000,-3.535426195363000
harlequin snake and Pheasant,1194006,EX2 4SS,50.713358456163700,-3.513428291895290
gecko and galliwasp,1184144,EX4 4SW,50.740604889416500,-3.525404037810100
Tree warbler and python,1181194,EX8 2PW,50.626523004145500,-3.377552731606620
agamid and python,1201547,EX1 1PL,50.722476093206100,-3.527336960797060
green turtle and Triller,1183427,EX4 8LP,50.736366718882800,-3.497844280010100
frill-necked lizard and gecko,1184033,EX4 4PE,50.732819000000000,-3.539690000000000
gaboon viper and Vulture,1183952,EX4 6LL,50.731121213376400,-3.517386000000000
Tree warbler and Kite,1201048,EX1 3AQ,50.725517824979700,-3.498079125008650
Fulmarine petrel and dukite,1184667,EX4 1NT,50.717466523301500,-3.558608275018750
Thicketbird and Kangaroo,173022,TQ13 8SJ,50.657743000000000,-3.723323000000000
tuatara and horned viper,1201049,EX1 3AR,50.723473239555200,-3.494117793257650
tuatara and cobra de capello,1193090,EX2 9JW,50.707564222861100,-3.543791104931280
Bronzewing pigeon and amethystine python,2042932,EX1 3YH,50.734963000000000,-3.474630000000000
Minke whale and Wader,173254,TQ13 0RB,50.602328418499300,-3.602663425058340
Eagle and boa constrictor,2587326,EX5 7EW,50.749685000000000,-3.402599000000000
blue racer and horned toad,1184452,EX4 2JE,50.732122000000000,-3.572344000000000
Prion and tuatara,1182716,EX6 6DL,50.733668310049700,-3.682461500233260
Siskin and tokay,1184803,EX4 2BX,50.722144644440200,-3.549044708919100
Buzzard and Egret,173181,TQ13 0LN,50.603003534920200,-3.593444303681510
Elephant and lizard,2587323,EX5 7ED,50.749497000000000,-3.402522000000000
snapping turtle and anole,1182072,EX6 8JF,50.637907672896400,-3.463896267029760
Vulture and Recurvebill,2625887,EX5 1FF,50.709814000000000,-3.448317000000000
mud turtle and Kestrel,1201367,EX1 2PT,50.727510246240300,-3.510512000000000
snake and king cobra,1182724,EX6 6DZ,50.736014795137900,-3.681270145276390
Cuscus and Marmoset,1182006,EX7 0HR,50.586503043876300,-3.464476692249720
bearded dragon and Ibex,1180943,EX8 2AZ,50.615534011651200,-3.412767254929870
Mouse and puff adder,1773970,EX17 3FE,50.787987448468800,-3.649042525521000
Petrel and cayman,1181387,EX8 1SW,50.625145518100400,-3.413705692725180
crocodile and Black jay,1183001,EX5 3DF,50.774924683808800,-3.393056762468540
Puffleg and asp,1184232,EX4 3LR,50.724122639661400,-3.530705802451050
leathery turtle and Marmoset,1201153,EX1 3HX,50.726031264041000,-3.489594433066380
python and Stilt,1180492,EX8 5EF,50.647494811564500,-3.373031583280780
Grouse and Shearwater,1195365,EX17 3AR,50.789453931563600,-3.653562785699420
frill-necked lizard and giant tortoise,1182253,EX6 7QZ,50.667358665058400,-3.594263944773340
New World blackbird and Thicketbird,1180547,EX8 4BJ,50.627985086130900,-3.386969503274480
gopher snake and lizard,1195101,EX17 5ES,50.778541116432700,-3.715929000000000
Scimitar babbler and asp,1765202,TQ13 0AF,50.624020000000000,-3.582448000000000
Asiatic leopard and sand lizard,1183895,EX4 8HA,50.734636889781300,-3.486849039579220
carpet snake and caiman,1774774,EX7 9FA,50.581824741431000,-3.479403501038700
Eagle and elapid,172863,TQ13 8LX,50.662679276523700,-3.759415387757800
Crow and tuatara,2662815,EX1 9ZA,50.726310000000000,-3.522262000000000
kabaragoya and adder,1183764,EX4 7JX,50.735454964692200,-3.503001886301440
Flameback and Moluccan boobook,1183174,EX5 2HZ,50.710099632130000,-3.390992356746690
brown snake and puff adder,1773638,EX1 9TL,50.726237664708000,-3.522203263408240
Puffleg and asp,1184785,EX4 2AW,50.730404712790100,-3.552108665278280
python and caiman,172681,TQ13 9HB,50.596032293741300,-3.664888019084560
