name,postcode,lat,lon
Buffet City Exeter,EX1 1BU,50.7217,-3.5324
Lloyd's Lounge,EX1 1DY,50.7239,-3.5296
Grow Coffee House,EX1 1EG,50.7210,-3.5309
Board,EX1 1EQ,50.7215,-3.5316
How On Earth Deli,EX1 1EQ,50.7215,-3.5316
Drakes Coffee House,EX1 1EU,50.7237,-3.5296
Hubbox Exeter,EX1 1EU,50.7237,-3.5296
Lloyd's Kitchen,EX1 1EU,50.7237,-3.5296
Tea on the Green,EX1 1EZ,50.7229,-3.5291
Chandos Deli,EX1 1GN,50.7240,-3.5274
ALFARID (UK) LTD,EX1 1HJ,50.7224,-3.5319
The Thai Orchid Restaurant,EX1 1HJ,50.7224,-3.5319
Sparkles Indian Cuisine,EX1 1JA,50.7213,-3.5306
Rendezvous Wine Bar,EX1 1PE,50.7216,-3.5267
Kate’s at Sitel,EX1 1ST,50.7245,-3.5242
The Clifton Inn ,EX1 2BR,50.7259,-3.5197
No 1 Polsloe,EX1 2HL,50.7296,-3.5137
Kids Hub Coffee,EX1 2JB,50.7252,-3.5259
Imperial Games Gaming Centre & Restaurant,EX1 2JX,50.7252,-3.5250
dee yi chinese restaurant,EX1 2LD,50.7249,-3.5212
The Bengal Indian takeaway,EX1 2QL,50.7213,-3.5061
The Heavy Tree,EX1 2RN,50.7215,-3.5028
The Daisy Café Limited,EX1 2RS,50.7211,-3.5023
Met Office,EX1 3PB,50.7276,-3.4756
Gipsy Hill Hotel,EX1 3RN,50.7326,-3.4642
Starbucks,EX1 3RU,50.7239,-3.4731
Subway,EX1 3RU,50.7239,-3.4731
ROUTE 66 PINHOE,EX1 3SA,50.7396,-3.4690
the three little pigs,EX17 2BP,50.7915,-3.6569
Jurassic Coast Coffee Ltd t/a Costa Coffee Crediton,EX17 3AH,50.7905,-3.6591
The Kitchen at 25,EX17 3AH,50.7905,-3.6591
Union Road Moto Velo,EX17 3AL,50.7893,-3.6543
Mole Avon Country Store Crediton,EX17 3FD,50.7835,-3.6450
The Trawler's Catch,EX17 3JP,50.7906,-3.6609
The Ship Hotel,EX17 3LQ,50.7908,-3.6588
Downes Crediton Golf Club,EX17 3PT,50.7779,-3.6412
The New Inn,EX17 5BZ,50.7964,-3.7431
Paschoe House,EX17 6JT,50.7959,-3.7739
Samuel Jones ,EX2 4AE,50.7183,-3.5322
Mango's Cafe ,EX2 4AN,50.7187,-3.5308
4 The Quay Ltd,EX2 4AP,50.7174,-3.5288
On The Waterfront,EX2 4AP,50.7174,-3.5288
Quayside Food & Drink Ltd,EX2 4AP,50.7174,-3.5288
Hotel Du Vin Exeter,EX2 4HY,50.7206,-3.5264
Meat59 (Exeter) Limited,EX2 4TA,50.7211,-3.5209
St Leonard's Bakery,EX2 4TA,50.7211,-3.5209
the tasting room,EX2 6AA,50.7108,-3.5134
MILLBROOK VILLAGE MANAGEMENT LIMITED,EX2 6FD,50.7072,-3.5084
The Tally Ho Inn,EX2 6LG,50.7021,-3.5015
CAFE 24,EX2 7BR,50.6971,-3.4913
Fresha Cafe - Middlemoor,EX2 7HQ,50.7192,-3.4781
The Blue ball ,EX2 7JL,50.7105,-3.4626
Fresha Cafe - Sowton,EX2 7LW,50.7220,-3.4713
Starbucks Exeter Alphington Road,EX2 8AA,50.6956,-3.5355
The Quay Climbing Centre Ltd,EX2 8AX,50.7164,-3.5305
The Ridge Coffee Shop ,EX2 8AX,50.7164,-3.5305
ROCKFISH EXETER,EX2 8GT,50.7172,-3.5305
Tea at the quay,EX2 8GT,50.7172,-3.5305
Veg Box Cafe Ltd,EX2 8GT,50.7172,-3.5305
VENEZIA EXETER,EX2 8GY,50.7176,-3.5305
Quayside Cafe,EX2 8GZ,50.7175,-3.5317
Taste Cafe,EX2 8LB,50.6970,-3.5149
McDonald's,EX2 8LH,50.7096,-3.5360
iBounce (Exeter) Limited,EX2 8PN,50.7060,-3.5310
Pitstop cafe ,EX2 8PQ,50.7067,-3.5276
Cafe 53,EX2 8RG,50.7028,-3.5304
The New Inn,EX2 8TA,50.7004,-3.5338
The Devon Hotel,EX2 8XU,50.6920,-3.5179
THE COWICK BARTON,EX2 9HF,50.7088,-3.5462
The Twisted Oak,EX2 9RG,50.7065,-3.5567
Huntsman Inn,EX2 9RN,50.7041,-3.5588
Poachers Inn ,EX2 9RW,50.7024,-3.5595
Lord Nelson Inn,EX3 0DU,50.6854,-3.4677
Matthews hall cafe,EX3 0HF,50.6844,-3.4660
The Cafe,EX3 0HQ,50.6842,-3.4664
The Globe,EX3 0HR,50.6819,-3.4649
L’estuaire Restaurant,EX3 0JB,50.6806,-3.4639
Pig & Pallet,EX3 0JB,50.6806,-3.4639
Pig and pallet,EX3 0JB,50.6806,-3.4639
The Passage House Inn Topsham,EX3 0JN,50.6839,-3.4676
The Puffing Billy ,EX3 0PR,50.6702,-3.4448
Darts Farm Ltd,EX3 0QH,50.6847,-3.4483
The Kings,EX4 1AA,50.7179,-3.5386
Subway,EX4 1AL,50.7169,-3.5401
Cafe at 36,EX4 1AW,50.7165,-3.5408
the coffee cup,EX4 1DG,50.7176,-3.5406
Argee Bhajee,EX4 1JU,50.7153,-3.5477
The Thatched House,EX4 2BQ,50.7264,-3.5488
Travellers Rest,EX4 2HQ,50.7231,-3.6143
The Mill on the Exe,EX4 3AB,50.7218,-3.5393
Sacred Grounds,EX4 3AN,50.7208,-3.5351
Ganges Restaurant,EX4 3AT,50.7215,-3.5343
Jasmine Thai Restaurant,EX4 3AT,50.7215,-3.5343
Tapitapa,EX4 3AT,50.7215,-3.5343
Margoux,EX4 3AZ,50.7223,-3.5347
McDonald's,EX4 3DU,50.7230,-3.5326
Arthur’s deli cafe ltd,EX4 3EB,50.7234,-3.5321
The Terrace,EX4 3FB,50.7243,-3.5319
Absurd Bird,EX4 3HP,50.7235,-3.5328
Comptoir Exeter,EX4 3HP,50.7235,-3.5328
The Oggy Oggy Pasty Shop Exeter,EX4 3HW,50.7236,-3.5324
Exeter arcade,EX4 3JQ,50.7204,-3.5350
The Glorious Art House,EX4 3JQ,50.7204,-3.5350
Starbucks Exeter,EX4 3LF,50.7248,-3.5280
Chococo Exeter,EX4 3LS,50.7248,-3.5313
Coolings on Gandy Street,EX4 3LS,50.7248,-3.5313
Phoenix Cafebar,EX4 3LS,50.7248,-3.5313
The Cork & Tile,EX4 3LS,50.7248,-3.5313
Bouzayen (Exeter) Ltd ta The Owl & The Pussycat Coffee House,EX4 3PQ,50.7251,-3.5305
Artigiano ,EX4 3PZ,50.7255,-3.5279
Artigiano,EX4 3PZ,50.7255,-3.5279
Coffery & Co.,EX4 3QR,50.7229,-3.5328
Herbies vegetarian restaurant ,EX4 3QS,50.7230,-3.5336
Steaks n Sushi,EX4 3QS,50.7230,-3.5336
The Conservatory Restaurant,EX4 3QS,50.7230,-3.5336
Mulberry Tree Cafe,EX4 3RG,50.7249,-3.5370
Devon Coffee,EX4 3RP,50.7245,-3.5316
Subway,EX4 3RP,50.7245,-3.5316
The Boston Tea Party Group Limited,EX4 3RP,50.7245,-3.5316
Pieminister Exeter,EX4 3SB,50.7260,-3.5333
The Exploding Bakery Limited,EX4 3SB,50.7260,-3.5333
Brodys Exeter limited,EX4 3SH,50.7251,-3.5327
Beijing Beijing Limited,EX4 3SR,50.7267,-3.5350
Clock Tower Fish&Chips,EX4 3SR,50.7267,-3.5350
Pink Moon Exeter,EX4 3SR,50.7267,-3.5350
The Oddfellows,EX4 4EP,50.7268,-3.5285
Wake Up Coffee,EX4 4EP,50.7268,-3.5285
Dinosaur Cafe,EX4 4HH,50.7277,-3.5359
Karma,EX4 4NU,50.7306,-3.5422
Harry's restaurant,EX4 6AP,50.7277,-3.5262
Allstars Exeter,EX4 6NN,50.7264,-3.5258
St Sidwell's Centre Cafe,EX4 6NN,50.7264,-3.5258
Terrys Cafe Exeter,EX4 6NN,50.7264,-3.5258
Subway,EX4 6NS,50.7274,-3.5240
TwistersCafe,EX4 6NS,50.7274,-3.5240
Pura Vida,EX4 6QR,50.7289,-3.5233
SHIMIZU SUSHI & JAPANESE LTD,EX4 6QR,50.7289,-3.5233
eat the bird,EX4 6RD,50.7258,-3.5257
Ebdons Refreshments Ltd,EX4 6RH,50.7262,-3.5251
Tyepyedong Noodle Bar,EX4 6RH,50.7262,-3.5251
Cosy Corner,EX4 6RY,50.7280,-3.5221
PEPPINO RESTAURANT ,EX4 6RY,50.7280,-3.5221
Robotic chef ,EX4 6RY,50.7280,-3.5221
The Snug,EX4 8AN,50.7325,-3.4923
HEART OF OAK,EX4 8HS,50.7388,-3.4712
public house,EX4 8HS,50.7388,-3.4712
Half Moon Inn,EX5 1BR,50.7099,-3.4561
The Cat and Fiddle,EX5 1DP,50.7100,-3.4231
CREALY ADVENTURE PARK,EX5 1DR,50.7093,-3.4146
White Horse Inn,EX5 1EP,50.7054,-3.3834
Pitstop cafe ,EX5 1EW,50.6993,-3.3909
Castle Bistro,EX5 1HA,50.6824,-3.3765
WHITE HART INN,EX5 1HN,50.6754,-3.4035
Woodbury Park Hotel and Golf Club Limited,EX5 1JJ,50.6859,-3.3686
The Diggers Rest,EX5 1PQ,50.6936,-3.4008
The Nightjar Inn,EX5 2BX,50.7181,-3.3630
The Jack in the Green,EX5 2EE,50.7507,-3.3932
Golden Pond,EX5 2EN,50.7510,-3.3854
Blackhorse inn,EX5 2FT,50.7314,-3.4470
Greendale Farm Shop,EX5 2JU,50.7040,-3.3987
Hampton by Hilton Exeter Airport,EX5 2LJ,50.7302,-3.4134
The Duke of york,EX5 2NH,50.7338,-3.4356
The duke of york,EX5 2NH,50.7338,-3.4356
New Inn Broadclyst,EX5 3BX,50.7643,-3.4326
The kitchen stoke canon inn,EX5 4AR,50.7715,-3.5070
Belluno Bar & Grill,EX5 5DA,50.7708,-3.5864
The Agricultural Inn,EX5 5DP,50.7739,-3.5237
The Stables Pub & Dining,EX5 5ER,50.7546,-3.5533
Bernaville Nurseries,EX5 5EU,50.7542,-3.5571
Butter me up (site bites),EX5 7FR,50.7515,-3.3960
Fingle Glen Golf Hotel Ltd,EX6 6AF,50.7275,-3.6498
The Kings Arms Inn,EX6 6EG,50.7348,-3.6813
The Red Lion Inn,EX6 6EQ,50.7350,-3.6821
The Old Thatch Inn,EX6 6JH,50.7235,-3.7385
Woodleigh Coach House Ltd,EX6 6JL,50.7259,-3.7311
the royal oak inn dunsford,EX6 7DA,50.6899,-3.6824
Artichoke Inn,EX6 7NF,50.6524,-3.6512
Teign Valley Golf Club,EX6 7PA,50.6382,-3.6390
Teign House Inn,EX6 7PL,50.6680,-3.6461
NoBody Inn,EX6 7PS,50.6675,-3.6209
The Manor Inn,EX6 7QL,50.6458,-3.6363
The Lamb at Longdown,EX6 7SR,50.7069,-3.5987
The Ley Arms ,EX6 7UW,50.6600,-3.5255
Exeter Court Hotel,EX6 7UX,50.6595,-3.5366
HALDON FOREST DINER,EX6 7XS,50.6407,-3.5612
Route 5,EX6 7XS,50.6407,-3.5612
Lord Haldon Hotel,EX6 7YF,50.6713,-3.5835
Coffee On the Corner CIC,EX6 8DF,50.6791,-3.4936
THE SWANS NEST,EX6 8DZ,50.6770,-3.4779
Exminster Golf Centre,EX6 8GA,50.6709,-3.4938
Powderham Castle,EX6 8JQ,50.6429,-3.4629
The Ship Inn,EX6 8NU,50.6166,-3.4501
The Galleon Inn,EX6 8PR,50.6266,-3.4474
The Anchor Inn,EX6 8RA,50.6170,-3.4493
Cofton Holidays,EX6 8RP,50.6133,-3.4602
Ladysmile Caravan and Camping Holiday Park,EX7 0LX,50.5968,-3.4614
The kitchen,EX7 0LX,50.5968,-3.4614
Mount Pleasant Inn,EX7 0NA,50.5956,-3.4492
Social Table,EX7 0NF,50.5981,-3.4408
The Boathouse,EX7 0NF,50.5981,-3.4408
No 1 Cafe,EX7 9HB,50.5815,-3.4715
South Devon Inn,EX7 9HR,50.5816,-3.4666
The Brunswick Arms,EX7 9PB,50.5803,-3.4694
SeaBreeze,EX7 9PH,50.5807,-3.4657
The Beach Bar,EX7 9PH,50.5807,-3.4657
The Lounge - Sports Bar,EX7 9PH,50.5807,-3.4657
Home Kitchen ,EX7 9PQ,50.5811,-3.4664
Daisy's Tea Room,EX7 9PS,50.5814,-3.4682
John's,EX7 9PS,50.5814,-3.4682
Le Cygne,EX7 9PS,50.5814,-3.4682
Reflections Bistro,EX7 9PT,50.5813,-3.4704
The Ugly Duckling Restaurant,EX7 9PW,50.5810,-3.4670
Antonio's of Exmouth,EX8 1AB,50.6203,-3.4144
Subway,EX8 1AB,50.6203,-3.4144
Taste of Life,EX8 1AB,50.6203,-3.4144
Sundowners,EX8 1AD,50.6201,-3.4145
Bayleaf Cafe,EX8 1AF,50.6198,-3.4148
El Olivo,EX8 1AH,50.6188,-3.4143
SPOKEN EXMOUTH,EX8 1AL,50.6192,-3.4142
Wine Hub Cafe,EX8 1AL,50.6192,-3.4142
Franklins the Strand Ltd,EX8 1BR,50.6193,-3.4135
RistoranteEm Limited,EX8 1DL,50.6191,-3.4158
The Grapevine ,EX8 1DL,50.6191,-3.4158
THE BEACH PUB,EX8 1DR,50.6176,-3.4208
ROCKFISH EXMOUTH,EX8 1DU,50.6168,-3.4232
Exe Sailing Club,EX8 1EG,50.6192,-3.4244
Dockside Cafe,EX8 1ER,50.6169,-3.4236
River Exe Cafe ltd,EX8 1FE,50.6167,-3.4232
THE CRUSTY COB ,EX8 1HA,50.6196,-3.4130
Brunch lunch And munch cafe,EX8 1JL,50.6206,-3.4111
Star Coffee,EX8 1JL,50.6206,-3.4111
Millers Restaurant,EX8 1NN,50.6182,-3.4132
Olive Lounge,EX8 1NN,50.6182,-3.4132
The Heavitree,EX8 1NP,50.6186,-3.4130
Saveur,EX8 1NT,50.6187,-3.4135
NOODLE BOWL,EX8 1RS,50.6208,-3.4138
The Mexican ,EX8 1RS,50.6208,-3.4138
The Book Rest,EX8 1RW,50.6205,-3.4129
magnolia cafe,EX8 1RW,50.6205,-3.4129
The Point Bar & Grill,EX8 1XA,50.6172,-3.4233
The Royal beacon Hotel ,EX8 2AF,50.6165,-3.4127
Manor Hotel,EX8 2AG,50.6172,-3.4135
Harbour View Cafe,EX8 2AY,50.6136,-3.4074
Ocean Exmouth,EX8 2AY,50.6136,-3.4074
The Little Tavern Group Ltd,EX8 2AY,50.6136,-3.4074
Exmouth Pavilion,EX8 2AZ,50.6155,-3.4128
Devoncourt Hotels Ltd,EX8 2EX,50.6146,-3.3991
McDonald's,EX8 2NR,50.6307,-3.3754
The Clinton Arms,EX8 2RL,50.6216,-3.3749
Tythe cottage restaurant,EX8 2RQ,50.6222,-3.3735
Exmouth Tennis & Fitness Centre,EX8 3AE,50.6279,-3.4036
Greenfingers Garden Centre/Streamside Cafe,EX8 3LE,50.6348,-3.4031
Cafe at the Car Wash,EX8 4NP,50.6319,-3.3990
KINGS GARDEN CENTRE EXMOUTH,EX8 5DZ,50.6482,-3.3976
The Swan Inn ,EX8 5ET,50.6478,-3.4316
The Redwing Bar & Dining,EX8 5JT,50.6487,-3.4281
The Saddlers,EX8 5LS,50.6475,-3.4165
The Elizabethan Inn,TQ13 0BL,50.5814,-3.5517
Finlake Holiday Park,TQ13 0EJ,50.5984,-3.6272
Claycutters Arms,TQ13 0EY,50.5852,-3.6344
Harveys of Chudleigh,TQ13 0HT,50.6047,-3.6023
PHOENIX CHUDLEIGH LTD,TQ13 0HX,50.6043,-3.6011
The Cridford Inn,TQ13 0NR,50.6291,-3.6203
The Union Inn,TQ13 8LN,50.6615,-3.7660
The White Hart Hotel,TQ13 8NF,50.6609,-3.7651
central stores,TQ13 8PE,50.6610,-3.7656
The Horse,TQ13 8PG,50.6606,-3.7654
Inner Light Coffeeshop,TQ13 9AD,50.5933,-3.6751
Royal Gurkha spice,TQ13 9AD,50.5933,-3.6751
Wildmoor Fine Food & Drink,TQ13 9AD,50.5933,-3.6751
Cromwell Arms,TQ13 9AE,50.5943,-3.6741
The Dolphin Hotel,TQ13 9AL,50.5915,-3.6783
The Copper kettle ,TQ13 9AS,50.5912,-3.6799
Brookside Restaurant Ltd.,TQ13 9AW,50.5910,-3.6778
Cafe 3 Sixty Ltd,TQ13 9AZ,50.5907,-3.6786
THE OLD POTTERY RESTAURANT,TQ13 9DS,50.5824,-3.6778
Home Farm Cafe,TQ13 9JQ,50.5946,-3.6884
Ullacombe Farm ,TQ13 9LL,50.5884,-3.7158
The Cleave,TQ13 9TJ,50.6183,-3.7184
KESTOR INN MANATON,TQ13 9UF,50.6132,-3.7582
Becky Falls Ancient Woodland Park Limited,TQ13 9UG,50.6069,-3.7530
The Rock Inn - Haytor,TQ13 9XP,50.5815,-3.7368
THE MOORLAND HOTEL,TQ13 9XT,50.5792,-3.7392
