name,postcode,lat,lon
Buffet City Exeter,EX1 1BU,50.72166100000000,-3.53262000000000
Lloyd's Lounge,EX1 1DY,50.7239,-3.5297
JD Wetherspoon Georges Meeting House,EX1 1ED,50.72074000000000,-3.53008200000000
Grow Coffee House,EX1 1EG,50.72089860000000,-3.53119850000000
Board,EX1 1EQ,50.72150200000000,-3.53163700000000
How On Earth Deli,EX1 1EQ,50.7215,-3.5316
Drakes Coffee House,EX1 1EU,50.72361600000000,-3.52958000000000
Hubbox Exeter,EX1 1EU,50.72366200000000,-3.52952600000000
Lloyd's Kitchen,EX1 1EU,50.7236,-3.5297
Ask Italian,EX1 1EZ,50.72295700000000,-3.52909100000000
Tea on the Green,EX1 1EZ,50.72307400000000,-3.52909600000000
Nandos Chickenland Ltd,EX1 1GE,50.72446300000000,-3.52741200000000
Chandos Deli,EX1 1GN,50.72416100000000,-3.52778500000000
Pizza Express,EX1 1HF,50.72295900000000,-3.53169900000000
ALFARID (UK) LTD,EX1 1HJ,50.72243400000000,-3.53195100000000
The Thai Orchid Restaurant,EX1 1HJ,50.72243400000000,-3.53195100000000
KFC,EX1 1HX,50.72148400000000,-3.52963900000000
Sparkles Indian Cuisine,EX1 1JA,50.72111100000000,-3.52996700000000
Costa Coffee,EX1 1LL,50.72361500000000,-3.52898600000000
Wagamama,EX1 1LL,50.72361500000000,-3.52898600000000
Yo Sushi,EX1 1LL,50.72361500000000,-3.52898600000000
Kaspas Exeter Ltd T/A Kaspas Exeter,EX1 1PB,50.7218,-3.5266
Rendezvous Wine Bar,EX1 1PE,50.72163000000000,-3.52675400000000
Kate’s at Sitel,EX1 1ST,50.7245,-3.5242
The Clifton Inn ,EX1 2BR,50.72592100000000,-3.51975200000000
Jurys Inn Exeter,EX1 2DB,50.72577100000000,-3.52158900000000
No 1 Polsloe,EX1 2HL,50.72957000000000,-3.51369200000000
Kids Hub Coffee,EX1 2JB,50.72521000000000,-3.52599100000000
Imperial Games Gaming Centre & Restaurant,EX1 2JX,50.72517776489260,-3.52505493164063
dee yi chinese restaurant,EX1 2LD,50.72491400000000,-3.52110800000000
The Bengal Indian takeaway,EX1 2QL,50.72133200000000,-3.50613100000000
The Heavy Tree,EX1 2RN,50.72140230000000,-3.50403990000000
The Daisy Café Limited,EX1 2RS,50.72111100000000,-3.50231300000000
Met Office,EX1 3PB,50.72763000000000,-3.47565700000000
Gipsy Hill Hotel,EX1 3RN,50.7326,-3.4642
Starbucks Coffee Company,EX1 3RU,50.72383150000000,-3.47307910000000
Starbucks,EX1 3RU,50.72383150000000,-3.47307910000000
Subway,EX1 3RU,50.72387800000000,-3.47296100000000
ROUTE 66 PINHOE,EX1 3SA,50.73956700000000,-3.46898900000000
Elior Catering,EX1 3UT,50.72894600000000,-3.46612000000000
the three little pigs,EX17 2BP,50.79132300000000,-3.65688900000000
Costa Coffee,EX17 3AH,50.79043600000000,-3.65915500000000
Jurassic Coast Coffee Ltd t/a Costa Coffee Crediton,EX17 3AH,50.79043600000000,-3.65915500000000
The Kitchen at 25,EX17 3AH,50.79043600000000,-3.65915500000000
Union Road Moto Velo,EX17 3AL,50.78930664062500,-3.65434908866882
Union Road Moto-Velo,EX17 3AL,50.78930664062500,-3.65434908866882
Mole Avon Country Store Crediton,EX17 3FD,50.78349600000000,-3.64496500000000
The Trawler's Catch,EX17 3JP,50.79060900000000,-3.66089300000000
The Ship Hotel,EX17 3LQ,50.79073580000000,-3.65839240000000
Downes Crediton Golf Club,EX17 3PT,50.7779,-3.6411
The New Inn,EX17 5BZ,50.79636100000000,-3.74312900000000
Paschoe House,EX17 6JT,50.7958,-3.7739
Samuel Jones ,EX2 4AE,50.71830600000000,-3.53195700000000
Mango's Cafe ,EX2 4AN,50.7185,-3.5305
4 The Quay Ltd,EX2 4AP,50.7174,-3.5288
On The Waterfront,EX2 4AP,50.71754455566410,-3.52894401550293
Quayside Food & Drink Ltd,EX2 4AP,50.7174,-3.5288
Hotel Du Vin Exeter,EX2 4HY,50.72047042846680,-3.52678704261780
Meat59 (Exeter) Limited,EX2 4TA,50.7211,-3.5210
St Leonard's Bakery,EX2 4TA,50.72112100000000,-3.52095700000000
the tasting room,EX2 6AA,50.71076000000000,-3.51339800000000
Elior Catering/Six Rifles,EX2 6AR,50.71227900000000,-3.51136400000000
MILLBROOK VILLAGE MANAGEMENT LIMITED,EX2 6FD,50.70715713500980,-3.50840997695923
The Tally Ho Inn,EX2 6LG,50.70215400000000,-3.50155100000000
CAFE 24,EX2 7BR,50.69698670000000,-3.49114340000000
Burger King  Moto Hospitality Ltd,EX2 7HF,50.71667600000000,-3.46355500000000
Costa Coffee Kiosk 2,EX2 7HF,50.71667600000000,-3.46355500000000
Costa Coffee,EX2 7HF,50.71667600000000,-3.46355500000000
Petrol Station  Moto Hospitality Ltd,EX2 7HF,50.71667600000000,-3.46355500000000
Fresha Cafe - Middlemoor,EX2 7HQ,50.71916200000000,-3.47813900000000
Baxterstorey Ltd (SWW),EX2 7HR,50.71648400000000,-3.48226200000000
KFC,EX2 7HX,50.71080700000000,-3.48318800000000
The Blue ball ,EX2 7JL,50.71036200000000,-3.46215500000000
Fresha Cafe - Sowton,EX2 7LW,50.72215400000000,-3.47129100000000
Nando's Chickenland,EX2 8AA,50.70852430000000,-3.53678450000000
Starbucks Exeter Alphington Road,EX2 8AA,50.70852430000000,-3.53678450000000
The Quay Climbing Centre Ltd,EX2 8AX,50.71641000000000,-3.53046500000000
The Ridge Coffee Shop ,EX2 8AX,50.71641000000000,-3.53046500000000
Tenpin Ltd,EX2 8BY,50.71507100000000,-3.53175300000000
ROCKFISH EXETER,EX2 8GT,50.71735650000000,-3.53023110000000
Tea at the quay,EX2 8GT,50.71717400000000,-3.53050400000000
Veg Box Cafe Ltd,EX2 8GT,50.7172,-3.5305
VENEZIA EXETER,EX2 8GY,50.7176,-3.5305
Quayside Cafe,EX2 8GZ,50.71747200000000,-3.53173200000000
Taste Cafe,EX2 8LB,50.69565200000000,-3.51611100000000
Costa Coffee,EX2 8LH,50.70961100000000,-3.53596600000000
McDonald's,EX2 8LH,50.70961100000000,-3.53596600000000
Mcdonalds Restaurants,EX2 8LH,50.70961100000000,-3.53596600000000
iBounce (Exeter) Limited,EX2 8PN,50.70600700000000,-3.53096100000000
Pitstop cafe ,EX2 8PQ,50.7067,-3.5276
Cafe 53,EX2 8RG,50.70276300000000,-3.53075700000000
The New Inn,EX2 8TA,50.70041200000000,-3.53379600000000
The Devon Hotel,EX2 8XU,50.69204000000000,-3.51793500000000
THE COWICK BARTON,EX2 9HF,50.70876312255860,-3.54623508453369
The Twisted Oak,EX2 9RG,50.70651900000000,-3.55679700000000
Huntsman Inn,EX2 9RN,50.70406500000000,-3.55876900000000
Poachers Inn ,EX2 9RW,50.70239100000000,-3.55953500000000
Lord Nelson Inn,EX3 0DU,50.68543500000000,-3.46769300000000
Matthews hall cafe,EX3 0HF,50.68443100000000,-3.46604800000000
The Cafe,EX3 0HQ,50.68422800000000,-3.46642400000000
The Globe,EX3 0HR,50.68187332153320,-3.46486806869507
L’estuaire Restaurant,EX3 0JB,50.68058100000000,-3.46396100000000
Pig & Pallet,EX3 0JB,50.68058000000000,-3.46396000000000
Pig and pallet,EX3 0JB,50.68058000000000,-3.46396000000000
The Passage House Inn  Topsham,EX3 0JN,50.6839,-3.4676
The Puffing Billy ,EX3 0PR,50.6702,-3.4448
Darts Farm Ltd,EX3 0QH,50.6847,-3.4483
The Kings,EX4 1AA,50.71787700000000,-3.53857400000000
Pizza Hut,EX4 1AH,50.71673500000000,-3.53791300000000
Subway,EX4 1AL,50.71686700000000,-3.54008400000000
Cafe at 36,EX4 1AW,50.71651600000000,-3.54085200000000
the coffee cup,EX4 1DG,50.71758900000000,-3.54066100000000
Argee Bhajee,EX4 1JU,50.71531800000000,-3.54775400000000
The Thatched House,EX4 2BQ,50.72638400000000,-3.54884100000000
Travellers Rest,EX4 2HQ,50.72308349609380,-3.61427688598633
The Mill on the Exe,EX4 3AB,50.72180700000000,-3.53929700000000
Sacred Grounds,EX4 3AN,50.72086250000000,-3.53571550000000
Ganges Restaurant,EX4 3AT,50.72152100000000,-3.53435800000000
Jasmine  Thai Restaurant,EX4 3AT,50.72123930000000,-3.53452270000000
Tapitapa,EX4 3AT,50.7215,-3.5343
Margoux,EX4 3AZ,50.72234400000000,-3.53466800000000
Burger King,EX4 3DJ,50.72330800000000,-3.53117200000000
Caffe Nero,EX4 3DT,50.72278500000000,-3.53196200000000
McDonald's,EX4 3DU,50.72302800000000,-3.53259400000000
Mcdonalds Restaurants Ltd,EX4 3DU,50.72302800000000,-3.53259400000000
Patisserie Valerie,EX4 3DU,50.72302800000000,-3.53259400000000
Arthur’s deli cafe ltd,EX4 3EB,50.72339400000000,-3.53209500000000
Pho,EX4 3FB,50.72596751155850,-3.53351977601610
The Terrace,EX4 3FB,50.72596751155850,-3.53351977601610
Absurd Bird,EX4 3HP,50.7236,-3.5328
Comptoir Exeter,EX4 3HP,50.7236,-3.5328
Franco Manca,EX4 3HP,50.72355400000000,-3.53289400000000
The Oggy Oggy Pasty Shop Exeter,EX4 3HW,50.7244,-3.5325
Turtle Bay,EX4 3HW,50.72422300000000,-3.53199400000000
Exeter arcade,EX4 3JQ,50.72040500000000,-3.53504300000000
The Glorious Art House,EX4 3JQ,50.72040600000000,-3.53504400000000
Starbucks Coffee Co,EX4 3LF,50.72484200000000,-3.52804800000000
Starbucks Exeter,EX4 3LF,50.72484200000000,-3.52804800000000
Chococo Exeter,EX4 3LS,50.7248,-3.5313
Coolings on Gandy Street,EX4 3LS,50.72481700000000,-3.53126300000000
Phoenix Cafebar,EX4 3LS,50.72481700000000,-3.53126300000000
The Cork & Tile,EX4 3LS,50.72481700000000,-3.53126300000000
Zizzi,EX4 3LS,50.72481700000000,-3.53126300000000
Bouzayen (Exeter) Ltd ta The Owl & The Pussycat Coffee House,EX4 3PQ,50.72510528564450,-3.53051209449768
Artigiano ,EX4 3PZ,50.72550800000000,-3.52794200000000
Artigiano,EX4 3PZ,50.72550800000000,-3.52794200000000
Pret A Manger  Unit 1,EX4 3PZ,50.72550800000000,-3.52794200000000
Coffery & Co.,EX4 3QR,50.72286300000000,-3.53282900000000
Herbies vegetarian restaurant ,EX4 3QS,50.72304200000000,-3.53361400000000
Mecca Bingo Clubs,EX4 3QS,50.72304916381840,-3.53375601768494
Steaks n Sushi,EX4 3QS,50.72304200000000,-3.53361400000000
The Conservatory Restaurant,EX4 3QS,50.72304200000000,-3.53361400000000
Mulberry Tree Cafe,EX4 3RG,50.72487700000000,-3.53700300000000
Caffe Nero,EX4 3RP,50.72454300000000,-3.53158000000000
Devon Coffee,EX4 3RP,50.72454300000000,-3.53158000000000
Subway,EX4 3RP,50.72454300000000,-3.53158000000000
The Boston Tea Party Group Limited,EX4 3RP,50.72454300000000,-3.53158000000000
Five Guys,EX4 3RX,50.72530400000000,-3.53252600000000
Pieminister Exeter,EX4 3SB,50.72587130000000,-3.53312970000000
The Exploding Bakery Limited,EX4 3SB,50.72597700000000,-3.53331300000000
Brodys Exeter limited,EX4 3SH,50.72497800000000,-3.53271400000000
Beijing Beijing Limited,EX4 3SR,50.72671100000000,-3.53496700000000
Clock Tower Fish&Chips,EX4 3SR,50.7268,-3.5350
Pink Moon Exeter,EX4 3SR,50.72671100000000,-3.53496700000000
The Oddfellows,EX4 4EP,50.72694300000000,-3.52825800000000
Wake Up Coffee,EX4 4EP,50.72694470000000,-3.52809230000000
Dinosaur Cafe,EX4 4HH,50.72770600000000,-3.53590600000000
Karma,EX4 4NU,50.73056300000000,-3.54220500000000
Pret a Manger,EX4 4SZ,50.73521700000000,-3.53436600000000
Harry's restaurant,EX4 6AP,50.72768100000000,-3.52619900000000
Allstars Exeter,EX4 6NN,50.7264,-3.5256
St Sidwell's Centre Cafe,EX4 6NN,50.7264,-3.5256
Terrys Cafe Exeter,EX4 6NN,50.72638400000000,-3.52564700000000
Subway,EX4 6NS,50.72744000000000,-3.52398100000000
TwistersCafe,EX4 6NS,50.7274,-3.5240
KFC,EX4 6PH,50.72906800000000,-3.52118600000000
Pizza Hut,EX4 6PH,50.72906800000000,-3.52118600000000
Pura Vida,EX4 6QR,50.7289,-3.5233
SHIMIZU SUSHI & JAPANESE LTD,EX4 6QR,50.72886900000000,-3.52334700000000
eat the bird,EX4 6RD,50.72577100000000,-3.52574100000000
Ebdons Refreshments Ltd,EX4 6RH,50.72624000000000,-3.52497600000000
Tyepyedong Noodle Bar,EX4 6RH,50.72624000000000,-3.52497600000000
Cosy Corner,EX4 6RY,50.72801200000000,-3.52212900000000
PEPPINO RESTAURANT ,EX4 6RY,50.72801300000000,-3.52212900000000
Robotic chef ,EX4 6RY,50.72801300000000,-3.52212900000000
The Snug,EX4 8AN,50.73248100000000,-3.49234600000000
HEART OF OAK,EX4 8HS,50.73887400000000,-3.47119200000000
public house,EX4 8HS,50.7389,-3.4712
Half Moon Inn,EX5 1BR,50.70998764038090,-3.45612406730652
The Cat and Fiddle,EX5 1DP,50.71000000000000,-3.42308000000000
CREALY ADVENTURE PARK,EX5 1DR,50.70723700000000,-3.41520700000000
White Horse Inn,EX5 1EP,50.70532600000000,-3.38335600000000
Pitstop cafe ,EX5 1EW,50.69942400000000,-3.39030500000000
Castle Bistro,EX5 1HA,50.68241200000000,-3.37646800000000
WHITE HART INN,EX5 1HN,50.67539000000000,-3.40346400000000
Woodbury Park Hotel and Golf Club Limited,EX5 1JJ,50.68589500000000,-3.36857100000000
The Diggers Rest,EX5 1PQ,50.69363300000000,-3.40080900000000
The Nightjar Inn,EX5 2BX,50.71813964843750,-3.36300802230835
The Jack in the Green,EX5 2EE,50.75075900000000,-3.39318600000000
Golden Pond,EX5 2EN,50.75100500000000,-3.38539700000000
Blackhorse inn,EX5 2FT,50.7314,-3.4470
Greendale Farm Shop,EX5 2JU,50.70462500000000,-3.39834700000000
Hampton by Hilton Exeter Airport,EX5 2LJ,50.73027420043950,-3.41260004043579
The Duke of york,EX5 2NH,50.73384100000000,-3.43560700000000
New Inn Broadclyst,EX5 3BX,50.76431900000000,-3.43262600000000
The kitchen  stoke canon inn,EX5 4AR,50.77153800000000,-3.50699100000000
Belluno Bar & Grill,EX5 5DA,50.7708,-3.5865
The Agricultural Inn,EX5 5DP,50.77387500000000,-3.52370300000000
The Stables Pub & Dining,EX5 5ER,50.75463500000000,-3.55333200000000
Bernaville Nurseries,EX5 5EU,50.75423400000000,-3.55711800000000
Butter me up (site bites),EX5 7FR,50.7522,-3.3963
Fingle Glen Golf Hotel Ltd,EX6 6AF,50.72748000000000,-3.64981700000000
The Kings Arms Inn,EX6 6EG,50.73479100000000,-3.68135000000000
The Red Lion Inn,EX6 6EQ,50.73503112792970,-3.68209600448608
The Old Thatch Inn,EX6 6JH,50.72348200000000,-3.73862300000000
Woodleigh Coach House Ltd,EX6 6JL,50.72586059570313,-3.73107457160950
the royal oak inn  dunsford,EX6 7DA,50.68995285034180,-3.68243646621704
Artichoke Inn,EX6 7NF,50.65243700000000,-3.65120300000000
Teign Valley Golf Club,EX6 7PA,50.63803863525391,-3.63917326927185
Teign House Inn,EX6 7PL,50.66798700000000,-3.64611700000000
NoBody Inn,EX6 7PS,50.66751480102539,-3.62088370323181
The Manor Inn,EX6 7QL,50.64582061767578,-3.63633227348328
The Lamb at Longdown,EX6 7SR,50.70693206787110,-3.59869003295898
The Ley Arms ,EX6 7UW,50.65998700000000,-3.52556000000000
Exeter Court Hotel,EX6 7UX,50.65954600000000,-3.53656700000000
HALDON FOREST DINER,EX6 7XS,50.64109900000000,-3.56101200000000
Route 5,EX6 7XS,50.6403,-3.5629
Lord Haldon Hotel,EX6 7YF,50.67131000000000,-3.58354000000000
Coffee On the Corner CIC,EX6 8DF,50.67915000000000,-3.49376800000000
THE SWANS NEST,EX6 8DZ,50.67696100000000,-3.47787400000000
Exminster Golf Centre,EX6 8GA,50.67093900000000,-3.49376200000000
Powderham Castle,EX6 8JQ,50.64292907714840,-3.46296000480652
The Ship Inn,EX6 8NU,50.61664100000000,-3.45007200000000
The Galleon Inn,EX6 8PR,50.62657500000000,-3.44740800000000
The Anchor Inn,EX6 8RA,50.61692000000000,-3.44930300000000
Cofton Holidays,EX6 8RP,50.6133,-3.4602
Ladysmile Caravan and Camping Holiday Park,EX7 0LX,50.59680300000000,-3.46145800000000
The kitchen,EX7 0LX,50.59757700000000,-3.46193730000000
Mount Pleasant Inn,EX7 0NA,50.59562500000000,-3.44918600000000
Social Table,EX7 0NF,50.59814834594730,-3.44079899787903
The Boathouse,EX7 0NF,50.59778000000000,-3.44372700000000
No 1 Cafe,EX7 9HB,50.58145100000000,-3.47147800000000
South Devon Inn,EX7 9HR,50.58153900000000,-3.46660700000000
The Brunswick Arms,EX7 9PB,50.58031700000000,-3.46942300000000
SeaBreeze,EX7 9PH,50.5807,-3.4657
The Beach Bar,EX7 9PH,50.58059700000000,-3.46553590000000
The Lounge - Sports Bar,EX7 9PH,50.58067900000000,-3.46567700000000
Home Kitchen ,EX7 9PQ,50.58112800000000,-3.46643900000000
Daisy's Tea Room,EX7 9PS,50.58137500000000,-3.46824100000000
John's,EX7 9PS,50.58136400000000,-3.46838100000000
Le Cygne,EX7 9PS,50.58129330000000,-3.46808590000000
Reflections Bistro,EX7 9PT,50.58134700000000,-3.47042900000000
The Ugly Duckling Restaurant,EX7 9PW,50.58102100000000,-3.46702900000000
Antonio's of Exmouth,EX8 1AB,50.62032700000000,-3.41436300000000
Subway,EX8 1AB,50.62032700000000,-3.41436300000000
Taste of Life,EX8 1AB,50.62032700000000,-3.41436300000000
Sundowners,EX8 1AD,50.62006400000000,-3.41455300000000
Bayleaf Cafe,EX8 1AF,50.61978100000000,-3.41485600000000
El Olivo,EX8 1AH,50.61878100000000,-3.41428900000000
Prezzo,EX8 1AH,50.61878100000000,-3.41428900000000
SPOKEN EXMOUTH,EX8 1AL,50.61916200000000,-3.41398900000000
Wine Hub Cafe,EX8 1AL,50.6192,-3.4142
Franklins the Strand Ltd,EX8 1BR,50.61946200000000,-3.41370100000000
KFC,EX8 1BY,50.62048600000000,-3.41458000000000
RistoranteEm Limited,EX8 1DL,50.61910300000000,-3.41585300000000
The Grapevine ,EX8 1DL,50.61910300000000,-3.41585300000000
THE BEACH PUB,EX8 1DR,50.61762200000000,-3.42085500000000
ROCKFISH EXMOUTH,EX8 1DU,50.61685300000000,-3.42339000000000
Exe Sailing Club,EX8 1EG,50.61918800000000,-3.42440800000000
Dockside Cafe,EX8 1ER,50.61689500000000,-3.42361800000000
River Exe Cafe ltd,EX8 1FE,50.61672520000000,-3.42325200000000
THE CRUSTY COB ,EX8 1HA,50.61957000000000,-3.41301200000000
Caffe Nero,EX8 1HW,50.62007300000000,-3.41233400000000
Brunch lunch And munch cafe,EX8 1JL,50.62061800000000,-3.41112100000000
Star Coffee,EX8 1JL,50.62061800000000,-3.41112100000000
Millers Restaurant,EX8 1NN,50.61825400000000,-3.41319900000000
Olive Lounge,EX8 1NN,50.61825400000000,-3.41319900000000
The Heavitree,EX8 1NP,50.61865234375000,-3.41298389434814
Saveur,EX8 1NT,50.61873700000000,-3.41346800000000
NOODLE BOWL,EX8 1RS,50.62070120000000,-3.41372720000000
The Mexican ,EX8 1RS,50.62079200000000,-3.41384000000000
The Book Rest,EX8 1RW,50.62047100000000,-3.41286900000000
magnolia cafe,EX8 1RW,50.62047100000000,-3.41286900000000
The Point Bar & Grill,EX8 1XA,50.61718600000000,-3.42335800000000
Manor Hotel,EX8 2AG,50.61720900000000,-3.41336500000000
Harbour View Cafe,EX8 2AY,50.61308700000000,-3.40846400000000
Ocean Exmouth,EX8 2AY,50.6136,-3.4074
The Little Tavern Group Ltd,EX8 2AY,50.6136,-3.4074
Exmouth Pavilion,EX8 2AZ,50.61554300000000,-3.41277800000000
Devoncourt Hotels Ltd,EX8 2EX,50.6146,-3.3991
McDonald's,EX8 2NR,50.63126400000000,-3.37597700000000
McDonalds,EX8 2NR,50.63126400000000,-3.37597700000000
The Clinton Arms,EX8 2RL,50.62163600000000,-3.37490400000000
Tythe cottage restaurant,EX8 2RQ,50.62216500000000,-3.37349200000000
Exmouth Tennis & Fitness Centre,EX8 3AE,50.6279,-3.4035
Greenfingers Garden Centre/Streamside Cafe,EX8 3LE,50.63482666015620,-3.40311789512634
Cafe at the Car Wash,EX8 4NP,50.63215500000000,-3.39933400000000
Burger King,EX8 5BT,50.61496100000000,-3.36662400000000
Starbucks,EX8 5BT,50.61496100000000,-3.36662400000000
KINGS GARDEN CENTRE EXMOUTH,EX8 5DZ,50.64822900000000,-3.39757700000000
The Swan Inn ,EX8 5ET,50.64783300000000,-3.43165400000000
The Redwing Bar & Dining,EX8 5JT,50.64866638183590,-3.42814302444458
The Saddlers,EX8 5LS,50.64754100000000,-3.41652400000000
The Elizabethan Inn,TQ13 0BL,50.58143400000000,-3.55172100000000
Finlake Holiday Park,TQ13 0EJ,50.59837341308594,-3.62718272209167
Claycutters Arms,TQ13 0EY,50.58513259887700,-3.63435888290405
Harveys of Chudleigh,TQ13 0HT,50.60450500000000,-3.60136300000000
PHOENIX CHUDLEIGH LTD,TQ13 0HX,50.60427400000000,-3.60120000000000
The Cridford Inn,TQ13 0NR,50.62925338745120,-3.61980700492859
The Union Inn,TQ13 8LN,50.66150900000000,-3.76606100000000
The White Hart Hotel,TQ13 8NF,50.66087800000000,-3.76493300000000
central stores,TQ13 8PE,50.6609,-3.7656
The Horse,TQ13 8PG,50.66062000000000,-3.76537700000000
Inner Light Coffeeshop,TQ13 9AD,50.59330400000000,-3.67513000000000
Royal Gurkha spice,TQ13 9AD,50.59330400000000,-3.67513000000000
Wildmoor Fine Food & Drink,TQ13 9AD,50.59330400000000,-3.67513000000000
Cromwell Arms,TQ13 9AE,50.59439849853520,-3.67405796051025
The Dolphin Hotel,TQ13 9AL,50.59140800000000,-3.67818500000000
The Copper kettle ,TQ13 9AS,50.59117600000000,-3.67991500000000
Brookside Restaurant Ltd.,TQ13 9AW,50.59104400000000,-3.67783300000000
Cafe 3 Sixty Ltd,TQ13 9AZ,50.59074401855470,-3.67857193946838
THE OLD POTTERY RESTAURANT,TQ13 9DS,50.58247400000000,-3.67782500000000
Home Farm Cafe,TQ13 9JQ,50.59465000000000,-3.68844500000000
Ullacombe Farm ,TQ13 9LL,50.58840500000000,-3.71577000000000
The Cleave,TQ13 9TJ,50.61824417114258,-3.71836900711060
KESTOR INN  MANATON,TQ13 9UF,50.61315917968750,-3.75822758674622
Becky Falls Ancient Woodland Park Limited,TQ13 9UG,50.60676600000000,-3.75283000000000
The Rock Inn - Haytor,TQ13 9XP,50.58150900000000,-3.73684900000000
THE MOORLAND HOTEL,TQ13 9XT,50.57892227172850,-3.74017190933228
