name,postcode,lat,lon
Woodman Restaurant & Bar at Hedley Wood Holiday Park,EX22 7ED,50.7844,-4.4638
Black Rock Cafe,EX23 0AG,50.7876,-4.5564
Widemouth Bay Cafe,EX23 0AH,50.7929,-4.5556
 The Break Bar,EX23 0AW,50.7972,-4.5563
Bay view inn,EX23 0AW,50.7972,-4.5563
The Old Wainhouse inn,EX23 0BA,50.7302,-4.5779
Widemouth Manor ,EX23 0DE,50.7817,-4.5510
Cornish Coasts Farmshop & Cafe,EX23 0EE,50.7497,-4.5547
The Cabin Cafe,EX23 0JG,50.7411,-4.6312
Launceston Fryers,PL15 7AB,50.6361,-4.3611
NO8 CAFE,PL15 7AB,50.6361,-4.3611
SAGOR TANDOORI LIMITED ,PL15 7AS,50.6355,-4.3637
Pie stop cafe,PL15 7ED,50.6276,-4.3790
Eliot Arms,PL15 7EU,50.6288,-4.4074
Steam Pipe Company Ltd,PL15 7LP,50.6113,-4.3883
The Archers Arms,PL15 7QD,50.6007,-4.4389
Subway,PL15 7RR,50.5964,-4.4840
Altarnun Tea Room,PL15 7SJ,50.6038,-4.5116
belindas cafe & takeaway,PL15 8AB,50.6364,-4.3613
Mr & Mrs Perry t/a The Eagle House Hotel,PL15 8BA,50.6383,-4.3623
Liberty Coffee,PL15 8BD,50.6382,-4.3606
White Horse inn,PL15 8EL,50.6423,-4.3656
Tamar Otter and Wildlife Centre,PL15 8GW,50.6776,-4.4266
launceston golf club ,PL15 8HF,50.6475,-4.3734
COWSLIP CAFE,PL15 8JX,50.6453,-4.3861
MW Davey & Brownbrink Ltd t/a Boringdon Park &Trethorne Golf Club,PL15 8QE,50.6224,-4.4245
Panda House,PL15 9DP,50.6368,-4.3599
Red Chair Cafe,PL15 9DX,50.6365,-4.3593
Buddhas Kitchen & Lounge,PL15 9EB,50.6360,-4.3605
PROPER ANSOME CAFE,PL15 9HS,50.6252,-4.3588
Tre Pol & Pen,PL15 9NN,50.5971,-4.3322
THE SPRINGER SPANIEL,PL15 9NS,50.5765,-4.3342
Arscott arms,PL15 9SG,50.7141,-4.3303
Fat Hippo Cafe,PL15 9SP,50.6481,-4.3490
Homeleigh Restaurant,PL15 9SP,50.6481,-4.3490
Masons Arms,PL32 9PB,50.6232,-4.6787
The Wilsey Down Hotel,PL32 9SH,50.6621,-4.5761
Hilltop Farm Shop & Cafe,PL32 9TT,50.6386,-4.6786
The Vale of Avalon/ Arthurian Centre,PL32 9TT,50.6386,-4.6786
The Bettle and Chisel,PL33 9AQ,50.6237,-4.7316
The Wellington Hotel,PL35 0AQ,50.6895,-4.6928
The Napoleon Inn ,PL35 0BD,50.6836,-4.6911
The Harbour Light Tea Garden,PL35 0HD,50.6905,-4.6938
COBWEB INN LTD,PL35 0HE,50.6900,-4.6923
The Manor house,PL35 0HE,50.6900,-4.6923
The Riverside,PL35 0HE,50.6900,-4.6923
Toby Jug Cafe,PL35 0HE,50.6900,-4.6923
Boscastle Farmshop Ltd,PL35 0HH,50.6911,-4.6804
