name,postcode,lat,lon
Woodman Restaurant & Bar at Hedley Wood Holiday Park,EX22 7ED,50.78443700000000,-4.46382800000000
Black Rock Cafe,EX23 0AG,50.78773498535156,-4.55621576309204
Widemouth Bay Cafe,EX23 0AH,50.7929,-4.5556
 The Break Bar,EX23 0AW,50.79716900000000,-4.55633300000000
Bay view inn,EX23 0AW,50.79649100000000,-4.55426070000000
The Old Wainhouse inn,EX23 0BA,50.73023400000000,-4.57789700000000
Widemouth Manor ,EX23 0DE,50.78166100000000,-4.55106000000000
Cornish Coasts Farmshop & Cafe,EX23 0EE,50.74967800000000,-4.55469300000000
The Cabin Cafe,EX23 0JG,50.74108505249023,-4.63125228881836
The Haven Cafe,EX23 0JG,50.74108500000000,-4.63125200000000
Launceston Fryers,PL15 7AB,50.63616943359380,-4.36120700836182
NO8 CAFE,PL15 7AB,50.6361,-4.3611
SAGOR TANDOORI LIMITED ,PL15 7AS,50.63581600000000,-4.36355100000000
Pie stop cafe,PL15 7ED,50.62764000000000,-4.37899200000000
Eliot Arms,PL15 7EU,50.62904400000000,-4.40738700000000
Steam Pipe Company Ltd,PL15 7LP,50.61135864257810,-4.38834810256958
The Archers Arms,PL15 7QD,50.60074800000000,-4.43894100000000
Subway,PL15 7RR,50.59643900000000,-4.48405100000000
Altarnun Tea Room,PL15 7SJ,50.60384400000000,-4.51159100000000
belindas cafe & takeaway,PL15 8AB,50.63645500000000,-4.36129200000000
Mr & Mrs Perry t/a The Eagle House Hotel,PL15 8BA,50.63831400000000,-4.36231900000000
Liberty Coffee,PL15 8BD,50.63822200000000,-4.36063100000000
White Horse inn,PL15 8EL,50.64233000000000,-4.36566100000000
Tamar Otter and Wildlife Centre,PL15 8GW,50.6776,-4.4266
launceston golf club ,PL15 8HF,50.64746856689450,-4.37340211868286
COWSLIP CAFE,PL15 8JX,50.64528600000000,-4.38609400000000
MW Davey & Brownbrink Ltd t/a Boringdon Park &Trethorne Golf Club,PL15 8QE,50.6224,-4.4245
Panda House,PL15 9DP,50.6368,-4.3599
Red Chair Cafe,PL15 9DX,50.63655000000000,-4.35928900000000
Buddhas Kitchen & Lounge,PL15 9EB,50.63638870000000,-4.35979640000000
PROPER ANSOME CAFE,PL15 9HS,50.62410736083980,-4.35986804962158
Tre  Pol & Pen,PL15 9NN,50.59564971923830,-4.33542394638062
THE SPRINGER SPANIEL,PL15 9NS,50.5765,-4.3342
Arscott arms,PL15 9SG,50.71369552612300,-4.33060789108276
Fat Hippo Cafe,PL15 9SP,50.6481,-4.3490
Homeleigh Restaurant,PL15 9SP,50.6481,-4.3490
Masons Arms,PL32 9PB,50.62294670000000,-4.67863340000000
The Wilsey Down Hotel,PL32 9SH,50.66191900000000,-4.57636000000000
Hilltop Farm Shop & Cafe,PL32 9TT,50.63856506347660,-4.67853212356567
The Vale of Avalon/ Arthurian Centre,PL32 9TT,50.63856506347660,-4.67853212356567
The Bettle and Chisel,PL33 9AQ,50.62370681762700,-4.73162889480591
The Wellington Hotel,PL35 0AQ,50.68948800000000,-4.69285900000000
The Napoleon Inn ,PL35 0BD,50.68363700000000,-4.69109400000000
The Harbour Light Tea Garden,PL35 0HD,50.69046600000000,-4.69409100000000
COBWEB INN LTD,PL35 0HE,50.68997600000000,-4.69233500000000
The Manor house,PL35 0HE,50.6900,-4.6923
The Riverside,PL35 0HE,50.68997600000000,-4.69233500000000
Toby Jug Cafe,PL35 0HE,50.68997600000000,-4.69233500000000
Boscastle Farmshop Ltd,PL35 0HH,50.69096100000000,-4.68085100000000
