name,postcode,lat,lon
cerastes and Pitohui,EX1 1DE,50.719398082426500,-3.532308478748740
White ibis and monitor,EX1 1DN,50.720864480097100,-3.532271316251830
Mole and coral snake,EX1 1ED,50.720731505015300,-3.530071108566350
Argus and cerastes,EX1 1EQ,50.721493500305300,-3.531625982043170
Kite and soft-shelled turtle,EX1 1GF,50.724707350031800,-3.525893539615690
Lemming and Puffleg,EX1 1GJ,50.723368000000000,-3.528027698310680
Hawaiian honeycreeper and lizard,EX1 1HF,50.722436000000000,-3.531897000000000
Tree warbler and Macaw,EX1 1RX,50.723042607552000,-3.523346000000000
grass snake and carpet snake,EX1 1TA,50.721560668322000,-3.521002813884190
Goose and amphisbaena,EX1 1UH,50.721318595506600,-3.525229000000000
Old World quail and caiman,EX1 2AT,50.727354752374900,-3.522196471271790
diamond snake and moloch,EX1 2BY,50.727040750474900,-3.519380872028110
taipan and skink,EX1 2EH,50.725230626045400,-3.515426041008840
Kangaroo and cayman,EX1 2ER,50.725876967356900,-3.518280585401270
Greenbul and Perching duck,EX1 2EX,50.724792603912400,-3.517296264676600
frill-necked lizard and Old World vulture,EX1 2FD,50.722696437731000,-3.509039746398710
sea snake and Marmoset,EX1 2FL,50.728020000000000,-3.520830000000000
adder and turtle,EX1 2LP,50.723675276852700,-3.518152735984570
Kite and River dolphin,EX1 2NF,50.723227910774300,-3.511748672288980
chameleon and Tree warbler,EX1 2QU,50.722823721436500,-3.506847873296240
diamondback terrapin and harlequin snake,EX1 2SL,50.724189297366500,-3.504171449183400
Black jay and Grackle,EX1 2SS,50.724665438106000,-3.505603504840280
Zebra and Wader,EX1 3FF,50.727849000000000,-3.480470000000000
horned toad and Parakeet,EX1 3FS,50.734906000000000,-3.463532000000000
cayman and sea snake,EX1 3GP,50.750045000000000,-3.458915000000000
Pheasant and deaf adder,EX1 3JB,50.728300000000000,-3.488844000000000
Flameback and Mink,EX1 3ND,50.731519375114100,-3.485191601587110
Mockingbird and dukite,EX1 3NS,50.727711949753300,-3.484036842988030
gecko and agamid,EX1 3NY,50.728716017799300,-3.488517721318670
galliwasp and diamond snake,EX1 3NZ,50.729406352362600,-3.489389773353090
Recurvebill and Kākāriki,EX1 3PA,50.729479231028900,-3.488612763305320
whip snake and Hawaiian honeycreeper,EX1 3QG,50.737238669570600,-3.469613489895170
puff adder and anole,EX1 3QL,50.737303641067200,-3.466596925954170
bushmaster and bull snake,EX1 3RQ,50.734907569060800,-3.466904690548040
saltwater crocodile and Vulture,EX1 3RZ,50.738736037156500,-3.463537957090790
bandy-bandy and gavial,EX1 3SX,50.742341254853700,-3.466485044520200
Marsh harrier and grass snake,EX1 3UD,50.725999123032400,-3.492809649120780
Civet and puff adder,EX1 3UN,50.725148718038600,-3.480512975988960
Hawk and River dolphin,EX1 3UR,50.724788224841300,-3.481280854619140
Myna and frilled lizard,EX1 3WJ,50.748999000000000,-3.467785000000000
Prion and carpet snake,EX1 9HE,50.726230512013200,-3.522202534601020
Argus and Wader,EX17 1DL,50.794851654507200,-3.651016000000000
Booted eagles and perentie,EX17 1DZ,50.794124956161500,-3.653316173125410
Flameback and chameleon,EX17 1EF,50.793544347965900,-3.649621000000000
Badger and swift,EX17 1EU,50.790980949815600,-3.640960721575810
River dolphin and Mole,EX17 1GB,50.790435719245000,-3.647737737074250
Treepie and swift,EX17 1HD,50.789246787648900,-3.647866177336180
milk snake and goanna,EX17 2AL,50.790843056997400,-3.658336506400660
B and milk snake,EX17 2DW,50.792620494390200,-3.664245215291930
Eagle and blind snake,EX17 2ER,50.798818000000000,-3.689909000000000
Lemming and dugite,EX17 3AG,50.790373623049600,-3.658461771547800
bushmaster and Dolphin,EX17 3AN,50.789761770163100,-3.655434000000000
deaf adder and Magpie,EX17 3BW,50.785713340553600,-3.648437063424710
Old World vulture and River dolphin,EX17 3DN,50.787632496211800,-3.654691000000000
Peafowl and brown snake,EX17 3FA,50.783552250236100,-3.646602496774960
Perching duck and Scimitar babbler,EX17 3FD,50.783494562676700,-3.644954890476490
rock snake and indigo snake,EX17 3FE,50.787987448468800,-3.649042525521000
asp and Nukupuʻu,EX17 3FG,50.785454000000000,-3.640770000000000
slowworm and Skunk,EX17 3HW,50.787210942133100,-3.656987858906270
garter snake and moloch,EX17 3HX,50.788004244565400,-3.661910570028680
chuckwalla and Kangaroo,EX17 3JJ,50.791274748537700,-3.674696837366240
rat snake and viper,EX17 3JT,50.790739055875600,-3.661851508712900
Meadowlark and Kite,EX17 3PQ,50.786160201604100,-3.663831326634220
Recurvebill and Treepie,EX17 3PR,50.782671006042600,-3.654968994572700
viper and Thrasher,EX17 3QF,50.764188943256300,-3.684534700272550
jew lizard and cobra de capello,EX17 3QN,50.778673123762800,-3.664785407633170
Maya and blindworm,EX17 3QW,50.778736652491700,-3.664745110264480
Cuscus and massasauga,EX17 3RS,50.791495170048700,-3.668731364076230
water snake and Black jay,EX17 5DE,50.795906614199800,-3.744605684424170
dugite and anole,EX17 5HG,50.749302590676700,-3.743410882678100
giant tortoise and Polecat,EX17 5HJ,50.767238738307300,-3.700569721522670
indigo snake and gecko,EX17 5JR,50.789984000000000,-3.738412000000000
swift and snapping turtle,EX2 4AG,50.720938351829800,-3.516320000000000
Thrasher and Recurvebill,EX2 4DU,50.715467539425200,-3.512377178441570
Parrotlet and Asiatic leopard,EX2 4LH,50.718420555792000,-3.519045362909500
Towhee and Asiatic leopard,EX2 4NH,50.716145996049200,-3.510684996020290
blue tongue and Civet,EX2 4PN,50.715496045915800,-3.515721106845150
boomslang and rattlesnake,EX2 4PU,50.717647000000000,-3.517745000000000
bushmaster and gecko,EX2 4QL,50.714555714691600,-3.517489725797100
Kākāriki and Zebra,EX2 4RP,50.713061458871600,-3.519665299482020
Condor and python,EX2 4TA,50.721111747837300,-3.520945775238480
king snake and Peafowl,EX2 4TR,50.721445765494600,-3.512555502689320
thorn lizard and Mockingbird,EX2 5AE,50.715546628311400,-3.509050876613980
sea snake and anaconda,EX2 5BB,50.712958306131800,-3.506134834151510
cayman and Tree warbler,EX2 5BZ,50.715329408996600,-3.498703276612310
swift and Crow,EX2 5DF,50.716292334125500,-3.500051390074730
kabaragoya and flying dragon,EX2 5DX,50.720356204115100,-3.507802884406440
copperhead and gavial,EX2 5EH,50.720987062106200,-3.505345000000000
Zebra and sand lizard,EX2 5GR,50.713351701263000,-3.508399623962360
diamondback turtle and thorn lizard,EX2 5HT,50.718400568160600,-3.501152843265850
Partridge and Parakeet,EX2 5JY,50.716783237998000,-3.493338374615970
skink and anaconda,EX2 5JZ,50.716228251976500,-3.494538964775350
thorn lizard and gopher snake,EX2 5LF,50.717860003115400,-3.494930863908290
thorny devil and diamondback,EX2 5NH,50.717859863718200,-3.491431861006990
Francolin and tortoise,EX2 5PD,50.715561343829600,-3.487619251839920
Shearwater and Komodo dragon,EX2 5PQ,50.717087098982900,-3.487157601978800
B and flying dragon,EX2 5PU,50.718964908795000,-3.480233063697050
Schneider python and Flameback,EX2 5QH,50.721759249962900,-3.481142822600960
green turtle and bearded dragon,EX2 5QJ,50.721459159632200,-3.482110886161790
Ice seal and Old World warbler,EX2 5QR,50.721077974274100,-3.483090543781150
blind snake and swift,EX2 5QS,50.720784739034200,-3.482812114419570
Hawk and thorny devil,EX2 5RN,50.720186356605300,-3.487425727404910
adder and ringhals,EX2 5RZ,50.714109311615900,-3.487941559441630
mud turtle and Tahr,EX2 5TS,50.715426000000000,-3.502474000000000
black snake and gopher snake,EX2 5UB,50.713485476033400,-3.483261629928830
diamond snake and Siskin,EX2 6DJ,50.713019633433600,-3.500683452610130
Greenbul and ringhals,EX2 6DU,50.708677198614500,-3.504765408247720
Wader and rock python,EX2 6DY,50.708585185484800,-3.507014411322220
tortoise and turtle,EX2 6EJ,50.709995795747800,-3.506422289648330
box turtle and Mole,EX2 6EN,50.708336241707200,-3.507487973946560
Diving bird and cerastes,EX2 6FD,50.707153468050900,-3.508399430881120
cayman and Philippine hawk-owl,EX2 6FF,50.706698000000000,-3.506147000000000
hognose snake and tree snake,EX2 6YP,50.726230512013200,-3.522202534601020
Wallaby and frilled lizard,EX2 7AN,50.701851535205800,-3.492155849389370
puff adder and Viscacha,EX2 7AU,50.701692942754300,-3.475755000000000
Recurvebill and Egret,EX2 7BB,50.698304571375700,-3.495243435126460
horned viper and Rabbit,EX2 7BW,50.696108352019600,-3.488362895533980
Myna and Parakeet,EX2 7BZ,50.695044000000000,-3.493667000000000
puff adder and Civet,EX2 7FB,50.722305000000000,-3.473637000000000
anole and Fox,EX2 7FG,50.704161000000000,-3.474003000000000
Kestrel and python,EX2 7FZ,50.693342000000000,-3.480941000000000
Schneider python and Argus,EX2 7LF,50.717010883447400,-3.468343126125480
Elephant and blue racer,EX2 7PX,50.694569000000000,-3.479266000000000
Viscacha and copperhead,EX2 7QH,50.714349606861500,-3.478954449134990
massasauga and Logrunners,EX2 7RG,50.714777486059700,-3.477126464282500
leguaan and kabaragoya,EX2 7SB,50.704234480994800,-3.479401000000000
Fish eagle and puff adder,EX2 7WN,50.722025146613900,-3.465085583986120
Siskin and Jay,EX2 7XE,50.715119466978600,-3.482066686341500
carpet snake and Armadillo,EX2 8AR,50.715945421521900,-3.535666394259450
Stint and Lemming,EX2 8AU,50.715516013603500,-3.536176474569520
Old World vulture and frilled lizard,EX2 8AX,50.716400694441300,-3.530454171881340
Towhee and mountain devil,EX2 8BQ,50.714716213229300,-3.534082218252600
rock python and tuatara,EX2 8EB,50.713670867108700,-3.532192498598950
Flameback and amethystine python,EX2 8EN,50.713426900957400,-3.532963600643180
gaboon viper and Schneider python,EX2 8FQ,50.697197044588500,-3.533411304854390
brown snake and Goose,EX2 8GW,50.715284190814400,-3.529185420913460
Hawaiian honeycreeper and tree snake,EX2 8JH,50.711408956244700,-3.535957204680290
bicycle lizard and Herring gull,EX2 8LR,50.715291277529700,-3.536169125732510
Petrel and soft-shelled turtle,EX2 8PQ,50.706734481256000,-3.527590058819180
B and Thicketbird,EX2 8TL,50.701388494286600,-3.540869322240740
rattlesnake and White ibis,EX2 8TP,50.702145096678500,-3.540101093497630
Old World warbler and Grouse,EX2 8UU,50.698723521511100,-3.535641782059740
Linsang and Masked owl,EX2 8UZ,50.699650847202200,-3.534199380512860
ringhals and Rabbit,EX2 8WX,50.726230512013200,-3.522202534601020
Duck and horned viper,EX2 8XG,50.698678269742100,-3.529508913717060
Stint and Cuscus,EX2 8YX,50.710237577592900,-3.531516000000000
Goose and boa constrictor,EX2 9DB,50.712810603314200,-3.546258143256790
cayman and goanna,EX2 9ER,50.714823134504600,-3.537570330449700
terrapin and Boto,EX2 9EU,50.714411323595000,-3.538109287605430
Perching duck and jew lizard,EX2 9FD,50.714432605364700,-3.542487474551200
garter snake and smooth snake,EX2 9JS,50.707765748936600,-3.542834641215430
cerastes and Mole,EX2 9PU,50.711468064979300,-3.559273292799780
Flameback and Nukupuʻu,EX2 9QB,50.711547314917000,-3.561414712459680
fer-de-lance and goanna,EX2 9QR,50.680365954604600,-3.558157090621010
flying lizard and moloch,EX2 9QU,50.707981855931000,-3.563732287197390
Francolin and Viscacha,EX2 9RP,50.701595456315700,-3.560460987042940
Duck and black snake,EX2 9RQ,50.704875464791700,-3.557794000000000
tokay and frilled lizard,EX2 9RY,50.704558426063600,-3.554767085750180
habu and Vulture,EX2 9TQ,50.696777910913200,-3.583579665140660
leguaan and viper,EX2 9TU,50.675347698897300,-3.586806958799010
Piping shrike and Hawaiian honeycreeper,EX2 9TZ,50.674628609438300,-3.588098941538600
leathery turtle and wall lizard,EX3 0AY,50.678927000000000,-3.462497000000000
amethystine python and diamondback terrapin,EX3 0DG,50.685288530096900,-3.462864969254390
Philippine hawk-owl and turtle,EX3 0DN,50.685512460658900,-3.469243000000000
agama and mamba,EX3 0DR,50.685037377890900,-3.464244450804010
Kangaroo and bearded dragon,EX3 0HJ,50.683710907384900,-3.466029233571360
River dolphin and Fish eagle,EX3 0JR,50.684949703954000,-3.467639169463740
pit viper and Jerboa,EX3 0LB,50.686473760620100,-3.468734312943030
milk snake and glass snake,EX3 0NX,50.694234814206300,-3.439922865490500
rattlesnake and ringhals,EX3 0NZ,50.690293250969700,-3.435753083403610
Nukupuʻu and Maya,EX4 1AD,50.717913464623000,-3.538507280105120
diamondback turtle and Meadowlark,EX4 1BN,50.717922262712500,-3.544641475324560
soft-shelled turtle and Grackle,EX4 1BP,50.717800122700300,-3.545714077652290
Triller and tortoise,EX4 1DU,50.718019109078700,-3.539360705807070
leguaan and massasauga,EX4 1EJ,50.720263463254300,-3.543740958886750
Black cockatoo and Grouse,EX4 1HS,50.715797000000000,-3.542914000000000
snake and Asiatic leopard,EX4 1JL,50.719256649452500,-3.548453638485510
deaf adder and Hawaiian honeycreeper,EX4 1NB,50.714775075578700,-3.554751052907390
Piping shrike and Logrunners,EX4 1PD,50.713896654892400,-3.551832349398140
anole and Wallaby,EX4 1PG,50.716268140613000,-3.554063857127520
kabaragoya and boomslang,EX4 1SA,50.721347696355500,-3.554189421148710
giant tortoise and carpet snake,EX4 1SP,50.722768347339900,-3.557579974445300
giant tortoise and bearded lizard,EX4 1TW,50.711900932994800,-3.554471806313900
Flameback and White ibis,EX4 2DB,50.728758186864700,-3.549461247996470
Duck and Night heron,EX4 2HG,50.726385031825200,-3.608466297386550
mud turtle and bearded dragon,EX4 2HN,50.736687841139300,-3.637786543193150
Stint and bull snake,EX4 2HR,50.741105000000000,-3.628771000000000
sand viper and Mouse,EX4 2HY,50.725842000000000,-3.548373000000000
adder and Chickadee,EX4 2JQ,50.732858650234800,-3.578320387428830
Scimitar babbler and Black cockatoo,EX4 2LW,50.733642887708400,-3.552740039715020
Moluccan boobook and Buzzard,EX4 2NY,50.734303722811900,-3.562511566564630
sand viper and leguaan,EX4 3AH,50.719950420057000,-3.536123164875290
mud turtle and Snipe,EX4 3BZ,50.721085624484700,-3.539376204639290
lizard and turtle,EX4 4AS,50.732233245979500,-3.542405713300970
Ground sloth and Coati,EX4 4FQ,50.726737424411500,-3.540978843966600
Asiatic leopard and B,EX4 4FU,50.734029000000000,-3.529767000000000
Old World warbler and Chipmunk,EX4 4GX,50.729685000000000,-3.541983000000000
puff adder and Thicketbird,EX4 4HY,50.726895142291500,-3.536662043707710
sand lizard and Peafowl,EX4 4JN,50.727325000000000,-3.534154000000000
Ibex and Magpie,EX4 4PD,50.734447804444500,-3.538836510723200
Buzzard and sidewinder,EX4 4SU,50.738023541596800,-3.541830674118830
snapping turtle and Goose,EX4 4UU,50.730934221690200,-3.531112069281220
bandy-bandy and Flameback,EX4 5BN,50.747105642596100,-3.526196519331640
krait and Siskin,EX4 5DL,50.739813543327400,-3.517129838915910
diamondback and python,EX4 5EG,50.742004026227400,-3.513969132545240
Thicketbird and Marmoset,EX4 5EQ,50.738448616353800,-3.516972344868120
Duck and Goose,EX4 6AX,50.731268000000000,-3.520000000000000
Duck and goanna,EX4 6BZ,50.730951598199800,-3.524296875380400
agamid and Bronzewing pigeon,EX4 6DB,50.731658156069100,-3.525283387161440
saltwater crocodile and Moluccan boobook,EX4 6DX,50.739054000000000,-3.521725000000000
chuckwalla and coral snake,EX4 6ER,50.736730656393100,-3.517682099628130
Snipe and smooth snake,EX4 6EW,50.735440411451000,-3.517314446152050
cycling lizard and king snake,EX4 6HT,50.734848717763500,-3.517862167829530
gavial and anaconda,EX4 6LS,50.731099486555100,-3.515714647523580
Kite and puff adder,EX4 6LT,50.731526337807700,-3.516777017730740
smooth snake and boomslang,EX4 6LU,50.731579946117200,-3.516112752272240
Zebra and rock snake,EX4 6PL,50.728678000000000,-3.522239000000000
thorn lizard and Bunting,EX4 6QS,50.728768536475200,-3.523432524950320
Thrasher and diamondback terrapin,EX4 7BY,50.733800000000000,-3.503161000000000
crocodile and Old World warbler,EX4 7EZ,50.735956733180000,-3.510103683348780
Nukupuʻu and Tahr,EX4 7HP,50.730153673676900,-3.513785000000000
Gila monster and Bronzewing pigeon,EX4 8AR,50.732488707864000,-3.495892573399190
black snake and Skunk,EX4 8AS,50.732003135420100,-3.497988470926730
Chickadee and amphisbaena,EX4 8BY,50.733868367233200,-3.492096241823400
Lemming and amethystine python,EX4 8DX,50.736082434632200,-3.489148088886960
racer and harlequin snake,EX4 8EW,50.734569321187600,-3.481561110462480
Mouse and leathery turtle,EX4 8JD,50.736068413795800,-3.482116000000000
boa and monitor,EX4 8PQ,50.741280715786700,-3.473964000000000
Tattler and thorn lizard,EX4 8PY,50.739924289951800,-3.479122368131090
Piping shrike and Boto,EX4 8QX,50.730128263421900,-3.495519807369630
Egret and Stilt,EX4 9AQ,50.738569641914600,-3.501372602002440
galliwasp and Crow,EX4 9BS,50.741099354592300,-3.501170061327790
constrictor and alligator,EX4 9BY,50.741292401229300,-3.499447121561870
mountain devil and Nukupuʻu,EX4 9DP,50.741334996606600,-3.496131982423750
Thrasher and Greenbul,EX4 9DW,50.739544253763300,-3.496216627526620
jew lizard and agamid,EX4 9EA,50.741586054600200,-3.496891162404390
tuatara and cycling lizard,EX5 1AL,50.693597090777300,-3.413412611398800
boa constrictor and alligator,EX5 1BS,50.710708831185200,-3.455979480072440
Meadowlark and rattlesnake,EX5 1BW,50.710377322114500,-3.454439530024690
chuckwalla and hognose snake,EX5 1BZ,50.707884873354500,-3.453824192936120
Perching duck and Cuscus,EX5 1DH,50.717120000000000,-3.443868000000000
Asiatic leopard and asp,EX5 1ET,50.705118576927400,-3.379543637400920
cayman and thorn lizard,EX5 1HJ,50.670086020720000,-3.400974694727880
box turtle and Peafowl,EX5 1JX,50.679729430838300,-3.410448086323390
Grackle and Hawk,EX5 1NE,50.675433802499200,-3.398996821762210
Lemming and whip snake,EX5 1NJ,50.671334000000000,-3.393752000000000
bearded lizard and Diving bird,EX5 1PH,50.694076856190200,-3.401986795209260
River dolphin and bearded dragon,EX5 1QQ,50.709901856344000,-3.431097490233170
death adder and gopher snake,EX5 1SA,50.710080000000000,-3.421061000000000
coral snake and agamid,EX5 2BH,50.729379000000000,-3.415212000000000
blue racer and Tahr,EX5 2DP,50.729258131943700,-3.412431214133070
Bronzewing pigeon and milk snake,EX5 2NG,50.733268861910500,-3.435860000000000
Old World warbler and Partridge,EX5 2NH,50.733831465436400,-3.435596216444170
Elephant and snake,EX5 2PJ,50.754581389701700,-3.377992117529920
box turtle and tree snake,EX5 3AP,50.756063516051000,-3.435525065507160
slowworm and Tree warbler,EX5 3BG,50.761510000000000,-3.407097003607860
Vulture and Civet,EX5 3BY,50.769036000000000,-3.422039000000000
Perching duck and rock snake,EX5 3EZ,50.759933000000000,-3.441967000000000
krait and amethystine python,EX5 3HB,50.762255936401500,-3.441669911205830
Logrunners and rat snake,EX5 3LE,50.791407815958800,-3.453576770267460
Snipe and monitor,EX5 3LT,50.761200226856700,-3.441226269371080
gopher snake and asp,EX5 3ND,50.762701266111500,-3.438379786078440
brown snake and horned viper,EX5 4AF,50.770034999076500,-3.509187181485260
Dolphin and habu,EX5 4AN,50.770213000000000,-3.507342903337330
Fox and bicycle lizard,EX5 4BE,50.771969385765100,-3.508426872655290
Rabbit and garter snake,EX5 4EA,50.787178000000000,-3.497992000000000
Bunting and Gila monster,EX5 4EX,50.787525684648300,-3.496712552107750
Perching duck and Hawk,EX5 5AA,50.767276196722700,-3.573650183342660
agama and blindworm,EX5 5AY,50.773026564182900,-3.603088084497490
crocodile and bearded dragon,EX5 5BB,50.778574309295500,-3.618143162501590
goanna and Mole,EX5 5BZ,50.771221724765000,-3.587766279977170
constrictor and kabaragoya,EX5 5EP,50.748184836248200,-3.548699308486410
taipan and Towhee,EX5 5HS,50.778937286125400,-3.538849859177580
tokay and lizard,EX5 5HX,50.783323572070400,-3.562698428466780
Linsang and Chipmunk,EX5 7BA,50.749019396086000,-3.415705574775240
kabaragoya and Black cockatoo,EX5 7BE,50.747223475758200,-3.411030423239620
Old World vulture and Stilt,EX5 7BT,50.748528382718500,-3.410956261443510
Jackal and sand lizard,EX5 7EB,50.750460000000000,-3.404825060700000
Philippine hawk-owl and bearded dragon,EX5 7EU,50.750686000000000,-3.402388000000000
tokay and smooth snake,EX5 7FR,50.751507000000000,-3.396046000000000
Nukupuʻu and sand viper,EX6 6AY,50.735286000000000,-3.677049000000000
Hawk and rat snake,EX6 6BZ,50.727734604617600,-3.643878704461930
racer and Snipe,EX6 6DY,50.735447000000000,-3.682043000000000
Greenbul and gecko,EX6 6EL,50.732512770502100,-3.693940845474120
Minke whale and Diving bird,EX6 6EU,50.749303538503500,-3.713627555215200
Tit-tyrant and Linsang,EX6 6JN,50.728829781148800,-3.718222168764420
Skunk and Thrasher,EX6 6JW,50.724246524331400,-3.739816881775050
gopher snake and sand lizard,EX6 6NH,50.710272000000000,-3.772075000000000
iguana and Masked owl,EX6 6PZ,50.704381746626200,-3.735469968365220
American sparrow and garter snake,EX6 6RP,50.731860932145600,-3.678698238807330
Minke whale and Vulture,EX6 7AE,50.695346662582500,-3.673132003968380
blind snake and American sparrow,EX6 7BG,50.694794159177400,-3.641792072462300
glass snake and Macaw,EX6 7EQ,50.681737623263700,-3.696895966129480
Mole and garter snake,EX6 7EZ,50.687081955622000,-3.679987188766650
tokay and diamond snake,EX6 7JS,50.687498011916500,-3.652468000000000
water snake and habu,EX6 7JW,50.678611808159000,-3.658523833021430
Kākāriki and bandy-bandy,EX6 7JX,50.677312665182500,-3.649943175659020
loggerhead and Boto,EX6 7LU,50.654856615870000,-3.654333924111670
Vulture and Night heron,EX6 7PE,50.654169835656800,-3.654564437614020
Mink and Pheasant,EX6 7PJ,50.662750634076500,-3.650055210155950
cycling lizard and Grosbeak,EX6 7PZ,50.671356992930000,-3.628350386305600
Skunk and mamba,EX6 7QB,50.655599424504000,-3.644428518969770
sea snake and Mink,EX6 7RE,50.664668557809200,-3.621708942283330
Mole and perentie,EX6 7UL,50.657656169534600,-3.526336447491120
whip snake and Maya,EX6 7UU,50.658366529669300,-3.527717699350210
Kestrel and rattlesnake,EX6 7UW,50.659977789373200,-3.525548662913330
tree snake and Moluccan boobook,EX6 7UX,50.659536350543800,-3.536556016064280
Masked owl and smooth snake,EX6 7XE,50.657806385595700,-3.525167038583270
Vulture and coral snake,EX6 8AG,50.681744917384900,-3.491263093578070
mountain devil and indigo snake,EX6 8DX,50.675427816146200,-3.489449378289960
Songlark and Komodo dragon,EX6 8EU,50.643681282410200,-3.507624010434800
Jerboa and Dolphin,EX6 8FJ,50.682468833231700,-3.496382454159030
Vulture and Tit-tyrant,EX6 8HU,50.679570674017400,-3.494605384778180
Treepie and Skunk,EX6 8HY,50.625159000000000,-3.485725000000000
Old World warbler and Zebra,EX6 8JA,50.639575079096400,-3.469322193347950
Night heron and Mole,EX6 8JD,50.638721514687000,-3.467117680298940
Partridge and Mockingbird,EX6 8JP,50.652469390478100,-3.482272287265310
bushmaster and Parakeet,EX6 8JZ,50.641872000000000,-3.471247000000000
ringhals and Petrel,EX6 8LF,50.639458115690800,-3.472175302502210
blue racer and bushmaster,EX6 8LW,50.637175031533700,-3.474211066005730
Kangaroo and king cobra,EX6 8NB,50.639763282661900,-3.475777024395510
Tattler and terrapin,EX6 8PB,50.633181469334400,-3.451334094488660
Linsang and anaconda,EX6 8PF,50.629733750442600,-3.453758861925270
death adder and gecko,EX6 8PR,50.626566360523600,-3.447397813162030
Stint and copperhead,EX6 8PT,50.625647419596300,-3.446804063780900
Schneider python and B,EX6 8RA,50.617048000000000,-3.449292368922410
python and diamond snake,EX6 8RT,50.615502517186200,-3.451892348231350
gavial and Petrel,EX6 8TZ,50.682711562976700,-3.504217623424690
rock python and green turtle,EX7 0AA,50.583671489533800,-3.460786800379660
Zebra and caiman,EX7 0AL,50.589647001161900,-3.456888943888420
coral snake and thorny devil,EX7 0AP,50.587578552344300,-3.458322529009410
crocodile and leathery turtle,EX7 0AX,50.587423000000000,-3.455012000000000
jew lizard and Guillemot,EX7 0BX,50.583362009810300,-3.462514663352140
Rabbit and blue tongue,EX7 0DD,50.585099725393400,-3.464503779176350
Gila monster and python,EX7 0ED,50.584017487013200,-3.465459000830950
Shearwater and loggerhead,EX7 0HR,50.586503043876300,-3.464476692249720
B and Civet,EX7 0LX,50.596793620829000,-3.461447397797740
anaconda and Nukupuʻu,EX7 0NX,50.606635093782600,-3.471235260752230
Fox and soft-shelled turtle,EX7 9DB,50.583961448013100,-3.477012105527050
agama and Guillemot,EX7 9DN,50.579127257419400,-3.467425830444300
gaboon viper and Stilt,EX7 9EN,50.578483790966600,-3.474765000000000
Siskin and leathery turtle,EX7 9JQ,50.582243447830600,-3.465644051453790
boa and Elephant,EX7 9LZ,50.582904700862600,-3.473108674021750
horned toad and Recurvebill,EX7 9NE,50.583336502976500,-3.474520579071260
bearded lizard and caiman,EX8 1AD,50.620054111889800,-3.414542548948760
Partridge and Ice seal,EX8 1DB,50.620302462814100,-3.415567832894020
Black jay and bushmaster,EX8 1EF,50.618756878635100,-3.422843915595090
moloch and anaconda,EX8 1ET,50.617641060652600,-3.422159993614980
Parrotbill and bull snake,EX8 1HT,50.619549766708300,-3.410894380849020
Siskin and Gull,EX8 1JX,50.621707854695400,-3.407947802888130
tortoise and asp,EX8 1PZ,50.623151966891800,-3.410493258707140
diamondback and frill-necked lizard,EX8 1RW,50.620461268270200,-3.412858375673020
bearded dragon and slowworm,EX8 1TX,50.622154518674200,-3.407452209314470
deaf adder and perentie,EX8 1XY,50.619213654982600,-3.423734148744050
Komodo dragon and Polecat,EX8 2AS,50.614917135976200,-3.407264418785190
frill-necked lizard and Bunting,EX8 2DQ,50.611230555588600,-3.389981816805480
racer and Parrotlet,EX8 2ED,50.619166869535700,-3.402387066364320
mamba and Fulmarine petrel,EX8 2EP,50.622366000000000,-3.392233000000000
caiman and worm lizard,EX8 2EW,50.622605352482300,-3.393893938425490
Parakeet and taipan,EX8 2HD,50.617281992211000,-3.393835487541870
Piping shrike and Ice seal,EX8 2HG,50.621072000000000,-3.387633141024230
sand viper and bearded dragon,EX8 2JS,50.622298837363800,-3.402197504574540
Shearwater and hognose snake,EX8 2LD,50.623175591155600,-3.392836360780080
swift and caiman,EX8 2NG,50.624765836904400,-3.389956818624780
Jerboa and Mouse,EX8 2NQ,50.626063000000000,-3.390688000000000
thorn lizard and Chipmunk,EX8 2NS,50.628842000000000,-3.383121000000000
Ibex and Parakeet,EX8 2NY,50.624168098788800,-3.387901000000000
Hawaiian honeycreeper and Thrasher,EX8 2PF,50.625074798810900,-3.383646268356560
Asiatic leopard and B,EX8 2PU,50.625646521040800,-3.381697855233050
caiman and sand viper,EX8 2SJ,50.617553697448000,-3.413250000000000
soft-shelled turtle and milk snake,EX8 3AD,50.627170261518600,-3.403190756307830
blue racer and White ibis,EX8 3AH,50.630182800909600,-3.403209763183870
Logrunners and frill-necked lizard,EX8 3BN,50.636983390600900,-3.408291142755330
cayman and Elephant,EX8 3DR,50.627522348393800,-3.412009652725860
adder and tree snake,EX8 3JX,50.630700227538400,-3.405049186776780
Treepie and caiman,EX8 3NQ,50.635691249952300,-3.411024185141150
tortoise and Parrotbill,EX8 3PA,50.636081157633700,-3.410017690989960
Buzzard and thorny devil,EX8 3PP,50.626274519974600,-3.393903487310280
Mole and Perching duck,EX8 4AN,50.627748595553900,-3.390963809668070
Hawk and leguaan,EX8 4AZ,50.629251034562200,-3.389410426921730
Maya and Greenbul,EX8 4JG,50.636412864843900,-3.394898000000000
Shearwater and slowworm,EX8 4LF,50.638340982177600,-3.388094609642170
indigo snake and Grosbeak,EX8 4LL,50.637140276702500,-3.386970330378150
B and diamond python,EX8 4LU,50.639535025758800,-3.386757992470510
Linsang and copperhead,EX8 4LY,50.635954315857100,-3.387628335447760
Hawaiian honeycreeper and crocodile,EX8 4SE,50.629952853001600,-3.386362867660610
Rat and Mole,EX8 5JD,50.651995248007400,-3.423934000000000
Petrel and tiger snake,EX8 5JS,50.648004448213500,-3.429357076174190
smooth snake and Old World vulture,EX8 5LH,50.647671802762700,-3.419049584374630
Egret and boa,EX8 5NA,50.651764528127200,-3.409355607057690
Macaw and amphisbaena,EX8 5NN,50.639319090368800,-3.396664000000000
smooth snake and cobra de capello,EX8 5QN,50.644679919383300,-3.386697316049090
blue racer and diamond snake,EX8 5QW,50.643422608370200,-3.388060500570360
loggerhead and Zebra,EX8 5RA,50.660384299415300,-3.419956763810650
skink and copperhead,EX8 9BY,50.619391938243500,-3.411879670821630
frilled lizard and Jay,TQ13 0AY,50.585386821989900,-3.566814693305930
Polecat and diamondback turtle,TQ13 0BA,50.585205434935800,-3.564251826194210
Hawaiian honeycreeper and Boto,TQ13 0DF,50.623617522665100,-3.582166442276030
Dorcopsis and blindworm,TQ13 0DW,50.616965301789600,-3.583271937354030
Warbler and rock python,TQ13 0FP,50.597916000000000,-3.608873000000000
Stint and diamondback,TQ13 0GA,50.607481394874600,-3.594825165474930
black snake and Myna,TQ13 0GB,50.602778699685200,-3.598693634116560
Boto and Boto,TQ13 0JE,50.601349839163400,-3.608409798073690
tokay and garter snake,TQ13 0JG,50.601422568733300,-3.604441430759430
dugite and cobra de capello,TQ13 0LE,50.604028286351800,-3.599386057206950
sand viper and anole,TQ13 0LQ,50.602565521234600,-3.597188473771750
Moluccan boobook and Chicken,TQ13 0QQ,50.602169810697200,-3.603732018386880
Egret and Chickadee,TQ13 8GB,50.659121122631000,-3.759791737138430
Rat and diamondback turtle,TQ13 8LE,50.659867001000700,-3.762947000000000
swift and Fish eagle,TQ13 8LL,50.661009179279400,-3.763993905863810
Bronzewing pigeon and diamondback terrapin,TQ13 8PD,50.660335678468600,-3.764520476947780
Zebra and Magpie,TQ13 8QD,50.667241625169100,-3.755666110503240
carpet snake and Stint,TQ13 8SN,50.661570164453700,-3.735022839594190
Skunk and copperhead,TQ13 8SS,50.667884011610500,-3.732581043150450
adder and agama,TQ13 9AZ,50.590736625474500,-3.678560747848970
Goose and gopher snake,TQ13 9BJ,50.593684706677600,-3.676814742341540
Warbler and swift,TQ13 9DL,50.582243619163300,-3.685618076840450
blind snake and diamond python,TQ13 9EH,50.595149344746700,-3.672529089334730
Gila monster and Marmoset,TQ13 9EL,50.594869869488200,-3.670696507860800
tokay and cycling lizard,TQ13 9FY,50.588397413048000,-3.677997211010400
Rat and python,TQ13 9GR,50.580583633824700,-3.673397712482140
Guillemot and Vulture,TQ13 9GT,50.590573632346100,-3.679261348606830
massasauga and terrapin,TQ13 9JH,50.583838736558600,-3.662875752310080
Chickadee and coral snake,TQ13 9JW,50.577767336387900,-3.678368000000000
python and massasauga,TQ13 9LD,50.585251684777700,-3.707550813076850
Tree warbler and Chickadee,TQ13 9NL,50.615360027004300,-3.693544441912370
Partridge and smooth snake,TQ13 9QN,50.614927000000000,-3.647306000000000
Herring gull and Prion,TQ13 9SE,50.623055205419400,-3.726238814163210
Old World quail and Boto,TQ13 9ST,50.616038000000000,-3.717331000000000
thorn lizard and Marmoset,TQ13 9TW,50.620136460705300,-3.713776271500390
bearded dragon and terrapin,TQ13 9UP,50.600286840799100,-3.762626437070160
Polecat and bull snake,TQ13 9XY,50.583003000000000,-3.728969000000000
