name,postcode,lat,lon
Woodman Restaurant & Bar at Hedley Wood Holiday Park,EX22 7ED,50.784428339242900,-4.463817440390320
Black Rock Cafe,EX23 0AG,50.787617000000000,-4.556411000000000
Bay view inn,EX23 0AW,50.797160166820400,-4.556321924208470
The Old Wainhouse inn,EX23 0BA,50.730225540415100,-4.577885908286390
Widemouth Manor ,EX23 0DE,50.781652483544800,-4.551049292107270
Cornish Coasts Farmshop & Cafe,EX23 0EE,50.749669828876700,-4.554682636653290
The Cabin Cafe,EX23 0JG,50.741076526973400,-4.631241221451570
Launceston Fryers,PL15 7AB,50.636094612768100,-4.361139000000000
NO8 CAFE,PL15 7AB,50.636094612768100,-4.361139000000000
Pie stop cafe,PL15 7ED,50.627631373870800,-4.378981324042450
Eliot Arms,PL15 7EU,50.628756000000000,-4.407376114218010
Steam Pipe Company Ltd,PL15 7LP,50.611348971350500,-4.388337001459540
The Archers Arms,PL15 7QD,50.600739059770400,-4.438930193479090
Subway,PL15 7RR,50.596363569312500,-4.484012000000000
Altarnun Tea Room,PL15 7SJ,50.603835538000500,-4.511580224206530
belindas cafe & takeaway,PL15 8AB,50.636446284710000,-4.361281196481920
Mr & Mrs Perry t/a The Eagle House Hotel,PL15 8BA,50.638305269128500,-4.362307870265500
Liberty Coffee,PL15 8BD,50.638213571998500,-4.360620203205480
White Horse inn,PL15 8EL,50.642320844072000,-4.365649432267160
Tamar Otter and Wildlife Centre,PL15 8GW,50.677601329371500,-4.426621323440440
launceston golf club ,PL15 8HF,50.647460965754900,-4.373391054271650
COWSLIP CAFE,PL15 8JX,50.645276842363500,-4.386082707055700
MW Davey & Brownbrink Ltd t/a Boringdon Park &Trethorne Golf Club,PL15 8QE,50.622394000000000,-4.424540000000000
Panda House,PL15 9DP,50.636763000000000,-4.359911000000000
Red Chair Cafe,PL15 9DX,50.636540859066500,-4.359277643482100
Buddhas Kitchen & Lounge,PL15 9EB,50.635988000000000,-4.360452000000000
PROPER ANSOME CAFE,PL15 9HS,50.625166000000000,-4.358764000000000
Tre Pol & Pen,PL15 9NN,50.597072000000000,-4.332206000000000
THE SPRINGER SPANIEL,PL15 9NS,50.576505373153000,-4.334212356865240
Arscott arms,PL15 9SG,50.714117000000000,-4.330250000000000
Fat Hippo Cafe,PL15 9SP,50.648064000000000,-4.349047000000000
Homeleigh Restaurant,PL15 9SP,50.648064000000000,-4.349047000000000
Masons Arms,PL32 9PB,50.623235864275700,-4.678681625412110
Hilltop Farm Shop & Cafe,PL32 9TT,50.638557585887700,-4.678649000000000
The Bettle and Chisel,PL33 9AQ,50.623678547204000,-4.731632026728020
The Wellington Hotel,PL35 0AQ,50.689478942218400,-4.692848189047720
The Napoleon Inn ,PL35 0BD,50.683628223341100,-4.691083103435080
The Harbour Light Tea Garden,PL35 0HD,50.690457871593600,-4.693843000000000
COBWEB INN LTD,PL35 0HE,50.689967778274800,-4.692323967407430
The Manor house,PL35 0HE,50.689967778274800,-4.692323967407430
The Riverside,PL35 0HE,50.689967778274800,-4.692323967407430
Toby Jug Cafe,PL35 0HE,50.689967778274800,-4.692323967407430
Boscastle Farmshop Ltd,PL35 0HH,50.691135000000000,-4.680369000000000
