name,postcode,lat,lon
Masked owl and Shearwater,S5 0TW,53.433584442488300,-1.436125326697850
Elephant and Moluccan boobook,DN6 7JB,53.555708718484300,-1.184526509405520
Eagle and Rat,S64 0JS,53.493606690726200,-1.275313435859170
Grosbeak and Masked owl,DN2 4LZ,53.537344542184200,-1.118563769160530
Mole and White ibis,DN7 5QU,53.595171370452600,-1.026174741119260
Grouse and Elephant,S73 0LP,53.518361093625400,-1.411141342656460
Thrasher and Lemming,WF4 1FE,53.652741000000000,-1.426428000000000
Vole and Booted eagles,S66 3ZW,53.436970249360500,-1.278474809733490
Civet and Asiatic leopard,WF9 1LA,53.617600419739200,-1.255761998848940
Greenbul and Kestrel,S73 8FN,53.525317866300000,-1.403155957500000
Scimitar babbler and Vole,S62 6EA,53.446691517767800,-1.346441046085320
Marmoset and Perching duck,S66 3SG,53.435213278739600,-1.283757890525240
Vole and Viscacha,S71 5BU,53.542108315631200,-1.423851000000000
Petrel and Chickadee,DN6 8DB,53.581000553751400,-1.177665911707880
Jay and Crow,DN4 6BP,53.505153445920900,-1.076532099979660
Herring gull and Chickadee,WF9 4LL,53.609558738494000,-1.355462158984810
Darwin's finches and Greenbul,S71 5FR,53.557609000000000,-1.441785000000000
Ice seal and Night heron,S63 7SW,53.494615874928500,-1.347543643148770
Snipe and Jay,S63 6DG,53.506002027591200,-1.357063723471530
Wallaby and River dolphin,S63 8JQ,53.517034871359600,-1.306283389790050
Badger and Kestrel,DN2 5PG,53.536363051091600,-1.096645373319340
River dolphin and Bronzewing pigeon,S72 8UB,53.580066332770000,-1.416522408435710
Shearwater and Parrotlet,S64 0HZ,53.495398788214000,-1.268816000000000
Philippine hawk-owl and Jackal,DN1 3AT,53.518775002170600,-1.137321000000000
River dolphin and Parrotlet,S65 2SR,53.432830777180900,-1.336614189743990
Old World warbler and Kangaroo,DN12 4JE,53.486137000000000,-1.254706151193080
Elephant and Grosbeak,DN5 0NF,53.559363232986600,-1.141174190658340
Zebra and Night heron,S74 9HW,53.503851419483400,-1.446440919358560
Treepie and Hawk,S5 0JR,53.428237240067100,-1.451802828885320
Gull and Nukupuʻu,S63 6AY,53.503735931336000,-1.370395660901400
Cuscus and Old World quail,S73 8BW,53.524369000000000,-1.398976000000000
Parakeet and Cloud rat,WF8 4NG,53.676703039011700,-1.316758463754740
Towhee and Old World vulture,S60 1JN,53.431023089737400,-1.366247602950980
Wallaby and Elephant,DN4 8QN,53.494811239656400,-1.145975676951630
Tahr and Kangaroo,DN2 6BN,53.525508790591500,-1.114012511538810
Marmoset and Duck,DN1 2HZ,53.523992000000000,-1.125131000000000
Coati and Greenbul,DN4 5LH,53.515030057927100,-1.092710484060930
Jay and Wallaby,DN11 0SA,53.470872348873100,-1.081464414101080
Zebra and Buzzard,S64 9RG,53.495005767772300,-1.303522600591650
Macaw and Magpie,S72 9DF,53.613593091891700,-1.409197908176930
Flameback and Grouse,S64 8RY,53.480780136466700,-1.316563846843530
Fox and Grosbeak,S73 9RN,53.540632656085900,-1.389238965514440
Bronzewing pigeon and Songlark,WF9 2EQ,53.590678000000000,-1.293853000000000
Old World vulture and Ibex,DN7 4BU,53.561398323682100,-1.031511000000000
Tree warbler and Bronzewing pigeon,S64 8JD,53.483119000000000,-1.316617000000000
Perching duck and Coati,S63 6LR,53.502381475425500,-1.384753208415910
Black jay and Jay,S61 3ET,53.446949546681400,-1.391923056735470
Grackle and Polecat,DN6 7EG,53.576125732621900,-1.167900000000000
Rabbit and Grouse,DN11 0HW,53.471282524585800,-1.036848000000000
Ibex and Francolin,S63 8HW,53.523514081275900,-1.316947395378010
Recurvebill and Towhee,S63 0PH,53.551775598323600,-1.314077521797190
Badger and Duck,DN5 8BP,53.524727382695700,-1.157637805735260
Buzzard and Francolin,DN2 4NJ,53.544543879481100,-1.100155000000000
Civet and Goose,DN5 8JH,53.535845381507300,-1.162622683325210
Kite and Capuchin,DN5 7DL,53.569186831972300,-1.247144000000000
Ibex and Parrotbill,S71 4DQ,53.601407554039600,-1.445469072229610
Armadillo and Tit-tyrant,WF9 2RD,53.595457524792400,-1.293622465503550
Rabbit and Chickadee,DN11 0HD,53.479349841689900,-1.055077463065430
Grackle and Old World quail,S74 0JU,53.506190627796200,-1.429689481080020
Greenbul and Tree warbler,S61 2QS,53.456337215962600,-1.434769903941040
Rabbit and Logrunners,DN6 7FY,53.563267000000000,-1.197248000000000
Myna and American sparrow,S62 5AF,53.461293944768500,-1.340779630727450
Perching duck and Kākāriki,WF8 3SL,53.673545539437100,-1.258863761526770
Parakeet and Fox,WF4 2BU,53.622990580703900,-1.421192287458640
Vulture and Pheasant,S66 8QJ,53.431391000000000,-1.213259938990000
Quetzal and Parrotbill,S66 8HZ,53.429315204171200,-1.213481005412560
Black cockatoo and Flameback,DN6 9PZ,53.632069036822300,-1.169233194613450
Old World vulture and Piping shrike,WF8 3HY,53.662849000000000,-1.262941000000000
Maya and Condor,S72 8NP,53.595855552901000,-1.410321636834260
Kākāriki and Chickadee,S71 3LG,53.584670830951700,-1.453210571789340
Guillemot and Chipmunk,S63 6NA,53.505407866055000,-1.361927604999580
Wader and B,DN4 9LS,53.495443000000000,-1.182061720352660
Kangaroo and Ice seal,DN5 9TG,53.536865741126800,-1.146744342818690
Vulture and Chicken,S71 4TD,53.602942000000000,-1.448498466400000
Linsang and Bunting,DN4 6EW,53.501136515759400,-1.058226529792490
Peafowl and Mockingbird,S73 9LH,53.533270134304800,-1.375132737927800
Polecat and Myna,DN10 6PF,53.435469096435900,-1.018614400187640
Kākāriki and Viscacha,S74 9AX,53.499075095004700,-1.439613000000000
Parrotbill and Dorcopsis,DN1 9RA,53.512950000000000,-1.125633000000000
Black jay and Stint,S65 2UJ,53.439742739739700,-1.323725662226490
New World blackbird and Fulmarine petrel,DN4 8QE,53.501672000000000,-1.153783000000000
Shearwater and Pitohui,DN12 2NF,53.480468544025800,-1.235545000000000
Masked owl and Snipe,DN2 6NX,53.529645378657600,-1.097421918789460
Guillemot and Argus,WF9 4HR,53.613766245048300,-1.348988964728550
Mole and Stint,WF9 2LG,53.585442335054000,-1.299393678062070
New World blackbird and Civet,WF8 3JF,53.626545236057000,-1.237399522334070
Pitohui and Tahr,S61 2NS,53.429371708454000,-1.392700610471970
Kestrel and Stint,DN12 4JL,53.486877505998600,-1.271419260868430
Mink and Kangaroo,S65 2PS,53.427839005314800,-1.340935942211910
Hawaiian honeycreeper and Vulture,S65 4BP,53.449994909667000,-1.299636164404140
Pitohui and Mink,S71 5PD,53.559614526794100,-1.432700378542830
Parakeet and Pitohui,DN4 0XJ,53.508164444248700,-1.155538521848560
Diving bird and Wallaby,DN4 7DF,53.507862856204900,-1.095849051046770
Egret and Guillemot,S63 9DQ,53.531579668698500,-1.304959554358510
Polecat and Buzzard,S63 6LB,53.494821850691100,-1.352364022996400
Dolphin and Gull,WF9 3AT,53.594661000000000,-1.306388000000000
Condor and Black jay,S65 1QP,53.437539768015800,-1.346205091716980
Treepie and Dorcopsis,DN4 8EQ,53.504255847965600,-1.151937369638680
Bronzewing pigeon and Solitaire,WF9 3SX,53.595519694165600,-1.324641072739480
Tree warbler and New World blackbird,DN1 2DZ,53.520792268843900,-1.125347745461190
Linsang and Ibex,DN4 9LD,53.499462000000000,-1.178475000000000
Puffleg and Fish eagle,WF4 1BX,53.659333000000000,-1.423602000000000
Quetzal and Boto,WF9 5BE,53.637406847802200,-1.374502926852290
Badger and Macaw,DN3 3LW,53.531440336800100,-1.054024139722850
Prion and Jay,S72 7PD,53.571617459733500,-1.384277613062310
Stint and Old World warbler,S70 3HF,53.545217419532800,-1.450549742863120
Marsh harrier and Wader,WF9 3NP,53.592009386439600,-1.326978358798200
Parrotlet and Fish eagle,DN4 6UJ,53.504593630212300,-1.065794131517990
Tahr and Flameback,WF8 3DJ,53.638345308363900,-1.282198096889440
Tahr and Philippine hawk-owl,WF7 5DL,53.672649504202200,-1.345781081783260
Kite and Chipmunk,DN2 6EU,53.524536813071000,-1.104197785777760
Fulmarine petrel and Prion,DN4 8JS,53.500030034702400,-1.149142000000000
Shearwater and Duck,DN6 8DG,53.580929481344400,-1.175175072210310
Booted eagles and Myna,WF4 1PL,53.659133900166100,-1.428944447572370
Eagle and Ice seal,WF9 1EX,53.616712089490800,-1.263275668104950
Mink and Bronzewing pigeon,S66 7DP,53.426788275136200,-1.194429661501560
Mamo and Snipe,DN5 0AR,53.546599298062100,-1.145326175816330
Elephant and Thrasher,S73 0TB,53.507348148688700,-1.389234865261380
Songlark and Tahr,S63 0TF,53.545630433305300,-1.316168938927100
Badger and Scimitar babbler,S64 5SJ,53.469477474524300,-1.304964830901520
Ground sloth and Elephant,DN4 5EU,53.517589012240000,-1.112699675479020
Partridge and B,S73 8HW,53.522840018600000,-1.400158995300000
Kestrel and Chicken,S62 7BJ,53.464099000000000,-1.345660043679050
Songlark and Old World quail,DN12 1SH,53.488236000000000,-1.181119000000000
Old World quail and Diving bird,WF9 2DJ,53.599955499423800,-1.277680875654650
Grackle and Guillemot,DN12 3LT,53.479787314945500,-1.244206761151440
Partridge and Asiatic leopard,S65 3RN,53.433827302170100,-1.318822276180240
Kestrel and Pratincole,S62 7SB,53.477172001432500,-1.396011420586250
Meadowlark and Nukupuʻu,DN6 0PB,53.614710938824800,-1.138524742043290
Quetzal and Meadowlark,DN4 7BX,53.494063438200000,-1.069492588700000
Vulture and Hawaiian honeycreeper,DN4 6LL,53.510678318820600,-1.078447756627630
Mouse and Wader,DN6 7UG,53.568199969127600,-1.200080693020930
Zebra and Piping shrike,DN6 7HP,53.563111465170100,-1.194575319735980
Wader and Tree warbler,DN12 1NW,53.477066232844600,-1.191021987861070
Ibex and Thicketbird,DN6 8JZ,53.589639765637900,-1.213967603604360
Chicken and Dorcopsis,DN12 1EL,53.482316860750800,-1.181955904738810
Argus and Marsh harrier,DN11 0UQ,53.477495378340600,-1.054726893922020
Stint and Francolin,S61 1LF,53.435743261111400,-1.381907403222750
Cloud rat and American sparrow,S66 8FP,53.428347000000000,-1.208127000000000
Parrotlet and Meadowlark,DN9 3NH,53.487513654906300,-1.025100099330260
Bronzewing pigeon and Kite,S71 5LJ,53.570428965944700,-1.431090981489310
Logrunners and Tahr,DN7 4JL,53.572556560325200,-1.018554577872150
Goose and Condor,S74 9NA,53.498495830933400,-1.437149200315910
Vulture and River dolphin,S61 2SQ,53.446546570655600,-1.428666468717010
Duck and Ground sloth,S66 7HB,53.427961166355200,-1.198577000000000
Bunting and Wallaby,S64 0EQ,53.493003053309200,-1.279544159336900
Quetzal and Guillemot,DN7 5PF,53.591114676215000,-1.032477452028370
Pheasant and Argus,DN4 8HA,53.501801213062000,-1.150569178802080
Solitaire and Pheasant,WF9 1AR,53.631830661375000,-1.306943034190050
New World blackbird and Parakeet,S62 7TA,53.477636800859500,-1.417068000000000
Mamo and Fox,WF9 1PD,53.626996734078200,-1.296467981360360
Magpie and Greenbul,DN1 9PS,53.512923750490100,-1.125720996155070
Rabbit and Rat,DN12 4UW,53.491291843248500,-1.245479398012140
Perching duck and Ice seal,S63 0NY,53.545694300827500,-1.319488075571180
Old World vulture and Jay,DN3 1QG,53.563435031990300,-1.064815459001290
Wallaby and Crow,S65 1DH,53.431010875738200,-1.352235333124930
Stilt and Philippine hawk-owl,S62 5HL,53.462055091065200,-1.330555831127080
Asiatic leopard and Gull,WF9 5NQ,53.626076000000000,-1.369955000000000
Hawaiian honeycreeper and Argus,DN3 3QQ,53.513756438124800,-1.055910921132750
Black jay and Pratincole,DN4 0UG,53.503993000000000,-1.169357000000000
Rat and Asiatic leopard,S70 3LA,53.545943000000000,-1.453664000000000
Towhee and B,S64 9BD,53.494437631514200,-1.286438583380520
Jackal and Chipmunk,S66 2TE,53.426769005260400,-1.269753217349520
Cuscus and Magpie,S64 8ST,53.481607168484300,-1.308759932714840
American sparrow and Cuscus,DN11 0RE,53.472072000000000,-1.080685000000000
Argus and Guillemot,S61 3DR,53.444734111088200,-1.387573444121920
Macaw and Piping shrike,S63 6EA,53.506659187190800,-1.358923424594290
Eagle and Gull,S71 5AZ,53.547710153557100,-1.433825416366520
Bunting and White ibis,S73 0SN,53.512885837851200,-1.389381475236000
Grackle and Grouse,S63 7AY,53.496500964390600,-1.337279357868670
Black cockatoo and Armadillo,S64 8RZ,53.480780136466700,-1.316563846843530
Myna and Night heron,S72 8HQ,53.569508000000000,-1.409676000000000
American sparrow and Parrotbill,DN6 0NJ,53.616257011002700,-1.141032932202360
Condor and Booted eagles,DN4 0RB,53.512831384756200,-1.140652133468510
Eagle and Cloud rat,S63 8DX,53.518737097524700,-1.330537742121350
Buzzard and Asiatic leopard,WF9 3DL,53.598953233106100,-1.310442771511750
Fish eagle and Viscacha,WF9 5DL,53.634517684450400,-1.380670578496430
Wader and Argus,DN11 9JD,53.439734422870300,-1.111085395735420
Bunting and B,S66 2LA,53.429166306495600,-1.285560000000000
Ice seal and Mockingbird,DN9 3QU,53.482980000000000,-0.990697000000000
Mink and Vole,DN4 8SB,53.490259907303100,-1.143037585093250
Fox and Ice seal,DN14 9AH,53.648734392735100,-1.019419000000000
Hawk and Chicken,DN11 0AU,53.473036134062600,-1.062615166746730
Philippine hawk-owl and Chipmunk,DN1 2NY,53.527971305671700,-1.123721496555660
Tattler and Boto,DN4 7WN,53.512920908235600,-1.125720918306950
Maya and Elephant,DN4 5DZ,53.516335303847200,-1.106090024764750
Crow and Coati,DN14 0EX,53.656982000000000,-1.059198199676390
Black jay and Myna,DN4 5LQ,53.515713819390400,-1.093977786972690
Grosbeak and Tit-tyrant,S65 1RR,53.437438782707900,-1.349111918348780
Fish eagle and Parakeet,DN6 0AU,53.610381000000000,-1.160272000000000
Chickadee and White ibis,DN6 7QP,53.559591942932900,-1.180602184010250
Night heron and Petrel,DN12 3BJ,53.486389517399700,-1.218348711151570
Philippine hawk-owl and Petrel,S65 4BT,53.447462727833300,-1.300084336178560
Herring gull and Greenbul,S61 3NB,53.446728884284800,-1.403429366747320
Asiatic leopard and Magpie,S63 0PL,53.552703059778000,-1.314364411826970
Solitaire and Guillemot,S72 0DZ,53.551128931934400,-1.344637392237350
White ibis and Meadowlark,DN5 7SY,53.511525000000000,-1.232629733662700
Mamo and Condor,DN3 2JZ,53.549613396797100,-1.070961250038050
White ibis and Skunk,S65 3NS,53.435569322869200,-1.313796961012040
Dorcopsis and Capuchin,DN11 0SZ,53.476014826963400,-1.079243984721700
New World blackbird and Egret,DN6 9BJ,53.665320730169000,-1.193702000000000
Black cockatoo and Tree warbler,S63 7DG,53.507315000000000,-1.337277000000000
Cuscus and Duck,DN6 7DG,53.570493275595100,-1.198798000000000
Crow and Stint,DN1 9TT,53.512914000000000,-1.125573000000000
Ice seal and Minke whale,WF7 5BG,53.675196315349700,-1.359668488164030
Goose and Tree warbler,DN12 3DR,53.486108372204900,-1.229038929635290
Solitaire and Meadowlark,S74 9EB,53.499201472234300,-1.449712443837570
Treepie and Mamo,S63 8NG,53.515475420525900,-1.319595147914860
Thicketbird and Meadowlark,DN4 6JN,53.515695177840900,-1.070466511566500
Polecat and American sparrow,S64 5UG,53.477056000000000,-1.311245000000000
Meadowlark and Pheasant,WF9 1NE,53.613442534013400,-1.293473573328620
Francolin and Wallaby,S72 0HJ,53.541665463943400,-1.353158570210090
Partridge and Moluccan boobook,DN9 3HY,53.503035645190600,-1.018306275152350
Marsh harrier and Fish eagle,DN7 5AD,53.595846968504700,-1.030782824075560
Goose and Mockingbird,DN4 9SE,53.491519734299800,-1.160978723302360
B and Jerboa,DN5 0JU,53.556337896842300,-1.150926697234050
Bronzewing pigeon and Warbler,S66 2SJ,53.426187000000000,-1.262570000000000
Mole and Songlark,DN4 5FP,53.516999000000000,-1.104284000000000
Egret and Parakeet,S60 1SG,53.441730741152800,-1.348263501492510
Minke whale and Mockingbird,DN4 9BB,53.490631919085100,-1.165126041208020
Logrunners and Pheasant,DN4 7BB,53.508926950359300,-1.093926476620900
Tit-tyrant and Mamo,DN11 9TA,53.482729603046600,-1.137101235269990
Zebra and Solitaire,DN6 7DJ,53.569108558225600,-1.196167721959050
Jay and Grosbeak,WF4 1RL,53.665703803587500,-1.434515940331400
Badger and Badger,DN5 0PB,53.551868604412400,-1.144344577714560
Parakeet and Logrunners,DN11 9BG,53.468330000000000,-1.144549000000000
Mockingbird and Booted eagles,S63 9JZ,53.534572783389100,-1.303401785976780
Kestrel and Mamo,DN3 1GA,53.566341109221400,-1.069779429466100
Rat and Thrasher,WF9 2HB,53.589626525968700,-1.297103718937890
Treepie and Solitaire,S62 7BT,53.467516446238000,-1.344479362520750
Thrasher and Moluccan boobook,S62 7EF,53.471467949760700,-1.353743911553850
Puffleg and Pitohui,S64 8EZ,53.481880512324000,-1.326732813423040
Petrel and Lemming,DN5 9ES,53.540820872993400,-1.164591868636830
Francolin and Jackal,S64 9AS,53.493473411713500,-1.289047344667580
Pratincole and Old World vulture,S63 8LU,53.514533885028100,-1.313698634466270
Nukupuʻu and Viscacha,DN2 6DX,53.525047377097700,-1.101562304518870
Vole and Black cockatoo,S63 8EP,53.516736676287200,-1.326332000000000
Shearwater and Logrunners,WF9 1JR,53.618906723929800,-1.267908873786840
Lemming and Perching duck,DN3 3QL,53.513760000000000,-1.052880000000000
Black jay and Mamo,DN5 9LE,53.545389414781100,-1.164924505046160
Old World quail and Fish eagle,DN5 8SF,53.538600121880900,-1.169675398816000
Ice seal and White ibis,WF9 2ET,53.589427217108700,-1.295309261118460
Lemming and Night heron,S73 8GE,53.526357000000000,-1.411771000000000
Quetzal and Ice seal,DN10 6QY,53.444528343290600,-1.005382126093530
Tit-tyrant and Linsang,S71 3HD,53.581206367351900,-1.446488579001440
Hawk and Fulmarine petrel,S62 7QE,53.471833262028700,-1.346537095171190
Buzzard and Pitohui,S74 8ED,53.495645168566800,-1.425534894124880
Jackal and Polecat,DN4 7HZ,53.498594000000000,-1.087257000000000
New World blackbird and Wallaby,S5 0JS,53.426609073277200,-1.443757317673100
Snipe and Capuchin,DN11 9BN,53.471906581379300,-1.154631158782270
Masked owl and Parakeet,S73 9NF,53.534341475072900,-1.377183969394000
Thicketbird and River dolphin,S73 0HU,53.520228493244400,-1.394494503703870
Myna and Thrasher,DN7 5QF,53.591426607894800,-1.027711220998590
Skunk and Recurvebill,DN5 7UB,53.540263000000000,-1.187886000000000
Mouse and Magpie,DN4 8SL,53.497224000000000,-1.121536000000000
Eagle and Marmoset,S63 8NP,53.515758007846800,-1.317132416002860
Eagle and Scimitar babbler,DN12 1ST,53.486256455721900,-1.183643401432960
Jackal and Greenbul,DN4 8JH,53.504999236790800,-1.151560678940880
Jerboa and Kite,DN4 0UT,53.503162784392100,-1.171679516405190
Pheasant and Old World warbler,DN3 3GW,53.540606000000000,-1.036632000000000
New World blackbird and American sparrow,DN1 3SA,53.516654346296900,-1.138538796363960
Treepie and Magpie,DN5 9EL,53.541585000000000,-1.168289000000000
B and Snipe,WF9 4QF,53.616844000000000,-1.357800000000000
Partridge and Macaw,DN6 8DD,53.579811000000000,-1.180951000000000
Bunting and Condor,S64 8JX,53.477734000000000,-1.319747000000000
Stint and Ibex,DN4 5EX,53.518496016633000,-1.113796813340440
Thrasher and Mole,DN5 9JE,53.544449271762700,-1.161592718565400
Kite and Duck,S61 3AB,53.447676542723900,-1.397032000825060
Darwin's finches and Chickadee,S60 1RR,53.437344554924900,-1.356609857161430
Peafowl and Meadowlark,S72 8JD,53.566084269911900,-1.406356974431250
Puffleg and B,S72 8TB,53.563064348526000,-1.404587507829330
Mouse and Nukupuʻu,S73 9ET,53.534592649903200,-1.371929777917560
Pitohui and Piping shrike,WF4 2PL,53.620572055833500,-1.422918605733480
Thrasher and Fulmarine petrel,DN11 0PJ,53.478534958872500,-1.082007167979570
Petrel and Fish eagle,DN12 1AU,53.484031881857200,-1.190934719278570
Cloud rat and Tit-tyrant,DN4 6JD,53.499567000000000,-1.066523000000000
Mouse and Thicketbird,S64 8NR,53.492150759514500,-1.310306838799730
Pitohui and Black jay,DN5 0TJ,53.556586000000000,-1.125395000000000
Tahr and Condor,DN4 7RG,53.503009326009000,-1.093524949830650
Maya and Boto,S63 9HJ,53.534702065382100,-1.301213000000000
Fox and Linsang,S65 1PW,53.435089818475100,-1.348575804848620
Petrel and Diving bird,DN3 3BS,53.534019220798000,-1.051643154290600
Tattler and Snipe,S63 9BG,53.527421344009100,-1.314893313127240
Recurvebill and Duck,DN5 7QS,53.513416039577900,-1.189636352366330
Ground sloth and Parakeet,WF7 5FP,53.673708000000000,-1.363630000000000
Chickadee and Masked owl,S63 8BD,53.521614232312400,-1.321110714832500
River dolphin and Philippine hawk-owl,S60 9NB,53.434130000000000,-1.353680000000000
Hawaiian honeycreeper and Guillemot,DN12 1DW,53.483689637885900,-1.194829229869660
Masked owl and Fulmarine petrel,DN5 0EH,53.549216768061500,-1.145575316106720
Piping shrike and Masked owl,WF7 7LG,53.654626151532700,-1.334046411147670
Chipmunk and Peafowl,DN3 3AX,53.535069863526300,-1.059480620192750
Argus and Linsang,S62 6DL,53.456421525022000,-1.343942359274280
Old World warbler and Herring gull,WF9 3LA,53.594688790665200,-1.316027013675510
Dorcopsis and Ibex,DN4 8GB,53.494369305213800,-1.137964000000000
Towhee and Civet,S72 0DJ,53.549897939522200,-1.348007078873810
Petrel and Greenbul,S71 5SN,53.571957280600000,-1.430451507800000
Scimitar babbler and Elephant,DN11 0BN,53.470985729553800,-1.069394577789400
Bunting and Crow,WF9 4NE,53.611166752575000,-1.353202000000000
Polecat and Maya,DN2 4EF,53.540996000000000,-1.112365000000000
Piping shrike and Fulmarine petrel,DN12 3EE,53.485728215176900,-1.223077919512150
Wader and Old World quail,WF4 2FA,53.621255194753800,-1.424103821905710
Minke whale and Rabbit,S63 6PL,53.508665723231500,-1.364366641121170
Dorcopsis and Bunting,DN10 6JX,53.431717069997800,-1.022554020058620
Kākāriki and Parrotbill,DN3 1SD,53.565656436829900,-1.076543717358360
Parrotlet and Elephant,DN4 8SH,53.490255743180100,-1.144559000000000
Bunting and Capuchin,DN5 7PZ,53.514321382455500,-1.193253518351480
Tahr and Tit-tyrant,DN2 5ND,53.534202473010900,-1.103375246771220
Grosbeak and Chipmunk,DN7 5AN,53.601177954944800,-1.030872383149690
Kestrel and Puffleg,S62 5PT,53.469005384302000,-1.322944425643930
Triller and Petrel,S71 3HW,53.582447858648200,-1.452589747650080
Argus and Moluccan boobook,WF9 2RA,53.594210212000300,-1.293975660151180
Argus and Goose,S64 8UA,53.474597072231800,-1.313619740618400
Vole and Kite,DN12 3DX,53.486482305961700,-1.225566000000000
Mockingbird and Meadowlark,S62 5QJ,53.469495088203700,-1.336539974604500
Songlark and Vole,DN6 9JF,53.594610533319200,-1.170043535761280
Kestrel and Treepie,DN4 0ES,53.514641010630800,-1.151126849868230
Fox and Towhee,DN5 0TW,53.558924046474500,-1.124380469565060
Zebra and Diving bird,S60 1EY,53.431719000000000,-1.366794000000000
Booted eagles and Polecat,S60 9ZR,53.434708000000000,-1.357404000000000
Elephant and Fish eagle,S73 0TW,53.512099000000000,-1.379442847601180
Vole and Pitohui,S60 2NS,53.426693976785400,-1.346853032685570
Zebra and Parrotbill,S74 0DD,53.496001214814000,-1.447688734225720
Songlark and Ibex,S66 8RN,53.428321925634300,-1.221024411337060
Prion and Meadowlark,S62 6HQ,53.452642987914800,-1.346620770921710
Guillemot and Bunting,S73 9JE,53.533829808814200,-1.360278501111700
Grosbeak and Kestrel,DN12 3LF,53.482400244519600,-1.243768535628210
Zebra and Stint,DN4 6BU,53.506609000000000,-1.073937000000000
Mole and Old World warbler,S63 0JQ,53.544240379923700,-1.310456698388760
Cloud rat and Siskin,S73 0ND,53.512748000000000,-1.421187000000000
Coati and Kestrel,S73 0BJ,53.524982964523600,-1.392814000000000
Crow and Pheasant,S72 9AL,53.608127269748700,-1.387555572559410
Mole and Parrotbill,DN4 8TN,53.494205503608900,-1.141602000000000
Tree warbler and Armadillo,S60 2NR,53.426968135925900,-1.347676557194100
Myna and Magpie,S72 7FL,53.577628207879200,-1.378572009239310
Dolphin and Stint,S63 7GA,53.509336855600000,-1.354811942700000
Ice seal and Fish eagle,DN6 9HL,53.632067103714500,-1.167660479761240
Jay and Perching duck,DN4 0RW,53.511585000000000,-1.152065000000000
Parakeet and Jackal,S62 7AB,53.465227120946000,-1.341712884379490
Towhee and Buzzard,DN11 0NS,53.471469673442100,-1.070363256568170
Black cockatoo and Parrotbill,S64 0NS,53.509765666646400,-1.292906432067700
Grackle and Diving bird,WF4 2BP,53.623225486076000,-1.423305765617130
Scimitar babbler and Ibex,S64 5UN,53.479593823732800,-1.307225552304690
Jerboa and Mockingbird,DN4 0AB,53.517892000000000,-1.141817000000000
Night heron and Kestrel,DN4 8QP,53.496169000000000,-1.144697000000000
Piping shrike and River dolphin,S71 2HT,53.560668820022300,-1.450606286088210
B and Linsang,S62 5PL,53.469420530154700,-1.323239113137400
Moluccan boobook and Fish eagle,DN7 5JF,53.602073045530300,-1.031516829905300
Linsang and Meadowlark,DN5 8AR,53.527860000000000,-1.149272221916910
Tit-tyrant and Vole,S70 3HU,53.541354382646800,-1.449030381187130
Quetzal and Prion,DN3 3HJ,53.539821348173400,-1.045417210418420
Bunting and Mouse,DN5 8LP,53.532463688591200,-1.173974538569880
Minke whale and Solitaire,DN4 6GB,53.495815633197700,-1.053731692520890
Cloud rat and Francolin,DN5 7EX,53.522676693828000,-1.273972884760600
Black cockatoo and Kākāriki,DN11 0FN,53.474924871327200,-1.060464198835120
Wader and Bronzewing pigeon,S62 7BF,53.476982000000000,-1.364118000000000
Kākāriki and B,DN4 0RT,53.503024000000000,-1.163194000000000
Treepie and Francolin,DN12 3PE,53.481888354976600,-1.248117529724190
Rabbit and Stint,DN12 4DX,53.488926333149400,-1.239568095590600
Thrasher and Mockingbird,S62 6EY,53.455835746662200,-1.346948276055440
Eagle and Ice seal,S73 9PQ,53.535549080925000,-1.386490638510280
Hawaiian honeycreeper and New World blackbird,DN2 4DE,53.533470586621300,-1.119805939968330
Chickadee and Puffleg,DN4 6FJ,53.514837253497200,-1.074587304230810
Dolphin and Piping shrike,WF4 2DQ,53.628769321798500,-1.413643371992090
Hawaiian honeycreeper and Peafowl,S72 7AH,53.584409285782000,-1.379303384929180
Warbler and Ice seal,DN6 7HX,53.558487729809500,-1.182118053633730
Vole and Herring gull,S64 8LN,53.478216532587900,-1.322556770973200
Linsang and Treepie,DN6 0JZ,53.616457158643600,-1.146395430945570
Vulture and White ibis,DN7 6HY,53.576961171716000,-1.005509198882190
Kangaroo and Tattler,DN11 0ET,53.477152644690100,-1.062569666600440
Grosbeak and Snipe,S63 7HX,53.493241439094600,-1.349343346314460
White ibis and Logrunners,DN12 4LY,53.490859469705500,-1.253927531065770
Goose and Coati,DN1 2LR,53.525986941645400,-1.125240759274860
Hawk and Ice seal,DN5 7LL,53.512420000000000,-1.181725220780430
Snipe and Puffleg,S5 0NH,53.427060626605400,-1.451998553326900
Goose and Booted eagles,DN6 0EZ,53.638563072354500,-1.113430592023590
Armadillo and Tattler,S60 1RF,53.436018000000000,-1.362214000000000
Tree warbler and Fulmarine petrel,S64 9HA,53.497068909864200,-1.305885633783890
Argus and Mamo,DN4 0DT,53.515074803797500,-1.157814122809130
Egret and Stint,S71 5RB,53.557342283420300,-1.446528236335930
Gull and White ibis,S66 7HE,53.430262933771900,-1.193837203864570
Grosbeak and Tahr,DN4 6TA,53.494293772873600,-1.054519250139780
Wallaby and Nukupuʻu,DN4 5EL,53.515716561874100,-1.109903513985160
Old World quail and Peafowl,WF9 2SR,53.596204733568500,-1.280237932335270
Chicken and Tit-tyrant,DN6 7RR,53.563087533453900,-1.200523000000000
Mockingbird and Jerboa,DN11 0UJ,53.477416458263200,-1.056114876624050
River dolphin and White ibis,S72 8JZ,53.575857233374700,-1.416006447697910
Eagle and Ibex,DN2 5EF,53.525756487143100,-1.109843941583940
Snipe and Parrotlet,S73 8LX,53.527190966162800,-1.413613550439840
Minke whale and Fox,S71 5NT,53.559212652065600,-1.435015000000000
Capuchin and Cuscus,S62 5BL,53.463502735779300,-1.335473559769960
Logrunners and Old World quail,S72 8AB,53.584274435078000,-1.413156415087390
Magpie and New World blackbird,S65 2PG,53.426683267743200,-1.344896768145320
Egret and Crow,S64 8PU,53.486514557699400,-1.310247529219400
Rat and Armadillo,S62 6AQ,53.456229182398500,-1.341656218132320
River dolphin and Bunting,DN6 0PF,53.613661282949900,-1.138803076984330
Prion and White ibis,S71 5EE,53.545829007145300,-1.431390576307010
Towhee and Pratincole,DN11 9ND,53.430759599996300,-1.110444000000000
Duck and Hawaiian honeycreeper,S73 8JY,53.524611366525000,-1.408158553892630
Tahr and Minke whale,S74 8JW,53.499009336575000,-1.420454394622740
Zebra and Mink,DN3 3SD,53.529870652402800,-1.051041846672110
Wader and Rat,DN12 1PH,53.479649197670800,-1.195493370683440
Elephant and Duck,WF9 3JP,53.593140769266700,-1.331583604431040
Prion and Myna,DN12 3NU,53.480326721962900,-1.245643756197850
Kite and Tit-tyrant,DN12 3BD,53.485845043548800,-1.216188564465130
Cloud rat and Philippine hawk-owl,DN4 7EX,53.501669066582000,-1.087492875590910
Wader and Wallaby,DN11 9AR,53.466758556721400,-1.139865425343940
Old World quail and Buzzard,S65 2NY,53.426711763983700,-1.329185000000000
Jerboa and Booted eagles,WF4 1PJ,53.659565094285400,-1.428741000000000
Rabbit and Grouse,S63 9HQ,53.534029391071500,-1.302701587319430
Marsh harrier and Wallaby,DN7 4JA,53.576572621940300,-1.021618114173960
Rat and Old World vulture,S61 2QL,53.460204497981000,-1.433332933522840
Scimitar babbler and Old World quail,S61 2BA,53.435881673410400,-1.398463325690860
Towhee and Hawaiian honeycreeper,S72 8TJ,53.580576723616100,-1.416122679221880
Triller and American sparrow,S63 9NB,53.534392760725100,-1.306452445880980
Songlark and Moluccan boobook,S60 2LA,53.427003722686200,-1.352567119768320
Kite and Fish eagle,S63 8EJ,53.517780046090600,-1.331382318118060
Rat and Night heron,DN2 5QZ,53.540291576528700,-1.091959319322250
Chipmunk and Dolphin,S72 8QH,53.590428000000000,-1.408584000000000
Fish eagle and Mockingbird,WF9 4SZ,53.608018102097400,-1.354790372385720
Masked owl and Capuchin,S73 0XH,53.512415735169100,-1.376660896998210
Flameback and Pratincole,S61 4RT,53.449256297300000,-1.373249228300000
Quetzal and Old World quail,DN9 3LJ,53.489637872661700,-1.014485865762460
Ibex and B,DN2 6EE,53.525466987422600,-1.098792926770310
Mink and Herring gull,S63 0BW,53.543764234400000,-1.300670537300000
Polecat and Myna,DN5 7JF,53.516924594026400,-1.271115216983420
Bunting and Towhee,DN1 9NY,53.512923750490100,-1.125720996155070
Skunk and Grackle,DN6 8SJ,53.590955382263000,-1.199545370248170
Bronzewing pigeon and Peafowl,DN3 1LZ,53.569244000000000,-1.059296000000000
Minke whale and Grouse,DN6 8HD,53.581785077279800,-1.179342411146400
Jay and Marmoset,S66 3XY,53.433248295999800,-1.270966755206630
Parrotbill and Minke whale,S61 1PH,53.437252610308700,-1.394048455373920
Recurvebill and Wallaby,S65 1PL,53.434942892602000,-1.348006060874980
Triller and Parakeet,S73 9AW,53.537380954739700,-1.374000941900600
Jerboa and Shearwater,S65 1RX,53.436454341331000,-1.348253887212700
Puffleg and Shearwater,S65 1EY,53.432763934043600,-1.350628270812020
Parrotlet and Partridge,S71 5DP,53.547686175284100,-1.425026938862890
Tit-tyrant and Viscacha,WF9 4PD,53.609240639617400,-1.364898307902160
Philippine hawk-owl and Herring gull,S62 7NH,53.473121347447800,-1.365394847687890
Puffleg and Piping shrike,S72 8QY,53.587953277012600,-1.400974842960630
Mole and Piping shrike,DN6 9EB,53.632085508401700,-1.180756309423200
Dolphin and Stilt,S5 0EH,53.436089164691900,-1.445063593879290
Asiatic leopard and Elephant,S65 1QY,53.439131806513100,-1.341483861468680
Hawaiian honeycreeper and Old World vulture,S71 2JE,53.562137715371500,-1.447522488965760
Parakeet and Diving bird,S74 0LF,53.504873133834000,-1.428606531499420
Boto and Fulmarine petrel,DN7 5LG,53.624690444332500,-1.006534774298910
Triller and Bunting,S64 5WH,53.479218000000000,-1.302562000000000
Shearwater and Vulture,DN7 4AA,53.583586468772100,-1.019749261643960
Fulmarine petrel and Triller,WF9 4JN,53.614393990507100,-1.345427022058350
Pratincole and Vole,WF9 1LB,53.616343322175200,-1.257916000000000
Marmoset and Guillemot,DN12 2HT,53.480737680160200,-1.213178521014790
Hawaiian honeycreeper and Polecat,S64 8TB,53.480318000000000,-1.315722828726820
Rabbit and Kākāriki,S73 0LH,53.518652691134800,-1.408301890450810
Bronzewing pigeon and Kite,WF7 5PP,53.674902000000000,-1.349806000000000
Treepie and Old World quail,DN6 8PE,53.592627735432900,-1.205013266173560
Asiatic leopard and Asiatic leopard,WF4 1JT,53.651601000000000,-1.415551000000000
Puffleg and Zebra,WF8 3BE,53.676764379559300,-1.264862691883430
Mockingbird and Marsh harrier,S64 8QF,53.489158048344100,-1.316655296363110
Triller and Badger,S61 4NP,53.450482550767700,-1.371168097517200
Grouse and Tit-tyrant,DN12 1JB,53.480606000000000,-1.191710000000000
Scimitar babbler and Triller,S66 7SL,53.462597000000000,-1.218193811603210
Booted eagles and Prion,DN11 0BU,53.471041775971800,-1.063909533701540
Hawaiian honeycreeper and Thicketbird,S73 8DD,53.524770637895000,-1.402228264325060
Marsh harrier and Scimitar babbler,S64 9RZ,53.501374925249900,-1.299800029334520
Fish eagle and Macaw,S66 3ZQ,53.437093283896900,-1.275040598511900
Maya and Moluccan boobook,S63 6QL,53.504731000000000,-1.357822000000000
Crow and Marsh harrier,WF7 6DQ,53.675775609659400,-1.407632223713340
Cuscus and Black jay,S65 4EN,53.447695465814500,-1.287748890748860
Mink and Parrotbill,S72 9LH,53.598244920559600,-1.383256019335660
Towhee and Elephant,S63 3GU,53.504385000000000,-1.329047000000000
Mole and Ground sloth,DN3 2JX,53.547942782994800,-1.064206097954680
Wader and Puffleg,DN7 5AJ,53.600685315504700,-1.029976962146720
Dolphin and Skunk,DN3 3NA,53.508834834243600,-1.038393084469100
Lemming and Kestrel,S64 9QS,53.494504496972700,-1.299265012284110
Booted eagles and Hawaiian honeycreeper,DN10 6HZ,53.430392570472200,-1.018881827013680
Fish eagle and Gull,S65 1HZ,53.433377443510700,-1.354366823324390
Dolphin and Condor,S63 6ND,53.505756782718300,-1.361620818486340
Duck and Tahr,S74 8DY,53.500555167923000,-1.427880637747040
Parakeet and Linsang,S74 0JP,53.508877000000000,-1.431086000000000
Diving bird and Towhee,DN6 0BQ,53.612586347285700,-1.158278829566040
Bunting and Scimitar babbler,DN4 5AS,53.515018284904500,-1.122450431115670
Philippine hawk-owl and Old World quail,DN12 4EF,53.489199003562100,-1.238628776119340
Skunk and Scimitar babbler,S73 0LW,53.518860181272800,-1.410274748755770
Bunting and Flameback,WF9 5LD,53.625446051833700,-1.373303802187210
Pratincole and Mockingbird,S64 8NE,53.489562000000000,-1.310123000000000
Elephant and Old World quail,S74 8JE,53.497684000000000,-1.421227792560060
Kākāriki and Tahr,S71 5NJ,53.559880465458800,-1.433813971730820
Marmoset and Partridge,S5 0RT,53.430309266341700,-1.445018439624430
Magpie and Asiatic leopard,DN2 4QD,53.539193114871400,-1.107238386640310
Darwin's finches and Kite,WF9 5EF,53.622230000000000,-1.369935000000000
Black jay and Fish eagle,S61 2UL,53.464147668877600,-1.432738193683370
Fulmarine petrel and Recurvebill,WF9 1HS,53.614824542472400,-1.282521398291620
Cloud rat and Marsh harrier,S63 7AU,53.497176219450300,-1.337479874393400
Songlark and Nukupuʻu,DN4 0TY,53.502647472352100,-1.166081093624110
Grackle and Ice seal,S73 9BH,53.541472269441000,-1.377743316940250
Crow and White ibis,DN1 3EY,53.520909446052700,-1.131559548807750
Nukupuʻu and Asiatic leopard,WF9 2SP,53.596892145773700,-1.280951529430740
Cuscus and Egret,S61 2DP,53.441979707759200,-1.406401445501800
Philippine hawk-owl and Jerboa,DN3 3TT,53.527171983489000,-1.044012030968490
Grouse and Kangaroo,WF4 2BT,53.623278115996500,-1.421173236015480
Ibex and Wallaby,WF7 5NU,53.670926728517600,-1.354617116796220
Old World quail and Fulmarine petrel,DN4 8DF,53.509305000000000,-1.140135000000000
Guillemot and Hawk,WF4 1ET,53.672604881205200,-1.409886670902470
Grackle and Skunk,DN1 2HS,53.522582118983400,-1.126728749373660
Perching duck and Fox,DN3 1QW,53.574677662817300,-1.064537243873330
Masked owl and Ice seal,S71 5RD,53.557274914029500,-1.447510334106600
Old World quail and River dolphin,DN5 7EU,53.522793081406100,-1.272417288370390
New World blackbird and Chickadee,WF4 1BG,53.675835737828300,-1.423647444503310
Bronzewing pigeon and Tree warbler,DN2 6LE,53.529382441968000,-1.100701190550390
Night heron and Vulture,DN4 0HT,53.513170492025700,-1.152905541913420
Thicketbird and Marsh harrier,DN5 7RN,53.510442785726800,-1.192588273695750
Asiatic leopard and Elephant,S64 8EE,53.486834908304800,-1.328628659958710
Dorcopsis and New World blackbird,DN11 0RG,53.470111688992100,-1.076072466029840
Badger and Peafowl,DN11 0HG,53.479097334206400,-1.052702279947620
Chicken and Chickadee,S65 2HH,53.433735392369800,-1.327990390256640
Chicken and Polecat,DN5 9HA,53.543858000000000,-1.166811000000000
Black jay and Chicken,DN2 5SL,53.538408505973700,-1.097311040070270
Mouse and Recurvebill,DN11 9NU,53.431170149812800,-1.114996768393460
Piping shrike and Tattler,S63 8HJ,53.522889101703300,-1.316112766356300
Zebra and Prion,DN1 2AR,53.517746336006100,-1.125516035513080
Philippine hawk-owl and Thicketbird,WF7 5BN,53.678026916913900,-1.359534742563130
Eagle and Minke whale,S73 3BD,53.522873952068600,-1.398619836506050
Cloud rat and Warbler,S72 8DT,53.571982178354100,-1.419487729780070
Crow and Tit-tyrant,DN5 8RD,53.538721706210800,-1.175768000000000
Warbler and Marmoset,DN14 9AX,53.642632260646400,-1.052067805545330
Minke whale and Buzzard,DN2 5LU,53.532247312863400,-1.107565491473780
Dolphin and Minke whale,DN7 4NG,53.581963251363900,-1.016916875039070
Eagle and Greenbul,S61 3PY,53.442035218847200,-1.395952620151690
Guillemot and Grouse,WF7 7ND,53.646920577814700,-1.331974248472270
Macaw and Jackal,WF9 5BA,53.638343616178200,-1.376606527270250
Maya and Snipe,S62 7QS,53.472991955233700,-1.346383710365180
Armadillo and B,S62 5AQ,53.462771706553800,-1.339807827876930
Fulmarine petrel and Wallaby,WF9 3NJ,53.595537824860600,-1.318325047315310
Solitaire and Peafowl,S64 9LG,53.493115807263200,-1.286567000000000
Grouse and Asiatic leopard,DN4 6HG,53.515849914927500,-1.087052568901340
Kangaroo and Perching duck,DN55 1GA,53.512923750490100,-1.125720996155070
Nukupuʻu and Piping shrike,DN7 5HJ,53.589709150046700,-1.025424055922990
Black cockatoo and Elephant,S63 0JX,53.546285758801500,-1.316310000000000
B and Mink,S62 7HA,53.468002407476600,-1.351175385555580
Vulture and Nukupuʻu,DN5 0UH,53.546208307452400,-1.152276379576170
River dolphin and Recurvebill,WF9 4NS,53.611689056540800,-1.365571994045780
Fish eagle and Old World quail,S74 9JD,53.502844946893200,-1.444554406925330
Rat and Cloud rat,S70 3HY,53.541147948020800,-1.447146818251270
Kite and Old World warbler,WF9 2BA,53.597701000000000,-1.305187641119360
Partridge and Black jay,S73 8AE,53.523066000000000,-1.399039000000000
Towhee and Kite,DN6 7BH,53.576433000000000,-1.169493000000000
Diving bird and Gull,WF7 7HB,53.652096591868900,-1.317398277786610
Parrotlet and Shearwater,DN12 1EZ,53.486108000000000,-1.187778000000000
Grouse and Francolin,DN5 8ET,53.527967243480100,-1.160756583677890
Bunting and Lemming,DN4 0SD,53.504086034769600,-1.164846705577010
Tit-tyrant and Polecat,S72 9LS,53.596262236428600,-1.378767106170250
Rat and Parakeet,DN3 2FL,53.534249002504900,-1.072927006364680
Civet and Condor,S63 9EY,53.533035962957900,-1.326993148080930
Tahr and Polecat,DN5 9RA,53.541156449768000,-1.150973892082600
Zebra and Scimitar babbler,DN6 7NZ,53.566653000000000,-1.204990000000000
Snipe and Marsh harrier,S73 0PL,53.508627145674500,-1.407627237849370
New World blackbird and Greenbul,DN2 4AG,53.529264084503700,-1.121054763509480
Rabbit and Coati,S63 8JE,53.517043521150800,-1.307776315929150
Thicketbird and Guillemot,S62 6WT,53.504365002490800,-1.329045347805970
Parrotlet and Greenbul,S72 9DS,53.609149000000000,-1.404544000000000
Boto and Pheasant,S70 3EN,53.547659374105500,-1.446020639253200
Dorcopsis and River dolphin,S61 1PE,53.438788040414000,-1.395501881853090
Dolphin and Condor,S63 7DX,53.503023000000000,-1.328373000000000
Coati and Civet,S65 2EX,53.430940418336300,-1.331285469837070
Elephant and Chickadee,WF7 7DJ,53.639210728770300,-1.340597000000000
Vole and Eagle,DN5 9TE,53.535851138501000,-1.146900530757320
Guillemot and Recurvebill,DN12 2DJ,53.482287798764700,-1.219283032229620
Chipmunk and Darwin's finches,S62 6DP,53.454709857755500,-1.343245880776300
Mink and Flameback,DN10 6LT,53.430984908933300,-1.024256562102900
Vole and Greenbul,S65 4HX,53.446367581207500,-1.297271718849340
New World blackbird and Skunk,S63 8AW,53.523468440389500,-1.319979965138790
Asiatic leopard and Warbler,DN7 6BP,53.564046876735900,-1.018872327467230
Skunk and Minke whale,DN3 1RU,53.573604492745400,-1.066388252771310
Cloud rat and Tattler,DN4 9NP,53.502270237582700,-1.175194630378020
Pratincole and Kestrel,DN3 2AW,53.538760775024400,-1.071696756841380
Songlark and Flameback,S73 8HT,53.525029375154500,-1.403642541867940
Towhee and American sparrow,S72 0HL,53.541805742060000,-1.354167479164510
Prion and Grackle,S73 0YL,53.519726426099200,-1.380701290018200
Myna and Herring gull,DN5 0RU,53.549148290422800,-1.142286405451760
Rabbit and Vole,S66 8BA,53.426905303826400,-1.221577039021440
Greenbul and Jay,S71 3HZ,53.584989352541900,-1.452103757852550
Thrasher and Parrotlet,WF9 5LL,53.628091456259300,-1.367004529359030
Wader and Jay,WF4 1DD,53.668453024034600,-1.410188000000000
Ground sloth and Skunk,S71 4AQ,53.595606733643300,-1.440891321934760
Tahr and Pratincole,S63 7PU,53.502898096794800,-1.343300661992480
Old World warbler and Peafowl,DN5 9PQ,53.543872021287600,-1.165165638858180
Chicken and Quetzal,DN7 4DS,53.565327706428300,-1.023810257624280
Mink and Recurvebill,S61 4DJ,53.454708511130200,-1.380020820871190
Quetzal and Badger,S73 8FL,53.522758945328800,-1.400778396327820
Pratincole and Buzzard,WF9 4EH,53.610099271915000,-1.362406638536320
Capuchin and Philippine hawk-owl,DN11 9BY,53.465554546676000,-1.146201322610930
Flameback and Fox,S60 1FF,53.430273475808300,-1.356988000000000
Ice seal and Egret,DN10 6HY,53.430189165742700,-1.018194162058490
Eagle and Darwin's finches,DN5 7DJ,53.564348789677500,-1.318494275721860
Dolphin and Old World vulture,S70 3FE,53.547906000000000,-1.444614000000000
Prion and Vole,S64 8BG,53.485939363939700,-1.308704600483010
Francolin and Tattler,S74 8AP,53.499417006588000,-1.421112143635530
Treepie and Chicken,S63 7AQ,53.499716459191300,-1.335224217582240
Mockingbird and Warbler,DN4 0NT,53.505187155554800,-1.157798986169600
Mole and Scimitar babbler,DN12 2LA,53.475398385807200,-1.246665275042770
Black jay and Grosbeak,DN4 6AF,53.505628143254700,-1.079808719905880
Parrotbill and Gull,S61 3JJ,53.442753766153900,-1.392299100839210
Kangaroo and Tattler,S64 5TZ,53.475131153827600,-1.309588338299970
Minke whale and Buzzard,WF9 1EZ,53.616756268707900,-1.260676000000000
Kite and Tattler,DN4 0BY,53.517617649664100,-1.150056885711880
Grackle and Grackle,DN12 3LB,53.483544655151500,-1.242798800724620
Chickadee and Civet,S73 8EF,53.530104777517000,-1.385271891323710
Prion and Snipe,S66 3XQ,53.437035000000000,-1.280097498688440
Parrotbill and Stilt,DN7 4FD,53.585655164262200,-1.025411558143860
Puffleg and Old World quail,DN2 6PU,53.531999887137300,-1.094973028317390
Jackal and Dolphin,S73 0LQ,53.516851422522100,-1.411222590757080
American sparrow and Diving bird,WF4 2DB,53.626294851705700,-1.416777323600560
Ground sloth and Tahr,S62 6AH,53.456335092140100,-1.342934675280550
Triller and Magpie,DN7 6RG,53.577189178937200,-1.002664441230300
Duck and Zebra,S71 2HZ,53.562123082592800,-1.448247354806370
Prion and Dorcopsis,DN4 6RE,53.503267597625500,-1.067496810476730
Scimitar babbler and Peafowl,DN11 0JP,53.472791648681900,-1.071599921353170
Gull and Marmoset,S61 4QW,53.443583000000000,-1.373378000000000
Condor and Diving bird,WF9 3DD,53.597051384736900,-1.312649565433330
Dolphin and Pitohui,WF9 1NU,53.619796059841200,-1.275210664488040
Stint and Black jay,DN1 2QS,53.526773348638500,-1.129538908334450
Thrasher and Condor,DN4 7NA,53.494239957919500,-1.062524564354900
White ibis and Pratincole,S73 9QS,53.532147729718600,-1.385770354845680
Recurvebill and Old World quail,S66 7QU,53.436483689128900,-1.172871003946940
Parakeet and Meadowlark,WF9 1DL,53.614449954333000,-1.290660000000000
Mouse and Marsh harrier,DN4 8QQ,53.494478596708300,-1.149750769972940
Bronzewing pigeon and Night heron,S72 9HA,53.588700000000000,-1.354412403573560
Lemming and Snipe,S5 0QE,53.431518692466100,-1.448027959128060
Petrel and Puffleg,S62 5HQ,53.462258436262300,-1.329950151749140
Moluccan boobook and Viscacha,S71 5JJ,53.561129990052200,-1.435744815177130
Cloud rat and Chicken,S65 1SP,53.435496293750900,-1.340742257044340
Magpie and Hawk,S62 7EH,53.470321000993400,-1.354409117497770
Mockingbird and Rat,S63 8JW,53.518470312959200,-1.319894069168410
Stint and Fulmarine petrel,WF4 1PQ,53.659802883712200,-1.431644090987080
Pratincole and Kite,DN1 3AQ,53.519814964052400,-1.138067466560860
Chickadee and Logrunners,DN2 4LY,53.535281353402200,-1.121578976489820
B and River dolphin,S73 8QA,53.522824365059600,-1.410325301697300
Boto and Mamo,WF9 1DQ,53.612596028904800,-1.288650728758760
Darwin's finches and Marmoset,DN3 2EF,53.540959449135000,-1.055170109286020
Prion and Tahr,S63 8JY,53.515035271126800,-1.325996439016570
Old World vulture and Jackal,WF9 3FA,53.597711054620100,-1.320586981326750
Rabbit and Stint,S65 4RT,53.454810963700000,-1.297253015400000
Eagle and Petrel,S70 3JF,53.543005310620100,-1.448194000000000
Rat and Dolphin,S62 6HD,53.454585113369400,-1.346606000000000
Hawk and Tit-tyrant,WF8 3AL,53.674557183540200,-1.267550000000000
Tree warbler and Ice seal,S72 8DG,53.573630026663400,-1.420099433345840
Greenbul and Bronzewing pigeon,S66 7HJ,53.429250362009500,-1.191643932888450
Fish eagle and Fox,S65 3SF,53.429453275865500,-1.322594593845290
Argus and Hawaiian honeycreeper,DN4 6SG,53.497651055935800,-1.064228175193010
Tit-tyrant and Fox,S72 8UL,53.575496933894400,-1.419545322603920
Songlark and Mouse,DN4 5HF,53.518055527032300,-1.113790920864070
Fish eagle and Fish eagle,DN2 5ED,53.527286190524700,-1.112481980159230
Tahr and Zebra,DN2 4TS,53.531500370658000,-1.120797254470360
Stilt and Parrotlet,WF9 1JE,53.618889410424500,-1.266548570588970
Logrunners and Egret,S65 4LL,53.439083000000000,-1.259305000000000
Fox and Perching duck,DN7 4LU,53.578977146587100,-1.015596586272700
Night heron and Magpie,WF9 1JG,53.616314000000000,-1.283431436556800
Black cockatoo and Meadowlark,DN7 4DW,53.562974882525200,-1.028499547664990
Stint and Francolin,S73 0ZJ,53.522873952068600,-1.398619836506050
Snipe and Myna,S60 1QB,53.433199656928900,-1.356401502258230
Moluccan boobook and Badger,WF8 3HU,53.663263000000000,-1.266053214859770
Thicketbird and Armadillo,WF7 7BD,53.642567561334100,-1.356108796436690
Diving bird and Egret,S65 3NP,53.433448360553700,-1.313861217078050
Night heron and Thicketbird,S73 8DG,53.526920617813200,-1.398984918577660
Prion and Kite,S73 8SG,53.530322312880300,-1.419831051455560
Rat and Snipe,S73 0FA,53.508444000000000,-1.385134000000000
Ibex and Francolin,S74 9EE,53.500083127691200,-1.449881936987720
Capuchin and Cuscus,DN6 7BE,53.576527000000000,-1.175143000000000
Linsang and Stint,DN12 1SU,53.485490664602600,-1.183386832759840
Moluccan boobook and Ground sloth,S63 0RP,53.542573000000000,-1.325376308408280
Chickadee and Jackal,WF9 3QU,53.589629828564700,-1.321033660704670
Magpie and Mouse,S71 2JD,53.561394366925400,-1.448105861460960
Kite and Diving bird,S61 4DL,53.454421578954700,-1.381892342309940
Lemming and Prion,S72 9AD,53.606875022734600,-1.401100000000000
Dolphin and Parrotlet,S71 5AF,53.550306000000000,-1.444554000000000
Triller and Egret,DN7 5HB,53.594206939991500,-1.023643445961250
Black jay and Kangaroo,DN3 3AU,53.534273299199300,-1.058774049418400
Dolphin and Treepie,DN6 7TQ,53.570361000000000,-1.205994599572290
Grackle and Fish eagle,S73 0JN,53.518906978118500,-1.396232694608530
Logrunners and Old World vulture,S72 8FZ,53.569128000000000,-1.416723000000000
Badger and Mole,DN5 8SQ,53.539194138945100,-1.171082192177820
Mamo and Capuchin,DN4 9HE,53.493386360181900,-1.163112436242660
Armadillo and Wallaby,DN11 9NX,53.432099199179000,-1.115429021616470
Snipe and Black cockatoo,WF9 3JT,53.591189000000000,-1.334349000000000
Cuscus and Egret,DN1 9TA,53.520010916083200,-1.132844868539990
Grackle and Jay,DN4 7AN,53.495962727981000,-1.065576800202890
Hawk and Kākāriki,DN6 7JZ,53.564861413173900,-1.188834809446870
Polecat and Mamo,S71 5PW,53.557339053632600,-1.438119972320920
Thicketbird and River dolphin,WF9 3BW,53.596863622252900,-1.315961679459810
Nukupuʻu and Logrunners,WF7 6DR,53.677886246310800,-1.401880157469720
Booted eagles and White ibis,S66 7DF,53.426322690740200,-1.197373107213930
Crow and Condor,S65 2BU,53.435684201580300,-1.337337454018050
Diving bird and Parakeet,S71 3JD,53.586180973126700,-1.449203000000000
Stint and Vole,S73 0JB,53.519866167883900,-1.395721343362890
Jackal and Civet,S73 8RS,53.528845296283500,-1.419232719304150
Thicketbird and Darwin's finches,DN12 3LQ,53.483450000000000,-1.244684000000000
Peafowl and Warbler,S73 0WH,53.512605000000000,-1.393895000000000
Minke whale and Treepie,S65 3SW,53.443538000000000,-1.319164000000000
Recurvebill and Perching duck,DN4 6HY,53.515452737354300,-1.088011217336130
Badger and Vulture,DN1 3RJ,53.511846678060800,-1.136223502720920
Masked owl and Night heron,DN5 9PB,53.541994650753600,-1.160207609215720
Parrotbill and Mole,S63 8FL,53.518073155346800,-1.314878172751210
Tattler and Shearwater,DN1 2PH,53.525081435419700,-1.130493743575260
Songlark and Condor,S65 4FP,53.449277000000000,-1.297978000000000
Zebra and Siskin,DN5 0HH,53.557038063969500,-1.143228881724730
Triller and Mouse,WF4 1RA,53.649554307601800,-1.379875622478060
Towhee and Treepie,DN6 7BA,53.577811730641600,-1.179163000000000
Solitaire and Thrasher,S62 5NA,53.469017514217200,-1.333097664220600
Lemming and Maya,DN6 0NT,53.615743654916300,-1.140892181666040
Flameback and Stint,DN11 0QE,53.478614289566800,-1.085320437329900
Rat and Pheasant,DN1 2DS,53.522171409416700,-1.125877434350990
Civet and Capuchin,S65 3EQ,53.442955781997100,-1.313406994072580
Songlark and Stint,DN11 9LG,53.443302000000000,-1.120481000000000
Vole and Gull,WF9 2HJ,53.590932755799700,-1.285556000000000
Warbler and Philippine hawk-owl,S63 8GY,53.518164279973000,-1.307290516110530
Cloud rat and Jay,DN4 8AS,53.509947607793900,-1.143379462916020
Argus and Tahr,S71 4AS,53.597178898615500,-1.440719474829050
Bronzewing pigeon and Chipmunk,S74 9NB,53.499848186206800,-1.436106178724040
New World blackbird and Badger,DN4 0HL,53.513476000000000,-1.156576761647710
Fish eagle and Prion,DN3 1RY,53.563614000000000,-1.083201000000000
Rat and Capuchin,S65 3BA,53.427127000000000,-1.324377000000000
Grackle and River dolphin,S63 8EQ,53.517528534442900,-1.328204050251750
Cuscus and White ibis,DN2 6AJ,53.519721694870400,-1.115445415173290
Jackal and Hawaiian honeycreeper,S65 1HF,53.434428826898500,-1.350994258327500
Darwin's finches and Songlark,DN4 5EJ,53.516581586701000,-1.110187020165720
Old World warbler and Tree warbler,S73 0PP,53.509034235254300,-1.406339886435460
Quetzal and Wader,S62 6FE,53.457420752795700,-1.340945019925410
Hawaiian honeycreeper and Rabbit,WF8 3EH,53.640944000000000,-1.268813000000000
Tahr and Meadowlark,DN6 0PY,53.610537311306500,-1.160889108149530
Tahr and Kangaroo,S61 1HW,53.431625711586800,-1.385248271965860
Stilt and Ice seal,S71 4AD,53.597293643438500,-1.446066879378360
Bronzewing pigeon and Chicken,DN9 3HJ,53.500863864196600,-1.018733338370370
Viscacha and Chickadee,WF4 2HN,53.627454335684100,-1.398601332647360
Zebra and River dolphin,DN9 3PU,53.490611230123700,-0.991085931221683
Grosbeak and Hawaiian honeycreeper,DN7 6QL,53.581524163618000,-1.010537744994820
Kestrel and Guillemot,DN6 7JD,53.555482542566500,-1.190931254378810
Scimitar babbler and Marmoset,DN3 1SG,53.565606605920300,-1.075910644031150
Armadillo and Fox,DN12 2NG,53.481101820196100,-1.236061321904160
Logrunners and Badger,S63 3FR,53.504368172400000,-1.329045454800000
Grosbeak and Bronzewing pigeon,DN11 0XE,53.468559321171700,-1.070622674900380
Bunting and Pheasant,DN12 2BL,53.481422747823600,-1.217581049678680
Logrunners and Asiatic leopard,DN6 8AN,53.583889331630100,-1.187383052764070
Civet and Ground sloth,WF9 3DW,53.588546844690400,-1.329828133676690
Thicketbird and Francolin,DN10 6NL,53.435022744299400,-1.024480200536490
Badger and Logrunners,DN1 1SW,53.522881461826200,-1.136677000000000
Thicketbird and Darwin's finches,S61 2RG,53.451499000000000,-1.424685000000000
Quetzal and Thrasher,S65 4JJ,53.443447541658500,-1.302092455984360
Linsang and Ice seal,S5 0RG,53.430054805594400,-1.440566785685210
Peafowl and Greenbul,WF9 2FX,53.589385261569000,-1.292243340631010
Minke whale and Asiatic leopard,DN2 4HW,53.538801000000000,-1.111185000000000
Moluccan boobook and Chipmunk,S61 3JQ,53.441081559500500,-1.390471248374800
Magpie and Black jay,DN11 9DT,53.480195293183700,-1.153517127238150
Rat and Badger,WF9 2AQ,53.592912356322000,-1.299239000000000
Chipmunk and Masked owl,DN7 5TE,53.614733868181700,-1.054612512346590
Duck and Old World warbler,WF8 3AU,53.676006761710200,-1.265905279450280
Egret and Fish eagle,S63 7SG,53.494348130932900,-1.347894439556280
Pratincole and Piping shrike,DN12 4EE,53.489445856520200,-1.237870768471380
American sparrow and Gull,WF9 2QW,53.594794739939800,-1.292500328368180
Parrotlet and Duck,S66 7DW,53.426929602613700,-1.196729591946570
Chicken and Linsang,S74 0QT,53.511579014521200,-1.443957719844530
Fish eagle and Flameback,S72 8XJ,53.572100850924200,-1.421721049608300
Cuscus and Philippine hawk-owl,DN6 0EQ,53.618969274739500,-1.134477156352840
Philippine hawk-owl and Night heron,DN3 1AT,53.579534832795300,-1.068586000000000
Black cockatoo and Chicken,DN11 9GB,53.432155260581200,-1.096492906986930
Songlark and Peafowl,WF9 5DU,53.629946511256900,-1.377955104360370
Darwin's finches and Flameback,S62 7JR,53.469326227279000,-1.345039005483010
Viscacha and Grouse,DN2 4JS,53.537064048437900,-1.108610979876930
Treepie and Guillemot,S71 5FW,53.566633000000000,-1.435977000000000
Wader and Solitaire,S73 9EY,53.536020319515900,-1.373357123613990
Black cockatoo and Gull,WF9 5LR,53.621635447868600,-1.341565591214480
Black cockatoo and Puffleg,S74 9DW,53.500429419121100,-1.445068380024230
Peafowl and Francolin,S66 3QE,53.430204178095000,-1.269995375602920
Siskin and Thicketbird,WF7 5PJ,53.674257873322700,-1.360666653378560
Treepie and Pratincole,S61 2SA,53.461028938671300,-1.436605372768360
Coati and Kākāriki,S73 9AE,53.536759356130200,-1.377178678106680
Mamo and Piping shrike,S5 0DB,53.433005417010400,-1.452719856426800
Solitaire and Triller,S61 3AU,53.448848197363800,-1.399439630880730
B and Herring gull,S64 8RF,53.487008577965800,-1.319598499709700
Asiatic leopard and Zebra,WF8 3LT,53.631562570943600,-1.212674724373160
Thicketbird and Moluccan boobook,S64 9AD,53.495619000000000,-1.297334000000000
Fox and Kite,WF9 2UR,53.600438651937500,-1.289323372849900
Armadillo and Elephant,DN7 6AH,53.570830917996600,-1.012979000000000
Rabbit and Thicketbird,S61 3LS,53.445604946410400,-1.397979745009800
Pheasant and Piping shrike,DN4 5NH,53.514496768582600,-1.093506075325790
Grackle and Armadillo,DN2 4BB,53.535499473540900,-1.114588604897540
Parrotbill and Lemming,DN6 9JU,53.607410022812500,-1.177378000000000
Shearwater and Lemming,S71 5QH,53.554514213783700,-1.441432929155320
Elephant and Ibex,DN6 8NR,53.588995319344800,-1.204854813259280
Greenbul and Diving bird,DN6 8RA,53.591130588292800,-1.209679502265360
Asiatic leopard and Masked owl,WF7 7HN,53.656703119815800,-1.334165001661110
Mole and Peafowl,DN5 0TF,53.553243932914400,-1.125705272409280
Night heron and Guillemot,S74 8EY,53.492398000000000,-1.424885000000000
Songlark and Jay,S71 3EY,53.585433175298400,-1.446857000000000
Cuscus and Moluccan boobook,DN12 1EQ,53.483891222349900,-1.182861000000000
Puffleg and Darwin's finches,S65 4DX,53.448841936929900,-1.291599453221780
Condor and Greenbul,S72 8FA,53.586331000000000,-1.408944000000000
Viscacha and Francolin,S60 1BD,53.427086718266000,-1.357953610779440
Old World vulture and Parrotlet,DN5 8XA,53.540062090157600,-1.180949063100440
Jerboa and Skunk,DN6 8PF,53.591668536543800,-1.208113327962830
Moluccan boobook and Tattler,DN4 6AY,53.507412139469300,-1.080358143658380
Black cockatoo and Grouse,WF9 2SJ,53.595814137515400,-1.284052176194450
Gull and Thicketbird,DN12 4UA,53.491142972674700,-1.251827500507580
Bunting and Mamo,WF4 1DE,53.669554182228200,-1.409142217296310
Fulmarine petrel and Kangaroo,DN4 6DB,53.502488664037400,-1.071358428382230
Vole and Capuchin,S63 6ET,53.503552768621000,-1.385294091361010
Snipe and Dolphin,WF9 4JD,53.612225818379900,-1.345067544143400
Coati and Cuscus,DN11 9NH,53.429968000000000,-1.117610000000000
Dolphin and Black cockatoo,DN5 8TE,53.542162000000000,-1.180260000000000
Black cockatoo and Elephant,DN5 8UQ,53.531883525179500,-1.175871687519820
Warbler and Polecat,DN5 9JS,53.546245148801000,-1.160048036188590
Magpie and Shearwater,S72 8RF,53.593684887641000,-1.403975983479890
Jackal and Recurvebill,S66 8AW,53.428660855947800,-1.212394410600600
Mole and Triller,DN5 8TB,53.538460615475100,-1.170296786500360
Armadillo and Cloud rat,S63 7EH,53.507185198508900,-1.343355000000000
Goose and Asiatic leopard,S63 8JN,53.516476601812500,-1.312340100613010
Peafowl and Prion,S63 6DZ,53.507762081557400,-1.360097962649940
Chicken and Kite,DN5 7XN,53.561201876364400,-1.235057205717370
Thicketbird and Parrotlet,WF9 4RP,53.606772103177200,-1.357091479506230
Grackle and Snipe,S64 0HQ,53.495743679471300,-1.267559143710780
Badger and Jay,DN14 0DN,53.667933631876500,-1.064471371263880
Quetzal and Recurvebill,S73 0WG,53.512883000000000,-1.393726000000000
Bunting and Mockingbird,S65 1EZ,53.432606074748200,-1.351353149970180
Grackle and Jackal,S62 6FW,53.446181000000000,-1.346541000000000
Bunting and Peafowl,DN4 0BW,53.518756087683200,-1.147245000000000
Flameback and Ground sloth,WF7 7GD,53.642635000000000,-1.355112000000000
Magpie and Kākāriki,DN5 8JN,53.531756320967600,-1.170473063274010
Tattler and Armadillo,S60 1ND,53.431208000000000,-1.358525587382760
Armadillo and Argus,DN11 9HN,53.436540000000000,-1.102120000000000
Peafowl and Bronzewing pigeon,DN1 3NX,53.522168113341700,-1.130357300729280
Snipe and Lemming,S63 8NR,53.518642772130200,-1.318609334457560
Marmoset and Logrunners,WF9 4LD,53.613531000000000,-1.353497000000000
Shearwater and Wallaby,DN2 5NW,53.534931455980200,-1.099904683502620
Mouse and Myna,S71 2PJ,53.567418937991200,-1.450564148777090
Fulmarine petrel and Linsang,S65 2QR,53.430963224400700,-1.325746352058760
Songlark and Tahr,S72 8SN,53.577568725987000,-1.411255654871590
Jerboa and Kākāriki,S73 9NX,53.536296955618200,-1.393903254536940
Hawaiian honeycreeper and Grouse,S64 5UB,53.474952460754600,-1.308220180922460
Ice seal and Snipe,S70 3PU,53.546825776022800,-1.442650920558380
Hawk and Skunk,S60 2PY,53.426832387255900,-1.350808930706870
Bronzewing pigeon and Parrotlet,S64 8DP,53.488808186952200,-1.331084299649370
Quetzal and Thicketbird,S73 0LD,53.518194755418100,-1.415713435333080
Prion and Herring gull,DN5 0QN,53.563964824294800,-1.152842475978240
Magpie and Songlark,WF7 7NL,53.643950086170700,-1.336044876779280
Quetzal and Kestrel,DN3 2QD,53.555805370793700,-1.075444874430310
Magpie and Vole,DN11 9EG,53.432676511769200,-1.098860043026380
Towhee and Piping shrike,DN12 1RH,53.479024421569800,-1.201517361933310
Pitohui and Kestrel,S63 6JX,53.494892267571900,-1.353749720397840
Stint and Ice seal,DN4 8PJ,53.506552018509600,-1.149976652716500
Crow and Piping shrike,DN10 6NX,53.438160889699000,-1.022887000000000
Parrotlet and Dolphin,DN14 0HD,53.669133750829200,-1.073163137689990
Marsh harrier and Thrasher,S61 3HR,53.445307063383600,-1.390412000000000
Magpie and Piping shrike,S63 6GF,53.506409000000000,-1.370793000000000
Night heron and Hawk,DN7 5NP,53.593884574558000,-1.034876977775300
New World blackbird and Jay,DN11 0DH,53.472027635855400,-1.064686331672880
Philippine hawk-owl and Stint,DN5 0QW,53.565321468030100,-1.154023279881620
Recurvebill and Tit-tyrant,S73 8LB,53.524076119964300,-1.408980542035600
Stilt and Diving bird,S63 8ER,53.516903280250700,-1.325710421031800
Polecat and Thicketbird,DN6 9BF,53.636151913468900,-1.176926921526070
Triller and Wader,DN12 3JY,53.483673335843500,-1.238998942144110
Fish eagle and Nukupuʻu,S72 9AT,53.605198085788000,-1.393053655322300
Kangaroo and Jerboa,DN1 2QA,53.526284384226500,-1.127814160690830
Kestrel and Diving bird,S73 9EE,53.537579005199300,-1.380969012031990
Prion and Maya,DN5 0LB,53.571597237219100,-1.147933141812920
Asiatic leopard and Warbler,DN4 8ND,53.498671000000000,-1.140034000000000
Kangaroo and Parrotlet,S64 8JA,53.483492899409700,-1.316249010625240
Old World quail and Grosbeak,S63 8EL,53.517511003118600,-1.331492123633650
Skunk and Recurvebill,WF9 2AD,53.594164476133600,-1.295232000000000
Elephant and Grosbeak,DN6 7FP,53.565038000000000,-1.206726000000000
Bronzewing pigeon and Old World warbler,DN6 9AS,53.625089776883600,-1.186954924021230
Tahr and Vole,S74 8AB,53.499719299440400,-1.418575386836420
Kestrel and Parrotbill,S64 8HN,53.487378990601900,-1.324686554951530
Black cockatoo and Linsang,DN6 7QL,53.561956969065100,-1.182066251727130
Kite and Marsh harrier,DN10 6PG,53.435571501611200,-1.017949711711340
Herring gull and Chipmunk,S66 8DX,53.426336472147500,-1.223950190166530
Mockingbird and Elephant,WF8 4NJ,53.678534675460100,-1.316410912138740
Diving bird and New World blackbird,WF4 1SF,53.653377353453400,-1.418083379413440
Thicketbird and Gull,S73 0DU,53.523716842516200,-1.391005000000000
Dolphin and Grosbeak,S61 4BH,53.450695713765800,-1.386237918808480
Ice seal and Quetzal,DN4 5LT,53.511041403020000,-1.096580632904240
Ibex and Black jay,S60 1LA,53.433973547601200,-1.368356164759050
Puffleg and Towhee,DN4 6QW,53.505456873830400,-1.070449222263890
Crow and Herring gull,DN3 1PR,53.562918517764500,-1.064283318684450
Chickadee and Black jay,DN2 4DH,53.532846662208800,-1.114432707327070
Kestrel and Greenbul,S73 9DG,53.536525261601100,-1.384047309736100
Cloud rat and Jerboa,S71 2PW,53.568357892642000,-1.447562259603380
Jerboa and New World blackbird,WF9 5DB,53.633700386371400,-1.375601215186350
Cuscus and Myna,S72 8UX,53.575071000000000,-1.426121000000000
American sparrow and Rat,S61 3PU,53.443349595600300,-1.396355532807480
Crow and Viscacha,S65 2HB,53.433258526413500,-1.327907599113950
Coati and Puffleg,S65 4QT,53.434783161009900,-1.269134210505020
Guillemot and Vole,S62 7TJ,53.480104600266700,-1.423800934076490
Goose and Ground sloth,WF9 5AZ,53.638088000000000,-1.379045000000000
Siskin and Jackal,S61 3RT,53.440837143922000,-1.386620814340440
Marmoset and Fulmarine petrel,DN12 1JH,53.482694000000000,-1.180381000000000
White ibis and Stint,S63 0SS,53.542115112719100,-1.312890596559060
Wader and Black cockatoo,S62 7NL,53.472148589594100,-1.363330312217680
Petrel and Flameback,DN3 2EB,53.536671398783000,-1.055114668334030
Kestrel and Rat,DN4 9AJ,53.497729072057800,-1.158157792911420
Siskin and Puffleg,S63 9NU,53.530092339624300,-1.299613236296290
Jackal and Pitohui,DN4 9DN,53.493243315575800,-1.160658321629050
Diving bird and Bunting,DN12 1HJ,53.475025803012200,-1.185727170453450
Mamo and Gull,S5 0RX,53.427479096433500,-1.443867000000000
Pratincole and Stint,WF9 2NN,53.603502602591000,-1.289135947707100
Civet and Elephant,DN11 9HY,53.435293630210800,-1.111042570677710
Towhee and Guillemot,S74 9AP,53.498991291020600,-1.443142479365500
Snipe and Kākāriki,S61 1TD,53.436768668643000,-1.376849779662690
Mink and Ground sloth,DN3 2EE,53.539821173167900,-1.057866353312300
Dorcopsis and Viscacha,S64 9AL,53.458480000000000,-1.263501000000000
Vole and Puffleg,S61 2NU,53.428021692948100,-1.390597810275100
Solitaire and Condor,DN5 0HD,53.558026103100400,-1.149428571123270
Ibex and Mink,DN4 9BJ,53.492741844722100,-1.154548575486350
Parrotlet and Rabbit,DN3 2AD,53.539256930589200,-1.068456722368930
Kangaroo and Siskin,S63 6LS,53.502050846351000,-1.383386068452940
Songlark and Polecat,WF9 1DG,53.614206596016000,-1.287414377111550
Songlark and Capuchin,S63 0EP,53.546883000000000,-1.302581000000000
Stilt and Greenbul,DN4 7JU,53.497291000000000,-1.075618000000000
Old World vulture and Greenbul,WF4 1PG,53.659466000000000,-1.426679920030390
Buzzard and Grouse,DN9 3DD,53.481255000385500,-0.992287372183247
Vulture and Egret,S72 8LF,53.572800618473200,-1.414055183926270
Ibex and Egret,S63 9JF,53.536921473046000,-1.296181094846030
Old World warbler and Mockingbird,S61 1QA,53.433953306566200,-1.388661601672730
Magpie and Jerboa,S72 8QG,53.591634717028500,-1.402010572101960
Chipmunk and Greenbul,S63 7JB,53.494425691702800,-1.342361302244630
Parakeet and Darwin's finches,S72 0BT,53.554670726763700,-1.349639453489790
Tit-tyrant and Pitohui,DN2 5AT,53.532976974559800,-1.110190441945450
Black cockatoo and Vulture,DN14 0EG,53.657366695293600,-1.112280000000000
American sparrow and Crow,DN12 2LL,53.476177927990600,-1.243427123253950
Chickadee and Linsang,S61 3AH,53.447662688081000,-1.401428788741330
Jerboa and Philippine hawk-owl,DN12 1SD,53.487473630273700,-1.181888000000000
Civet and Capuchin,DN9 3GT,53.490466529200000,-1.019682000000000
Fox and Badger,DN6 8DU,53.588252162656100,-1.179972508823720
Jerboa and Parrotbill,WF9 5NL,53.635132164655900,-1.377833486112790
Triller and Duck,DN7 5TX,53.604100914396800,-1.067287724522030
Mamo and Kākāriki,S63 9QA,53.504385000000000,-1.329047000000000
Mole and Pratincole,DN4 8SY,53.491772200607200,-1.145855844785550
Dolphin and Maya,DN10 6NR,53.437348831290800,-1.024231242256770
Diving bird and Parrotbill,DN6 8DJ,53.584997000000000,-1.182196000000000
Wallaby and Guillemot,DN6 9NP,53.621827481043000,-1.176509932322530
Maya and Cuscus,S66 3RZ,53.435694377870000,-1.283042327423520
Dorcopsis and Bunting,S66 7BB,53.448189547745700,-1.200981344459230
Argus and Jackal,DN4 9NB,53.499589994748000,-1.174960202912840
Gull and Warbler,DN4 8HY,53.504027639151100,-1.146393575735580
Old World quail and Cuscus,DN5 7JT,53.511506996365300,-1.187802885399080
Dorcopsis and Mink,DN6 9HR,53.631479637742000,-1.160761093297550
Triller and Moluccan boobook,S62 5PA,53.470052162405100,-1.330053426335850
Parrotbill and Old World warbler,WF9 4RS,53.606094148088100,-1.358053900439060
Kākāriki and Condor,S74 9DT,53.498149196952100,-1.445686052091390
Stilt and Viscacha,S65 3RS,53.432545382545200,-1.321010188432180
Shearwater and Flameback,S62 5AH,53.462763615785200,-1.341600356708330
Vole and Linsang,DN6 0DH,53.617149000000000,-1.101936000000000
New World blackbird and Kangaroo,WF9 5HS,53.618662510398100,-1.355187486638620
Myna and Goose,S95 1AR,53.428469950900000,-1.358835940300000
Bronzewing pigeon and Asiatic leopard,S72 8WX,53.577074000000000,-1.418285000000000
Cuscus and Nukupuʻu,DN12 1LQ,53.477961572205100,-1.193159649610920
Greenbul and Old World vulture,S70 4RH,53.532885350521300,-1.450573533141600
Old World quail and Vole,DN1 2TR,53.531809439404700,-1.123717718793550
B and Treepie,DN6 8DS,53.584986101819100,-1.178192804342620
Bunting and Kestrel,S61 3BS,53.448248010754500,-1.407051890657420
Argus and Kite,DN1 2TZ,53.530930561654900,-1.123992329820340
Argus and Grackle,DN1 2PE,53.525978523667400,-1.130249103235920
Skunk and Jackal,WF9 5FR,53.629416000000000,-1.369240000000000
Lemming and Old World warbler,WF8 3HR,53.670919037248400,-1.264389229836730
Recurvebill and Towhee,DN2 4JU,53.537558797743300,-1.109868065664080
Armadillo and Philippine hawk-owl,DN5 9NR,53.543768658399100,-1.160670513642610
Mink and Grosbeak,DN6 7NA,53.574382000000000,-1.210387460829750
Puffleg and Scimitar babbler,S63 6NJ,53.506559842918100,-1.363885492294340
Ibex and Philippine hawk-owl,DN4 6AQ,53.505975939457000,-1.077117339497600
Night heron and B,DN1 9TL,53.520013768867100,-1.132844947328360
Night heron and Goose,S63 0HS,53.552260709253200,-1.300062439603310
Asiatic leopard and American sparrow,WF9 3LD,53.593424067777900,-1.320912000000000
Viscacha and Duck,WF8 3DU,53.661243452189500,-1.304327036499270
Egret and Magpie,DN12 2NX,53.478051646308000,-1.238406387230160
Marmoset and Puffleg,S63 9AL,53.531642790998300,-1.312773418247090
Jerboa and Badger,S97 3DA,53.508602369784500,-1.332929011543340
Pratincole and Philippine hawk-owl,S61 1TL,53.437348761257900,-1.377774594430370
Nukupuʻu and Thicketbird,DN4 0EZ,53.514316483234100,-1.153531162138100
Scimitar babbler and B,DN4 7HW,53.499111793655400,-1.082211094334170
Night heron and Songlark,S62 7SW,53.477042304110600,-1.354156000000000
Goose and Coati,S61 2BB,53.436856617991900,-1.399292531371070
Jay and Armadillo,DN6 8HJ,53.582793486991400,-1.187494695225640
Peafowl and Ice seal,DN4 8JF,53.503040496204000,-1.149142280563260
New World blackbird and Chipmunk,S63 9JQ,53.536569060955600,-1.297394012100460
Elephant and Rabbit,S65 4GZ,53.439102881618100,-1.255286000000000
Kite and Marsh harrier,S71 2HH,53.563612433251300,-1.451564624785080
Cloud rat and Civet,S61 1PF,53.438288671380700,-1.394515434453940
Scimitar babbler and Moluccan boobook,S63 9AS,53.533644213006200,-1.315381316556250
Marmoset and Mole,S63 9DR,53.531843926050700,-1.307127720617290
Tree warbler and Grouse,DN4 6JX,53.513788752002600,-1.071518622706770
Moluccan boobook and Mouse,WF8 4FP,53.676453994738700,-1.315763000000000
Mockingbird and Partridge,S64 0NW,53.498465284200000,-1.256552925100000
Maya and Jay,DN3 3JU,53.529153566616000,-1.046773427461400
Logrunners and Vulture,DN5 8RW,53.539387524785800,-1.167864337266550
Buzzard and Treepie,S71 4FY,53.601668771700000,-1.453096000000000
Egret and Jerboa,S61 1QG,53.435087072570400,-1.387140099030910
Coati and Magpie,S61 2BD,53.434467903314600,-1.398393000000000
Mink and Elephant,WF9 5JQ,53.627055752973900,-1.371737659127430
Herring gull and Francolin,DN3 1SQ,53.580271258405900,-1.074125814306950
Prion and Parrotbill,S63 9DN,53.532263376052900,-1.306607921762480
Cloud rat and Coati,DN1 3JZ,53.521058913207400,-1.133577627869100
Meadowlark and Magpie,DN3 2PS,53.556449295683800,-1.075023254168360
Jay and Treepie,WF9 5LU,53.628383791981500,-1.369600986608560
Old World warbler and Myna,S73 8JX,53.525210045593300,-1.407441249990260
Greenbul and Black cockatoo,S62 7PQ,53.470399287821000,-1.353925853000930
Jay and White ibis,DN4 6RB,53.503507544897800,-1.069451548415720
Bronzewing pigeon and Francolin,DN4 7HA,53.501791663634400,-1.084716202112000
Vole and Guillemot,DN5 9DX,53.548807360531500,-1.167830546995610
Songlark and Grosbeak,S70 4RB,53.534342782471800,-1.450856426229380
Snipe and Pheasant,S73 0SW,53.512970507761600,-1.386605543819580
Cloud rat and Stilt,DN7 4HN,53.570059591484100,-1.015501643031020
Quetzal and Towhee,WF9 5LQ,53.626529784307100,-1.369144751839130
Partridge and B,S63 9DU,53.530903504281000,-1.310824149621140
Buzzard and Moluccan boobook,S66 8AH,53.430275553146200,-1.207819213751210
Ground sloth and Magpie,WF4 1JE,53.654582619476300,-1.422651145219930
Condor and Ground sloth,WF9 1HT,53.615147469168800,-1.280913580759790
Solitaire and Capuchin,S70 3JS,53.544706470700000,-1.446225351400000
Grouse and Coati,DN1 3AE,53.519601839093400,-1.137181919357230
Capuchin and Linsang,S61 2TQ,53.454520394125700,-1.436435472493220
Partridge and Crow,WF8 3ER,53.640722354707400,-1.282991000000000
Vulture and Tattler,DN12 2HR,53.481227074019200,-1.213668000000000
Lemming and Goose,S71 5SG,53.571401339933200,-1.433178000000000
Meadowlark and Flameback,WF9 4BS,53.608928598200200,-1.346992701093350
Linsang and Solitaire,S71 2NT,53.566929032103300,-1.443745695985600
Rat and Maya,S63 0SU,53.542981662656800,-1.315094901855150
Petrel and Polecat,WF9 1LF,53.616380211107100,-1.259018473687360
Thrasher and Macaw,DN4 9JP,53.499920855517200,-1.166933588980180
Tattler and Jay,S62 6EP,53.451740163125600,-1.345896764830340
Gull and Asiatic leopard,DN7 5RJ,53.599801000000000,-1.031586812134070
Badger and Perching duck,S72 8PR,53.594835798029700,-1.405863538649310
Black jay and Mockingbird,DN9 3GR,53.484794000000000,-1.019948000000000
Bunting and Booted eagles,DN4 7HJ,53.499301366401500,-1.083488413015600
Kite and Petrel,S65 2RW,53.435425462270800,-1.331230142370640
Grouse and Guillemot,DN6 8RT,53.589606343404300,-1.202124010951910
Wader and Guillemot,S71 2JB,53.560544064605300,-1.448886862226720
Mole and B,S62 7EB,53.470626182161700,-1.354329163212400
Treepie and Jay,S62 7LG,53.468634980810300,-1.346842292886690
Tit-tyrant and Dorcopsis,DN4 9QP,53.495432289060800,-1.183406928926670
Vole and Chickadee,DN9 3JW,53.500266940796900,-1.015008305949550
Pheasant and Buzzard,WF9 3LU,53.593578819334500,-1.323161140395780
Black cockatoo and Duck,DN2 4DB,53.533444398755800,-1.121270000000000
Jerboa and Stilt,DN5 9EP,53.540282814719900,-1.163485806454290
Cuscus and Partridge,WF4 1LX,53.661254210707000,-1.432532543937240
Fulmarine petrel and Guillemot,DN7 6BQ,53.568624000000000,-0.998306000000000
Kestrel and Darwin's finches,S72 9DE,53.614546000000000,-1.401687000000000
Logrunners and Solitaire,S71 2RR,53.572803240439400,-1.442838073764020
Cuscus and Ibex,DN1 3SN,53.517630234155200,-1.136754427136770
River dolphin and Polecat,S73 0QL,53.507643531252000,-1.419673238505700
Grackle and Minke whale,S74 9HS,53.503670474869600,-1.448131857466270
Viscacha and Darwin's finches,DN3 2DB,53.539708447269800,-1.061822386989130
Pratincole and River dolphin,S65 4QF,53.436361417189300,-1.268520075156660
Chipmunk and Chipmunk,DN7 5PT,53.593170000000000,-1.030547000000000
Guillemot and Stilt,DN14 9GH,53.664115000000000,-1.028177000000000
Tahr and White ibis,DN2 6LF,53.529539873606600,-1.101316388328730
Stint and Minke whale,S63 9HP,53.532945321098700,-1.300230011583260
Dolphin and Grackle,DN7 6RY,53.577800931230900,-0.997348732785737
Thicketbird and Dorcopsis,S63 6PF,53.509337983666400,-1.367402484095200
Snipe and Kākāriki,S62 5NN,53.467684750433000,-1.327846159367150
River dolphin and White ibis,DN4 8TR,53.495569841141800,-1.138830000000000
Ice seal and Snipe,S64 0JB,53.495096709546600,-1.269062588646980
Coati and Mamo,DN5 7HN,53.524152325651700,-1.272740937375560
Booted eagles and Pheasant,S72 0DE,53.551421412757400,-1.347168612358660
Minke whale and New World blackbird,DN4 0JG,53.515330401570700,-1.143180445028820
Wader and Buzzard,DN4 6QB,53.500988760793800,-1.074994372910290
Jay and Chicken,DN5 8NG,53.536322554239900,-1.170474370829680
Herring gull and River dolphin,DN2 5ER,53.527997911418400,-1.110279694487340
Mamo and Pheasant,S63 8DJ,53.518123363894900,-1.323700251659240
Cuscus and Ground sloth,S5 0SA,53.429046666935500,-1.444116815427340
Guillemot and Siskin,S63 0DU,53.547971917952600,-1.299846421516570
Booted eagles and Thrasher,S66 2PQ,53.426813221259000,-1.278511305192750
Snipe and Tree warbler,DN4 6QH,53.504539974402200,-1.071600074977910
Chicken and Bunting,S63 7JY,53.503625689372200,-1.316182000000000
Recurvebill and Hawaiian honeycreeper,DN6 0LY,53.617102000000000,-1.143477004931550
Recurvebill and Condor,DN1 3BN,53.518551358632200,-1.136102255838220
Stint and Meadowlark,S64 8AN,53.486588925305100,-1.302921971033490
Zebra and Old World quail,DN5 8JD,53.533666485642900,-1.164672302483060
Prion and Rat,S62 7UA,53.477031780332800,-1.446910410179820
Piping shrike and Thrasher,S74 8JA,53.497702097779500,-1.422899000000000
Pheasant and Peafowl,S63 9EE,53.529721903419000,-1.311673055299140
Masked owl and Tree warbler,DN4 8HH,53.501508475229900,-1.146067263531100
Chipmunk and Kestrel,DN4 7RT,53.503227550113900,-1.091484925662830
Linsang and Jay,S66 3ZJ,53.434784016780400,-1.272219934113370
Goose and Pheasant,S65 4AD,53.448127166447300,-1.306126359112940
Cloud rat and Mamo,DN4 7FJ,53.493337000000000,-1.071076000000000
Vole and Masked owl,DN4 6FE,53.507096809418100,-1.074439232847440
Philippine hawk-owl and Viscacha,DN5 9QB,53.536900822532900,-1.152945096676450
Partridge and Darwin's finches,DN6 8AU,53.588096286609600,-1.191411448709370
Chicken and Parrotlet,S70 3BW,53.541733842411700,-1.451409699041240
Vole and Thrasher,DN4 7BG,53.506971405867600,-1.095641845743920
Macaw and Marmoset,S66 7AR,53.446143047295400,-1.202766286226670
Crow and Maya,S66 3YQ,53.428560663168200,-1.264364654816470
Flameback and Eagle,DN7 6DY,53.576321642424100,-0.988913000000000
Bunting and Rabbit,S65 4RJ,53.439743000000000,-1.261296000000000
Gull and Argus,S63 8NT,53.520676039315700,-1.312649191889180
Armadillo and Hawk,WF7 5EU,53.677127017909300,-1.357656066924790
Kangaroo and Dolphin,DN7 6SP,53.578376425921300,-1.007076978418800
Old World warbler and Grouse,S66 7AP,53.445360622351300,-1.202705649930030
Shearwater and Linsang,S64 8PD,53.493668982840600,-1.314849389955880
Pheasant and White ibis,DN6 0QX,53.616040261552400,-1.153508788706500
Kestrel and Chicken,S61 3SX,53.439257068008800,-1.388751100734050
Jerboa and Diving bird,DN12 4AD,53.490144752532200,-1.246027270789290
Thrasher and Duck,DN5 8RN,53.537166000000000,-1.166293000000000
Peafowl and Treepie,WF9 4QJ,53.614730492724300,-1.359449691247200
Petrel and Armadillo,DN5 9HL,53.544373113932200,-1.167419483808120
Siskin and Mamo,DN11 0RN,53.470726766348300,-1.080066483216850
Skunk and Boto,DN7 6SL,53.577564049311400,-1.005585673407940
Kestrel and Tahr,DN5 9NG,53.545923083327100,-1.156432353063960
Vole and Old World warbler,DN4 8LY,53.501941811216600,-1.140058191099880
Linsang and Solitaire,S63 7FL,53.506960000000000,-1.344535000000000
Stint and Egret,WF9 4QN,53.614384498685800,-1.360301428464770
Black cockatoo and Black jay,S72 8TX,53.583214927598800,-1.411554855275070
Fox and Tit-tyrant,S64 8SR,53.480292405611000,-1.309896360603610
Bronzewing pigeon and Crow,DN4 5DY,53.517671844107900,-1.106921569476640
Hawk and Dorcopsis,S72 8DB,53.574907960661600,-1.418571757260720
Minke whale and Argus,DN9 3QT,53.486869000000000,-1.020535000000000
River dolphin and Black jay,DN7 4BT,53.562052198467400,-1.027780892024440
Wallaby and Viscacha,S64 9PE,53.496314480454600,-1.290673068934100
Nukupuʻu and Grouse,S63 6DJ,53.509565231109000,-1.362800073076090
Jay and Solitaire,S63 8LX,53.514467941221900,-1.313171879720160
Wader and Parrotbill,S65 1LD,53.434687048595900,-1.343960912274830
Thrasher and Pheasant,S61 4QQ,53.441118004429400,-1.359624001355310
Stilt and Black jay,DN7 4HD,53.576413877571800,-1.019794323293740
Fox and Hawk,DN2 6DZ,53.523881468412700,-1.099520442308300
Boto and Rat,DN5 7XS,53.550547116535900,-1.164672062189060
Fulmarine petrel and Piping shrike,S62 6AB,53.459626202123100,-1.339901787194060
Viscacha and Treepie,DN4 6FF,53.499491234534200,-1.070820893268890
Ice seal and Civet,S62 7DN,53.473645016513400,-1.357417098936850
Siskin and Fulmarine petrel,DN7 4EB,53.584100909150700,-1.025507728103490
Maya and White ibis,S63 8FA,53.516641000000000,-1.309517000000000
Thicketbird and Polecat,DN11 9DZ,53.468962244017400,-1.145078433690980
Mockingbird and Goose,S65 3LT,53.440418753348200,-1.319304014391730
Vulture and Eagle,S74 0AZ,53.498304343392400,-1.452211000000000
Bronzewing pigeon and Dolphin,S71 5LR,53.557773237065200,-1.434883707894360
Thicketbird and Philippine hawk-owl,S74 8AW,53.499838345422100,-1.420880277536050
B and Kākāriki,S65 2RT,53.435804099754500,-1.329824300119100
Duck and Ice seal,DN12 3DD,53.488101184132500,-1.232815841359270
Masked owl and Polecat,DN6 7HD,53.574589747202800,-1.174243000000000
Rat and Black cockatoo,S71 5AW,53.544968000000000,-1.435341000000000
Booted eagles and Parrotbill,DN12 1HT,53.475804064672000,-1.186495758919120
Lemming and Gull,S63 8LH,53.517457810376100,-1.317106000000000
Ibex and Solitaire,DN7 6AF,53.572345366997000,-1.010374458126990
Grouse and Stint,S63 7QZ,53.502195342583100,-1.346281526568680
Stilt and Nukupuʻu,DN2 6BS,53.523214416733500,-1.111284939999520
Petrel and Greenbul,WF9 1JZ,53.617914981180900,-1.255756467945780
Petrel and Minke whale,S66 8RP,53.429934898684500,-1.220257444934960
Hawk and Recurvebill,S65 4ES,53.446693512014800,-1.293095672117920
Grouse and Grackle,DN11 0EX,53.476244093475600,-1.063629329010780
Booted eagles and Recurvebill,S71 5LT,53.557911905840000,-1.433794955152380
Kangaroo and Duck,S61 4PD,53.451096017837400,-1.363102976795220
Parrotbill and Goose,S62 6JN,53.458268918652600,-1.336654674222330
Triller and Zebra,DN1 3ST,53.516441202349400,-1.131439753469080
Pitohui and Jackal,S60 2PB,53.426589245857300,-1.347426515224920
Polecat and Greenbul,S64 9SF,53.497717865524800,-1.298488468250630
Tattler and Shearwater,S71 2NU,53.568018529828500,-1.444154192521220
Francolin and Macaw,DN4 6HT,53.519441042265800,-1.081786978582530
Bunting and Polecat,S70 3BP,53.543780321684200,-1.452741429942660
Francolin and Linsang,DN6 0HD,53.636941461974500,-1.104480669080820
Bunting and Siskin,DN6 0JR,53.616691208064000,-1.147705903027490
Jerboa and Booted eagles,WF9 2QJ,53.593471269557700,-1.293655582989820
Marsh harrier and Tree warbler,DN4 6BW,53.502063960637700,-1.073387948747960
Eagle and Mouse,S61 1JJ,53.439226624473700,-1.395359000000000
Zebra and Scimitar babbler,S71 5NX,53.559517774664900,-1.429365348831530
Hawaiian honeycreeper and Petrel,S74 9ND,53.505370000000000,-1.451924000000000
Puffleg and Treepie,DN3 1NT,53.566947553250600,-1.065704359634710
Dolphin and Old World quail,S63 6BA,53.504581028021300,-1.370428374560610
Shearwater and Vole,S73 9NR,53.537234522429000,-1.387386687875920
Dorcopsis and Minke whale,S72 8UQ,53.576930368825900,-1.418574227294590
Civet and Tattler,S73 0NY,53.515988185468600,-1.384375228946740
Capuchin and Hawaiian honeycreeper,S5 0JD,53.430450866294700,-1.452558000000000
Viscacha and Grosbeak,WF9 2BU,53.598867318863900,-1.280570455118890
Quetzal and Zebra,DN10 6LE,53.432492055098200,-1.023890909323870
Black jay and Diving bird,S71 4QG,53.601736504925500,-1.448577739875030
Quetzal and Herring gull,DN12 4AQ,53.489632000000000,-1.244348000000000
Mamo and Cloud rat,WF4 1BP,53.675401868132200,-1.422457637462750
Kangaroo and Polecat,DN3 1BU,53.570882175631800,-1.063896279998080
Elephant and Ibex,DN6 0QD,53.613906584864500,-1.160686276812140
Pheasant and Hawk,DN2 6JG,53.530914226963400,-1.088131744770940
Capuchin and Booted eagles,S72 8QR,53.592943480058400,-1.395933623083270
Elephant and Vole,S62 7HP,53.471579264311700,-1.342834923861070
Eagle and Parakeet,S60 2DN,53.429054732218700,-1.354522603762050
Mouse and Songlark,S72 9AU,53.606015127504600,-1.392875701753480
Thicketbird and Cuscus,S64 9NY,53.495855880700900,-1.295202914425720
Gull and Quetzal,DN3 3JP,53.530406258244000,-1.043803431160200
Linsang and Mamo,S71 5JW,53.564209626123100,-1.435024431498120
Wallaby and Marmoset,S72 7DB,53.578411758500000,-1.385206119200000
Pitohui and Cloud rat,WF4 1JR,53.651330000000000,-1.417083000000000
Night heron and Prion,S72 7NG,53.573343617892100,-1.375674922017840
Parakeet and Crow,DN12 3ET,53.477661000000000,-1.245783000000000
Stilt and Logrunners,DN7 4BY,53.562537988055200,-1.027830147098830
Philippine hawk-owl and Meadowlark,S5 0DP,53.437632000000000,-1.436388000000000
Petrel and Quetzal,DN4 8PX,53.503033584538800,-1.155776155813490
Capuchin and Ground sloth,S97 3FB,53.508602369784500,-1.332929011543340
Civet and Buzzard,DN4 6HD,53.515355198239100,-1.077637492970640
Logrunners and Old World warbler,DN7 5ES,53.598664717495000,-1.019173640290360
Snipe and New World blackbird,DN11 0SF,53.468902712159000,-1.076656107559940
Philippine hawk-owl and Jackal,S64 0NN,53.509485000000000,-1.292338000000000
Buzzard and Viscacha,DN4 0UP,53.501057819483800,-1.168856104751040
Quetzal and Warbler,DN4 6EU,53.509821685146800,-1.073444970277000
Francolin and Jackal,S61 4QA,53.455246815924400,-1.367814768820730
Egret and Zebra,DN4 6DF,53.502076539498900,-1.071533273599390
Scimitar babbler and Pheasant,S63 6HJ,53.502191255727300,-1.386218347735560
Wader and Jay,S61 4BJ,53.450043241035600,-1.385208341571680
Eagle and Skunk,WF7 5BH,53.676400165521900,-1.359559408708520
Thicketbird and Fish eagle,S64 0QN,53.502576727933900,-1.276698309170330
Partridge and Ground sloth,DN6 8HG,53.582661751466100,-1.187950369617820
Thicketbird and Grouse,S73 8JL,53.527362060637200,-1.410020943036550
River dolphin and Jackal,DN10 6JD,53.429865167729400,-1.019240140900390
Wader and Skunk,S71 2HG,53.562353703100100,-1.453452986179600
Treepie and Booted eagles,DN6 7TB,53.569655000000000,-1.205068765979400
Jackal and Warbler,WF9 1NH,53.619918317825400,-1.285080730826700
Black jay and Grouse,DN5 0NW,53.551340098731500,-1.139585578504350
Thicketbird and Songlark,S72 8QF,53.591350200497800,-1.402634009333630
Thicketbird and Diving bird,S72 0HN,53.545850752994100,-1.360897185860710
Wader and Mouse,S63 8FS,53.519608000000000,-1.315685000000000
Tattler and Marsh harrier,DN6 8AR,53.586416565007000,-1.191579458046090
Elephant and Pheasant,DN1 2QT,53.527113000000000,-1.130377000000000
River dolphin and Goose,S63 6RF,53.503788086142900,-1.359901483356270
Stint and Thicketbird,DN1 2TN,53.532229547800600,-1.122170166118700
Old World vulture and Masked owl,DN4 6JT,53.515258086005900,-1.070898346468010
Towhee and Stilt,DN12 3AU,53.484555320578200,-1.212791429601550
Greenbul and Kākāriki,S72 9AQ,53.608257745981100,-1.393765497218700
Badger and Bunting,DN2 4PR,53.544985245384400,-1.093352962905910
Zebra and Magpie,DN5 7SZ,53.510142000000000,-1.234092000000000
Lemming and B,S71 4AA,53.599423131628200,-1.445903038025320
Badger and Pitohui,S64 0LQ,53.496279181596100,-1.277272746615030
Parakeet and Ground sloth,S65 4LH,53.438902428964900,-1.264097000000000
Grackle and Siskin,WF7 7EF,53.655796466089000,-1.335994996453730
Coati and Argus,DN4 0AZ,53.517713324385500,-1.144565162727750
Badger and Nukupuʻu,S72 9ES,53.594114905456800,-1.370337629479600
New World blackbird and Warbler,S60 2NB,53.428793219888800,-1.352705491008050
Puffleg and Kangaroo,S62 7NQ,53.473502275862600,-1.366037004822490
Quetzal and Bronzewing pigeon,DN6 0DL,53.614183000000000,-1.087790000000000
Old World vulture and Ice seal,S62 6LN,53.460318728747900,-1.344772000000000
Minke whale and Petrel,S71 3HJ,53.588915858955700,-1.432504596960740
Recurvebill and Armadillo,DN12 4UJ,53.489828257150000,-1.242882856712550
Scimitar babbler and Thicketbird,S74 0JT,53.506382823385600,-1.430410627164740
Crow and Kangaroo,S74 9BD,53.497887980773000,-1.437865751979780
Tit-tyrant and Nukupuʻu,DN6 7ET,53.587021071889200,-1.237113978623310
Moluccan boobook and Old World quail,S73 9EH,53.537609096155100,-1.379836918392710
Rabbit and Argus,DN12 2DR,53.478395281629200,-1.221976274524820
Goose and Grouse,WF9 4ES,53.611143277397700,-1.358084000000000
Fox and Towhee,DN12 1ED,53.484347153936100,-1.184282000000000
Egret and Crow,DN3 3JF,53.533998740173100,-1.048854000000000
Minke whale and Grosbeak,DN6 7PF,53.564689662060800,-1.203408191327710
Chicken and Goose,DN4 8EZ,53.501178082325700,-1.150159502802790
Warbler and Thrasher,DN1 3DJ,53.521007084807800,-1.136353971133240
Black cockatoo and Skunk,DN1 1DW,53.523086337162900,-1.133023419161800
Duck and Coati,DN7 6RJ,53.580942704704400,-1.004373553023220
Skunk and Tattler,DN10 6TF,53.431666715075300,-1.021892906414720
Rabbit and Vole,DN7 5ST,53.605813052966400,-1.070151774873990
Hawaiian honeycreeper and Condor,S60 9SE,53.434038156927700,-1.353544003308070
Pheasant and Prion,S61 2PJ,53.458869041506800,-1.436046581887870
Magpie and Chickadee,S73 0BF,53.521625506000000,-1.396375218800000
Ground sloth and New World blackbird,S70 3DZ,53.542960621913300,-1.442626216861540
Piping shrike and Fulmarine petrel,S5 0BZ,53.431677679722200,-1.451322098250720
American sparrow and Pratincole,WF9 3JJ,53.590255731715600,-1.331629116215730
Peafowl and Mamo,S71 5JA,53.565289213471900,-1.437138945044680
Kangaroo and Asiatic leopard,S62 5PG,53.469834436306100,-1.324904716583230
Moluccan boobook and Pitohui,WF4 1QA,53.654359395725900,-1.397401612602200
Asiatic leopard and Jerboa,S73 0QQ,53.507722599326200,-1.410112651745190
Goose and Tattler,S72 8SY,53.578787000000000,-1.413927000000000
Stilt and Solitaire,DN5 8NY,53.535190245198800,-1.170511583877860
Wader and Pratincole,S64 8UE,53.475833667314300,-1.312951917754780
Booted eagles and Buzzard,S62 7RD,53.473459075320800,-1.344689144101470
Mole and Polecat,S61 1HX,53.430862274067200,-1.385364639548230
Ground sloth and Grouse,S72 7NL,53.571313800842400,-1.375976621657410
Nukupuʻu and Puffleg,S74 9DR,53.498279611388100,-1.444734644974290
Moluccan boobook and Piping shrike,S64 8NU,53.494339304654500,-1.311055159123750
Vole and Solitaire,WF9 4BG,53.610593539624800,-1.347375122608090
Marmoset and Hawk,S65 1HA,53.433051302457300,-1.350578737051200
Snipe and Skunk,S61 4HH,53.454352039851800,-1.378881511107910
Guillemot and Mink,S63 9JE,53.534768003304700,-1.293772570148880
Greenbul and Parrotbill,S62 6NW,53.449167962562000,-1.347276375909940
Coati and Parrotbill,S71 3HH,53.585951446165800,-1.436683307955150
Wallaby and Kestrel,S72 0DS,53.549621000000000,-1.344949535817830
Grackle and Cloud rat,DN12 2EN,53.479678703588400,-1.231400634674030
Black jay and Stint,WF8 3AR,53.676416392656200,-1.271166322249700
Nukupuʻu and Moluccan boobook,S71 3PQ,53.579953000000000,-1.451223729941700
Logrunners and Shearwater,DN4 6EY,53.509997814026000,-1.074134774649010
Mamo and Masked owl,DN12 2JZ,53.475807924477700,-1.246040280193300
Marmoset and Vulture,S61 4EQ,53.455370597342300,-1.372541636635690
Condor and Kangaroo,DN4 8SZ,53.491958392769700,-1.144239319865830
Pratincole and Greenbul,DN5 8NJ,53.536020186951100,-1.168352818582280
Philippine hawk-owl and Fulmarine petrel,S63 8JP,53.517375523758600,-1.321796793932540
Maya and Bunting,DN7 5TZ,53.589350043542900,-1.024374788716670
New World blackbird and Viscacha,WF8 3SA,53.674482308132800,-1.288850244169090
Perching duck and Pheasant,WF9 3QT,53.590016792457800,-1.319531822682210
Cuscus and New World blackbird,S72 9EH,53.595931197508000,-1.372169104654650
Marsh harrier and Vulture,DN6 0DN,53.606845469782700,-1.085152137835400
Kestrel and Tahr,WF9 1BA,53.616435000000000,-1.324277000000000
Wallaby and Civet,S61 3JH,53.441752499912000,-1.391605809787590
Coati and Tit-tyrant,DN4 9HN,53.497753827994900,-1.166825307029190
Fox and Scimitar babbler,DN5 9EY,53.542563757453600,-1.165749728641560
Mamo and Parakeet,DN3 2PX,53.556766645968500,-1.075378634744610
Coati and Vulture,S5 0ER,53.433513243231000,-1.440099941115420
Peafowl and Capuchin,S72 8PX,53.593167655368800,-1.404799118424380
Kangaroo and Piping shrike,DN5 7GB,53.524183916858200,-1.271351000000000
Armadillo and Ground sloth,S61 2AJ,53.439844634297900,-1.401839704070810
Chickadee and Pratincole,DN3 1AH,53.578182000000000,-1.064188000000000
Buzzard and Coati,S71 2ET,53.564065262525700,-1.454276426004610
Jay and Meadowlark,DN11 0YA,53.480268104885100,-1.067850399608570
Cloud rat and Mouse,S64 9RU,53.500045358404600,-1.299927456733710
Chipmunk and Night heron,WF4 1RD,53.653657000000000,-1.347225000000000
Myna and Maya,DN7 5RD,53.596789000000000,-1.030459000000000
Zebra and Tree warbler,S73 0QJ,53.506114750875600,-1.417673723967890
Prion and Rabbit,S62 5QU,53.466868912833300,-1.337891449224370
White ibis and Bunting,S73 8DR,53.529350019909000,-1.410325214110630
Mamo and Jackal,S61 4QG,53.448975524941300,-1.375180533115340
Old World quail and Puffleg,S73 0JX,53.516878504601200,-1.398599129291690
Parakeet and Bunting,S65 1NS,53.434053117930700,-1.344738326056080
Partridge and Macaw,DN5 9QX,53.542062030562700,-1.150653965983580
Wader and Rabbit,S64 8NL,53.490854654759800,-1.311563778974420
Partridge and Mole,S60 9SF,53.434038156927700,-1.353544003308070
River dolphin and Coati,S65 1LP,53.438259553147900,-1.336544725007330
Peafowl and Jackal,DN2 6EW,53.527007393194600,-1.101626433317080
Siskin and Old World quail,DN10 6RN,53.433009107245900,-1.020070899463680
Grouse and Booted eagles,S63 0RE,53.544174712091700,-1.325745071319810
Songlark and White ibis,DN2 5PZ,53.537031735031100,-1.092361007168980
Philippine hawk-owl and Dolphin,DN9 3FA,53.483925042505600,-0.989888366636603
Thrasher and Macaw,DN9 3QJ,53.490467000000000,-1.023374000000000
Chickadee and Maya,S72 0DA,53.552400500397600,-1.347047890578210
Kākāriki and Marmoset,WF4 1PU,53.656821725339900,-1.408124832850150
Dorcopsis and Herring gull,S66 7AY,53.441758032407200,-1.204338788260480
Rat and Duck,S61 3JT,53.445465003440600,-1.398749580964490
Parrotbill and Bronzewing pigeon,S62 6EW,53.447027356268700,-1.351991792691280
Grackle and Capuchin,DN4 7JJ,53.498023775287100,-1.089214298873900
Cloud rat and Fish eagle,S62 7RW,53.468604319639700,-1.338000031395730
American sparrow and Fulmarine petrel,DN5 0BX,53.548198568775100,-1.150274564556460
Piping shrike and Macaw,DN1 2SL,53.530354210725100,-1.127534440326050
Minke whale and Capuchin,DN3 2TL,53.558252129850100,-1.058392990278450
Puffleg and Crow,S70 4TQ,53.528211000000000,-1.454254000000000
Armadillo and Stilt,DN4 6PF,53.508416830562900,-1.070791597927050
Parrotbill and Tree warbler,DN4 9NA,53.493512200611200,-1.181288328840160
Scimitar babbler and Scimitar babbler,DN5 0RG,53.564222772215000,-1.153728130350070
Black jay and Petrel,DN3 1JE,53.559077125540400,-1.071946609188380
Quetzal and Marsh harrier,WF7 6BX,53.674981120557800,-1.396123528210340
Chipmunk and Dolphin,S63 0DY,53.549739748425800,-1.299349366552220
Ground sloth and Grosbeak,DN14 9BQ,53.648648883302600,-1.061615262473600
Myna and American sparrow,DN7 5BB,53.600472799389100,-1.027050197676590
Asiatic leopard and Dorcopsis,DN6 9NG,53.622130882077700,-1.180117483672030
American sparrow and Flameback,DN11 9HJ,53.456657689979700,-1.060219782391280
Fish eagle and Vulture,DN1 1PJ,53.523866000000000,-1.138724000000000
Masked owl and Badger,WF9 1FG,53.620279017839500,-1.263999882751710
Mouse and Ice seal,S73 0AG,53.523244990752500,-1.397332476602090
Flameback and Petrel,S63 9EH,53.528101000000000,-1.310930000000000
Parrotbill and Ibex,DN3 2QT,53.547695222346900,-1.075138631728870
Meadowlark and Black cockatoo,S73 8EH,53.535981392256700,-1.419074763316970
Shearwater and Mink,S62 6HN,53.452507183979100,-1.344800766348080
Kākāriki and Kangaroo,S63 6SA,53.499095322409800,-1.351424571669210
Armadillo and Partridge,S74 9AL,53.501008246752600,-1.441970309938490
Pitohui and Ibex,DN11 0XU,53.479647713333100,-1.057511942706010
Jackal and Thrasher,S63 0AN,53.548108127835700,-1.308508000000000
Darwin's finches and Philippine hawk-owl,WF4 1AU,53.669856000000000,-1.413679000000000
Polecat and Grackle,S71 5ND,53.558593172652100,-1.437212689945020
Minke whale and Pratincole,DN11 0AY,53.472515448862300,-1.063846980756290
Goose and Kestrel,DN4 9AR,53.491512106822000,-1.152251848257040
Solitaire and Pratincole,S73 8FF,53.531378497600000,-1.385872163400000
Badger and Gull,S62 6EE,53.450138737906200,-1.347276556192870
Treepie and Tahr,DN4 6UQ,53.505248713564200,-1.066805005618320
Coati and Crow,S61 2LB,53.427640461431200,-1.396954254493150
Fish eagle and Quetzal,S61 1QP,53.437451000000000,-1.392239000000000
Eagle and Perching duck,S73 8PR,53.522409789641700,-1.415595129453200
Old World warbler and Coati,DN3 3SL,53.532593562607500,-1.043060151973850
Polecat and Chickadee,S73 9AL,53.537503223677700,-1.376760370902200
Petrel and Piping shrike,S64 9PQ,53.497250000000000,-1.289105000000000
Nukupuʻu and Ice seal,DN10 6DB,53.451625005933400,-1.047862356422740
Nukupuʻu and Piping shrike,S62 7AL,53.466321903983600,-1.349589210847080
Jay and Stint,DN11 0SL,53.475474010065700,-1.077884593082520
Grouse and Condor,DN7 6AY,53.563628435812500,-1.014986625637440
Civet and Minke whale,DN6 8BT,53.584044533992900,-1.182455698139720
Tattler and Rat,DN4 9HL,53.496831958569500,-1.166104725451440
Tit-tyrant and Parrotbill,WF9 2QS,53.592610867789900,-1.294077854288560
Rat and Maya,S71 5DY,53.547510790800000,-1.418494383443600
Piping shrike and River dolphin,DN3 1SH,53.565238948050200,-1.073699120256680
Jerboa and Greenbul,S63 7FQ,53.508677268200000,-1.345910573700000
Scimitar babbler and Recurvebill,DN5 8DU,53.528551918308700,-1.155706394361050
Warbler and Moluccan boobook,DN1 1AF,53.525920955871900,-1.136119000000000
Crow and Booted eagles,DN7 6BH,53.575451254095200,-0.998779000000000
Darwin's finches and Hawk,DN5 0DJ,53.546037406550200,-1.145941170962740
Meadowlark and Lemming,S66 7RJ,53.446096770456700,-1.196308000000000
Pratincole and White ibis,DN5 7HS,53.522844224528200,-1.285373203882270
Goose and Perching duck,DN3 3FG,53.537133000000000,-1.037405000000000
Flameback and Tattler,DN4 0SE,53.503769818091900,-1.163330149891500
Pheasant and Chickadee,S73 0RA,53.517396440884000,-1.389060265867280
Parakeet and White ibis,DN5 9SD,53.531232805765000,-1.144639801102700
Fox and Wallaby,DN11 9JY,53.438776492057500,-1.110397847072630
Jerboa and Kangaroo,S5 0EL,53.437279432567600,-1.445876015352330
Greenbul and Kangaroo,S70 3AJ,53.540948257745300,-1.448673495236090
Old World vulture and Herring gull,DN10 6DA,53.441068495088100,-1.044033520661420
Marsh harrier and Nukupuʻu,S72 9BY,53.611602724329000,-1.402968037716470
Kite and Scimitar babbler,S72 8BG,53.589202128143400,-1.420958963670480
Elephant and Jackal,DN5 8BL,53.523941204411000,-1.162163541748580
Songlark and Meadowlark,DN5 9LB,53.544726590798200,-1.163971693242780
Hawk and American sparrow,S63 0EB,53.548081454141800,-1.301670810139450
Macaw and Partridge,DN1 1NJ,53.524167113630500,-1.133318124702710
Kangaroo and American sparrow,S72 9LP,53.592854407872500,-1.382004947407050
Ibex and B,S62 7HN,53.471922828132600,-1.341564120332200
Quetzal and Parakeet,DN5 9TR,53.534242230023500,-1.148170057895590
Crow and Elephant,DN10 6SD,53.429377058860900,-1.024398731981290
Ground sloth and Booted eagles,DN2 6AZ,53.523849000000000,-1.101030000000000
River dolphin and Argus,S71 3JR,53.587058886816700,-1.454554434385970
Masked owl and Boto,S63 9JG,53.535954087157500,-1.296755396067960
Grosbeak and Ground sloth,WF9 4BX,53.608150626140600,-1.347986000000000
Stint and Gull,DN4 9NZ,53.500278760363900,-1.175775996657200
Black cockatoo and Rabbit,DN3 3PW,53.528234000000000,-0.996890000000000
Hawk and Condor,S73 9AP,53.538544485290100,-1.374768417031160
Kestrel and Bunting,S64 0NH,53.506023561204700,-1.311031000000000
Asiatic leopard and Hawaiian honeycreeper,S63 0AF,53.542371000000000,-1.314939000000000
Scimitar babbler and Eagle,S63 9GD,53.530528069850000,-1.314315172078450
White ibis and Mole,DN7 5HX,53.601883866289700,-1.014943273736640
Goose and Scimitar babbler,S62 5EA,53.463732978995300,-1.328420685629060
Macaw and Rabbit,S72 7ND,53.576187843796800,-1.376418366658070
Polecat and Shearwater,S63 7AZ,53.495458752298400,-1.335743000465500
Mamo and Dorcopsis,WF9 4RZ,53.608152569910000,-1.358068037360210
Puffleg and Tahr,S74 0HA,53.504988924170100,-1.447511657366000
Hawk and Scimitar babbler,DN1 1HZ,53.524255697071300,-1.130661491805330
Old World warbler and Grackle,S70 3FB,53.540309769129100,-1.446659775275980
Mockingbird and Mockingbird,DN5 9JN,53.547571039764500,-1.159418091739400
Pratincole and Crow,DN6 8HU,53.586615000000000,-1.195488000000000
Ground sloth and Buzzard,S63 0NS,53.548630445222800,-1.318942933376710
Recurvebill and Kangaroo,DN3 2RH,53.555733126528200,-1.058116805661260
Gull and Cuscus,S65 1BL,53.436133647743600,-1.353753058790200
Lemming and Pitohui,WF8 3JY,53.643630820086000,-1.216292228368650
Parrotlet and Recurvebill,S63 6HU,53.500618017196900,-1.350436501827040
Dolphin and Guillemot,S73 9AB,53.535547045891600,-1.375672573183980
Lemming and Masked owl,S63 0QP,53.545833036667900,-1.318595440120840
Marsh harrier and Masked owl,DN5 9BP,53.535714539335800,-1.158068605353190
Perching duck and Tree warbler,S61 2QT,53.462022089987800,-1.437541128612210
Boto and Greenbul,S63 7RE,53.502882179204800,-1.348607810030130
Partridge and Chicken,DN4 0EF,53.516617735610600,-1.147226487434790
Tattler and Vulture,S74 8HG,53.494799000000000,-1.417693000000000
Tahr and Meadowlark,WF9 3PU,53.590752389507400,-1.327362000000000
Maya and Myna,S61 3JX,53.443984083029200,-1.393847325628050
Herring gull and Parakeet,S61 3BE,53.448257144630400,-1.403468191163330
Marsh harrier and B,S64 8RQ,53.487115287071300,-1.317818431303700
Fish eagle and Viscacha,S61 2FA,53.447365000000000,-1.410002000000000
Darwin's finches and New World blackbird,DN6 8SP,53.583693974751400,-1.185090788715660
Hawk and Wader,WF9 4HE,53.611726749739100,-1.359147486284770
Greenbul and Dorcopsis,DN6 0JT,53.616253200277100,-1.148047296575760
Flameback and Stilt,WF8 3SH,53.675156780355900,-1.311999898124580
Recurvebill and American sparrow,WF9 2LA,53.586537718638100,-1.297653458616420
Grackle and Prion,DN5 7EP,53.524196215519300,-1.269617784701070
Elephant and Argus,WF4 2EU,53.622986359184800,-1.407464166529860
Wader and Skunk,DN4 0QL,53.509042922818400,-1.150122851426700
Thicketbird and Myna,DN5 9SL,53.533179608812700,-1.144117783067980
Fulmarine petrel and Elephant,WF4 1AB,53.650889000000000,-1.388071000000000
Puffleg and Warbler,DN1 1SB,53.522170481527900,-1.136888403927580
River dolphin and Warbler,S65 3EW,53.443460657882800,-1.313669854312230
American sparrow and Parrotbill,S65 2AU,53.428744017257700,-1.342050712464530
Armadillo and Armadillo,S60 2NG,53.429091210205600,-1.349645755393870
Ground sloth and Francolin,S65 1LU,53.438656408366400,-1.331947169640090
Flameback and Thicketbird,DN1 3NA,53.522535936142800,-1.130139000000000
Coati and Towhee,DN11 9GD,53.456271138024300,-1.146477859774110
Shearwater and Scimitar babbler,WF9 4RL,53.605659902252000,-1.357395000000000
Kestrel and Old World quail,S63 9NR,53.531134469821500,-1.299520615086450
