name,postcode,lat,lon
Argus and Songlark,OL11 2NL,53.598941070155000,-2.161838890809570
Mockingbird and Hawaiian honeycreeper,OL8 4RE,53.522576933614300,-2.139978323623900
Crow and Ice seal,OL10 4RE,53.593279180500200,-2.236845170888050
Recurvebill and Jay,M11 1DU,53.475292017776800,-2.165600946461110
Warbler and Moluccan boobook,M1 5BZ,53.472598000000000,-2.243464000000000
Prion and Tree warbler,M8 5EJ,53.512061173685400,-2.245394012708470
Grackle and Tit-tyrant,M45 6BG,53.547802357409300,-2.291873453392090
Marsh harrier and Songlark,M6 5UX,53.488267949337800,-2.286159221926370
Warbler and Perching duck,OL10 1BJ,53.589838188503600,-2.217111133870930
Old World quail and Tit-tyrant,M1 3JE,53.477336985760100,-2.237418775422980
Masked owl and Dolphin,M40 3PP,53.515927959396000,-2.166121533091220
Partridge and Night heron,BL8 2DU,53.585181770000000,-2.327749862000000
Towhee and Chickadee,BL8 3ED,53.605811500000000,-2.333682795000000
Quetzal and Night heron,OL10 4QA,53.593347172254300,-2.229805000000000
Maya and Nukupuʻu,M8 0QB,53.507561629023200,-2.234632573438090
Mockingbird and Chipmunk,BL2 1LS,53.573478350000000,-2.412181443000000
Jackal and Jackal,M34 2GD,53.452268547154700,-2.140710333148470
Prion and Tree warbler,OL11 5NJ,53.612652250296100,-2.195205382362450
Kākāriki and New World blackbird,OL16 5SZ,53.611386194367800,-2.143567440023990
Triller and Black cockatoo,M32 9PA,53.454579002423600,-2.328128067109380
Dolphin and Buzzard,OL9 8DH,53.521215484058600,-2.164422825805620
Old World quail and Jerboa,M1 4AB,53.478156759993400,-2.240994333448530
Ice seal and Puffleg,M41 9FD,53.444974811153800,-2.363781199437930
Cuscus and Lemming,M40 1NS,53.501841995654500,-2.173242452251850
Maya and Macaw,M41 5SQ,53.451513052441100,-2.365553721785140
Capuchin and Francolin,M7 4PU,53.506255338300000,-2.255854572500000
Booted eagles and Ice seal,M45 6AA,53.545671227483700,-2.292236063826450
Parakeet and Fox,M19 3FW,53.448632389899700,-2.183881604167910
Pitohui and Marmoset,BL4 9PB,53.542573130000000,-2.402555135000000
Boto and Warbler,OL1 2RJ,53.555320717396400,-2.155166267212020
Fish eagle and Songlark,M26 1UQ,53.553551241358900,-2.321331660146430
Snipe and Kite,M5 0LY,53.481217000000000,-2.280430000000000
Dorcopsis and Mouse,BL2 1PJ,53.570884620000000,-2.405783823000000
Stilt and Parrotbill,M28 3ER,53.536224155127700,-2.400820094758590
Bronzewing pigeon and Boto,M45 7WH,53.548375244274500,-2.300087643450350
Solitaire and Gull,M6 6NZ,53.490198695786600,-2.279314608247290
Kākāriki and Stilt,M26 1GL,53.540771974178900,-2.364421460193100
Marmoset and Parrotlet,M24 5SP,53.562168883649100,-2.213949809552440
Grosbeak and Snipe,M11 1GY,53.478970000000000,-2.171612000000000
Myna and Viscacha,M40 2JB,53.501503975613300,-2.182919654054500
Mockingbird and Mamo,OL2 5XU,53.573853305998100,-2.133986569565690
Vulture and Mockingbird,M5 3JR,53.475622816822600,-2.281689705585640
Peafowl and Dolphin,M40 1JU,53.499298418679700,-2.179231873891240
Tree warbler and River dolphin,M14 7DG,53.443002649753600,-2.231987976961920
Thicketbird and Linsang,M28 7BQ,53.519123011194400,-2.396978554380330
Kestrel and Towhee,M14 5WP,53.452793600442400,-2.226018016441440
Old World quail and Songlark,M35 9DS,53.513693135596700,-2.150505000000000
Gull and Magpie,M30 8QJ,53.483405793621000,-2.365059494688140
Hawk and Treepie,M40 0FT,53.521743070843000,-2.172720442138540
Kite and Wader,M35 0TF,53.499554876632500,-2.163374078347370
Viscacha and Tit-tyrant,M11 4WN,53.484058777108900,-2.176048154616700
Badger and Dolphin,M7 2YW,53.498516973852900,-2.257556321059760
Crow and Wallaby,M4 6AL,53.485902000000000,-2.224386000000000
Chipmunk and Old World quail,BL4 7UF,53.548655280000000,-2.406099257000000
Masked owl and Peafowl,M13 0ZN,53.454711891599700,-2.209177073238170
Old World vulture and Macaw,M40 3WS,53.515935796738800,-2.173254778820910
Coati and Pitohui,M15 5XF,53.468653987729500,-2.254919883774420
Logrunners and Masked owl,M24 2WB,53.554832219576800,-2.182787631306870
Puffleg and Kangaroo,M40 0DY,53.517587210031500,-2.174770000000000
Egret and Mole,M17 1DJ,53.470020570387200,-2.304641080559790
Buzzard and New World blackbird,BL3 1JW,53.557471330000000,-2.367704941000000
Darwin's finches and Goose,OL9 7JB,53.529050840329800,-2.138023515810280
Prion and Mole,M16 9QG,53.454799620149000,-2.268631006210180
Diving bird and Fish eagle,M1 2BN,53.477047000000000,-2.229974000000000
Kākāriki and Ground sloth,OL11 1ER,53.611931480000000,-2.156674233200000
Kangaroo and Coati,OL8 4QX,53.522815000000000,-2.137204000000000
Chicken and Black cockatoo,M34 3QH,53.458783538824200,-2.126123199536510
Ice seal and Thicketbird,M13 9HA,53.464376000000000,-2.218819000000000
Chipmunk and Treepie,M8 9LP,53.509984060184800,-2.241371067127300
Parrotlet and Puffleg,OL8 3JQ,53.513901962751600,-2.124839457007790
American sparrow and Chickadee,M24 4RQ,53.542948000000000,-2.235613000000000
Tattler and Mouse,M6 8PQ,53.493296226909500,-2.316730597301450
Macaw and Lemming,M40 8NN,53.501461531325800,-2.214654000000000
Egret and Ground sloth,M13 0PN,53.451510616820900,-2.199479049198320
Mink and Duck,M41 9BL,53.449095484038200,-2.341140331888050
Magpie and Minke whale,M21 0UR,53.444599327041700,-2.263854206770600
Black cockatoo and Tattler,M15 6NW,53.463930020329200,-2.239994863039800
Triller and Skunk,M4 4AF,53.485761527630200,-2.236230116439340
Wallaby and Old World quail,M7 2GQ,53.504639308751400,-2.261136518215470
Solitaire and Duck,BL8 2AE,53.593085060000000,-2.309681000000000
Eagle and Rat,M5 4YG,53.473377000000000,-2.265433000000000
Chickadee and Badger,BL4 9NG,53.540575050000000,-2.397979097000000
Triller and Macaw,M24 6DG,53.555936244993400,-2.195125025747150
Treepie and Solitaire,M25 0HY,53.522361311760000,-2.266630269023710
Francolin and Pitohui,M15 6NH,53.462844368412700,-2.243468053730810
Quetzal and Armadillo,M26 3RW,53.563343120125700,-2.339553366810680
Marmoset and Maya,M3 1LS,53.491070804813000,-2.246553820541590
Grackle and Marmoset,OL12 6UD,53.617735368872000,-2.161941114147330
Perching duck and Philippine hawk-owl,M27 6PZ,53.522815238060500,-2.336106700749690
Boto and Parakeet,M8 0EN,53.501860293993600,-2.240495701333060
Maya and Black cockatoo,OL12 0NY,53.620048546982400,-2.159561357663880
Petrel and Pheasant,M14 6JG,53.445039584274500,-2.219563087906310
Philippine hawk-owl and Kākāriki,M12 5SG,53.450314287104100,-2.188963270432090
Dorcopsis and Peafowl,M8 8AN,53.496665000000000,-2.245305000000000
Kite and Petrel,M7 1UL,53.495547894857600,-2.258894933730190
Skunk and Minke whale,M4 6EJ,53.485045689200000,-2.222919725100000
Condor and Parakeet,M40 7HQ,53.487291136064400,-2.216435795806760
Buzzard and Eagle,M14 5AP,53.453849782850000,-2.223614222020760
Stilt and Stint,M5 5BY,53.483058223444300,-2.309933420164470
Chicken and Solitaire,M3 4FN,53.475915419580700,-2.251272122773680
Polecat and American sparrow,M45 8NL,53.550172945527600,-2.281611447343130
Macaw and Solitaire,M30 8NL,53.489150202719700,-2.364807427042750
Gull and Goose,M1 2PZ,53.474894000000000,-2.227887824535720
Myna and Prion,OL10 4LH,53.595786617023600,-2.218108656085890
White ibis and Philippine hawk-owl,M30 0HA,53.481323049302000,-2.339816800475730
Parrotlet and Warbler,M32 0LW,53.445505586469700,-2.305940993162130
Mole and Vole,BL9 8EP,53.562471060000000,-2.280742063000000
Kite and Old World warbler,M15 6PU,53.467761998813100,-2.238555318827300
Parrotlet and Peafowl,M24 5LJ,53.565387135444000,-2.213709397317830
Bronzewing pigeon and Partridge,M9 0GS,53.533855775812800,-2.242095344558510
Greenbul and Greenbul,M45 6TY,53.542610382140500,-2.279207118539050
Kangaroo and Thrasher,OL9 0HN,53.546616000000000,-2.137220000000000
Grouse and Magpie,M43 7JZ,53.485995937932800,-2.130438787730490
Jackal and Polecat,M18 8UH,53.461510528100200,-2.167158810184240
Lemming and Parrotbill,M28 2GN,53.509454085470100,-2.385187163079980
Night heron and Boto,M44 6DU,53.446780945034600,-2.413648284127540
Peafowl and Vulture,OL11 5JB,53.609676792901700,-2.206119193018640
Puffleg and Hawk,M41 0PY,53.455074246655000,-2.346895749402730
Lemming and Elephant,M28 0BH,53.525720403441800,-2.418098045963780
Mamo and Wader,BL2 4LY,53.595243890000000,-2.392056528000000
Grosbeak and Rat,M40 9QE,53.516660927734300,-2.192757543517280
Meadowlark and Argus,BL4 7BU,53.548945500000000,-2.402676013000000
Herring gull and Triller,M14 4SN,53.456054007786900,-2.241034696134640
Stint and Buzzard,M14 4RD,53.453224298863400,-2.244632717624290
Mole and Booted eagles,M45 6TS,53.542138000000000,-2.281633000000000
Mockingbird and Pheasant,M13 0LX,53.459711396648300,-2.208087170418360
Black cockatoo and Warbler,M27 0NE,53.511780655898200,-2.344448688615260
Logrunners and Crow,M41 5PD,53.452208617055900,-2.384487960585680
Fish eagle and Lemming,M14 7TL,53.452280419573500,-2.235742918477860
Prion and Myna,M41 9AQ,53.447270594048600,-2.347449438938950
Egret and Buzzard,M40 9BQ,53.506408624240500,-2.196148615631840
Chicken and Minke whale,M6 8GP,53.494198386253900,-2.308477000000000
Philippine hawk-owl and Flameback,M6 6BP,53.491113458313500,-2.276111000000000
Mouse and Herring gull,M2 6EX,53.481145709345500,-2.247445527740880
Crow and Greenbul,M3 6NH,53.487537593923800,-2.259629783924770
Badger and Philippine hawk-owl,M27 6ED,53.515783717361200,-2.333819053467160
Fulmarine petrel and Hawaiian honeycreeper,M45 8HR,53.548033093255200,-2.270202593522700
Condor and Crow,M45 7FW,53.541273398487500,-2.293262036539910
Ice seal and Buzzard,M16 9BN,53.463599128663000,-2.264710167231170
Tit-tyrant and Flameback,M24 1DP,53.545661631976500,-2.195696450772620
Triller and Armadillo,OL9 9UT,53.542647159661300,-2.168429469031000
Civet and Francolin,OL11 4QP,53.603858062905200,-2.174325194202850
Old World quail and Herring gull,M43 7LY,53.492364295283800,-2.134437486616560
Stilt and Parrotbill,M24 5LA,53.559612204892400,-2.200712508088540
Armadillo and Marmoset,M26 3WA,53.566323434196100,-2.347141739847430
Old World vulture and Capuchin,M24 5WW,53.561628492647800,-2.209614000000000
Ibex and Pitohui,M28 7GJ,53.511205248551800,-2.404700456545740
Chicken and Mouse,M13 9BL,53.463185784394500,-2.229944233635040
Armadillo and Kestrel,M45 8GQ,53.552773000000000,-2.296119000000000
Old World warbler and Argus,M4 6JL,53.483720000000000,-2.223349000000000
B and Cuscus,M43 6QX,53.480796735787600,-2.162849842502860
Magpie and Jay,M41 6PE,53.446006121066900,-2.390153231003200
Capuchin and Hawk,M3 7NW,53.486312319329700,-2.248289423062860
Jackal and Dorcopsis,M9 8FU,53.525418948532100,-2.240478428232580
Scimitar babbler and Cuscus,OL11 2XF,53.582491131565500,-2.175551226487490
Ice seal and Kangaroo,M27 6FT,53.519576845079400,-2.337016142593710
Egret and Elephant,M5 3DU,53.468378108262700,-2.281686885355040
Vole and Pitohui,M24 1WE,53.540102275128400,-2.208994707342160
Ice seal and Maya,M13 0UQ,53.449309159849900,-2.204362308360180
Recurvebill and Civet,M9 8HN,53.527408693411800,-2.234289822591600
Maya and Night heron,OL11 2TP,53.587534063835200,-2.175209604996960
Treepie and Bronzewing pigeon,M45 7LA,53.545200224610500,-2.307988065222630
Tree warbler and Gull,OL16 4RS,53.600807257610600,-2.135673782139870
Old World warbler and Old World quail,M32 9DB,53.444199166133700,-2.317448996883250
Wallaby and Fulmarine petrel,BL4 7AZ,53.548750000000000,-2.394162000000000
Skunk and Fulmarine petrel,M41 8RZ,53.451933303706100,-2.391758579315880
Parrotbill and Puffleg,M32 9FB,53.443604000000000,-2.318679000000000
Capuchin and Peafowl,BL8 2HG,53.590481160000000,-2.335571198000000
Marmoset and Maya,M8 5AH,53.513914352873500,-2.240202097389160
Parrotbill and Kangaroo,M14 7TG,53.451385736100000,-2.235979156000000
Francolin and Kite,M8 0PB,53.505816307843100,-2.239945182851050
Tahr and Treepie,M6 5UB,53.486077093320900,-2.281397339399090
White ibis and Masked owl,M45 8ET,53.546924363261700,-2.275522943562580
Buzzard and Darwin's finches,BL2 5LN,53.585805230000000,-2.386818057000000
Piping shrike and Greenbul,OL10 3QJ,53.585841517846000,-2.243480254341820
Meadowlark and Marmoset,M11 3QB,53.479873911516100,-2.202053253156620
Coati and Siskin,BL3 1SG,53.569449820000000,-2.396755430000000
Fox and Bronzewing pigeon,M7 1PW,53.489915195720700,-2.265688025222830
Night heron and Armadillo,M26 2AJ,53.560803000000000,-2.324811000000000
Darwin's finches and Francolin,M41 9BQ,53.447840182073900,-2.352452923418160
Masked owl and Pratincole,BL3 1JQ,53.557591990000000,-2.369381607000000
Skunk and Meadowlark,OL9 6TB,53.541054669526200,-2.125945593721750
Magpie and Black jay,M25 9QH,53.525921182855200,-2.289340000000000
Tree warbler and Argus,M32 9JD,53.446546189306100,-2.320432590871590
Perching duck and Cloud rat,M7 2WS,53.506645234027000,-2.242980000000000
Parrotlet and Peafowl,M4 5EL,53.487105125182200,-2.234037284701880
Armadillo and Songlark,BL8 9TH,53.592643000000000,-2.310205000000000
Peafowl and Kestrel,BL2 3QQ,53.599124540000000,-2.384461685000000
Skunk and Masked owl,BL3 1AA,53.564462106086900,-2.372869066708630
Pheasant and Thrasher,OL16 2XX,53.621542237930500,-2.136466076903660
Hawk and Zebra,M6 6GZ,53.489867000000000,-2.278889000000000
Meadowlark and Duck,M14 7JU,53.450452347389200,-2.241936518545250
Hawaiian honeycreeper and Chicken,M3 3WF,53.478651198669500,-2.249706205228400
Ibex and Siskin,M9 6GU,53.535559047897100,-2.211325999689900
Moluccan boobook and Viscacha,BL2 2LT,53.589626670000000,-2.408033138000000
Magpie and Vole,M41 6LA,53.445002578477500,-2.389180462582730
Tattler and Herring gull,OL12 7QH,53.622892260502800,-2.199198723341680
Treepie and Mink,M24 4WT,53.553912000000000,-2.222587000000000
Pheasant and Siskin,M6 8JF,53.487072586429600,-2.328062500254220
Stint and Petrel,M40 1PG,53.500538464079500,-2.173387883472680
Jay and Pitohui,OL9 9HB,53.543191093688000,-2.144301961361020
Lemming and Perching duck,M30 8PH,53.483106027321300,-2.363143128827160
Petrel and Kangaroo,BL4 7QH,53.550423320000000,-2.390721193000000
Kangaroo and Lemming,M5 4FD,53.481342780598800,-2.287845462127420
Armadillo and Triller,M5 3RN,53.475986355769400,-2.272215188060780
Greenbul and Condor,M41 8QD,53.457002116000300,-2.378040436856190
Kite and Mole,OL2 5LT,53.562988897163900,-2.131778125169440
Vole and Parakeet,M24 5GP,53.558188113617700,-2.213356059487700
Masked owl and Cloud rat,BL2 4HA,53.598690910000000,-2.376675926000000
Dolphin and Fox,M12 4RG,53.466828027075100,-2.214433578050170
Marmoset and Buzzard,M8 4PH,53.521264532511600,-2.241359837558620
Asiatic leopard and Partridge,OL10 1HU,53.593059000000000,-2.221041000000000
Stilt and Pratincole,M9 4BU,53.516095358588400,-2.208393822175310
Cloud rat and Dolphin,M35 9NB,53.507006425745100,-2.142188565676260
Kestrel and Buzzard,OL11 5XB,53.622993632252000,-2.203054530084150
Goose and Treepie,M43 7UQ,53.484858783199300,-2.149679379133340
Jackal and Diving bird,M13 9LD,53.471599000000000,-2.229747000000000
Armadillo and Flameback,M30 7FF,53.477958000000000,-2.365117000000000
Jerboa and Jerboa,OL12 0UT,53.624442121123000,-2.154090000000000
Kite and New World blackbird,OL10 4BB,53.604466000000000,-2.220450000000000
Grackle and Darwin's finches,M27 8LA,53.524630077198300,-2.329951748286750
Solitaire and Hawk,M7 4LW,53.516451082729700,-2.264768326362590
Ice seal and Francolin,M24 2FY,53.548751436818200,-2.173871933819390
Snipe and American sparrow,BL2 3DD,53.602277410000000,-2.406810193000000
Pratincole and Bunting,OL8 4EB,53.526616494259200,-2.128632978509370
Armadillo and Buzzard,M32 0XL,53.458998280542400,-2.287483335551250
Diving bird and Rat,OL10 3HA,53.591801667057500,-2.229388749469540
Recurvebill and Triller,M16 0GQ,53.452257742723400,-2.283372043288970
Marmoset and Hawaiian honeycreeper,M19 3BZ,53.446495890185800,-2.187877311721150
Fulmarine petrel and Mamo,M45 8XZ,53.555344073802900,-2.287970551309250
Vole and Songlark,BL4 8RR,53.530706500000000,-2.354951423000000
Chickadee and Vulture,M43 7LN,53.498004000000000,-2.123783000000000
Peafowl and Quetzal,M6 5RS,53.484681000000000,-2.290487320424100
Petrel and Black cockatoo,M40 3WB,53.508398323192800,-2.176797506515540
Solitaire and Fulmarine petrel,BL2 5RE,53.588641780000000,-2.350119498000000
Old World vulture and Wallaby,OL11 5LD,53.614095627589000,-2.186278637866970
Condor and Pheasant,M6 8HD,53.487543648930100,-2.323424340116240
Gull and Pheasant,M25 2SD,53.549344110636000,-2.250152762750800
Black jay and Mamo,M9 8FY,53.522876000000000,-2.217221000000000
Rat and Egret,SK5 6JU,53.446514183435200,-2.163230399410600
Shearwater and Coati,M50 2BH,53.472077401200000,-2.299880000000000
Rat and Armadillo,M5 4YE,53.473519000000000,-2.266127000000000
Jerboa and Shearwater,M14 4EF,53.456553044902800,-2.229546925772160
Minke whale and B,BL2 4DJ,53.609970900000000,-2.390787382000000
Siskin and Marsh harrier,M40 0EW,53.518169388516600,-2.176340548260940
Solitaire and Fox,M7 2EY,53.505213103325300,-2.265874230658180
Armadillo and Perching duck,M30 0EZ,53.480080134192400,-2.340695881262780
Vulture and Puffleg,M28 3UD,53.526779000000000,-2.400701000000000
Old World warbler and Myna,M60 1LN,53.487361026924400,-2.227196609855210
Solitaire and Condor,M28 3BJ,53.528980728362600,-2.400449946140780
Badger and Snipe,M26 4GN,53.569958629811600,-2.336344785176100
Badger and Pheasant,M27 8JN,53.522586000000000,-2.318442000000000
Tree warbler and Darwin's finches,M43 6JJ,53.483109254299100,-2.167545217597800
Bronzewing pigeon and Chickadee,M30 8PB,53.483309025345700,-2.361411895536630
B and Black cockatoo,M4 4DX,53.488226354239900,-2.239740294271480
Linsang and Macaw,M44 6JY,53.452376193662300,-2.417557624578110
Civet and Songlark,M30 0EX,53.481025535379400,-2.340130859144890
Zebra and Night heron,OL1 2SS,53.566859000000000,-2.151283000000000
Towhee and Diving bird,M9 0GD,53.536153400997600,-2.230173861459900
Buzzard and Duck,M18 8LQ,53.464283003781100,-2.170664213555420
Jackal and Greenbul,M40 2GY,53.499957931609800,-2.182943140171210
Magpie and Quetzal,BL9 5JQ,53.618170330000000,-2.299766503000000
Fulmarine petrel and Cloud rat,OL12 6RG,53.619659005528500,-2.161827546494940
Parrotlet and Treepie,OL2 5UH,53.566007250999300,-2.133327582000980
Buzzard and Shearwater,M26 3GG,53.563763365084400,-2.349672301374500
Perching duck and River dolphin,BL3 1SF,53.570113530000000,-2.397184451000000
Eagle and Piping shrike,M6 8BY,53.489057500383800,-2.311861103433310
Stilt and Kestrel,M43 7XB,53.485123068227000,-2.139267039854920
Recurvebill and Gull,BL9 6QZ,53.619099160000000,-2.291261893000000
Moluccan boobook and Solitaire,M30 8SH,53.488676000000000,-2.361398329596350
Piping shrike and Macaw,M24 4BR,53.552387814755000,-2.204693215824140
Old World vulture and Skunk,M27 8BB,53.514478234528300,-2.324820909240650
Towhee and Grosbeak,BL4 9LJ,53.542494580000000,-2.393756734000000
Nukupuʻu and Linsang,M4 6FY,53.484940000000000,-2.228206000000000
Mouse and Asiatic leopard,OL11 4DS,53.611266858705300,-2.190377380520340
Ibex and Armadillo,BL3 2PQ,53.561854690000000,-2.410060438000000
Eagle and Mink,BL4 8RP,53.531922190000000,-2.354192183000000
Rat and White ibis,BL4 8JA,53.539733940000000,-2.383062943000000
White ibis and Coati,M35 0SF,53.501155188762200,-2.156385187684770
Vulture and Duck,OL16 5NZ,53.609852680177900,-2.140645182905170
Stilt and Grouse,M18 7GP,53.456066439188800,-2.177573681422610
Old World warbler and Shearwater,BL2 5FA,53.588668550000000,-2.385258012000000
Partridge and Rat,M8 4RA,53.519387760555900,-2.231364850941970
Asiatic leopard and Maya,M16 8AL,53.453969770453300,-2.261849277653840
Prion and Duck,M27 6PH,53.529543922989500,-2.340565033824880
Gull and Snipe,M25 9SN,53.516225785389900,-2.284568177897090
Civet and Elephant,BL8 2HB,53.589774680000000,-2.343798981000000
Magpie and Pitohui,M5 4NQ,53.489705000000000,-2.271655000000000
Chicken and Darwin's finches,M15 4WB,53.469724764414200,-2.266736822294830
Tit-tyrant and Duck,M9 6FH,53.536339626051100,-2.217123703796980
Marsh harrier and Kite,M28 1LA,53.500828658075600,-2.416300173747600
Warbler and Mockingbird,M1 1FY,53.481505025484700,-2.234006000000000
Cuscus and Old World vulture,M32 9PB,53.454579299207500,-2.331275421393660
Eagle and Stint,M41 5RA,53.452476279896100,-2.356150516999010
Chickadee and Shearwater,M26 1BG,53.549727168130600,-2.326132381930080
Black jay and Viscacha,OL11 4QZ,53.602933347729700,-2.185549423428850
Boto and Warbler,OL10 3LX,53.588903011901900,-2.240778650182650
Cuscus and Fish eagle,M8 4WW,53.519841464389900,-2.247173470089580
Vulture and Argus,BL8 9TB,53.590171260000000,-2.299991144000000
Argus and Buzzard,BL8 3DF,53.605928590000000,-2.330132000000000
Darwin's finches and Jerboa,M28 3LU,53.523155353443500,-2.387076290029930
Nukupuʻu and New World blackbird,OL10 2DT,53.586725017264200,-2.218877666458160
Scimitar babbler and Wader,M30 0FT,53.482101855642900,-2.347176628108560
New World blackbird and Kangaroo,M3 7DZ,53.486313858875700,-2.251846024510300
Maya and Old World warbler,BL2 5DL,53.590833090000000,-2.394040081000000
Prion and Philippine hawk-owl,BL4 7DR,53.549205240000000,-2.402950149000000
Old World warbler and Ground sloth,M16 7QT,53.458793500460600,-2.267300786816690
Pratincole and Magpie,M7 4PX,53.514357635180800,-2.247609011233470
Logrunners and B,M26 3TT,53.570378659516000,-2.358817244822760
Asiatic leopard and Quetzal,M27 0DL,53.503046106788400,-2.355956411285430
Boto and Ibex,OL9 0DQ,53.547421902690300,-2.139004001914680
Cuscus and Condor,OL9 8HT,53.525357199517700,-2.152326328424130
Meadowlark and Kangaroo,BL9 6ED,53.600906950000000,-2.287525073000000
Tree warbler and Crow,M19 3LS,53.443325211015800,-2.180591704550400
Darwin's finches and Greenbul,M16 0BL,53.450909585731000,-2.271723396624960
Quetzal and Tree warbler,M45 7LG,53.544766882528600,-2.308724379947530
Tree warbler and B,BL9 9BY,53.586775000000000,-2.285042000000000
Shearwater and Myna,M9 0RG,53.535325631206300,-2.221101661569450
Myna and Guillemot,BL4 0EA,53.554567400000000,-2.417190068000000
Tree warbler and Recurvebill,M40 1LS,53.499086228227700,-2.176864231736970
Night heron and Chickadee,M35 9BP,53.514706069393300,-2.152242820996080
Mole and Jay,M14 4HF,53.454004873855300,-2.231837174891140
Black jay and Minke whale,BL8 2DA,53.587154000000000,-2.323339000000000
Siskin and Mink,M50 3XU,53.472470065508900,-2.288297591576160
Fox and Philippine hawk-owl,M14 7SB,53.444166669444700,-2.229660741257260
Chicken and Black cockatoo,OL16 1DR,53.619568977788000,-2.155009000000000
Meadowlark and Kite,M41 7LG,53.473223217821400,-2.352633222436610
B and Gull,M30 7SA,53.469265188106100,-2.388393209119840
Cloud rat and Moluccan boobook,M6 7WS,53.501645302465300,-2.313777720705200
Stilt and Coati,OL8 3LH,53.516707000000000,-2.125617000000000
Triller and American sparrow,M12 5WF,53.468384000000000,-2.187944000000000
Mockingbird and Snipe,M26 1BJ,53.552841762781500,-2.324435637108580
Old World warbler and Ground sloth,M15 4BD,53.467189281946500,-2.258902935909790
Goose and Lemming,M15 4LG,53.473479759358800,-2.259574020761630
River dolphin and Vulture,M19 3HH,53.445715224328100,-2.181204091806570
Meadowlark and B,M34 2PA,53.455284838270300,-2.143927951208500
Chicken and Mockingbird,M40 2UW,53.494200532501700,-2.186053526049610
Pheasant and Argus,M6 5GT,53.483360504175100,-2.297096598586110
Civet and Mockingbird,M8 0LY,53.503087118713600,-2.238301519563820
Hawaiian honeycreeper and Badger,M8 5EP,53.514903000000000,-2.230750000000000
Zebra and Nukupuʻu,M16 9LL,53.460876721043500,-2.264211255282320
Minke whale and Gull,BL8 1UT,53.603789150000000,-2.320534408000000
Chicken and American sparrow,M24 6JD,53.566125835586200,-2.197059314870110
Parakeet and Boto,M1 2FJ,53.481557268494500,-2.230556000000000
Marmoset and Night heron,M32 8QT,53.445471991356000,-2.297900918186150
Petrel and Chipmunk,M41 6LS,53.446474529941800,-2.406026831245370
Myna and Puffleg,OL2 6TP,53.575682562046400,-2.129793997668080
Nukupuʻu and Puffleg,BL2 1JS,53.579247380000000,-2.412615178000000
Darwin's finches and Pitohui,BL8 2AZ,53.589230230000000,-2.312946210000000
Fish eagle and Argus,M18 7RD,53.455599004751000,-2.183535255123600
Logrunners and Elephant,M28 3DD,53.522533292197400,-2.401263926540260
Mamo and Dorcopsis,M18 8LY,53.464463889976200,-2.169881687788110
Maya and Chickadee,M7 4AP,53.507219809410100,-2.252392237053770
Treepie and Songlark,M26 1QS,53.546425663719300,-2.364424782130600
Mouse and Egret,M41 0SX,53.458169657190400,-2.351890921718140
White ibis and Solitaire,M26 3NN,53.569351465845900,-2.350579122319040
Ice seal and Egret,M40 9WT,53.513654669159900,-2.200721196809510
Pitohui and Pheasant,M41 6NE,53.446707395119500,-2.400955062473760
Flameback and Pitohui,M28 3SH,53.520923981911500,-2.406693547778780
Stint and Mole,OL10 4RY,53.597424025075900,-2.240721381705820
Hawaiian honeycreeper and Grackle,M15 4QH,53.473715549949500,-2.250174373781800
Lemming and Petrel,M7 2BT,53.506238864196100,-2.261312210248890
Asiatic leopard and Badger,OL16 5NY,53.609393210226600,-2.141550497189870
Logrunners and Bronzewing pigeon,M6 7AQ,53.491006427376400,-2.294783775608180
Gull and Francolin,BL4 9NZ,53.544076660000000,-2.404485952000000
Wallaby and Scimitar babbler,OL10 3HB,53.592574245677200,-2.229604451713330
Meadowlark and Masked owl,M7 4DT,53.509023238915800,-2.249658700275950
Thicketbird and Coati,M16 7PG,53.464005339304100,-2.263929451290790
Ibex and Duck,M60 7LH,53.476159807112000,-2.232696318950430
Mouse and Booted eagles,M30 8DY,53.494143926738600,-2.366071238247990
Duck and Buzzard,BL4 7HY,53.554863470000000,-2.412166438000000
Black cockatoo and Recurvebill,M28 0GG,53.522579245714000,-2.403632430036320
Zebra and Piping shrike,BL2 3EG,53.609772340000000,-2.407199671000000
Armadillo and Thicketbird,OL11 2LX,53.589238000000000,-2.177028000000000
Chickadee and Flameback,BL8 1QQ,53.598526000000000,-2.311668000000000
Hawaiian honeycreeper and Crow,M43 7XY,53.484464311738200,-2.148864228407510
Guillemot and Coati,M17 1DQ,53.464254747671000,-2.309766207993840
Zebra and Armadillo,M5 5DZ,53.481117745891300,-2.302520639057590
Tahr and Elephant,M6 8LD,53.494618279252200,-2.323161672961170
Maya and Chickadee,M5 3HF,53.474126702525700,-2.275713653198110
Tree warbler and Black jay,M12 5GN,53.453715492400000,-2.189596061000000
Stilt and Thicketbird,M11 3UR,53.481146813753200,-2.198759315811310
Armadillo and Goose,BL2 2ER,53.586018490000000,-2.409161510000000
Civet and Ice seal,BL9 9NY,53.574164180000000,-2.295936228000000
Boto and Duck,BL3 1FZ,53.562250668439900,-2.370071695428100
Fox and Shearwater,M16 7EU,53.456964711731600,-2.256897947549700
Bunting and Goose,M32 0XZ,53.450714309078000,-2.304231758383330
Minke whale and River dolphin,M45 8BE,53.547693006106500,-2.269551464630210
Jackal and Civet,M25 9WS,53.518559277540300,-2.274539377452510
Tit-tyrant and Ibex,OL10 4XH,53.595450217745000,-2.234379431718850
Parrotlet and Rabbit,M40 5FQ,53.508789593890200,-2.191198874959680
Macaw and Prion,M9 4AB,53.515532112932200,-2.211784203614110
Old World quail and Asiatic leopard,M11 1AR,53.475723825248600,-2.171704575660010
Piping shrike and Chipmunk,M6 5UP,53.482841000000000,-2.300197000000000
Buzzard and Thicketbird,BL4 9SX,53.539827310000000,-2.411748678000000
Moluccan boobook and Civet,M12 5GZ,53.454449000000000,-2.189584000000000
Gull and Fish eagle,OL10 2BW,53.586067696757300,-2.214569124793880
Eagle and Grackle,M30 0PW,53.484413076667000,-2.337355018146650
Dolphin and Meadowlark,M34 5WP,53.471347496667700,-2.127923123725280
Quetzal and Fish eagle,BL2 6HY,53.581608060000000,-2.392217239000000
Ground sloth and Vole,OL1 2TG,53.551678279933400,-2.169959639560870
Warbler and Dorcopsis,OL8 4BY,53.530422978189600,-2.124480819351200
Grosbeak and Old World warbler,M8 8NP,53.496786097300000,-2.240678264500000
Jerboa and Tit-tyrant,M25 2QL,53.539891011621500,-2.273545797138200
Pitohui and Shearwater,M11 2NJ,53.472658156345600,-2.184166373705150
Zebra and Polecat,M28 7XE,53.509291803960600,-2.412266715593090
Shearwater and Mockingbird,BL3 2NB,53.567075250000000,-2.413160980000000
Parrotlet and Francolin,M11 1HY,53.471675222405000,-2.154770105808110
Zebra and Parrotlet,OL9 7RN,53.534849652276500,-2.136880670382520
Stint and Treepie,BL9 7RZ,53.600632510000000,-2.262242547000000
Maya and Bunting,M40 2QW,53.493395383510900,-2.183593130838490
Rat and Coati,OL11 4ND,53.605657790000400,-2.172896906313990
Snipe and Night heron,BL9 6QP,53.613836390000000,-2.293160448000000
Dolphin and Night heron,M34 5GR,53.477301014008800,-2.133244678881000
Recurvebill and Grackle,M21 0AS,53.442640528967200,-2.275479460985870
Lemming and Chickadee,OL10 4TN,53.597117556912000,-2.227392876797740
Marmoset and Magpie,M21 0GU,53.445478301693300,-2.272697446774840
Pheasant and Songlark,BL3 1HZ,53.562734700000000,-2.368943320000000
Badger and Solitaire,M28 3YR,53.517391000000000,-2.411997000000000
Kangaroo and Prion,M5 0NP,53.481217000000000,-2.280430000000000
Partridge and Asiatic leopard,OL16 4GP,53.609593000000000,-2.130849000000000
Warbler and Kangaroo,M45 8WW,53.550513091011000,-2.285990711797530
Capuchin and Bronzewing pigeon,M43 7QJ,53.489831109977300,-2.155363809911400
Egret and Mouse,M11 0AT,53.475509766100000,-2.191335570400000
Argus and Jackal,M3 4DS,53.477667228316800,-2.251719432852440
Philippine hawk-owl and Grackle,M24 2DE,53.555288239817400,-2.172298724544610
Myna and Prion,M9 8DL,53.522132845692800,-2.219931821029210
Lemming and Diving bird,M38 9RG,53.535961141545200,-2.417263530108010
Snipe and Stilt,M28 1EU,53.505513032183700,-2.410707229960440
Tit-tyrant and Skunk,M16 0DW,53.451676143032200,-2.274544149428330
Chipmunk and Thrasher,M8 5SE,53.515153751388600,-2.236197692092180
Boto and Gull,BL0 9UW,53.625736700000000,-2.324541292000000
Tahr and Dorcopsis,M18 7NX,53.453199364811600,-2.171252167431310
Elephant and Fulmarine petrel,M9 5SW,53.508354227557700,-2.219604073188600
Egret and Cloud rat,BL2 3AE,53.595958220000000,-2.409559789000000
Eagle and Stilt,M18 8SS,53.469392899523900,-2.160998404042910
Maya and Maya,M21 9NQ,53.446184669007900,-2.282036763193450
Buzzard and Grackle,BL2 3PN,53.598242900000000,-2.379074455000000
Crow and Solitaire,BL2 4BY,53.608134080000000,-2.391767917000000
Rat and Diving bird,M1 5WZ,53.474218898102300,-2.250508000000000
Mouse and Nukupuʻu,M40 1JT,53.498984910243400,-2.178506960385550
Fox and Badger,BL9 0LU,53.599497000000000,-2.298486000000000
Night heron and Zebra,M28 3UP,53.517885000000000,-2.407162000000000
Old World vulture and Kite,M8 9SG,53.496270381294800,-2.253005000000000
Mink and Maya,OL11 4BH,53.607370072269900,-2.204218776939010
Shearwater and Gull,BL2 5DB,53.593148480000000,-2.392399718000000
Fulmarine petrel and Grosbeak,M30 0QN,53.481544000000000,-2.357027000000000
Marmoset and Ground sloth,M28 7EX,53.513287997224000,-2.394722312106850
White ibis and Petrel,M43 6WP,53.485678296626000,-2.162235625818280
Mouse and Francolin,M14 7LT,53.452595018576900,-2.244674272722520
Herring gull and Mink,M18 7GJ,53.457717243995600,-2.179628760331530
Lemming and Philippine hawk-owl,M40 0HW,53.523740993154500,-2.177148066341000
Old World vulture and Black jay,M5 3WQ,53.472131046875700,-2.275806163620470
Maya and Perching duck,M17 1FZ,53.470693000000000,-2.302130000000000
Gull and Nukupuʻu,M9 4AJ,53.516178683147900,-2.212119211226170
Zebra and Old World warbler,M40 1HB,53.502085000000000,-2.179892664056750
Stilt and Piping shrike,M16 0TG,53.461946269344300,-2.276161817032540
New World blackbird and Solitaire,BL8 1XN,53.605144400000000,-2.304087056000000
Perching duck and Treepie,M19 3PZ,53.442465538919200,-2.190087611826280
Wallaby and Towhee,M26 2FU,53.563939216782100,-2.318934391347430
Night heron and Grouse,M43 6AW,53.475027078147100,-2.155415105872530
Bunting and Treepie,M8 8HU,53.497431000000000,-2.243332000000000
Shearwater and Towhee,OL12 0QA,53.624872868541500,-2.161318337206810
Herring gull and Thicketbird,M32 9GA,53.453358119757500,-2.327561478283090
Herring gull and Darwin's finches,M19 3DU,53.447413698603600,-2.192895187515890
Cuscus and Parrotbill,M32 8DN,53.446481704401500,-2.314259050431240
Fox and Black jay,M4 7DZ,53.481354172631100,-2.213994576142510
B and Fox,M3 4FQ,53.477232728967900,-2.253163299337000
Towhee and Fox,M5 5LF,53.487212236390300,-2.302398261547820
Grosbeak and Moluccan boobook,M13 0FL,53.459168000000000,-2.216067214166280
Macaw and Jerboa,BL9 0UE,53.584571560000000,-2.299981667000000
Darwin's finches and Chicken,OL11 5PN,53.613079000000000,-2.209038000000000
Perching duck and Warbler,BL8 1LH,53.596924360000000,-2.309437234000000
Wader and Fish eagle,OL2 5SJ,53.573931000000000,-2.129834000000000
Cloud rat and Parakeet,M32 0AY,53.453370000000000,-2.310065355233080
Meadowlark and Chicken,M43 7BS,53.479718018473600,-2.141810856363170
Egret and Night heron,M26 1HW,53.548631806154800,-2.371884342882700
Ground sloth and Tattler,M6 8JG,53.489865535850200,-2.328958222125520
Hawaiian honeycreeper and River dolphin,OL10 2TB,53.577700039910100,-2.224116965822870
Magpie and Masked owl,BL9 9EN,53.582706810000000,-2.287038926000000
Pheasant and New World blackbird,M12 4WA,53.459300515597000,-2.201337953593310
Flameback and Moluccan boobook,M35 9XF,53.511541936044500,-2.137619689622990
Fish eagle and Mink,SK5 6TP,53.444282141445000,-2.151809834429300
Darwin's finches and Magpie,M6 5TY,53.483373930496100,-2.298920075670580
Ice seal and Parakeet,M11 2DU,53.473647247762300,-2.200667715254920
Jay and Tattler,OL8 3TY,53.521456890009600,-2.128888806018580
Old World warbler and Capuchin,M26 1AW,53.554718241298100,-2.324646000000000
Rat and Jerboa,M16 9JW,53.460660466563600,-2.264450891027050
Kangaroo and Goose,M5 4SG,53.473930000000000,-2.267259000000000
Vulture and Greenbul,M40 9PE,53.515040412308700,-2.194363790610370
Polecat and Condor,M30 9RE,53.489185674244400,-2.334258074959370
Crow and Snipe,BL9 9RJ,53.576523540000000,-2.290470553000000
Darwin's finches and Cloud rat,M16 7GD,53.463708558459200,-2.259905973522300
Logrunners and Jerboa,SK5 6QH,53.448713526765500,-2.151765433486430
Chipmunk and Parakeet,M24 6DA,53.555548000000000,-2.195785000000000
Grosbeak and Ice seal,M40 8NE,53.496534952958100,-2.219920000000000
Guillemot and Parakeet,BL9 8PY,53.558575570000000,-2.274526895000000
Parakeet and Polecat,M16 8FW,53.452310541653000,-2.260182651980090
Capuchin and Songlark,M41 5RW,53.451528629111800,-2.366336873612460
Badger and Partridge,M32 9LA,53.449715835180300,-2.321661055373960
Francolin and B,M14 7HQ,53.447323833330000,-2.242189739746090
Chipmunk and Old World quail,BL2 4AS,53.607149540000000,-2.395960312000000
Night heron and Pheasant,OL11 2BA,53.590141000000000,-2.141939000000000
Flameback and Lemming,OL16 2UZ,53.624240676200000,-2.138622004800000
Prion and Night heron,M35 9QP,53.509704168085400,-2.155617544295060
Polecat and Parrotbill,M45 8AQ,53.554811000000000,-2.288614000000000
Jerboa and Meadowlark,M21 9BG,53.445979000000000,-2.277473000000000
Thrasher and Tattler,M41 9NL,53.444623979508700,-2.333079856015880
Coati and Mockingbird,M25 9WH,53.523993565360200,-2.280004674160260
Nukupuʻu and Grosbeak,M24 5BA,53.559377000000000,-2.206446000000000
Viscacha and Pratincole,BL2 1LF,53.572400680000000,-2.414511606000000
Jerboa and Vulture,M18 8NQ,53.465423691326800,-2.171256248111880
Treepie and Black jay,M6 8JE,53.486702782809800,-2.328526829348480
Chipmunk and Vulture,M15 5EF,53.469895684975000,-2.250061500717600
Gull and Tree warbler,M26 4JS,53.579909248133500,-2.339338823188690
Tahr and Meadowlark,OL10 2HZ,53.582878823944800,-2.208375165242020
Kite and Shearwater,OL11 5BA,53.621454482461600,-2.182077934670750
Dolphin and Polecat,M5 5LX,53.488752439515000,-2.304218000000000
Logrunners and Rabbit,M5 0QL,53.481217000000000,-2.280430000000000
Old World vulture and Logrunners,M32 8PN,53.446613000000000,-2.298511000000000
Night heron and Coati,M19 3LL,53.443073785060700,-2.180425032009920
Rabbit and Grosbeak,M43 6PX,53.481511298753600,-2.152666223262760
Recurvebill and Warbler,M40 1JG,53.498256017307500,-2.179061651695540
Mole and Skunk,M25 0FJ,53.524872611448400,-2.256811290743220
Mouse and Polecat,M40 0FG,53.519448832246800,-2.174234383019270
Maya and Pitohui,M24 2JS,53.549922624754300,-2.184064432188120
Greenbul and Condor,M27 8JP,53.521282775245100,-2.318025433978540
Dorcopsis and Grackle,BL9 5EU,53.612352830000000,-2.293361775000000
Zebra and Skunk,M8 9NT,53.512117024868100,-2.240026048891860
Marmoset and Tree warbler,OL11 5BW,53.616429000000000,-2.171157000000000
Thrasher and Marsh harrier,OL16 9SU,53.615690099222600,-2.158925127492100
Warbler and Recurvebill,BL4 0EU,53.549711260000000,-2.415300944000000
Snipe and Shearwater,BL8 3EB,53.607771790000000,-2.333380875000000
Shearwater and Siskin,M26 3BE,53.563009567345700,-2.330280774852090
Shearwater and Flameback,M28 1LB,53.501318000000000,-2.415412945850000
Tree warbler and Chipmunk,BL2 3HY,53.604520300000000,-2.391915801000000
Hawk and Perching duck,M14 7TD,53.451245300700000,-2.234261777600000
Logrunners and Grosbeak,M7 2ZN,53.499550109828400,-2.258482000000000
Guillemot and B,M45 7EU,53.545254588326300,-2.293531039007520
Hawaiian honeycreeper and Black jay,M26 1FT,53.543165182620600,-2.357711649546970
Petrel and Masked owl,M40 7WS,53.489881185626400,-2.220593676980770
B and Diving bird,OL12 7QF,53.622748071742800,-2.199424826269850
Tit-tyrant and Old World quail,M25 0FS,53.520187051547600,-2.258019676165840
Songlark and Crow,M6 5FZ,53.483435965338000,-2.302838531626170
Parakeet and Shearwater,M30 7DA,53.475540383236500,-2.371048686238090
Fox and Pheasant,OL9 9BE,53.539346844931000,-2.141995321128390
Linsang and Grackle,BL2 5BZ,53.593335100000000,-2.393051110000000
White ibis and Elephant,M8 0AY,53.505247157303700,-2.241374281980360
Rat and Civet,OL11 4LP,53.610493534494300,-2.166523271238340
Eagle and Badger,M13 0HL,53.461770423285100,-2.222661821341900
Triller and Grouse,M3 2GX,53.481081007696000,-2.248304052624830
Civet and Greenbul,BL2 3AR,53.600131020000000,-2.411534366000000
Ice seal and Old World warbler,M9 0PD,53.534601631558200,-2.237332000000000
Booted eagles and Jerboa,BL2 5QJ,53.586748340000000,-2.355164365000000
Bunting and Mole,M40 7DX,53.486701304597300,-2.214548985475250
Parrotbill and Pitohui,M40 0AX,53.510828066564900,-2.180878958579640
Treepie and Night heron,M27 8FF,53.525758000000000,-2.332163000000000
Linsang and Quetzal,M9 8AW,53.517458813394800,-2.219967912468690
Herring gull and Songlark,M40 3SD,53.515666894914000,-2.159831860214500
B and Triller,M18 8EP,53.466951394993400,-2.177634235845250
Badger and Capuchin,BL8 4AR,53.616702660000000,-2.340994539000000
Gull and Polecat,M2 5NH,53.478852710468400,-2.247899270077850
Peafowl and Asiatic leopard,M5 3GN,53.473112000000000,-2.279473000000000
Coati and Vole,M9 0NR,53.534850013189200,-2.230212047551550
Parrotbill and Fish eagle,M41 8XW,53.452356048720700,-2.391672122115270
Bronzewing pigeon and Goose,OL10 2AT,53.584778003604200,-2.211979578810940
White ibis and Magpie,M32 8DU,53.450780156958000,-2.316534000000000
Pratincole and Booted eagles,OL12 6RF,53.619694178980000,-2.162402155657390
Philippine hawk-owl and Pratincole,M40 1RA,53.494695980643800,-2.173394160645900
Peafowl and Crow,M7 4LN,53.515655189356000,-2.262923512076130
Polecat and Partridge,M30 7DJ,53.475832352521300,-2.369650037207180
Vole and Skunk,M32 9LT,53.452138635300500,-2.326482952846160
Crow and Bunting,BL8 2DY,53.586244610000000,-2.326942374000000
Herring gull and Pheasant,M50 2GE,53.476342802656300,-2.299774624547870
Armadillo and Logrunners,M16 7LN,53.454736626080600,-2.247894188809720
Asiatic leopard and Mouse,M25 1GN,53.527472024126700,-2.268276482877690
Capuchin and Thicketbird,M27 6HE,53.520347019938500,-2.338017699075010
Jerboa and Grosbeak,M30 8AG,53.490947071895200,-2.362124970344880
Marmoset and Meadowlark,M24 5AP,53.565425000000000,-2.212077000000000
Songlark and Boto,M27 8SY,53.508907739944900,-2.313861559072530
Capuchin and Herring gull,OL2 5RJ,53.567371684011200,-2.126718486143990
Duck and Flameback,M9 4ER,53.516184715063400,-2.208695878983180
Civet and Chipmunk,M35 0PF,53.497932676985800,-2.159900719997390
Gull and Herring gull,M24 2SX,53.555326504450800,-2.188616357343630
Kangaroo and Kākāriki,M28 3AQ,53.522758194548800,-2.398520891939670
Kangaroo and Chipmunk,OL10 1JP,53.593788534622300,-2.224413712679640
Stint and Parrotlet,M50 2NP,53.480285000000000,-2.298250000000000
Philippine hawk-owl and Thrasher,M8 8AY,53.501573862600900,-2.235383411407760
Vulture and Jay,OL11 2NN,53.598940311540700,-2.162397970383310
New World blackbird and Meadowlark,M15 5HZ,53.466576354782800,-2.255525019428680
Black jay and Kangaroo,M7 4UZ,53.500455315745600,-2.254839446844720
Goose and Moluccan boobook,M40 1NQ,53.500806555393500,-2.174459334085120
New World blackbird and Guillemot,M27 5AP,53.510832000000000,-2.340204000000000
Warbler and Guillemot,M43 0BE,53.478867000000000,-2.146689000000000
Boto and Cuscus,OL11 2JF,53.593278711633500,-2.154867392263690
Lemming and Grackle,BL9 6LU,53.601145660000000,-2.289173813000000
Parrotlet and Peafowl,OL12 7NY,53.625595000000000,-2.190305093851910
Old World vulture and Philippine hawk-owl,M15 6EN,53.464796288734600,-2.242771287656280
Partridge and Chicken,OL8 3NP,53.510210550378100,-2.130603748145700
Cloud rat and Cuscus,BL4 7DD,53.548495030000000,-2.408286128000000
Chipmunk and Darwin's finches,M28 2NJ,53.503384847304400,-2.374518309569840
Myna and Mamo,M15 5LP,53.462977740983000,-2.257024655045450
Dolphin and Warbler,OL11 3JQ,53.594423895607500,-2.183970996120690
Meadowlark and Mole,BL9 9QX,53.575551120000000,-2.294828371000000
Crow and Macaw,M26 3YY,53.559670627030600,-2.347737000000000
Perching duck and Kākāriki,M40 0ED,53.520654564418600,-2.173349471800600
Mink and Peafowl,M45 7LW,53.543918247699100,-2.313607613429030
Armadillo and Warbler,M7 4NU,53.513959000000000,-2.266321000000000
Dolphin and Dolphin,M30 8HZ,53.489759222616600,-2.371353721264580
Cuscus and Lemming,M9 7BP,53.524868639701700,-2.197455801346290
Mamo and Coati,BL9 9QR,53.579385450000000,-2.296320102000000
Pheasant and Parrotlet,M16 9UN,53.464174370740800,-2.276613102230010
Goose and Moluccan boobook,M12 5DX,53.470376000000000,-2.195847000000000
Maya and Partridge,OL11 5PX,53.614290661875300,-2.204433604129200
Chipmunk and Booted eagles,M30 9FA,53.491341966675500,-2.337786847414830
Rat and Gull,OL10 2DZ,53.588394015512700,-2.210441717564500
Grackle and Old World vulture,M99 1DR,53.487365640500000,-2.227196903600000
Greenbul and Logrunners,M50 2GQ,53.480044029547800,-2.293351588229400
Guillemot and Vulture,OL9 9SU,53.544878508664800,-2.146269550349520
Asiatic leopard and Mockingbird,BL9 0EA,53.591708310000000,-2.299971824000000
Tattler and Chipmunk,M15 6PZ,53.467761998813100,-2.238555318827300
Black jay and Mouse,BL2 4EL,53.599898290000000,-2.378590630000000
Piping shrike and Puffleg,M24 4QZ,53.541463183028200,-2.235982120081360
Warbler and Stilt,M41 0TA,53.457013579238600,-2.344547151470740
Warbler and Cloud rat,M35 9LZ,53.512445424890500,-2.141332190938510
Black jay and Asiatic leopard,M7 4GW,53.515315296905500,-2.253842885912300
Mamo and Logrunners,M19 3BX,53.446351053905700,-2.188524085864350
Skunk and Tahr,M9 6JN,53.531115405098000,-2.208135748651830
Grackle and Mink,M43 7SE,53.491357322386200,-2.156756027445520
Fulmarine petrel and Logrunners,M40 0GF,53.521146679086000,-2.174889913473270
Buzzard and Marmoset,BL4 9ND,53.540289700000000,-2.405325023000000
Perching duck and New World blackbird,OL9 0NJ,53.546927414001400,-2.167148592600810
Thrasher and Bunting,M7 2DR,53.502860842307400,-2.260567759131460
Vole and Coati,OL8 3RT,53.519313160810600,-2.132984586226350
Mockingbird and Kangaroo,M8 0GQ,53.509043000000000,-2.226664000000000
Marmoset and New World blackbird,OL11 1PX,53.607865257708200,-2.155948562920330
Darwin's finches and Pitohui,BL8 3BZ,53.606018580000000,-2.339941178000000
Chicken and Wader,M24 4HZ,53.557189383647600,-2.219178000000000
American sparrow and Wallaby,BL3 2LB,53.560251450000000,-2.416219452000000
Wallaby and Ground sloth,M32 0YT,53.445505586469700,-2.305940993162130
Mockingbird and Polecat,M28 3HN,53.521937979264900,-2.379900758454520
Parrotlet and Towhee,M16 8FQ,53.449359000000000,-2.258026000000000
Grouse and Badger,M14 6HL,53.446784025207700,-2.209183245510670
Badger and Treepie,M1 3BG,53.478370475079500,-2.232949507176400
Kite and American sparrow,M12 5BS,53.469589458300000,-2.194803000000000
Towhee and Mamo,M19 3EX,53.445692005314400,-2.190342928950420
Songlark and Francolin,M28 3QB,53.530076270213700,-2.400762005573970
Mamo and Piping shrike,M26 4HX,53.575327477673800,-2.335345389682690
Nukupuʻu and Old World vulture,OL2 5LF,53.564618745847900,-2.129065543777580
Siskin and Mouse,M11 2DA,53.473116146541200,-2.201132240755410
Vole and Thicketbird,BL7 9LR,53.615650500000000,-2.409886522000000
Old World quail and Goose,M41 7DP,53.457625607347000,-2.362488794767370
Thrasher and Thicketbird,M6 5BZ,53.490971341808800,-2.282757000000000
Guillemot and Francolin,M9 0WA,53.533227726202300,-2.218178939264800
Stilt and Elephant,OL11 2EQ,53.593946095097800,-2.145940682075860
Booted eagles and Kākāriki,BL4 0ER,53.550945040000000,-2.414618738000000
Parakeet and Quetzal,OL9 9RT,53.550394508859400,-2.162377781871540
Nukupuʻu and Hawaiian honeycreeper,M45 7BY,53.543148189258900,-2.291132154621250
Kākāriki and Kākāriki,BL2 5QW,53.584456720000000,-2.358045345000000
Kangaroo and Petrel,OL11 5AG,53.622400847079900,-2.186224542702590
Fulmarine petrel and Elephant,M24 6FW,53.561671521729400,-2.194683444050890
Macaw and Argus,BL3 1SS,53.570256240000000,-2.397517993000000
River dolphin and Grouse,M1 3BU,53.476003881122000,-2.234714000000000
Ice seal and Parrotbill,M27 8TP,53.510207781994800,-2.315107634104580
Mockingbird and Asiatic leopard,BL4 8BH,53.545646580000000,-2.386391203000000
Minke whale and Mouse,M15 4GU,53.472959000000000,-2.246931000000000
Parrotbill and Ground sloth,M26 4QD,53.572120626533100,-2.340997910798280
Nukupuʻu and American sparrow,OL9 9LF,53.544159000000000,-2.140382000000000
Perching duck and Mamo,M15 5GX,53.460307000000000,-2.248724000000000
Nukupuʻu and Tahr,M4 5FP,53.487111956848100,-2.230525876247380
Polecat and Parrotbill,BL0 9XA,53.625741820000000,-2.325962608000000
Black cockatoo and Gull,M8 2EZ,53.506582000000000,-2.242977000000000
Buzzard and Grouse,M14 5BP,53.454103707490700,-2.212547272195820
Herring gull and Jerboa,M32 8QF,53.447685180586200,-2.293459648282150
Quetzal and Chipmunk,M40 5HB,53.508651117921800,-2.187835809697550
Asiatic leopard and Vulture,M24 2JH,53.551983557867600,-2.182367810209850
Quetzal and River dolphin,M26 4JZ,53.582481933184300,-2.328967530538830
Songlark and Civet,M5 5FP,53.485632230230900,-2.305159910464010
Pratincole and Kestrel,M41 9WB,53.446684297106500,-2.335776000000000
Philippine hawk-owl and Guillemot,M30 7FZ,53.468571818632400,-2.394261867307320
Goose and Stint,M11 4QD,53.483973912134200,-2.172611966736300
Capuchin and Polecat,BL9 8QR,53.565357340000000,-2.268561687000000
Francolin and Civet,M6 7LJ,53.502770501455900,-2.306217801326410
Solitaire and Kite,M43 6JD,53.481361104884700,-2.164238311712140
Mouse and Treepie,M27 5RE,53.498556015008800,-2.348456804535210
Lemming and Fish eagle,M26 1FH,53.550729000000000,-2.314775000000000
Songlark and Mink,M35 0SS,53.500781182736100,-2.153685310440790
Snipe and Duck,M40 9DA,53.509032922643500,-2.196341688327060
Linsang and Polecat,M6 8AD,53.491882184247900,-2.317805258897970
Civet and Pratincole,M26 6BL,53.558767000000000,-2.326456000000000
Cloud rat and Parrotbill,M30 0FL,53.481298231494100,-2.341971000000000
Guillemot and Parrotbill,M45 7WP,53.553536749004900,-2.306312815306160
Pratincole and Grouse,M40 8GT,53.499052262969000,-2.209003578280650
Prion and Puffleg,BL8 1JR,53.611575640000000,-2.319550494000000
Jay and Coati,OL11 3PH,53.597645121276600,-2.187550942178170
Elephant and Ground sloth,M12 5DU,53.470463604409400,-2.201692141548170
Mockingbird and Badger,M35 0ES,53.507037751757900,-2.160477000000000
Greenbul and Maya,M41 8SX,53.453167109326000,-2.385505551441510
Civet and Pheasant,M40 8LN,53.497442497368100,-2.214542972805320
Siskin and Kangaroo,M12 4QJ,53.449165833965900,-2.193279564772230
Vole and Flameback,M5 5FX,53.484795035373900,-2.308635000000000
Chipmunk and Badger,M15 5AA,53.469498314609300,-2.255196106293640
White ibis and Magpie,M11 2BQ,53.475088951920800,-2.193066036888920
Buzzard and Armadillo,M40 8JY,53.497511522187200,-2.216141193898430
Ground sloth and Greenbul,M9 5FY,53.502654097494100,-2.220403763966260
Jay and Mouse,M9 7DN,53.520920614505600,-2.193259547073480
Vole and Wallaby,M5 0LH,53.481203331800000,-2.280431088200000
Myna and Fish eagle,M34 3RE,53.456848822392400,-2.128180653123290
Kestrel and Polecat,M5 3DT,53.470493631047400,-2.280314951808220
Polecat and Black cockatoo,BL9 8DS,53.562034790000000,-2.293964337000000
Kite and Zebra,M9 6AA,53.529007000000000,-2.196042000000000
Minke whale and Kangaroo,M5 5WR,53.480915961247800,-2.300560308702320
Kestrel and Marsh harrier,M26 4GE,53.573150258138100,-2.339254461619550
Minke whale and Booted eagles,M32 0NE,53.445505586469700,-2.305940993162130
Eagle and Herring gull,M8 9BY,53.504016479950600,-2.245422884120320
White ibis and Booted eagles,BL9 8JJ,53.562884930000000,-2.272803511000000
Parakeet and Polecat,M7 2HN,53.501810773603200,-2.267978610950610
B and Mole,M9 4DH,53.512630000000000,-2.211905000000000
Condor and Vulture,M14 7AL,53.444282309381600,-2.234900652626630
Skunk and Minke whale,M18 7NQ,53.453050761683500,-2.168300101437910
Minke whale and Darwin's finches,M40 5NG,53.504842548972700,-2.191904778340870
Towhee and Marmoset,M30 9LL,53.492602488311200,-2.352598139485550
Diving bird and Flameback,M3 5BQ,53.484369110669700,-2.249106893289400
Thicketbird and Mink,M11 1BQ,53.476791001906500,-2.167098415823030
Wallaby and Hawaiian honeycreeper,M26 2TU,53.561708901132900,-2.326043441396700
Chickadee and Treepie,M14 6PL,53.445397228268900,-2.205487751109180
Kākāriki and White ibis,M12 0BY,53.467355127400000,-2.218744689700000
Boto and Herring gull,M26 1JQ,53.553510760573600,-2.316289890793890
Elephant and Mamo,M32 9BX,53.443574294229500,-2.315818373035010
Chickadee and Marsh harrier,BL3 2HL,53.562125960000000,-2.417385260000000
Mink and Thrasher,M1 7JQ,53.472845412261600,-2.231487991287660
Peafowl and Vulture,M19 2EB,53.445430841803200,-2.196198472931930
Fish eagle and Coati,M8 5DU,53.517539774023700,-2.247628000000000
Tree warbler and Maya,M6 7PH,53.499523831416000,-2.323952755513730
Vole and Wader,M18 8BW,53.467945105000000,-2.177548000000000
Fish eagle and Masked owl,M8 8UJ,53.504353774611400,-2.234117308525370
Triller and Flameback,M18 8SZ,53.468946846915000,-2.158481003681300
Grosbeak and Booted eagles,M28 3HR,53.520785000000000,-2.380988551565130
American sparrow and Kite,M16 8HW,53.446776139197300,-2.254848977353040
Marsh harrier and Scimitar babbler,M3 7BA,53.484975000000000,-2.247799000000000
Egret and Booted eagles,M1 3JF,53.478147000000000,-2.237316971873260
Meadowlark and Kākāriki,BL9 6TE,53.621489250000000,-2.276447185000000
Logrunners and Civet,M9 0GN,53.536593390333800,-2.230402572652680
Tit-tyrant and Dorcopsis,M44 6RR,53.443044127928900,-2.415660000000000
Treepie and Parrotbill,M9 4DE,53.515241317438600,-2.213562257609240
Shearwater and Dorcopsis,M9 8AZ,53.519950819744400,-2.218759174965130
Ice seal and Pratincole,OL10 9BB,53.592646000000000,-2.219677000000000
Skunk and Prion,M26 1ED,53.558313758225000,-2.321820653152800
Myna and Marmoset,OL12 7QJ,53.622668637860500,-2.198547559798450
Partridge and Cloud rat,M26 2UX,53.569946762471400,-2.314283512263290
Hawaiian honeycreeper and Recurvebill,M30 0HF,53.479365120013000,-2.348630922882360
Wader and Warbler,BL2 4AE,53.607760570000000,-2.398716702000000
Songlark and Polecat,M25 1JG,53.531040906500700,-2.268057680519980
Mouse and Ibex,BL2 2AG,53.582689360000000,-2.417950448000000
Thicketbird and Petrel,M45 8PX,53.558681584847200,-2.290514272241550
Viscacha and Skunk,SK5 6SY,53.445541195180400,-2.151287376138240
Viscacha and Darwin's finches,M26 4JE,53.576995764398000,-2.339783654734220
Shearwater and Kestrel,M24 2UD,53.576318879000600,-2.173698244191510
Polecat and Parrotbill,M50 2RP,53.478809550962800,-2.294593681877850
Philippine hawk-owl and Armadillo,M41 9BF,53.447192754644700,-2.349481430298360
Parrotlet and Jerboa,M3 3AW,53.480925000000000,-2.250202000000000
Fish eagle and Cloud rat,M34 3QR,53.453581358591900,-2.124074831746270
Macaw and Grackle,M11 2LH,53.471715969834100,-2.171010444118810
Old World warbler and Zebra,M2 1DW,53.482226000000000,-2.242720000000000
Bronzewing pigeon and Hawaiian honeycreeper,BL9 7JQ,53.588270950000000,-2.259341011000000
Condor and Asiatic leopard,OL11 4EJ,53.613220348875400,-2.176691591073490
Piping shrike and Mockingbird,M4 7HS,53.483638259500000,-2.215980436600000
Peafowl and New World blackbird,M9 6SJ,53.524450149401500,-2.210908624946220
Puffleg and Crow,M45 7FP,53.539856989228200,-2.291728216783340
Old World vulture and Siskin,M21 9QL,53.448086602495100,-2.279760741883840
Night heron and Peafowl,M24 4NQ,53.553890726030600,-2.228458901965280
Armadillo and Philippine hawk-owl,M12 4LN,53.465050298357700,-2.208233812738860
Bunting and Parrotlet,BL9 0TZ,53.589085150000000,-2.306494505000000
Puffleg and Kākāriki,M6 7RA,53.498553065083400,-2.306941120451040
Pratincole and Rabbit,M30 0RP,53.482843175721800,-2.357911897169200
Chickadee and Booted eagles,M5 3HP,53.469726000000000,-2.274390000000000
Jerboa and Partridge,M5 4BF,53.483199397714400,-2.278153466585650
Boto and Hawk,M24 4DN,53.542430836416700,-2.228321673375990
Kākāriki and Linsang,BL8 3LD,53.610940070000000,-2.335023120000000
Thicketbird and Night heron,BL2 6BW,53.579429180000000,-2.401455483000000
Elephant and Wallaby,M40 7RE,53.495383568371600,-2.224631821176560
Duck and Parakeet,OL8 4JP,53.523249125746600,-2.125560829879790
Parrotbill and Civet,M16 9HU,53.462996710598600,-2.272779677538640
Tree warbler and Francolin,OL10 1EH,53.591562711085600,-2.222664517558150
Crow and Pratincole,BL4 8SD,53.534876100000000,-2.364250098000000
Cloud rat and Mamo,M11 4RB,53.482765092929300,-2.175605789014530
Tit-tyrant and Old World quail,M19 3GE,53.444429282901900,-2.187401461865220
Ibex and Night heron,M15 6EH,53.467774800010300,-2.241131289589660
Tit-tyrant and Treepie,M27 5TE,53.510161010392000,-2.338765916595350
Night heron and Kangaroo,M41 9WH,53.446232974776200,-2.329825267364640
Black cockatoo and Vulture,M40 3PT,53.515007059506000,-2.162558936631670
Quetzal and Parakeet,M13 9GB,53.464810850734600,-2.230901974186550
Duck and Darwin's finches,OL10 1HX,53.593541210994600,-2.222085702897790
Old World warbler and Wader,M2 6EQ,53.480921281560600,-2.247308604961640
Kite and Buzzard,OL8 4LP,53.528688391598600,-2.132667048133980
Egret and Fox,M26 3QF,53.568146834503800,-2.350644649534780
Gull and Rat,M5 0DP,53.481203331800000,-2.280431088200000
Capuchin and River dolphin,OL11 3PW,53.605118693073900,-2.166426532373910
Peafowl and Jerboa,M24 2HU,53.551709823825800,-2.185023089764250
Vulture and Darwin's finches,M25 0JG,53.522635758972900,-2.268502310965220
Cuscus and Rat,M41 8DX,53.457906604135600,-2.376256300304170
Mole and Chickadee,M12 5HX,53.467465545602100,-2.204164000000000
Capuchin and Coati,M45 8GJ,53.547010317717300,-2.273320089567390
Kākāriki and Mamo,M32 8LE,53.446685527375400,-2.304985875166190
Warbler and Crow,M24 2TD,53.544289923683700,-2.169914905562220
Shearwater and Polecat,M28 3UL,53.517896000000000,-2.408774000000000
Nukupuʻu and Polecat,OL11 5QP,53.619058612906800,-2.212348021278730
River dolphin and Marmoset,M27 5NS,53.504885751420400,-2.335241053273390
Vole and Rat,OL10 1JB,53.593816000000000,-2.224656926269920
Greenbul and Macaw,M11 4HJ,53.485904199389200,-2.180200095526490
Wallaby and Mouse,M35 9NH,53.506374779097900,-2.144236973421790
Gull and Magpie,M32 9DD,53.445393958425000,-2.327680832586570
Flameback and Mockingbird,OL10 3NJ,53.589606800415700,-2.243879596150010
Warbler and Tahr,OL11 2QH,53.587837000000000,-2.177898861300000
Jerboa and Moluccan boobook,M35 0LX,53.501890320104100,-2.164498681104860
Old World quail and Snipe,M60 3BA,53.487361026924400,-2.227196609855210
Treepie and Mockingbird,OL8 4PP,53.526907454191300,-2.133777738438750
Towhee and Eagle,M3 1NY,53.487153000000000,-2.242100000000000
Badger and Condor,M21 9NL,53.444767344803800,-2.280822918367380
Bronzewing pigeon and Stilt,OL11 5JU,53.613919742949300,-2.189527736205450
Tattler and Snipe,OL9 9EX,53.542914274228900,-2.135065709574030
Pitohui and Condor,M24 6JJ,53.565184920268900,-2.195318629711870
Old World warbler and Lemming,BL2 2UR,53.589182990000000,-2.414207605000000
Boto and Chickadee,M14 7LW,53.449042752832700,-2.241145530336870
Dorcopsis and Chickadee,M6 5EW,53.486567909038200,-2.279079747968300
Thrasher and Petrel,M40 7BN,53.489451643153100,-2.204374610944360
Black jay and Condor,M24 6HG,53.563691348440400,-2.201637710145470
Wallaby and Egret,M11 1JH,53.474752057686500,-2.159481969355930
Triller and Egret,M25 9XG,53.518339575137500,-2.287689180971640
Minke whale and Guillemot,M34 5XS,53.477396843346100,-2.135941993729920
Mamo and Petrel,M1 7BD,53.473972542365000,-2.238801107739020
Lemming and Mole,M28 7UT,53.516370372491300,-2.405654566063990
Minke whale and Mouse,M24 2DD,53.547885642004600,-2.198785523273770
Macaw and Bunting,M40 9HX,53.511069257421600,-2.193305140181900
Zebra and Greenbul,M13 9RP,53.468384837991400,-2.223253842150760
Viscacha and Prion,M6 6FH,53.496748871248200,-2.272574385586680
Tahr and Ground sloth,M32 8LN,53.447334917195700,-2.304117251967320
Goose and Night heron,OL8 4JL,53.523175000000000,-2.128472000000000
Parrotlet and Rabbit,BL4 7BE,53.548032470000000,-2.401550512000000
Minke whale and Dolphin,M30 9AS,53.490865263226300,-2.331482980125810
Grouse and Viscacha,M15 4BW,53.464951505442100,-2.258738679003590
Jerboa and Meadowlark,M24 1RW,53.540338269518700,-2.167635638245960
Partridge and Myna,M7 2YD,53.501144338140000,-2.260436618908180
Old World vulture and Skunk,M11 3QG,53.480355126961000,-2.204496587742620
Guillemot and Dorcopsis,M26 4PA,53.566158976658700,-2.335484186630210
Armadillo and Wader,BL4 8BU,53.546838050000000,-2.382040516000000
Hawaiian honeycreeper and Tahr,BL4 8RB,53.536457610000000,-2.364399475000000
Ground sloth and Logrunners,M16 8BT,53.453968016958700,-2.262647386310720
Buzzard and Songlark,M25 9GW,53.524759537674100,-2.290477999933920
Myna and Piping shrike,M43 6PL,53.481249685009800,-2.160244731376680
Bronzewing pigeon and Kestrel,OL16 1QG,53.613420000000000,-2.156589000000000
Guillemot and Guillemot,M1 2WW,53.477991833271000,-2.224148097899910
Viscacha and Bunting,OL9 0NY,53.549821677741800,-2.153229000000000
Tahr and Tree warbler,M21 9LR,53.444825642624000,-2.282780535268660
Wader and Mink,M41 6WR,53.444142232526500,-2.404634533166040
Jay and Badger,M27 8SU,53.511231226299000,-2.318960420635220
Mink and Guillemot,M6 8WP,53.495177211772100,-2.315825143190710
Buzzard and Greenbul,OL12 7EY,53.611534000000000,-2.148783000000000
Rabbit and Boto,M26 4AB,53.574677350900000,-2.341260411200000
Minke whale and Logrunners,M6 6RG,53.500900461632000,-2.288339850943170
Greenbul and Stint,OL11 2EB,53.590934295813500,-2.146534585031650
Boto and Chicken,M7 2BY,53.503242741987700,-2.258549877311270
American sparrow and Mouse,BL9 6UL,53.612664000000000,-2.264222000000000
River dolphin and Towhee,M28 7FR,53.513712219078700,-2.391453877897070
Peafowl and Linsang,M7 4ST,53.502715645189100,-2.248566272526030
Shearwater and Duck,OL10 2DD,53.587151935858400,-2.211402332808900
Bunting and Cloud rat,M13 0XW,53.453482000000000,-2.208569246437240
Vulture and Treepie,M24 1LR,53.540785949792500,-2.198118454431340
Grackle and Old World warbler,M24 5TU,53.551873636742200,-2.200479623820720
Polecat and Pheasant,BL2 5BD,53.587154000000000,-2.394759000000000
Parakeet and Old World vulture,BL8 4SA,53.620299410000000,-2.334114611000000
Herring gull and Stilt,M12 6AR,53.480801880700000,-2.208688003800000
Treepie and Pheasant,M27 9UP,53.515808606823400,-2.350242248022090
Meadowlark and Triller,M43 7LA,53.488580909083000,-2.133325000000000
Asiatic leopard and Eagle,M41 9RA,53.446863951066100,-2.338818813860160
Partridge and Grackle,M9 6PB,53.525028000000000,-2.219886000000000
Tahr and Shearwater,M24 6AF,53.550956790944100,-2.195071902168240
Mamo and Zebra,M45 7RD,53.555996520455700,-2.300428421032720
Wader and Towhee,OL11 2TB,53.589674257628300,-2.174538654214660
Night heron and Badger,BL8 2BX,53.587004640000000,-2.321932000000000
Booted eagles and Armadillo,OL11 2JB,53.594716632655300,-2.155023747606080
Tree warbler and Pheasant,M24 6JG,53.562451085736300,-2.190610747052800
Tit-tyrant and Parrotlet,M15 6PG,53.467761998813100,-2.238555318827300
Ibex and Jay,M28 3SE,53.519762969947100,-2.407134889019820
Guillemot and Quetzal,M24 4AZ,53.551518426583500,-2.203240043898950
Old World vulture and Philippine hawk-owl,M24 2NR,53.561991580824300,-2.179723617350100
Tattler and Stint,M9 8AL,53.517707398976000,-2.216741774505880
Gull and Partridge,M41 8TU,53.449647504306000,-2.389840301621010
Shearwater and Warbler,M18 7WS,53.452395845316800,-2.173703429072090
Moluccan boobook and Mole,OL9 0AB,53.553142980396900,-2.142811383118390
Diving bird and Duck,M40 5NF,53.505095793998900,-2.190925921905810
Darwin's finches and Towhee,OL16 2YG,53.618775000000000,-2.136805000000000
Treepie and Badger,OL2 6TU,53.573925000000000,-2.126723000000000
Tree warbler and Lemming,BL3 1NL,53.562013720000000,-2.363698297000000
Flameback and Dorcopsis,M40 7WJ,53.490858803299900,-2.216845850677050
Booted eagles and Towhee,M16 8LE,53.447677733959600,-2.265951117143660
Darwin's finches and Treepie,M12 5QB,53.454640617315700,-2.187145294481340
Guillemot and Zebra,BL4 8DU,53.544168030000000,-2.376523369000000
Meadowlark and Herring gull,BL2 5NH,53.585346850000000,-2.384019338000000
Old World warbler and River dolphin,OL11 2EE,53.593389045874200,-2.145757458868510
Francolin and Tahr,M15 5TF,53.465485801687700,-2.252686632800500
Cuscus and Meadowlark,M24 4BX,53.542140000000000,-2.200749734822530
Pheasant and Herring gull,M15 6BQ,53.469078357672600,-2.241018172003080
Bronzewing pigeon and Macaw,OL12 7DD,53.624105709453500,-2.176283539614350
B and Pratincole,OL8 4AG,53.534093615219900,-2.129741964793550
Goose and Hawaiian honeycreeper,M5 4ST,53.480845000000000,-2.266370000000000
Thicketbird and Skunk,M13 0DE,53.461029887633400,-2.214750737597790
Skunk and Tree warbler,OL9 0LD,53.547335690933100,-2.150790529727400
Quetzal and Myna,M40 1GX,53.501097040132100,-2.178606298616470
Mole and Darwin's finches,M40 3QL,53.516977734616700,-2.160922644924680
Songlark and Grouse,M43 7TF,53.491179633707400,-2.132414000000000
Pratincole and Crow,OL11 5DU,53.618425834204700,-2.181823006410180
Hawaiian honeycreeper and Treepie,M18 8AN,53.465553185750800,-2.174932125354710
Francolin and Diving bird,BL8 1WL,53.602227551780600,-2.318059672869420
Partridge and Polecat,M60 2WH,53.479273073594400,-2.244556668916720
Coati and Mink,M27 5LX,53.501989448530500,-2.326232951112140
Polecat and Elephant,M24 5RW,53.556538942270700,-2.205558609887980
Flameback and Thrasher,BL8 1BH,53.599859600000000,-2.307479199000000
Badger and Petrel,OL12 6WA,53.616845263813300,-2.168634413952600
Hawk and Chicken,M13 0XE,53.454636601224000,-2.205954060319940
Buzzard and Hawaiian honeycreeper,M9 0RX,53.537548961760100,-2.228944182978610
Ice seal and Pitohui,M40 7PA,53.490895363034400,-2.221412829559000
Minke whale and Eagle,M24 2JG,53.551088930124100,-2.185473176396530
Myna and Myna,M28 3QX,53.529139009938900,-2.404162490982360
Bunting and Boto,SK5 6NP,53.449946000000000,-2.158576214003590
Linsang and Flameback,M7 1TG,53.492476788864900,-2.257534758358470
Magpie and Prion,M43 7GZ,53.488453971267100,-2.149827697498480
Quetzal and Snipe,OL9 8LP,53.531203465334300,-2.149299927864000
Cuscus and Solitaire,M30 8HH,53.492165135285000,-2.360342000000000
Armadillo and Macaw,M32 8EE,53.448906830331700,-2.308043331196540
Thrasher and Jerboa,M43 7GQ,53.488022406551300,-2.134860785879120
Vole and Boto,M12 4RJ,53.462718246743700,-2.205375680961640
Booted eagles and Wader,M9 4FZ,53.515397007794200,-2.201558874905500
Vole and New World blackbird,M7 4EQ,53.510289072682800,-2.254642155004300
Grouse and Petrel,OL8 4DG,53.530635947307000,-2.127091324218060
Ibex and Duck,OL11 2BJ,53.587873000000000,-2.176569000000000
Dorcopsis and Pratincole,M19 2FS,53.442242092609800,-2.194874004497310
Pratincole and Chicken,M24 4FN,53.553378224425400,-2.218946844663730
Fulmarine petrel and Armadillo,M41 9BD,53.448526548475100,-2.342069301748330
Darwin's finches and Philippine hawk-owl,BL4 8NF,53.542411408467900,-2.379284672218100
Petrel and Viscacha,SK5 6TD,53.447036000000000,-2.156896982200730
Cuscus and Vole,BL8 4AB,53.619937070000000,-2.341474162000000
Fox and Old World warbler,M9 4PU,53.516083000000000,-2.209718000000000
Vole and Masked owl,M28 8EY,53.513067000000000,-2.362206000000000
Badger and Gull,BL2 3NT,53.594892810000000,-2.389469640000000
Solitaire and Siskin,M44 6JS,53.452052866994000,-2.414904199337220
Pitohui and Duck,M28 1ND,53.504991369626900,-2.418572380413260
Marsh harrier and Recurvebill,M45 8PJ,53.557856502599200,-2.289753828157770
Fulmarine petrel and Buzzard,M35 9BJ,53.514839175171400,-2.153585454500970
Goose and Ice seal,BL8 2XD,53.588143240000000,-2.322863168000000
B and Logrunners,M35 0FL,53.508761485383300,-2.161554913413030
Tit-tyrant and Pitohui,M15 6GW,53.467614478600000,-2.247080805900000
Hawk and Warbler,M41 6WW,53.450025024977100,-2.400700233475750
Zebra and Civet,M15 6GT,53.467615971800000,-2.246357757700000
Quetzal and Skunk,M8 9BB,53.505276946896900,-2.244404934366990
Old World warbler and Quetzal,M8 9EL,53.510299651411200,-2.245293353421770
Bronzewing pigeon and Kangaroo,M50 3BP,53.467605262504400,-2.285402495779310
Minke whale and Quetzal,BL9 6UF,53.602270740000000,-2.244149066000000
Gull and Parrotbill,M14 5XA,53.451394647254000,-2.224293976194310
Marsh harrier and Chickadee,M12 5TA,53.453067500646200,-2.187228720225140
Rat and Kite,M17 1NJ,53.473808000000000,-2.317519000000000
Tree warbler and Armadillo,M3 7FW,53.486103000000000,-2.253289000000000
Nukupuʻu and B,M12 5FQ,53.470620000000000,-2.199915000000000
Kite and Grouse,M30 8BE,53.490993987920100,-2.364431388194530
Piping shrike and American sparrow,M43 6LN,53.488476715218400,-2.166571712720150
Eagle and Diving bird,M43 7BD,53.477441369856800,-2.143957851793320
Vole and Rat,M50 3ZE,53.481198631961100,-2.280430780412780
Kangaroo and American sparrow,BL8 1UB,53.605213740000000,-2.325547483000000
Peafowl and Towhee,OL10 3LJ,53.591098469590900,-2.244069484866700
Badger and Towhee,M40 2DF,53.500480179083100,-2.193754390363310
Jackal and Songlark,M40 5SB,53.525398247388200,-2.180880777560820
Prion and Marmoset,BL9 9AX,53.583264770000000,-2.297782212000000
Greenbul and Vulture,BL9 0JQ,53.594186000000000,-2.290849000000000
Treepie and Cuscus,OL12 0HA,53.623049807532100,-2.154190000000000
Francolin and White ibis,M27 5PU,53.504399000000000,-2.339230460085260
Grosbeak and Boto,M45 7PU,53.542707893429000,-2.305480050948100
Old World quail and Linsang,M27 5BF,53.498662000000000,-2.342984000000000
Solitaire and Thrasher,M7 1UF,53.496611492564500,-2.260981000000000
Vole and Siskin,M16 8EH,53.448896625451100,-2.259393858295260
Tit-tyrant and Piping shrike,OL9 6LU,53.545399275278500,-2.131285730447440
Eagle and Fulmarine petrel,M28 3RY,53.532273396799800,-2.401401000000000
Herring gull and Kākāriki,M4 1EX,53.484867908780500,-2.238123939888850
Egret and Ibex,M15 6PN,53.466701671520500,-2.242857487476420
Darwin's finches and Herring gull,OL10 1PT,53.591996748800000,-2.213663000000000
Fish eagle and Parakeet,M15 5TD,53.465801604914800,-2.252116114541580
Old World vulture and Logrunners,M27 8RA,53.522588625676800,-2.330343119066720
Darwin's finches and Macaw,M6 5LT,53.487315000000000,-2.294216787028230
Minke whale and Tit-tyrant,OL11 4QE,53.607461648585800,-2.174808571223430
Kangaroo and Marsh harrier,M16 7RY,53.455215110896500,-2.263694180363560
Wader and Rabbit,BL9 8AX,53.567353600000000,-2.276517000000000
Macaw and Goose,BL4 8AX,53.545611000000000,-2.389046969000000
Pheasant and Ice seal,BL2 5RF,53.587571840000000,-2.350231499000000
Moluccan boobook and Ibex,M24 5DJ,53.556995171739100,-2.201560543509640
Black jay and Petrel,M43 6BZ,53.487900446619500,-2.167292852056180
Bunting and Condor,M35 9NQ,53.500220920970800,-2.141562811264060
Triller and Kangaroo,M30 8EB,53.486928133372300,-2.368360073113300
Egret and Songlark,OL9 0DT,53.548409629379900,-2.139852414837280
Viscacha and Capuchin,M12 5PS,53.463346792240200,-2.183719338370400
Pratincole and Gull,M13 0SN,53.454092878215600,-2.203286003920740
Chipmunk and Booted eagles,M7 4HP,53.510067895930600,-2.248699807102220
Pheasant and Philippine hawk-owl,BL3 1SB,53.568526500000000,-2.401397454000000
Quetzal and Ice seal,M4 7LQ,53.478922565000000,-2.219602000000000
Macaw and Grackle,M43 7AX,53.483123113194400,-2.143088041024010
Kestrel and Chickadee,M11 1EE,53.473715103367600,-2.168412106148680
Herring gull and Thrasher,M40 2BH,53.497817565800000,-2.197782431200000
Condor and Eagle,M38 9NJ,53.536560874362600,-2.415398491196320
Kestrel and Condor,BL9 9SU,53.569162280000000,-2.294074205000000
Black jay and Songlark,M19 3FH,53.446444978814400,-2.185949896449820
Prion and Nukupuʻu,M28 1GR,53.507926000000000,-2.391129000000000
Kite and Dolphin,M26 3WB,53.567029807326300,-2.348415846525980
Elephant and Flameback,M50 3ZT,53.481198631961100,-2.280430780412780
Pitohui and Kākāriki,M34 3SN,53.455643248602100,-2.129412000000000
Myna and Tit-tyrant,M28 3WX,53.525608841006200,-2.389949607550290
Vulture and Ibex,M5 3FA,53.473293376750300,-2.278465270599220
Mink and Maya,M35 0FG,53.507661457553900,-2.157404313977300
Tahr and Jackal,M24 4GN,53.556649609091000,-2.214193645482850
Partridge and Zebra,OL9 7QS,53.536788381267900,-2.131334479644060
Duck and Dorcopsis,M43 7AU,53.484239383643900,-2.141660197529060
Guillemot and Badger,M5 5FW,53.484467000000000,-2.307968711928100
Partridge and Herring gull,M24 1PH,53.535337256534100,-2.193702467409750
Chickadee and Booted eagles,M30 9PN,53.490673656718400,-2.351346234148670
Kite and Bronzewing pigeon,BL9 8BG,53.570324460000000,-2.285550677000000
Prion and Recurvebill,M15 6EQ,53.464859911474600,-2.242425208810410
Eagle and Night heron,M2 3WQ,53.476452023772600,-2.243907625124780
Snipe and Elephant,BL8 3BB,53.601818610000000,-2.340799004000000
Diving bird and Triller,BL8 3AZ,53.602399560000000,-2.338793837000000
Myna and Grouse,OL9 0DR,53.548130602456700,-2.140183522301280
Logrunners and Goose,BL2 2SD,53.582354000000000,-2.400669432000000
Gull and Petrel,M7 2JY,53.497511820200700,-2.269082049278550
Nukupuʻu and Darwin's finches,M24 1ET,53.543685843433900,-2.189092707256820
Skunk and Fox,M50 2HF,53.473091434200000,-2.297085352500000
Chicken and Ice seal,M50 3SF,53.471694000000000,-2.285685000000000
Philippine hawk-owl and Greenbul,OL12 6UQ,53.617822156466900,-2.164209008712870
Ibex and Mockingbird,OL2 5XT,53.573448460578000,-2.134317514543250
Maya and Parakeet,M41 5GW,53.448286018637000,-2.379995671201230
Ground sloth and Hawaiian honeycreeper,M11 3BL,53.480514802919800,-2.195019435587140
Elephant and Condor,M1 1EH,53.483683301408900,-2.232616978838170
Night heron and Puffleg,M30 9EX,53.492582599592300,-2.340871516549800
Wallaby and Siskin,OL10 4BA,53.609195054842300,-2.219235805420710
Argus and Goose,M41 7FZ,53.459634000000000,-2.343424000000000
Booted eagles and Bunting,BL9 9DB,53.583219020000000,-2.287087713000000
Ice seal and Rabbit,M28 1HN,53.506626722835800,-2.413567665668340
Darwin's finches and Jackal,BL3 2LH,53.559411870000000,-2.414686475000000
Masked owl and Armadillo,M27 5NW,53.508227683338500,-2.335870568675300
Old World quail and Magpie,OL1 2AJ,53.553745000000000,-2.135810000000000
Tattler and White ibis,M27 0EN,53.505888047149100,-2.355422377755480
Ibex and Warbler,M7 3QZ,53.508485498014700,-2.281304628604070
Fulmarine petrel and Fulmarine petrel,OL10 4HP,53.596438033635900,-2.210723490332910
Bronzewing pigeon and Badger,M2 4JF,53.480594022080600,-2.244730024200730
Argus and Solitaire,M40 8LD,53.496728251387500,-2.216845683312670
Civet and Parakeet,M8 5AD,53.513346327290100,-2.241073515537040
Bronzewing pigeon and Jackal,M7 1JF,53.497571227450600,-2.266640388421290
Gull and Hawaiian honeycreeper,M30 8WF,53.487057230404800,-2.364367478491630
Hawk and Francolin,M27 6BY,53.517345010474300,-2.334781459807890
Jackal and Mockingbird,M44 6JP,53.451973932782700,-2.416921231255520
Old World vulture and Linsang,M25 0GZ,53.526315707527100,-2.254497014924070
Wallaby and Tree warbler,M11 1PU,53.469580000000000,-2.168003000000000
Grouse and Fox,M21 9SP,53.445664764484800,-2.281431079335350
Jackal and Scimitar babbler,M41 6LD,53.445606556195900,-2.385873676368730
Wallaby and Ground sloth,M13 9GS,53.463695000000000,-2.217656000000000
Minke whale and Tahr,BL4 9NP,53.544213480000000,-2.401227616000000
Ibex and Thicketbird,M41 0YL,53.451184239952800,-2.343084493588650
Cuscus and Marsh harrier,M28 7JA,53.515939128146200,-2.383828412080590
Kākāriki and Vole,OL9 9PA,53.525121976484500,-2.166911762589760
Boto and Tree warbler,M27 5EG,53.506186417756600,-2.323159260637350
Minke whale and Parakeet,BL3 1SY,53.570460940000000,-2.395420976000000
Songlark and Kestrel,M26 2UE,53.561800264105400,-2.325500646997510
Petrel and Kite,M43 7PQ,53.491300910498600,-2.151721754747170
Myna and Minke whale,M1 7JW,53.472736000713100,-2.232285866232210
Parakeet and Minke whale,M5 3NP,53.477541171400000,-2.262341336700000
Nukupuʻu and Fox,M26 1UA,53.554956395889400,-2.320225305963530
Francolin and Stilt,M9 7DY,53.522801460173500,-2.191850294698620
Vole and Warbler,OL9 6QY,53.549390000000000,-2.123978000000000
Zebra and Mouse,M38 9PW,53.529566241775800,-2.413278340628200
Triller and Cloud rat,M28 1YT,53.508937712492200,-2.415882094249210
Fulmarine petrel and Armadillo,M27 9SY,53.516580000000000,-2.342014000000000
Mouse and Nukupuʻu,M24 6ED,53.562499000000000,-2.200560000000000
Duck and Kangaroo,M11 4WR,53.488370946531800,-2.177588208992170
Siskin and B,M8 0SD,53.502586293000000,-2.237032317696750
Mole and Gull,OL16 5DP,53.615606630427100,-2.131458525360530
Herring gull and Viscacha,OL12 6TG,53.618610925577100,-2.165799397582130
Badger and Pitohui,M16 8ET,53.452501166722100,-2.255154333580760
Tahr and Fox,M11 3QA,53.479603902809200,-2.202262919506530
Black cockatoo and Thrasher,OL10 2HT,53.584819277131800,-2.208958723071890
Hawaiian honeycreeper and Wallaby,BL2 5RP,53.586596690000000,-2.351734031000000
Old World warbler and Prion,M41 9PD,53.449114062557400,-2.334575554320250
Linsang and Darwin's finches,M43 7YF,53.483152287080400,-2.148633589846760
Chipmunk and Wader,M11 2AL,53.475122104800000,-2.192057007900000
Asiatic leopard and Grosbeak,M41 8DW,53.458448798945900,-2.378188839708410
Scimitar babbler and Herring gull,M35 9AD,53.513462828605700,-2.154455104283230
Macaw and B,BL4 9PZ,53.544871430000000,-2.408658696000000
Marmoset and Pheasant,M6 7FQ,53.497105478219500,-2.303599269232920
Partridge and Macaw,BL3 2LS,53.558246470000000,-2.411187911000000
Jerboa and Jackal,BL4 0DF,53.549285300000000,-2.416307985000000
Tahr and Thrasher,OL9 6HZ,53.537933359693600,-2.128154335317700
Darwin's finches and Armadillo,BL2 6EL,53.577578300000000,-2.390382682000000
Buzzard and Kākāriki,M14 4SS,53.457512000000000,-2.240757000000000
Mamo and Rabbit,M6 8PP,53.493405124870100,-2.315887000000000
Diving bird and Quetzal,M25 9ZH,53.534439169367300,-2.287119460589210
Boto and Ibex,OL12 6QE,53.621049872208200,-2.169966484323740
Grackle and Boto,M24 1BG,53.547057916460200,-2.193801325816320
Masked owl and Skunk,BL9 9AN,53.585776830000000,-2.288555000000000
Pitohui and Siskin,M18 7TE,53.453335450300000,-2.167217269500000
Perching duck and Kestrel,BL8 3AY,53.602247490000000,-2.338535722000000
Elephant and Tit-tyrant,OL11 2HU,53.597889280826700,-2.155186481449100
Magpie and Vole,BL9 0TA,53.588277200000000,-2.302576050000000
Badger and Myna,BL4 9QT,53.545303930000000,-2.410971837000000
Tattler and Asiatic leopard,M32 0LD,53.445505586469700,-2.305940993162130
Chickadee and Nukupuʻu,M12 5TG,53.468610000000000,-2.198309000000000
Kite and Thrasher,M30 0AU,53.484229949019000,-2.332139482012500
Elephant and Mouse,M34 2DE,53.449734016055900,-2.124334627653010
Ibex and Marsh harrier,M16 7JW,53.456652215321400,-2.247393323387770
Peafowl and Recurvebill,M14 4JW,53.455546480787500,-2.238637373163660
White ibis and Guillemot,M25 0EZ,53.520117348886500,-2.261141289103450
Thrasher and Pitohui,M41 7AJ,53.454707969167700,-2.358307602790440
Grosbeak and Herring gull,M40 3RB,53.519641152253200,-2.158791094701920
Nukupuʻu and Philippine hawk-owl,M1 5BB,53.473389907505400,-2.242458804546320
Elephant and Solitaire,M41 9EF,53.446234187603600,-2.360494666421990
Stilt and Macaw,M12 5PU,53.469611224818000,-2.189802304544270
Triller and Meadowlark,BL9 6LB,53.600390670000000,-2.273891541000000
Fulmarine petrel and Stint,M18 7FP,53.460308065553700,-2.172079051130060
Mockingbird and Hawaiian honeycreeper,M19 2EN,53.446646427397000,-2.194894187853530
Chipmunk and Fish eagle,M25 9NP,53.520153796779900,-2.272981134139880
Ground sloth and Fox,M28 3WF,53.523583665685000,-2.376808273968450
Songlark and Greenbul,BL9 0DL,53.592518600000000,-2.299433677000000
Booted eagles and Jay,M40 9LB,53.512681158415300,-2.191457689301960
Jay and Jay,M8 0WA,53.508208289532900,-2.239415896340930
Tree warbler and Petrel,BL9 9HG,53.581818500000000,-2.297439745000000
Vulture and Pratincole,OL11 2HY,53.597761631871300,-2.156576125063820
Parrotlet and Wader,M16 0ED,53.450022627818100,-2.274382901870750
Recurvebill and Fish eagle,M14 4AX,53.454297563902000,-2.229218511037870
Chickadee and Darwin's finches,M1 2DN,53.478368000000000,-2.229135000000000
Pratincole and Fulmarine petrel,M40 2EH,53.502641869962100,-2.185276427433700
Marsh harrier and Partridge,M32 8JW,53.446414315136500,-2.302063027816830
Towhee and Grackle,M44 6HS,53.454127684832000,-2.415346086077720
Diving bird and Rabbit,M15 5AP,53.470149028155700,-2.257730863387480
Meadowlark and Dolphin,BL8 2RH,53.597411000000000,-2.319459000000000
Moluccan boobook and Mockingbird,M41 8QH,53.458141790546000,-2.381454213334850
Badger and Grosbeak,M14 4BH,53.453290515441300,-2.229393785658110
Marmoset and Masked owl,BL4 8QH,53.539877710000000,-2.374568923000000
Pitohui and New World blackbird,M9 0QJ,53.536883466383600,-2.233768829496400
Vulture and Fox,BL3 2JU,53.561905150000000,-2.416265890000000
Mockingbird and Boto,M60 9DJ,53.480902000000000,-2.252673000000000
Rat and Flameback,BL2 5PE,53.589332940000000,-2.371290094000000
Ibex and Duck,M32 9RT,53.456293382580500,-2.325731740427640
Dolphin and Snipe,M40 0DA,53.515693306539400,-2.179210667941590
Booted eagles and Nukupuʻu,M44 6HN,53.455562782076700,-2.411491000000000
Scimitar babbler and Myna,BL9 7HQ,53.591497930000000,-2.283034577000000
Triller and Grackle,BL8 4FA,53.615248930000000,-2.346424656000000
Meadowlark and Coati,M24 4SN,53.554052623969600,-2.213833343961160
Siskin and Civet,M9 5TY,53.509254931029600,-2.213622596599580
Crow and Parakeet,M5 4YW,53.479008000000000,-2.263207000000000
Cloud rat and Badger,M35 9LR,53.512751492818100,-2.140941140110880
Grackle and Kangaroo,OL8 3UL,53.520049810943700,-2.125038554151380
Magpie and Lemming,M43 6TT,53.472633829190100,-2.150208772808280
Fish eagle and Tattler,M28 3DF,53.519877857070900,-2.391586159906810
Parakeet and Myna,M41 9BZ,53.447102617910900,-2.355653841154340
Old World vulture and Linsang,M9 4EB,53.517023673595800,-2.206950588738930
Siskin and Chicken,M28 7GR,53.510085145492800,-2.403679498852050
Ground sloth and Hawaiian honeycreeper,BL2 3ES,53.606622880000000,-2.400262636000000
Logrunners and Jackal,M35 0GQ,53.499160243589900,-2.156016038313630
Old World vulture and Fish eagle,M14 5QS,53.457759946647200,-2.213710126296650
Tit-tyrant and Argus,OL12 0RG,53.625722640716100,-2.157662566843760
Fox and Stilt,M25 3WW,53.534439169367300,-2.287119460589210
Buzzard and Hawk,OL16 4QW,53.596264870267900,-2.138560201248010
Lemming and Marmoset,M9 8JF,53.526696763928200,-2.230620323885380
Ice seal and New World blackbird,M40 2DN,53.498850287834100,-2.195586067300780
Triller and Tit-tyrant,M24 4LF,53.555374854299700,-2.227908396990870
Gull and Diving bird,M32 0TT,53.452142371795900,-2.293912029692250
Ibex and Mouse,M25 0EH,53.524082517775500,-2.256399246911080
Old World quail and Kestrel,M25 0HT,53.520808188661100,-2.265790967245670
Linsang and Jay,OL11 3HA,53.598199402720600,-2.177746960169700
Dolphin and Quetzal,M41 0SE,53.455133152096200,-2.345179469181360
Greenbul and Argus,M25 1HF,53.531414916726500,-2.269613935699940
Asiatic leopard and Songlark,BL4 9DN,53.544182100000000,-2.397167862000000
Nukupuʻu and Dorcopsis,M15 4TZ,53.471681000000000,-2.259923000000000
Towhee and Guillemot,M5 4HS,53.481976177801600,-2.282319510246910
Polecat and Bunting,M21 9AX,53.447969000000000,-2.280362000000000
Quetzal and Tit-tyrant,M40 5QJ,53.519558000000000,-2.186163608009120
Mink and Solitaire,M8 5SQ,53.515677544562500,-2.239473124389020
Crow and Kangaroo,BL9 6XE,53.611134100000000,-2.291856962000000
Grouse and Civet,M43 7FA,53.480968620917000,-2.140790384158420
Gull and Civet,M30 0HJ,53.479202534964300,-2.345811905693990
Piping shrike and Wallaby,M5 3RG,53.475541583861200,-2.274110717667540
Nukupuʻu and Vulture,M3 6DX,53.484200129671800,-2.260754000000000
Night heron and Warbler,M12 5PE,53.469221520167600,-2.191804106783660
Capuchin and Old World quail,M27 5GE,53.503479065694700,-2.340009174292900
Jerboa and Puffleg,M40 7GF,53.494790881254000,-2.219503762118100
Jerboa and Grouse,M35 0FZ,53.506505876140400,-2.161199541404200
Buzzard and Macaw,BL9 9HH,53.581438180000000,-2.298569883000000
Dolphin and Condor,M4 1BJ,53.484511878240600,-2.236358793189900
Greenbul and Piping shrike,M11 3RR,53.482242272873500,-2.205033000000000
Crow and Flameback,M7 2FQ,53.507638692211600,-2.262391357670390
Wader and Chipmunk,M6 8LW,53.495940492522500,-2.322825037806660
Elephant and Old World warbler,M26 3SL,53.555936040947300,-2.342935690678800
Puffleg and Buzzard,OL11 2XJ,53.584102000000000,-2.175029000000000
Kākāriki and Thrasher,M3 1LT,53.490781838070900,-2.247200234110680
Dorcopsis and Kite,M12 4NU,53.454738097601500,-2.193651258460890
Grackle and Philippine hawk-owl,BL8 2QY,53.596261180000000,-2.315566813000000
Herring gull and Francolin,M18 8TQ,53.468544280298900,-2.157033358933770
Coati and Grackle,M28 7UY,53.511189761385900,-2.411862929141620
Warbler and Asiatic leopard,M15 4JE,53.470779770076800,-2.261154399527520
Asiatic leopard and Boto,M38 0WH,53.527258000000000,-2.410435000000000
Marsh harrier and Parrotbill,M27 5NT,53.505804707806000,-2.334479369763260
Myna and Magpie,M26 4WN,53.569957050910900,-2.346341015484230
Lemming and Egret,M6 5JZ,53.487517305341100,-2.291775553918850
Marmoset and Vole,SK5 6LN,53.446926236817200,-2.157600910959070
Old World warbler and Tahr,M4 4DU,53.488878000000000,-2.238267000000000
Zebra and Crow,OL11 5XU,53.625015244810800,-2.208703879448060
Partridge and Badger,OL16 2XP,53.621411151089900,-2.133154733352220
Solitaire and Polecat,M25 9TY,53.520996222171400,-2.293001197406570
Badger and Francolin,M6 7AR,53.491687128757000,-2.288412948081090
Treepie and Ice seal,M30 0NL,53.484177797879900,-2.341075337577030
Old World vulture and Towhee,M44 6JT,53.451690823623800,-2.415623458484230
Mole and Pheasant,M26 1GW,53.545570739180300,-2.370604905879230
Cloud rat and Puffleg,M12 4XZ,53.467355127400000,-2.218744689700000
River dolphin and Warbler,BL9 8QA,53.574212570000000,-2.283387171000000
Meadowlark and Dorcopsis,M28 8FN,53.513067000000000,-2.362206000000000
Chicken and Condor,M7 4EH,53.507889304407400,-2.258759117989270
Argus and Civet,M1 5WG,53.474218489076100,-2.246049245080210
Logrunners and Ice seal,M1 6LQ,53.475213479139200,-2.238536887387230
Badger and Tree warbler,M28 3HP,53.522661022514800,-2.384281377266620
Masked owl and Treepie,M41 9LL,53.447408755390000,-2.343189557518600
Wallaby and Philippine hawk-owl,M14 5RN,53.454447396366000,-2.221268158743670
American sparrow and Mockingbird,M27 6UN,53.514529529339900,-2.344893000000000
New World blackbird and Thicketbird,M12 6WH,53.477616572147900,-2.213101849134360
Kestrel and Skunk,M25 9XW,53.516600687047500,-2.289396632902250
Egret and Grackle,M24 2QZ,53.552078526033700,-2.190624442397380
Buzzard and Fox,M40 2TL,53.498260605873000,-2.181971053963500
Triller and Egret,M28 7UZ,53.513914886679300,-2.411391724046150
Old World quail and Grouse,OL2 5UA,53.569409695946600,-2.128898962519180
Eagle and Minke whale,M14 5SS,53.455251000000000,-2.224555000000000
Siskin and American sparrow,M8 0PT,53.505930756465600,-2.236643909892570
Nukupuʻu and Rabbit,OL11 5DR,53.619120670096800,-2.180011890830320
Grouse and Argus,M9 4JH,53.510835816808100,-2.209152095156960
Cloud rat and Greenbul,BL4 7LE,53.554394880000000,-2.401957961000000
Tit-tyrant and Warbler,OL10 4JN,53.596599013594700,-2.216209046290250
Night heron and Old World quail,OL16 1UR,53.612527055712800,-2.158308622718570
Bunting and Fulmarine petrel,M40 8BJ,53.499922086836200,-2.215218811060940
Philippine hawk-owl and Mockingbird,OL16 4SD,53.585392219670300,-2.135805581014850
Siskin and Triller,M35 0GY,53.510611858669900,-2.162466695754960
Buzzard and Linsang,M11 1PQ,53.473947000000000,-2.156118000000000
Flameback and Black jay,BL2 3QR,53.595067020000000,-2.388413610000000
Masked owl and Kākāriki,OL11 5BU,53.620763840352500,-2.175090380401220
Meadowlark and Cuscus,BL8 2DE,53.584159530000000,-2.326760000000000
Vole and Eagle,M9 0NQ,53.533837437614600,-2.228592222222680
Recurvebill and Rabbit,M40 7AX,53.486330212167400,-2.211216000000000
Duck and Old World quail,M6 5EJ,53.487812016140900,-2.281333478406880
Cuscus and Stilt,M28 7DA,53.519192709950900,-2.397642815934720
Hawk and Cuscus,M7 1PR,53.497229833816800,-2.262507918580790
Vulture and Old World vulture,M40 3GQ,53.514548427757800,-2.162723061819050
Boto and Chickadee,M40 7UR,53.491929749643100,-2.221026343972360
Prion and Fulmarine petrel,M41 6JW,53.443078604242100,-2.383758101176880
Solitaire and Flameback,M25 1FQ,53.529802809528200,-2.271021747238810
Petrel and Viscacha,M26 4PG,53.568294164399300,-2.336920447684550
Fox and Quetzal,BL3 1NH,53.562394090000000,-2.365709514000000
Tahr and Wallaby,M5 4NB,53.480508452269600,-2.267844229526130
Masked owl and Dolphin,M25 9PZ,53.524678159248900,-2.283191902665430
White ibis and Rat,M45 8RG,53.555063000000000,-2.270354682230500
Jay and Masked owl,BL2 6BZ,53.577225300000000,-2.404636360000000
Tahr and Ground sloth,M43 6LS,53.486948752548500,-2.166520505636350
Moluccan boobook and Duck,M6 7DR,53.492354770401800,-2.287377482037800
Coati and Grackle,M43 7EG,53.482841630104100,-2.145437863703760
Skunk and Prion,OL10 3DQ,53.589098312779600,-2.233120000000000
Civet and Bronzewing pigeon,M24 1LG,53.540486005217300,-2.194676640970540
Rat and Piping shrike,M43 7AG,53.484532694507600,-2.144418921997430
Night heron and Argus,M12 5PN,53.469600096533600,-2.191142983617920
Jerboa and Ground sloth,M32 0YY,53.445505586469700,-2.305940993162130
Old World quail and Fish eagle,M16 8JZ,53.447369640964900,-2.267063373772390
Chickadee and Zebra,M26 2PH,53.567139892955300,-2.308343858792770
Lemming and Stint,M27 0HA,53.504929923281600,-2.360208828172070
Kite and Skunk,M8 8EB,53.495814590252400,-2.251736000000000
Thicketbird and Darwin's finches,BL2 3PW,53.597940320000000,-2.378119811000000
Myna and Myna,M35 0JU,53.498990274479800,-2.162150847446170
Triller and Egret,M40 5NB,53.503466000000000,-2.193165000000000
Recurvebill and Mole,M28 3TX,53.525370296122700,-2.385904842726870
Moluccan boobook and White ibis,M28 7HE,53.514211324265700,-2.403537774917920
Philippine hawk-owl and White ibis,M14 7BJ,53.447159841027800,-2.229661847062470
Skunk and Rabbit,M1 5AL,53.472979000000000,-2.242003203528720
Polecat and Francolin,M26 3WN,53.564968338102600,-2.352550922574210
Elephant and Goose,M1 5LN,53.474637671189400,-2.247633620087160
Badger and Buzzard,M5 3DH,53.469376489477000,-2.281528000000000
Fulmarine petrel and Night heron,BL2 5PJ,53.587152840000000,-2.375742410000000
Vole and Buzzard,OL9 0JR,53.547895196406300,-2.141631588938110
Goose and Petrel,M24 5TN,53.551934827694600,-2.201506277988250
Pheasant and Thicketbird,M11 4SQ,53.483129657729800,-2.184196716994390
Cloud rat and Civet,OL16 1NY,53.616188176183000,-2.156100216703970
American sparrow and Chipmunk,BL2 3AG,53.595817840000000,-2.405917085000000
Pheasant and Kākāriki,M1 2PL,53.477591000000000,-2.222579000000000
B and Boto,M27 8UB,53.509355065641800,-2.307758073245650
Tattler and Partridge,OL10 1HY,53.593270890782700,-2.222446883659320
Siskin and Fox,OL10 4JP,53.596877729653000,-2.216165142194420
Thicketbird and Moluccan boobook,M25 1AJ,53.530318297823800,-2.285115304375820
Warbler and Tahr,M40 0JJ,53.523060720426900,-2.168985145765100
Goose and Grosbeak,BL9 6QB,53.613644180000000,-2.290891772000000
Gull and Pitohui,M16 9WB,53.458571324413600,-2.262103522058480
Ibex and Parrotbill,OL11 1NH,53.605244238740000,-2.153203513328440
Egret and Badger,OL9 7PE,53.526488797221600,-2.138331946006010
Kestrel and Egret,BL8 2AR,53.593085060000000,-2.309937949000000
Macaw and Tattler,M14 7PU,53.450881940689600,-2.229215157628150
Mink and Duck,M45 6UL,53.541608407505300,-2.281026403143840
Solitaire and Maya,M3 5EW,53.482835560926900,-2.251615000000000
Mockingbird and Marmoset,M27 4UN,53.510305083050100,-2.329026129658660
Thicketbird and Vole,M41 4BD,53.448324576700000,-2.351373126600000
Vulture and Warbler,M41 7DY,53.453939000000000,-2.363482520572860
Pitohui and Crow,M45 7WQ,53.555246069817100,-2.309208280181960
Lemming and Tit-tyrant,M5 0PD,53.481217000000000,-2.280430000000000
Fulmarine petrel and Warbler,M18 8AT,53.465498082162400,-2.175730232838640
Quetzal and Puffleg,M11 1GN,53.473931294856600,-2.161573046547000
Magpie and Polecat,BL9 6UH,53.605986300000000,-2.260009000000000
Night heron and Asiatic leopard,OL11 2AG,53.595671281285900,-2.146399912960250
Mink and Shearwater,M30 8PQ,53.482225087019000,-2.363165738337900
Wallaby and Tree warbler,M41 5DS,53.448351037698700,-2.370751303660700
Polecat and Kākāriki,M24 2QD,53.557771891792400,-2.193880542296680
Chicken and Moluccan boobook,M14 7AZ,53.444245532367700,-2.230715045670510
Tahr and Tattler,M24 2QX,53.549972019815700,-2.181151718372230
Fish eagle and Marmoset,M25 9YT,53.522245034608300,-2.293236068157490
Magpie and Rat,M16 8HX,53.451375000000000,-2.252573000000000
Parakeet and Armadillo,BL9 9RQ,53.575594230000000,-2.291913975000000
Pheasant and Jay,M26 3DG,53.563154000000000,-2.329661000000000
Kite and Mink,OL16 1UG,53.613938646046300,-2.150832000000000
Partridge and Black cockatoo,M30 9LN,53.493444650112800,-2.350269000000000
Mink and Rat,SK5 6JR,53.445942953748700,-2.166811532209270
Argus and Chipmunk,OL12 0PQ,53.621072573831800,-2.160033891318320
Mouse and Peafowl,M30 7NT,53.481119960322100,-2.368882329333220
Myna and Francolin,M5 3JU,53.476234414415700,-2.281528025507810
Thrasher and Darwin's finches,M15 4ST,53.473706235000000,-2.256758364800000
Goose and Grouse,OL9 0HT,53.547411094257800,-2.140558439663640
Eagle and Treepie,M16 8GU,53.446955729817600,-2.246373315022530
Greenbul and Parrotbill,M16 0JE,53.453343545451200,-2.284132209906090
Parrotbill and B,M15 5EJ,53.463873287289100,-2.250116446536180
American sparrow and Tit-tyrant,M16 0TP,53.454074000000000,-2.283068000000000
River dolphin and Chickadee,M6 6DR,53.497876858511200,-2.278445574453240
Kākāriki and Coati,OL12 0NU,53.619535269328200,-2.160269950326210
Magpie and Black jay,OL12 7NU,53.625147910967400,-2.188353410856220
Moluccan boobook and Fish eagle,BL4 8SH,53.534290490000000,-2.364697691000000
Duck and Tahr,M41 8QL,53.457774991423600,-2.394749132491210
Buzzard and Coati,M3 4NF,53.476098147838000,-2.254120807413470
Mockingbird and Kākāriki,BL9 9PG,53.574028460000000,-2.296297715000000
Civet and Grosbeak,M5 0DX,53.481203331800000,-2.280431088200000
Perching duck and Myna,M8 8AW,53.497143073958400,-2.248443201744670
Pitohui and Fish eagle,M11 4HN,53.486210894394400,-2.179478025206500
Stilt and Tit-tyrant,OL16 4GE,53.593641073100000,-2.133898456700000
Nukupuʻu and Fox,OL11 1QP,53.603989977700200,-2.163671678770760
Gull and Wallaby,M6 6JW,53.504083802270000,-2.291452179682390
Wader and Puffleg,M28 1FB,53.503004582000600,-2.416095359999890
Siskin and Old World warbler,M24 4EL,53.548241384223800,-2.201051034762710
Buzzard and Goose,OL11 4BY,53.611799509910800,-2.183124611580500
Maya and Solitaire,M18 8EA,53.466038780965300,-2.174783493667540
Eagle and Grosbeak,M11 3TS,53.479491165274600,-2.199821386988600
Bunting and Kangaroo,M17 1AF,53.472361070716700,-2.343119801320420
Old World quail and Parakeet,BL9 9UG,53.581040000000000,-2.309848000000000
Tahr and Piping shrike,OL11 2ND,53.600326277033700,-2.161088652305540
Dorcopsis and Grosbeak,BL4 8EF,53.536885170000000,-2.365670566000000
Fish eagle and Tit-tyrant,M9 6LZ,53.529001683944900,-2.203765679239720
Flameback and Vulture,OL2 5BL,53.557086573992400,-2.129027477523060
Recurvebill and Herring gull,M12 5DG,53.466668116100000,-2.200469325000000
Chicken and Mole,M7 3AD,53.513770188917200,-2.269833576297600
Goose and Fox,M24 2SB,53.576691000000000,-2.165378000000000
B and Marsh harrier,M18 7HE,53.457872836989600,-2.165261974629030
Hawaiian honeycreeper and Cuscus,M19 3FR,53.449633153246900,-2.181898368792120
Hawaiian honeycreeper and Mink,M15 6FY,53.465307552918000,-2.243301407973560
Snipe and Elephant,BL9 5EA,53.604058660000000,-2.296190678000000
Boto and Argus,BL8 3DT,53.606455310000000,-2.328398297000000
Night heron and Scimitar babbler,M24 6TA,53.565973266994400,-2.202297816842450
Pratincole and Francolin,M15 6AS,53.468746980100000,-2.242718805200000
Badger and Magpie,M43 7HR,53.487282884731900,-2.137028605038280
Chickadee and Parakeet,OL10 4UT,53.599192277724400,-2.223460205332390
Chipmunk and Tahr,OL9 7RD,53.536200475367500,-2.134621837488300
Ice seal and Night heron,M1 7FB,53.473148000000000,-2.237423000000000
Darwin's finches and Wallaby,BL2 2QD,53.584957790000000,-2.409181470000000
Cloud rat and Zebra,M3 2FF,53.483124456284800,-2.246673000000000
Moluccan boobook and Vole,M21 0GX,53.446335149686600,-2.271408109550860
Masked owl and Fulmarine petrel,M25 3JG,53.531764846769100,-2.292788947421900
Mink and Wader,M45 8LB,53.552997893389800,-2.276649200374120
Mouse and Capuchin,BL4 7PH,53.551736680000000,-2.395865124000000
Jay and Ice seal,OL9 0BW,53.556192844985300,-2.147743000000000
Dolphin and Masked owl,M14 6LT,53.444783871719500,-2.221744829316090
White ibis and Grouse,M6 5DT,53.485499000000000,-2.286773000000000
Parrotlet and Triller,BL9 6GE,53.602789000000000,-2.285767000000000
Mink and Eagle,OL11 4JT,53.609491793879100,-2.162937281278300
Coati and Rabbit,OL12 0EP,53.623611372323400,-2.149928801959930
Boto and Tahr,M35 0DJ,53.510549759628000,-2.161863302714160
Puffleg and Grackle,M4 4AL,53.488697596735900,-2.233262361045750
Songlark and Linsang,M18 8AW,53.464060290081100,-2.175483287921190
Darwin's finches and Linsang,BL7 9NF,53.615801120000000,-2.410522873000000
Ground sloth and Partridge,OL11 4EG,53.613961965688300,-2.173565741418850
Night heron and Goose,BL4 7PY,53.555050000000000,-2.397177349000000
Badger and Darwin's finches,M14 5WR,53.453882649695200,-2.225255805723320
White ibis and Recurvebill,BL8 3NL,53.614792670000000,-2.339407067000000
Night heron and Grouse,M9 6HB,53.531292000000000,-2.205300000000000
Kākāriki and Fulmarine petrel,OL9 9PD,53.524578785672100,-2.169669970677060
Snipe and Old World warbler,M28 1ED,53.505846785922100,-2.410363680195180
Siskin and Ground sloth,M24 6BL,53.554661705413100,-2.194017250849260
Prion and Prion,M5 3LL,53.470365739642000,-2.281353000000000
Vole and Scimitar babbler,M13 9LU,53.465110010991700,-2.224863420908200
Minke whale and Boto,BL9 7NP,53.593851615457400,-2.266038362654450
Lemming and Skunk,OL16 2NF,53.625924000000000,-2.139865000000000
Stilt and Tahr,M26 1QX,53.551547000000000,-2.318418000000000
Quetzal and Vole,OL10 3RL,53.590080222002500,-2.236404262008650
Treepie and Stint,M11 4DQ,53.486390259022500,-2.196839787380400
Solitaire and Lemming,M11 2AQ,53.476133573399700,-2.191850383552480
Piping shrike and Perching duck,M27 4FH,53.506105000000000,-2.320475000000000
Kangaroo and Civet,M16 9WG,53.457546629625100,-2.270169432741180
Tit-tyrant and Linsang,M5 3AH,53.476865000000000,-2.281216000000000
Viscacha and Asiatic leopard,BL9 7LN,53.598579000000000,-2.272595000000000
Viscacha and Tattler,M7 4TD,53.506645234027000,-2.242980000000000
Rabbit and Stilt,M30 0JY,53.476663744483000,-2.350281192689890
Jackal and Parrotlet,BL9 5DE,53.602461560000000,-2.291389107000000
Quetzal and Bronzewing pigeon,M16 0BP,53.450384357527100,-2.269476459874940
Tree warbler and Vole,BL3 1FW,53.564055000000000,-2.380427000000000
Badger and Kestrel,OL11 4QN,53.606497289000000,-2.176587921391890
New World blackbird and Kangaroo,OL9 6LY,53.546262000000000,-2.132842013739120
Pratincole and Nukupuʻu,OL11 1QQ,53.607971730702800,-2.157006905021200
Black cockatoo and Armadillo,OL8 4RX,53.528229000000000,-2.134325000000000
Pheasant and Mole,BL9 0AD,53.593217540000000,-2.296688906000000
White ibis and Mink,M35 0JL,53.494296040100000,-2.160520347300000
Fox and Pratincole,M35 0DN,53.511410442708900,-2.163480060280060
Asiatic leopard and Scimitar babbler,BL1 8UR,53.597934920000000,-2.414988327000000
Old World vulture and Hawaiian honeycreeper,M24 4DA,53.544754616481700,-2.200627032154340
Viscacha and Warbler,OL11 3QQ,53.604379162902600,-2.168206869570710
Kākāriki and Tree warbler,BL9 5AA,53.600196420000000,-2.295090767000000
Tit-tyrant and Capuchin,M6 7EU,53.495618608599300,-2.305080928518970
Grouse and Quetzal,M40 2SF,53.495799283330000,-2.180980713799660
Night heron and Meadowlark,OL9 9JG,53.542923969673000,-2.149552502955190
Old World vulture and Recurvebill,M14 5LN,53.451519000000000,-2.220816000000000
Magpie and Snipe,M19 3QJ,53.442672262749200,-2.184367696368010
Kite and Solitaire,M14 5HB,53.451690403811500,-2.219928704886570
Jackal and Asiatic leopard,M40 8NG,53.503116890185300,-2.207938104792460
Towhee and Guillemot,M14 5XG,53.452763515461700,-2.227659224309740
Black cockatoo and Night heron,M16 0WW,53.457052791486700,-2.277771571483240
Moluccan boobook and Myna,BL4 7TF,53.553765000000000,-2.397075247000000
Fulmarine petrel and Linsang,M16 8WQ,53.442461545927000,-2.254898404671920
Rabbit and Tit-tyrant,OL12 6XB,53.613829960686700,-2.165236473530140
Argus and Partridge,M9 0RL,53.534498860183000,-2.216103419996920
Ibex and Jerboa,BL9 9BR,53.583867770000000,-2.297469249000000
Philippine hawk-owl and Wallaby,OL16 4XA,53.603922840969700,-2.138585310884040
Diving bird and Mockingbird,M15 6HQ,53.464258962612200,-2.237315596806370
Treepie and Black jay,M43 7JQ,53.489235727425600,-2.126771347436680
Minke whale and Nukupuʻu,BL3 1DP,53.565734890000000,-2.381018112000000
Dorcopsis and Kangaroo,M8 0WG,53.511625206852500,-2.238756607217120
Partridge and Grackle,BL8 4QB,53.624128430000000,-2.340479901000000
B and Buzzard,M19 3EZ,53.445998810865700,-2.189591501407640
Fox and Fish eagle,M9 6PG,53.530441652981500,-2.213020290830300
Grackle and Philippine hawk-owl,M19 3NQ,53.442512894130100,-2.188567290219270
Magpie and Chicken,M9 6GG,53.536122281495900,-2.213033748896050
Philippine hawk-owl and Dolphin,M4 4HG,53.488288000000000,-2.235563000000000
Bunting and Magpie,M38 9ES,53.537255002948400,-2.414816839547830
Chipmunk and Black jay,M26 1LQ,53.557296589071100,-2.322371463160900
Logrunners and Magpie,M9 6QB,53.535231929156100,-2.213315939939530
Rabbit and Coati,M41 6WD,53.446955674677300,-2.401966183351710
Kangaroo and Parakeet,M27 4AP,53.509564280411500,-2.333619356076190
Crow and Kestrel,M9 6LU,53.526767476721900,-2.206726618161990
Tree warbler and Ice seal,M26 4WQ,53.573160990232500,-2.348028349000640
Scimitar babbler and Rabbit,M8 4NS,53.519737893880600,-2.245091527941860
Tahr and Parrotlet,M41 4DY,53.448337000000000,-2.351372000000000
Recurvebill and Lemming,BL8 4QN,53.620986510000000,-2.342238552000000
Meadowlark and Grosbeak,M24 1WD,53.543185624772100,-2.203592429045470
Meadowlark and Thicketbird,M18 7NF,53.455678567949900,-2.172376555078320
Jay and Guillemot,BL8 3HH,53.610766570000000,-2.339178266000000
Fish eagle and Old World vulture,M5 5JR,53.485486939215000,-2.309227776334770
