name,postcode,lat,lon
boa constrictor and crocodile,EX34 7DB,51.177482293334700,-4.211054609680190
frill-necked lizard and diamondback,EX34 7EN,51.188008362484000,-4.205102000000000
diamondback and Pratincole,EX34 7EX,51.178607209227400,-4.182292124908680
mud turtle and bearded lizard,EX34 8BG,51.200382371838200,-4.132933735291990
frill-necked lizard and Tit-tyrant,EX34 8BT,51.207551664158400,-4.126421613886560
goanna and Perching duck,EX34 8BW,51.207599000000000,-4.127248810142430
gopher snake and Jackal,EX34 8BZ,51.206332369981800,-4.127696866130310
dugite and black snake,EX34 8DJ,51.201990308290300,-4.127110204296070
Treepie and Stint,EX34 8DW,51.202717396284800,-4.130149933484310
Kite and Meadowlark,EX34 8JE,51.204890670726900,-4.125172000000000
massasauga and gecko,EX34 8PY,51.177007906402500,-4.122111103017080
puff adder and dugite,EX34 9BG,51.210183062644900,-4.118195678829650
loggerhead and Greenbul,EX34 9GZ,51.208452692925700,-4.120879456172330
gaboon viper and ringhals,EX34 9HJ,51.208701273962000,-4.120192000000000
White ibis and Komodo dragon,EX34 9JY,51.207434891558800,-4.118484727699240
Snipe and bandy-bandy,EX34 9LD,51.207027998820800,-4.116619200496500
garter snake and Siskin,EX34 9PP,51.202467000000000,-4.105831000000000
Cuscus and fer-de-lance,EX34 9RH,51.195035458180400,-4.100411037798490
Gila monster and Coati,EX34 9RN,51.203479233360000,-4.086894892794190
