name,postcode,lat,lon
Woolacombe Bay Holiday Village Ltd,EX34 7AH,51.175676278454400,-4.194368000000000
The Smugglers Rest,EX34 7DR,51.185707095195100,-4.207942337732610
Easewell Barn Cafe & Takeaway,EX34 7EH,51.187848000000000,-4.198428000000000
Twitchen Park,EX34 7ES,51.182761371638300,-4.197699152859060
The Brasserie at The Carlton,EX34 8AR,51.209290703955100,-4.126057000000000
The Grampus Inn,EX34 8LR,51.197263689282200,-4.173368993495550
GFD DEPOT,EX34 8NY,51.177274045769500,-4.143512987417920
Ilfracombe Holiday Park,EX34 8PF,51.201557000000000,-4.114378000000000
THE ILFRACOMBE FRYER,EX34 9BD,51.210143143439100,-4.120684000000000
THE ILFRACOMBE PIZZA,EX34 9BD,51.210143143439100,-4.120684000000000
Maddys chippy ltd,EX34 9BJ,51.210382280605700,-4.116629876245030
No 28 The Cookery,EX34 9BJ,51.210382280605700,-4.116629876245030
The Quarterdeck,EX34 9BZ,51.210391143549900,-4.123087569906430
Swiss Cottage Cafe,EX34 9DA,51.208300000000000,-4.123329361276490
Coffee Break,EX34 9DF,51.208987591424400,-4.121288000000000
George & Dragon,EX34 9ED,51.209680019559300,-4.117170364286160
ROYAL BRITANNIA HOTEL,EX34 9EE,51.209995190218300,-4.116153958475320
The Starter Bar,EX34 9EE,51.209995190218300,-4.116153958475320
The Dolphin,EX34 9EQ,51.210660865555800,-4.114652482588910
Jurassic Coast Coffee Ltd t/a Costa Coffee Ilfracombe,EX34 9EY,51.208171667295800,-4.122985460631750
Dice And A Slice Ilfracombe,EX34 9NH,51.207268100516800,-4.124704854893690
Grassroots Cafe ,EX34 9NH,51.207268100516800,-4.124704854893690
Blue Lotus,EX34 9QB,51.207248978680700,-4.125377000000000
Nelly May's Parlour,EX34 9QE,51.206521802128300,-4.125547000000000
The Manor House Cafe,EX34 9QE,51.206521802128300,-4.125547000000000
Hele Cornmill and Tearooms,EX34 9QY,51.208831357142900,-4.098390212041380
The Hele Bay Pub,EX34 9QZ,51.209724295375700,-4.098244688707550
Ilfracombe Golf Club,EX34 9RT,51.212006389090600,-4.090443000000000
MILL PARK LIMITED,EX34 9SH,51.204854600591800,-4.064123211967160
Park Life Resorts Watermouth Lodges ,EX34 9SJ,51.212791000000000,-4.067528000000000
Sandy Cove Hotel,EX34 9SR,51.207637000000000,-4.053782000000000
THE SAWMILLS,EX34 9SX,51.200656000000000,-4.058510000000000
