name,postcode,lat,lon
Skunk and dukite,EX34 7AJ,51.175924105164400,-4.195428123554600
bearded dragon and Fox,EX34 8AE,51.207094432859100,-4.126343279712350
Warbler and Duck,EX34 8BW,51.207599000000000,-4.127248810142430
Mamo and Mockingbird,EX34 8DY,51.202260298335700,-4.129570545910100
giant tortoise and Francolin,EX34 8HP,51.200509289167500,-4.119025754761230
Diving bird and frill-necked lizard,EX34 8HZ,51.199009775442300,-4.121376019314280
hawksbill and king snake,EX34 8JE,51.204890670726900,-4.125172000000000
copperhead and Logrunners,EX34 8JQ,51.204854683824200,-4.123892267600870
alligator and Black cockatoo,EX34 8NY,51.177274045769500,-4.143512987417920
loggerhead and Gull,EX34 8PD,51.201687551902400,-4.115043013400610
Capuchin and bull snake,EX34 8PP,51.200467610898600,-4.124792639122250
mamba and Kestrel,EX34 8PQ,51.188839275962600,-4.110891079155060
grass snake and Badger,EX34 9BQ,51.210253394207300,-4.118284813215430
python and Night heron,EX34 9DA,51.208300000000000,-4.123329361276490
hawksbill and amphisbaena,EX34 9GB,51.209561000000000,-4.121880201611140
Marmoset and Black cockatoo,EX34 9HP,51.208275000000000,-4.119339000000000
Pratincole and hoop snake,EX34 9HQ,51.207881495809900,-4.120766000000000
loggerhead and grass snake,EX34 9NS,51.207747651662200,-4.112629163746490
Black cockatoo and king snake,EX34 9PT,51.204199761194000,-4.110390978836200
anole and Darwin's finches,EX34 9SG,51.201006484052200,-4.063049312911810
bearded lizard and moloch,EX34 9SZ,51.198513000000000,-4.054101404043000
