name,postcode,lat,lon
Jerboa and krait,BA1 0GL,51.378856590000000,-2.355561725000000
Vulture and horned viper,BA1 0NG,51.378856590000000,-2.355561725000000
turtle and Stilt,BA1 0SA,51.382047790000000,-2.358790792000000
Masked owl and Logrunners,BA1 0SG,51.382047790000000,-2.358790792000000
Crow and Magpie,BA1 0UY,51.378849000000000,-2.355562000000000
Buzzard and Pitohui,BA1 0XH,51.378846000000000,-2.355560000000000
amphisbaena and Tahr,BA1 0XY,51.378846000000000,-2.355560000000000
cobra de capello and blindworm,BA1 1BL,51.383192200000000,-2.360912066000000
Myna and racer,BA1 1BR,51.382660860000000,-2.361180901000000
Chipmunk and taipan,BA1 1BS,51.380537000000000,-2.363893000000000
Coati and box turtle,BA1 1DD,51.383917100000000,-2.362024242000000
anaconda and giant tortoise,BA1 1RH,51.382510220000000,-2.360461249000000
Komodo dragon and Viscacha,BA1 1SA,51.380748160000000,-2.360821000000000
Pitohui and bearded dragon,BA1 1SQ,51.380779250000000,-2.361941994000000
Pratincole and habu,BA1 1UE,51.379373000000000,-2.363368000000000
Ice seal and Chipmunk,BA1 1ZN,51.378856590000000,-2.355561725000000
Tit-tyrant and flying dragon,BA1 2BN,51.382723920000000,-2.366929146000000
Pheasant and deaf adder,BA1 2BQ,51.383221120000000,-2.368944858000000
swift and cerastes,BA1 2BY,51.380701000000000,-2.364384000000000
Zebra and Marmoset,BA1 2DR,51.381199260000000,-2.368540631000000
python and New World blackbird,BA1 2EU,51.385738270000000,-2.363360691000000
Grosbeak and Songlark,BA1 2HB,51.383540780000000,-2.364492846000000
tokay and Parrotbill,BA1 2NR,51.384985360000000,-2.365481495000000
coral snake and boa constrictor,BA1 2PA,51.384758110000000,-2.363381663000000
Komodo dragon and Skunk,BA1 2QS,51.385101300000000,-2.362895799000000
massasauga and crocodile,BA1 2RB,51.387853040000000,-2.362802613000000
Egret and Chipmunk,BA1 2RG,51.387753160000000,-2.363117983000000
Chipmunk and American sparrow,BA1 2RN,51.388924010000000,-2.362494919000000
Perching duck and Magpie,BA1 2RR,51.389002480000000,-2.363285963000000
mamba and blind snake,BA1 2SU,51.390469290000000,-2.365798280000000
Marmoset and harlequin snake,BA1 2TA,51.389578760000000,-2.368780450000000
Pitohui and flying dragon,BA1 2TJ,51.393463860000000,-2.374230229000000
garter snake and B,BA1 2TU,51.388519030000000,-2.368369532000000
Kite and krait,BA1 2XN,51.389283350000000,-2.385132760000000
death adder and snake,BA1 3AX,51.385181700000000,-2.380255000000000
leathery turtle and mountain devil,BA1 3BD,51.385790320000000,-2.380936020000000
boomslang and swift,BA1 3EL,51.383202000000000,-2.386303000000000
Snipe and Argus,BA1 3JD,51.384605750000000,-2.399132929000000
bushmaster and Condor,BA1 3JS,51.382578780000000,-2.394962548000000
agama and coral snake,BA1 3NE,51.387676460000000,-2.389775442000000
rat snake and Magpie,BA1 3PQ,51.387559780000000,-2.387000868000000
cycling lizard and Linsang,BA1 3QA,51.388020240000000,-2.394520808000000
Tree warbler and Zebra,BA1 3QB,51.388750450000000,-2.396625297000000
diamondback terrapin and Flameback,BA1 3RD,51.393134160000000,-2.397870528000000
Nukupuʻu and soft-shelled turtle,BA1 3RZ,51.391398650000000,-2.400543048000000
Parakeet and Solitaire,BA1 3WW,51.378856590000000,-2.355561725000000
Guillemot and Jay,BA1 4AF,51.392387790000000,-2.387156607000000
Black cockatoo and brown snake,BA1 4AU,51.394554680000000,-2.387189282000000
thorny devil and iguana,BA1 4DR,51.397299720000000,-2.394370000000000
Wader and Argus,BA1 4HT,51.399018500000000,-2.391669000000000
alligator and Gila monster,BA1 4HU,51.398543490000000,-2.390945934000000
brown snake and diamond python,BA1 5AN,51.383468220000000,-2.358989000000000
carpet snake and Logrunners,BA1 5DU,51.385754950000000,-2.360874758000000
asp and jew lizard,BA1 5ED,51.388233490000000,-2.361900244000000
python and River dolphin,BA1 5HG,51.392997550000000,-2.365286671000000
chuckwalla and chuckwalla,BA1 5JL,51.392236300000000,-2.358482483000000
Schneider python and Zebra,BA1 5JQ,51.390611660000000,-2.360481836000000
Stint and python,BA1 5PN,51.392401740000000,-2.363154807000000
cobra and hawksbill,BA1 5SN,51.394335770000000,-2.368646247000000
blindworm and worm lizard,BA1 6AP,51.392857830000000,-2.349188310000000
Hawk and Boto,BA1 6BG,51.394491150000000,-2.341108727000000
Nukupuʻu and ringhals,BA1 6DP,51.393934210000000,-2.353062815000000
Treepie and Chipmunk,BA1 6DU,51.393426430000000,-2.354467430000000
amethystine python and anaconda,BA1 6EA,51.394978650000000,-2.352596545000000
Civet and smooth snake,BA1 6HG,51.396595750000000,-2.356029930000000
Black cockatoo and anole,BA1 6LU,51.394620290000000,-2.349158619000000
soft-shelled turtle and tiger snake,BA1 6QY,51.397139440000000,-2.345627463000000
Siskin and Snipe,BA1 6RP,51.396241990000000,-2.345045751000000
Argus and Coati,BA1 7TN,51.398647440000000,-2.293891198000000
dugite and Peafowl,BA1 8ED,51.391493440000000,-2.306607742000000
Pratincole and viper,BA11 1AL,51.232003600000000,-2.320970876000000
loggerhead and Kite,BA11 1AP,51.231727130000000,-2.320138259000000
Minke whale and Songlark,BA11 1BN,51.230753430000000,-2.321076747000000
cayman and Magpie,BA11 1BS,51.231929900000000,-2.321614868000000
Vulture and blindworm,BA11 1EE,51.229825440000000,-2.324994426000000
Dolphin and alligator,BA11 1EL,51.230637320000000,-2.324054901000000
Tahr and saltwater crocodile,BA11 1EP,51.230595340000000,-2.326217217000000
Tit-tyrant and Civet,BA11 1HE,51.227945940000000,-2.331641000000000
bull snake and Schneider python,BA11 1HT,51.226350200000000,-2.323323060000000
cycling lizard and bearded lizard,BA11 1JB,51.228126550000000,-2.321531051000000
taipan and Gull,BA11 1JE,51.227174370000000,-2.321180710000000
Myna and Ibex,BA11 1JP,51.226176000000000,-2.321845932000000
rattlesnake and boa,BA11 1JS,51.225277110000000,-2.321167494000000
Pitohui and Viscacha,BA11 1LB,51.224664060000000,-2.321750347000000
constrictor and Black cockatoo,BA11 1PY,51.228929010000000,-2.317440725000000
Hawaiian honeycreeper and bandy-bandy,BA11 1QS,51.227588300000000,-2.314452728000000
diamondback turtle and dugite,BA11 1QU,51.227927050000000,-2.312192306000000
Vulture and Maya,BA11 2BJ,51.233987360000000,-2.305472907000000
blue tongue and diamond python,BA11 2BL,51.233318640000000,-2.303291415000000
Stint and blindworm,BA11 2BP,51.234479080000000,-2.299618007000000
Polecat and Mockingbird,BA11 2BR,51.235080390000000,-2.300065939000000
smooth snake and bushmaster,BA11 2DF,51.237078680000000,-2.299248161000000
monitor and taipan,BA11 2EJ,51.237780850000000,-2.302432682000000
Hawaiian honeycreeper and Capuchin,BA11 2HG,51.241263030000000,-2.311824238000000
boa and rat snake,BA11 2HX,51.243353540000000,-2.313543165000000
tortoise and ringhals,BA11 2JS,51.237736610000000,-2.315768165000000
bicycle lizard and blue racer,BA11 2NS,51.245743390000000,-2.320908989000000
grass snake and Piping shrike,BA11 2PB,51.248739750000000,-2.339297795000000
Quetzal and Quetzal,BA11 2QX,51.258900220000000,-2.357529675000000
Perching duck and Chicken,BA11 2RH,51.266610910000000,-2.397865654000000
harlequin snake and Songlark,BA11 2SQ,51.241438230000000,-2.303330528000000
indigo snake and Skunk,BA11 2YB,51.241138690000000,-2.300936249000000
puff adder and Magpie,BA11 3BX,51.232844920000000,-2.328854177000000
gavial and Maya,BA11 3EA,51.233624000000000,-2.330364000000000
White ibis and Pheasant,BA11 3EG,51.234793000000000,-2.333666000000000
Vulture and Piping shrike,BA11 3RD,51.225306000000000,-2.427725000000000
gavial and dukite,BA11 4AB,51.224703270000000,-2.327063377000000
green turtle and mamba,BA11 4AN,51.223595720000000,-2.327613992000000
tuatara and brown snake,BA11 4AU,51.202674470000000,-2.377332890000000
elapid and Fulmarine petrel,BA11 4AW,51.223673570000000,-2.325495218000000
horned toad and python,BA11 4BH,51.221457000000000,-2.327627000000000
cobra de capello and soft-shelled turtle,BA11 4BN,51.220916000000000,-2.324874000000000
blue racer and Badger,BA11 4BR,51.223651630000000,-2.333285019000000
terrapin and blue tongue,BA11 4DF,51.223845300000000,-2.331582358000000
python and sidewinder,BA11 4DT,51.220865900000000,-2.332663492000000
Minke whale and Thrasher,BA11 4EX,51.223371000000000,-2.334529000000000
bushmaster and Argus,BA11 4HT,51.226724430000000,-2.337274071000000
Kākāriki and boa,BA11 4JL,51.230931360000000,-2.337720187000000
Grouse and Maya,BA11 4JW,51.227852610000000,-2.332670937000000
Asiatic leopard and rat snake,BA11 4NR,51.207810820000000,-2.376730722000000
Fulmarine petrel and flying dragon,BA11 4PF,51.189178870000000,-2.387911494000000
hoop snake and box turtle,BA11 4PP,51.195008000000000,-2.407049000000000
sidewinder and Dorcopsis,BA11 4PQ,51.194100580000000,-2.392488000000000
brown snake and B,BA11 5BR,51.188771570000000,-2.330214307000000
iguana and deaf adder,BA11 5DA,51.198916620000000,-2.351096689000000
constrictor and Ice seal,BA11 5DE,51.205676000000000,-2.349344000000000
boa constrictor and Mink,BA11 5EL,51.209412000000000,-2.313026000000000
Fulmarine petrel and sidewinder,BA11 5FA,51.224799000000000,-2.306855000000000
dugite and Kākāriki,BA11 5HA,51.180846000000000,-2.344421000000000
sand lizard and gaboon viper,BA11 5LN,51.201464320000000,-2.287438027000000
Masked owl and glass snake,BA11 5LW,51.198272330000000,-2.294602715000000
rock snake and death adder,BA11 6PJ,51.282620490000000,-2.274380915000000
Hawaiian honeycreeper and deaf adder,BA11 6PL,51.286643620000000,-2.280370075000000
Kestrel and Crow,BA11 6QJ,51.292419000000000,-2.268301000000000
Badger and soft-shelled turtle,BA15 2BX,51.331253570000000,-2.279651937000000
leathery turtle and Polecat,BA15 2DE,51.334210990000000,-2.283746531000000
terrapin and Booted eagles,BA15 2HJ,51.347057000000000,-2.278068000000000
Kangaroo and Minke whale,BA15 2HQ,51.345466000000000,-2.281490000000000
tortoise and Logrunners,BA15 2JF,51.362097570000000,-2.300336000000000
Wallaby and Bunting,BA15 2JT,51.350786400000000,-2.282240745000000
Schneider python and Coati,BA2 0AH,51.342545130000000,-2.484233476000000
Ground sloth and Kestrel,BA2 0AP,51.344505930000000,-2.490571435000000
White ibis and death adder,BA2 0AU,51.319742780000000,-2.457187931000000
cayman and Boto,BA2 0DG,51.327076590000000,-2.487041325000000
Asiatic leopard and Wader,BA2 0DL,51.330117340000000,-2.453071386000000
Parrotbill and hawksbill,BA2 0EL,51.323930070000000,-2.478167740000000
hognose snake and copperhead,BA2 0FD,51.339782000000000,-2.480914077000000
slowworm and Cuscus,BA2 0HX,51.326081150000000,-2.479869272000000
Triller and Hawaiian honeycreeper,BA2 0NQ,51.324965980000000,-2.462033244000000
leguaan and Argus,BA2 0PD,51.318959130000000,-2.457538874000000
Bunting and Flameback,BA2 0QG,51.318259690000000,-2.470661484000000
flying dragon and blue racer,BA2 1AG,51.374905040000000,-2.382569642000000
Mink and swift,BA2 1AY,51.375832470000000,-2.387649006000000
Maya and Prion,BA2 1DQ,51.380791090000000,-2.397131205000000
leathery turtle and fer-de-lance,BA2 1EJ,51.377827480000000,-2.390697483000000
soft-shelled turtle and Nukupuʻu,BA2 1HY,51.369145640000000,-2.392146248000000
whip snake and Viscacha,BA2 1LP,51.372343280000000,-2.393164845000000
moloch and Snipe,BA2 1QH,51.378051540000000,-2.401547171000000
Capuchin and Hawaiian honeycreeper,BA2 1QS,51.378317880000000,-2.402684000000000
tortoise and gavial,BA2 1SB,51.379154510000000,-2.405033948000000
Peafowl and Perching duck,BA2 1SN,51.382741020000000,-2.402766523000000
Boto and Wallaby,BA2 1SS,51.382932560000000,-2.401977886000000
tokay and Chicken,BA2 2AW,51.368262520000000,-2.367804645000000
puff adder and Kākāriki,BA2 2AZ,51.364846450000000,-2.376050797000000
monitor and Masked owl,BA2 2BJ,51.363884750000000,-2.378714522000000
Kite and Snipe,BA2 2DH,51.371270780000000,-2.377970000000000
thorn lizard and amethystine python,BA2 2ES,51.366899990000000,-2.391466291000000
Booted eagles and Chicken,BA2 2ET,51.366078690000000,-2.392378590000000
Pitohui and leathery turtle,BA2 2HR,51.369656200000000,-2.379092566000000
Linsang and Rabbit,BA2 2JW,51.372361870000000,-2.384861379000000
soft-shelled turtle and soft-shelled turtle,BA2 2JZ,51.369361990000000,-2.386574401000000
worm lizard and death adder,BA2 2NY,51.360441710000000,-2.378470672000000
Booted eagles and boa constrictor,BA2 2PD,51.360746390000000,-2.378789160000000
Eagle and Buzzard,BA2 2QF,51.360822620000000,-2.380240404000000
Pheasant and monitor,BA2 2QU,51.362872870000000,-2.388415670000000
River dolphin and dugite,BA2 2TG,51.360503010000000,-2.381745810000000
Pitohui and blue racer,BA2 2TH,51.359075930000000,-2.380944031000000
Nukupuʻu and gopher snake,BA2 2UB,51.357692770000000,-2.377686841000000
turtle and Songlark,BA2 3AH,51.374044810000000,-2.367606777000000
flying lizard and Snipe,BA2 3DG,51.380212250000000,-2.387398655000000
Komodo dragon and Thicketbird,BA2 3EA,51.381904260000000,-2.384194266000000
Jerboa and Perching duck,BA2 3ED,51.381918930000000,-2.385200228000000
gecko and Polecat,BA2 3GT,51.382745000000000,-2.382145000000000
tree snake and garter snake,BA2 3HW,51.376960620000000,-2.369670342000000
rock python and Hawaiian honeycreeper,BA2 3JG,51.377977450000000,-2.380655605000000
hoop snake and Pratincole,BA2 3JJ,51.378190500000000,-2.384249362000000
adder and Argus,BA2 3LD,51.376863990000000,-2.374611997000000
Bronzewing pigeon and Fish eagle,BA2 3LU,51.376054560000000,-2.377464475000000
krait and wall lizard,BA2 3QA,51.376248660000000,-2.381388359000000
River dolphin and Gull,BA2 3QE,51.378917290000000,-2.381970910000000
harlequin snake and tortoise,BA2 3RW,51.381053270000000,-2.380451234000000
Hawaiian honeycreeper and Egret,BA2 3RY,51.380208190000000,-2.385904287000000
bandy-bandy and Gull,BA2 4BH,51.383717090000000,-2.356878317000000
habu and diamondback,BA2 4JJ,51.377194250000000,-2.352215546000000
Diving bird and bearded dragon,BA2 4PA,51.376233070000000,-2.357840159000000
flying dragon and king snake,BA2 4PY,51.375778280000000,-2.365350654000000
box turtle and Tattler,BA2 4QF,51.375345540000000,-2.354011598000000
Mockingbird and Perching duck,BA2 4QJ,51.374187280000000,-2.365179947000000
New World blackbird and Diving bird,BA2 4RT,51.372287700000000,-2.365926228000000
rattlesnake and Rat,BA2 5BS,51.359757530000000,-2.355787142000000
Civet and green turtle,BA2 5EE,51.359811990000000,-2.346624483000000
Linsang and anaconda,BA2 5EF,51.360318150000000,-2.345737841000000
cerastes and Dorcopsis,BA2 5ER,51.360643020000000,-2.342278937000000
deaf adder and Viscacha,BA2 5HQ,51.361316380000000,-2.342628664000000
Goose and Siskin,BA2 5HT,51.359505810000000,-2.346780154000000
Booted eagles and Puffleg,BA2 5JJ,51.359519850000000,-2.345071170000000
Parrotlet and terrapin,BA2 5JW,51.359736560000000,-2.347801611000000
box turtle and Stilt,BA2 5QZ,51.362467370000000,-2.360576678000000
Snipe and Hawaiian honeycreeper,BA2 5RG,51.355471240000000,-2.369411075000000
diamondback turtle and Masked owl,BA2 5SN,51.356955060000000,-2.363606688000000
massasauga and Night heron,BA2 6AB,51.376163600000000,-2.351086980000000
sand viper and cycling lizard,BA2 6AW,51.376595760000000,-2.347886348000000
Francolin and carpet snake,BA2 6BX,51.381280280000000,-2.347936256000000
thorny devil and Gull,BA2 6DZ,51.375160900000000,-2.331066082000000
Pheasant and copperhead,BA2 6EJ,51.377570480000000,-2.337434021000000
rock python and iguana,BA2 6FG,51.388989000000000,-2.343466000000000
White ibis and flying lizard,BA2 6JR,51.383100970000000,-2.343409316000000
Grouse and coral snake,BA2 6JW,51.384945780000000,-2.342891442000000
tokay and cayman,BA2 6LJ,51.387505530000000,-2.352941449000000
loggerhead and Capuchin,BA2 6LS,51.385373000000000,-2.356992624000000
kabaragoya and Boto,BA2 6LZ,51.386233440000000,-2.354354332000000
Songlark and Old World warbler,BA2 6PH,51.386605100000000,-2.356325974000000
Lemming and blindworm,BA2 6QS,51.390671640000000,-2.346298000000000
blue racer and Parrotlet,BA2 6SA,51.392141680000000,-2.326259019000000
Wallaby and Piping shrike,BA2 7AH,51.366017430000000,-2.320988299000000
iguana and kabaragoya,BA2 7BG,51.375483970000000,-2.304805377000000
constrictor and Schneider python,BA2 7BJ,51.372804000000000,-2.305377000000000
rock snake and Recurvebill,BA2 7DU,51.349455000000000,-2.364280000000000
Warbler and garter snake,BA2 7FU,51.352935020000000,-2.314161942000000
rattlesnake and Old World warbler,BA2 7JX,51.380446000000000,-2.322555000000000
Logrunners and Piping shrike,BA2 7NF,51.303234010000000,-2.321856000000000
Triller and tiger snake,BA2 7PD,51.380760000000000,-2.322873000000000
Asiatic leopard and hognose snake,BA2 7RN,51.303236020000000,-2.293998124000000
Pitohui and Magpie,BA2 7RW,51.312254000000000,-2.291115000000000
terrapin and Argus,BA2 7SP,51.317355710000000,-2.330118591000000
Parrotbill and massasauga,BA2 7TU,51.340488570000000,-2.304673505000000
cobra and Macaw,BA2 8AZ,51.337125690000000,-2.423238756000000
bandy-bandy and gopher snake,BA2 8BB,51.338138450000000,-2.424152482000000
iguana and River dolphin,BA2 8DB,51.311259250000000,-2.424908752000000
diamond snake and carpet snake,BA2 8EW,51.318398650000000,-2.422449274000000
Old World warbler and Chicken,BA2 8JE,51.312586630000000,-2.430760443000000
Kite and Cuscus,BA2 8LQ,51.306147100000000,-2.435993596000000
hawksbill and agama,BA2 8LR,51.307000150000000,-2.416563217000000
skink and frilled lizard,BA2 8PR,51.311649460000000,-2.411325581000000
Scimitar babbler and caiman,BA2 8PZ,51.321238330000000,-2.378262524000000
chuckwalla and B,BA2 8QF,51.323158000000000,-2.365951000000000
puff adder and ringhals,BA2 8TS,51.317224780000000,-2.416297149000000
elapid and gavial,BA2 8TY,51.319270540000000,-2.414995519000000
Puffleg and taipan,BA2 8TZ,51.315920880000000,-2.413788699000000
Songlark and Pheasant,BA2 9AA,51.391534470000000,-2.440355093000000
Thicketbird and Kite,BA2 9BB,51.385815640000000,-2.430556000000000
cobra de capello and blind snake,BA2 9DB,51.379106840000000,-2.426068655000000
death adder and flying lizard,BA2 9HS,51.361104430000000,-2.479790123000000
indigo snake and puff adder,BA3 2AJ,51.289851610000000,-2.475820202000000
Petrel and bearded dragon,BA3 2BR,51.294075500000000,-2.476380188000000
hoop snake and Minke whale,BA3 2EB,51.289135570000000,-2.483785942000000
Darwin's finches and snapping turtle,BA3 2EF,51.289926470000000,-2.481700554000000
coral snake and tokay,BA3 2FH,51.294816000000000,-2.488035000000000
Kākāriki and smooth snake,BA3 2HP,51.285800000000000,-2.482877000000000
Komodo dragon and Grosbeak,BA3 2JE,51.283024900000000,-2.487205912000000
Towhee and box turtle,BA3 2JY,51.281938570000000,-2.488957981000000
Komodo dragon and Maya,BA3 2LN,51.283765920000000,-2.494899203000000
black snake and Darwin's finches,BA3 2LU,51.280449710000000,-2.496598384000000
Tattler and frill-necked lizard,BA3 2NF,51.281598460000000,-2.492754000000000
Grouse and Fulmarine petrel,BA3 2NH,51.279351170000000,-2.496959299000000
chuckwalla and pit viper,BA3 2NL,51.278898370000000,-2.497714272000000
gecko and indigo snake,BA3 2NP,51.280033610000000,-2.495059798000000
taipan and Mole,BA3 2PY,51.281143000000000,-2.488204000000000
Puffleg and rock snake,BA3 2RB,51.286180800000000,-2.495828546000000
terrapin and gaboon viper,BA3 2SB,51.289961340000000,-2.494894132000000
worm lizard and constrictor,BA3 2SL,51.292587000000000,-2.495109000000000
jew lizard and Flameback,BA3 2SP,51.295575140000000,-2.489934749000000
hawksbill and Petrel,BA3 2XB,51.297771780000000,-2.460497876000000
Schneider python and Night heron,BA3 2XU,51.314126140000000,-2.474450074000000
Magpie and garter snake,BA3 3BS,51.300855950000000,-2.455910040000000
Chipmunk and water snake,BA3 3DY,51.290901420000000,-2.439606380000000
Dorcopsis and python,BA3 3EA,51.302362390000000,-2.454677019000000
Kangaroo and Chipmunk,BA3 3EB,51.302356510000000,-2.453873681000000
River dolphin and blue tongue,BA3 3EE,51.295950410000000,-2.447887105000000
leathery turtle and Prion,BA3 3JE,51.297140310000000,-2.442376764000000
Francolin and adder,BA3 3LR,51.288509870000000,-2.437131395000000
Philippine hawk-owl and tortoise,BA3 3NT,51.290096000000000,-2.436415000000000
Skunk and Linsang,BA3 3PX,51.291962170000000,-2.442068835000000
flying lizard and Triller,BA3 3QL,51.283517160000000,-2.449587075000000
Night heron and Quetzal,BA3 3RD,51.282523940000000,-2.448315619000000
Skunk and horned viper,BA3 3RF,51.288139435441900,-2.464646381500390
Nukupuʻu and bicycle lizard,BA3 3RH,51.291715050000000,-2.450283840000000
flying dragon and lizard,BA3 3RP,51.291281030000000,-2.450910589000000
Peafowl and tiger snake,BA3 3SF,51.289276000000000,-2.455896000000000
taipan and anaconda,BA3 3TZ,51.285680690000000,-2.457451700000000
horned toad and Chicken,BA3 3UR,51.284310000000000,-2.467891000000000
Snipe and flying dragon,BA3 3XF,51.285673690000000,-2.470557569000000
diamondback turtle and Chicken,BA3 3XS,51.284982530000000,-2.468012519000000
whip snake and iguana,BA3 4AL,51.280717000000000,-2.475982617000000
Quetzal and Piping shrike,BA3 4BW,51.275664560000000,-2.477508564000000
Myna and Fox,BA3 4EJ,51.260633590000000,-2.514857804000000
leguaan and Coati,BA3 4EZ,51.264204660000000,-2.495821245000000
Buzzard and blue tongue,BA3 4FD,51.260523430000000,-2.509210041000000
rat snake and skink,BA3 4FW,51.275027000000000,-2.478764000000000
Argus and Gila monster,BA3 4GH,51.283417309754100,-2.476184137602910
Chickadee and milk snake,BA3 4GQ,51.283062658919200,-2.474947374804200
flying dragon and gaboon viper,BA3 4HH,51.268243580000000,-2.503877265000000
Stint and carpet snake,BA3 4LH,51.275334490000000,-2.576738333000000
Dolphin and Kangaroo,BA3 4QA,51.271419300000000,-2.479973104000000
Snipe and Crow,BA3 4QQ,51.258114770000000,-2.489980489000000
Elephant and snake,BA3 4RW,51.270920280000000,-2.485415019000000
mud turtle and Towhee,BA3 4TP,51.240169650000000,-2.548135345000000
Piping shrike and Pratincole,BA3 4TT,51.243253180000000,-2.542498938000000
Towhee and tree snake,BA3 4UL,51.231623010000000,-2.569732095000000
Solitaire and boa constrictor,BA3 4UN,51.227851800000000,-2.549807721000000
Schneider python and Buzzard,BA3 4WS,51.274984000000000,-2.480541000000000
Magpie and lizard,BA3 4WT,51.275410000000000,-2.481807000000000
puff adder and Boto,BA3 4XD,51.278525310000000,-2.466025723000000
Chipmunk and Quetzal,BA3 4XS,51.259650000000000,-2.528936000000000
fer-de-lance and Parrotbill,BA3 5BR,51.236107000000000,-2.528521000000000
Gull and puff adder,BA3 5DF,51.241369590000000,-2.473041832000000
soft-shelled turtle and Maya,BA3 5EY,51.242095530000000,-2.473636630000000
lizard and Marmoset,BA3 5GA,51.217995690000000,-2.482781814000000
milk snake and Goose,BA3 5GW,51.217279000000000,-2.483232000000000
saltwater crocodile and Bunting,BA3 5HF,51.221736780000000,-2.482677776000000
Ice seal and Siskin,BA3 5HL,51.230079330000000,-2.478783628000000
Magpie and Ibex,BA3 5JQ,51.222831570000000,-2.496106678000000
bicycle lizard and snake,BA3 5JR,51.221423080000000,-2.482431068000000
agamid and Grosbeak,BA3 5NZ,51.241576190000000,-2.443247152000000
carpet snake and Puffleg,BA3 5PD,51.241749900000000,-2.449566339000000
snapping turtle and tuatara,BA3 5UA,51.296095490000000,-2.423406148000000
deaf adder and snapping turtle,BA3 5YA,51.290564700000000,-2.398015403000000
Capuchin and grass snake,BA3 9AA,51.291469000000000,-2.446782200000030
black snake and adder,BA4 4AH,51.189172860000000,-2.504902867000000
sea snake and sand lizard,BA4 4FX,51.213044000000000,-2.528099000000000
Parrotbill and Nukupuʻu,BA4 4HH,51.181149550000000,-2.537720523000000
Wader and milk snake,BA4 4JE,51.207228000000000,-2.545441140000000
White ibis and puff adder,BA4 4LS,51.180930540000000,-2.536458992000000
Hawk and asp,BA4 4NH,51.179836000000000,-2.530194000000000
Black cockatoo and Nukupuʻu,BA4 4PL,51.188459990000000,-2.505481739000000
Dorcopsis and sand viper,BA4 4PN,51.181636960000000,-2.533391226000000
cerastes and Puffleg,BA4 4QS,51.182276000000000,-2.472837000000000
Philippine hawk-owl and Jackal,BA4 4QW,51.189124230000000,-2.475754636000000
Jerboa and gaboon viper,BA4 4RX,51.194772970000000,-2.470875588000000
Black jay and tortoise,BA4 4SD,51.195927220000000,-2.463302410000000
Moluccan boobook and Meadowlark,BA4 4TJ,51.184514160000000,-2.529489826000000
hognose snake and White ibis,BA4 5AX,51.188725620000000,-2.547868000000000
Dorcopsis and diamondback,BA4 5EF,51.192107490000000,-2.546205199000000
Old World vulture and bull snake,BA4 5GX,51.192623210000000,-2.545524408000000
Zebra and swift,BA4 5HE,51.192150710000000,-2.546577773000000
Cloud rat and Goose,BA4 5HN,51.193421380000000,-2.542113631000000
Ibex and Myna,BA4 5HW,51.191758220000000,-2.545642000000000
iguana and brown snake,BA4 5JE,51.193202470000000,-2.558067182000000
horned toad and Tattler,BA4 5JR,51.194209620000000,-2.559939750000000
Vole and Duck,BA4 5LJ,51.191594390000000,-2.544396080000000
boa constrictor and Ground sloth,BA4 5LR,51.192411420000000,-2.544663295000000
kabaragoya and glass snake,BA4 5LT,51.191276880000000,-2.543061523000000
sidewinder and turtle,BA4 5NL,51.193569820000000,-2.541127946000000
constrictor and diamondback,BA4 5NS,51.194267420000000,-2.549651018000000
carpet snake and lizard,BA4 5NW,51.191281270000000,-2.540170991000000
bandy-bandy and Condor,BA4 5QL,51.186478650000000,-2.538412129000000
taipan and Kite,BA4 5QU,51.188088220000000,-2.532521346000000
adder and giant tortoise,BA4 5SN,51.184156430000000,-2.554295134000000
Logrunners and mamba,BA4 5SR,51.184154000000000,-2.551144630000000
bicycle lizard and rat snake,BA4 5TG,51.185448180000000,-2.556843155000000
Bronzewing pigeon and Old World vulture,BA4 5YB,51.193028040000000,-2.553142306000000
snapping turtle and Elephant,BA4 9SP,51.187048690000000,-2.547332978000000
skink and Pitohui,BA4 9ST,51.187048690000000,-2.547332978000000
indigo snake and Mole,BA4 9ZZ,51.190765000000000,-2.547076000000000
Viscacha and Jay,BA5 1BX,51.226871030000000,-2.670607103000000
Parrotbill and Tattler,BA5 1LY,51.208828000000000,-2.663889000000000
Vulture and Ice seal,BA5 1QE,51.199391170000000,-2.662751123000000
taipan and Ground sloth,BA5 1QH,51.201492960000000,-2.661578999000000
Fox and mamba,BA5 1TU,51.203501910000000,-2.651301944000000
Vulture and Booted eagles,BA5 1UJ,51.205455100000000,-2.649339819000000
adder and rattlesnake,BA5 1US,51.207771730000000,-2.643431688000000
crocodile and diamond python,BA5 1WD,51.201181000000000,-2.655005000000000
River dolphin and Chipmunk,BA5 2BZ,51.207812030000000,-2.658806568000000
cerastes and moloch,BA5 2DR,51.206261940000000,-2.654618915000000
asp and wall lizard,BA5 2DS,51.207715670000000,-2.650316410000000
snapping turtle and Buzzard,BA5 2FH,51.211389690000000,-2.659015116000000
puff adder and bushmaster,BA5 2FN,51.210844360000000,-2.658449007000000
Mamo and coral snake,BA5 2GU,51.215551000000000,-2.663516000000000
mud turtle and terrapin,BA5 2HH,51.205587550000000,-2.653006147000000
king cobra and brown snake,BA5 2JH,51.213578340000000,-2.661566129000000
Snipe and Tit-tyrant,BA5 2JN,51.213962120000000,-2.663661901000000
boa constrictor and Cloud rat,BA5 2LF,51.210649970000000,-2.646549731000000
Tahr and Herring gull,BA5 2RB,51.209275730000000,-2.644640839000000
thorn lizard and Magpie,BA5 2RF,51.209595710000000,-2.645318139000000
green turtle and diamond snake,BA5 2TE,51.214382020000000,-2.638298138000000
diamondback turtle and amphisbaena,BA5 2TT,51.214858380000000,-2.636686886000000
Recurvebill and Guillemot,BA5 3EA,51.218842090000000,-2.602692682000000
Quetzal and kabaragoya,BA5 3HJ,51.215491220000000,-2.614188708000000
Maya and dugite,BA5 3HY,51.214024810000000,-2.626195398000000
dugite and tuatara,BA5 3JS,51.216770510000000,-2.615437064000000
Solitaire and worm lizard,BA5 3LT,51.210753590000000,-2.624161100000000
Chickadee and Grosbeak,BA5 3NL,51.211789890000000,-2.632120622000000
Schneider python and Darwin's finches,BA5 3PX,51.198084620000000,-2.625692945000000
rat snake and River dolphin,BA5 3RF,51.198306970000000,-2.591604689000000
Bunting and diamondback,BS31 2SS,51.391642838489800,-2.502774629585740
caiman and agama,BS31 3HY,51.398470932915900,-2.458102168527510
Goose and sidewinder,BS39 4AT,51.367909099928100,-2.545968060126500
hognose snake and frill-necked lizard,BS39 4BB,51.367745687940000,-2.544371627469530
Night heron and chameleon,BS39 4BU,51.361491216826500,-2.551249042076610
monitor and Stilt,BS39 4DD,51.350010757068800,-2.565901204468810
sidewinder and Pratincole,BS39 4DS,51.363404511327200,-2.570432812062530
Ground sloth and Night heron,BS39 5AH,51.316155887168500,-2.560433655764970
harlequin snake and Old World warbler,BS39 5BU,51.317150540775800,-2.534244591716970
Jerboa and rock snake,BS39 5DR,51.321227304190800,-2.539371952311250
Ice seal and New World blackbird,BS39 5PD,51.330455387665600,-2.538834377932990
Minke whale and dukite,BS39 5SA,51.332013232814800,-2.544177828770850
Triller and hoop snake,BS39 5TF,51.327347000000000,-2.561560000000000
Asiatic leopard and grass snake,BS39 5TJ,51.338716506188000,-2.582515160989590
Thrasher and Stint,BS39 5XA,51.333585571227000,-2.594364015096150
brown snake and Chicken,BS39 5XH,51.331502366088500,-2.599088063516180
Ground sloth and Piping shrike,BS39 5XJ,51.331623760370000,-2.599965209718310
taipan and deaf adder,BS39 6AD,51.310305000000000,-2.527221000000000
Viscacha and Condor,BS39 6HN,51.320154796978700,-2.505680202738570
smooth snake and Chickadee,BS39 6HQ,51.320524252318700,-2.509644863531730
cobra and garter snake,BS39 6TX,51.298535000000000,-2.537069000000000
Pratincole and Coati,BS39 6UE,51.297893913438500,-2.531410514553050
caiman and viper,BS39 7AD,51.307701432830900,-2.503520464176710
Peafowl and Jay,BS39 7LT,51.304183521802100,-2.506092718430340
rock snake and Old World vulture,BS39 7NP,51.308312049307200,-2.501619109019720
boa constrictor and River dolphin,BS39 7PE,51.310419162025200,-2.494569108703610
taipan and Maya,BS39 7PG,51.307794696280200,-2.494296999983160
Tit-tyrant and copperhead,BS39 7PZ,51.308510911623500,-2.497159599205300
rattlesnake and Philippine hawk-owl,BS39 7RW,51.300249129019600,-2.496754737316080
alligator and bearded lizard,BS39 7TE,51.301314727304200,-2.499520000000000
Black cockatoo and puff adder,BS40 6AP,51.299480320741300,-2.602988334617890
perentie and Parrotbill,BS40 6BT,51.296671000000000,-2.626158000000000
puff adder and Dorcopsis,BS40 6DA,51.281108158964200,-2.628942730673210
Hawaiian honeycreeper and smooth snake,BS40 6DF,51.279000824797600,-2.660541626306690
Stilt and Guillemot,BS40 6JP,51.308725245016300,-2.653034916990400
Coati and monitor,BS40 6JX,51.311311889275000,-2.659986997698530
bearded lizard and wall lizard,BS40 6JY,51.313502413530100,-2.665370198801660
Cloud rat and terrapin,BS40 6NF,51.325618671043000,-2.651524000000000
Quetzal and gaboon viper,BS40 8AG,51.386631162186500,-2.664102581285160
cycling lizard and blind snake,BS40 8AZ,51.371609000000000,-2.668511000000000
Philippine hawk-owl and Coati,BS40 8BA,51.366216100053500,-2.664755174122600
taipan and Thrasher,BS40 8BE,51.357732185921700,-2.673436041271620
Vole and Schneider python,BS40 8BQ,51.348727012240000,-2.672629109855480
worm lizard and Diving bird,BS40 8DL,51.372370112421900,-2.673564659793010
agama and Tit-tyrant,BS40 8EJ,51.381951093252600,-2.661692626907100
cobra and Hawk,BS40 8RD,51.366616423720000,-2.611066621012550
habu and Old World vulture,BS40 8SH,51.365973927625900,-2.610124390421310
garter snake and Viscacha,BS40 8SN,51.365349779646900,-2.609110609628470
water snake and bearded dragon,BS40 8SQ,51.364742288064600,-2.610079289376600
Pheasant and River dolphin,BS40 8TD,51.357991875197000,-2.602665085674150
Parrotbill and blindworm,BS40 8TZ,51.355838844640300,-2.634073219829870
Old World warbler and black snake,BS40 8UX,51.353270950544100,-2.638345842658410
sand viper and mountain devil,BS40 8XE,51.352888137702600,-2.632668255469780
Greenbul and flying dragon,BS40 8XT,51.352674818982700,-2.633871564298500
