name,id,postcode,lat,lon
dugite and whip snake,1650138,BA11 6QB,51.282946830000000,-2.280849383000000
king snake and Chipmunk,1513110,BS39 7NR,51.308914535599500,-2.501611334935330
Polecat and elapid,1652026,BA1 3NX,51.385036410000000,-2.391419931000000
Mamo and harlequin snake,1642006,BA3 2QB,51.288852680000000,-2.480427384000000
Marmoset and Perching duck,1639239,BA5 3QR,51.196149310000000,-2.584005000000000
Tree warbler and Darwin's finches,1652919,BA1 1SN,51.380880910000000,-2.361051931000000
leathery turtle and Partridge,1644597,BA2 7DS,51.349919410000000,-2.365045000000000
Zebra and Old World warbler,1639881,BA5 1LZ,51.208327230000000,-2.671154000000000
Capuchin and Civet,1650926,BA11 2AW,51.232016800000000,-2.309398497000000
diamond snake and anole,1652896,BA1 1QY,51.380271790000000,-2.360299968000000
Condor and hoop snake,1639913,BA5 2TG,51.214646150000000,-2.642611245000000
Rabbit and Stint,1511045,BS40 8TJ,51.353733000000000,-2.582806000000000
Old World vulture and blindworm,1641157,BA3 5EF,51.245491610000000,-2.469889306000000
Wader and Greenbul,1640825,BA3 5PY,51.244943750000000,-2.453780810000000
python and Diving bird,1513030,BS39 6TP,51.296631576244600,-2.534149702311740
elapid and hoop snake,1640785,BA4 4PU,51.194406010000000,-2.517295978000000
B and mud turtle,1640817,BA4 4RN,51.198315170000000,-2.487986000000000
Old World warbler and glass snake,1651760,BA1 6LZ,51.395237000000000,-2.350831000000000
sand viper and Peafowl,1640923,BA4 5AZ,51.190668180000000,-2.546489000000000
tokay and iguana,1644797,BA2 6JW,51.384945780000000,-2.342891442000000
frilled lizard and green turtle,1641222,BA3 5JQ,51.222831570000000,-2.496106678000000
constrictor and boomslang,1513129,BS39 4NT,51.360082882871800,-2.506708827600680
mamba and crocodile,1639762,BA5 2JS,51.213654430000000,-2.665590248000000
Black cockatoo and Crow,1640980,BA3 5WA,51.288777850000000,-2.375486086000000
gaboon viper and American sparrow,1650109,BA11 6NT,51.283166990000000,-2.282772054000000
mamba and Vulture,1650781,BA11 2UZ,51.239925050000000,-2.304308980000000
pit viper and Civet,1651630,BA1 6AS,51.392990000000000,-2.347522974000000
wall lizard and Mockingbird,1511030,BS40 8SP,51.364855937838600,-2.608974780415180
Petrel and Jackal,1644741,BA2 6DR,51.376655000000000,-2.331160917000000
Coati and Kite,1641669,BA3 4DF,51.284936500000000,-2.543190862000000
flying lizard and Buzzard,1645955,BA2 0JP,51.328690360000000,-2.472849433000000
galliwasp and blind snake,1513461,BS39 4EQ,51.362623314636500,-2.575723113853950
mamba and Vulture,1646409,BA2 0EP,51.322685610000000,-2.481240182000000
viper and Chickadee,1640815,BA4 4RG,51.190557510000000,-2.496532592000000
death adder and bull snake,1639437,BA5 2UW,51.211422190000000,-2.641850545000000
rat snake and Treepie,1650171,BA11 6TD,51.264460450000000,-2.287902815000000
gavial and Shearwater,1645188,BA2 4JJ,51.377194250000000,-2.352215546000000
dugite and Marmoset,1644690,BA2 7JA,51.355014420000000,-2.323223408000000
bearded dragon and sea snake,1645519,BA2 3WY,51.378856590000000,-2.355561725000000
Shearwater and Linsang,1645872,BA2 1SP,51.382312350000000,-2.401914972000000
Fox and Hawaiian honeycreeper,1641695,BA3 4EP,51.261545950000000,-2.505652773000000
terrapin and Perching duck,1641474,BA3 4SS,51.250945190000000,-2.492841551000000
giant tortoise and frilled lizard,1645244,BA2 4NW,51.372507800000000,-2.349809141000000
Maya and Old World warbler,1513291,BS39 5TL,51.339996000000000,-2.584139000000000
Fox and Petrel,1652058,BA1 3RB,51.391764030000000,-2.396220204000000
Marsh harrier and Gull,1641813,BA3 3JZ,51.290562720000000,-2.436405187000000
asp and Tit-tyrant,1650493,BA11 3HX,51.233374570000000,-2.322713479000000
rock python and Piping shrike,1650072,BA11 5JQ,51.229854560000000,-2.300662076000000
cobra de capello and Jay,1513432,BS39 4DB,51.351299125285600,-2.557875692574410
Ibex and lizard,1650632,BA11 2LG,51.238523160000000,-2.320815737000000
bandy-bandy and black snake,1641673,BA3 4DL,51.275128770000000,-2.540724062000000
Recurvebill and chuckwalla,1641775,BA3 3ES,51.293087230000000,-2.444159148000000
Piping shrike and Coati,1645480,BA2 3QA,51.376248660000000,-2.381388359000000
Rabbit and Tattler,1651644,BA1 6BP,51.393019820000000,-2.346113810000000
tree snake and lizard,1650184,BA11 6WB,51.234287340000000,-2.333891867000000
Francolin and Recurvebill,1513050,BS39 6UP,51.298320213101600,-2.516527332218510
Solitaire and diamondback terrapin,1651738,BA1 6JQ,51.396764480000000,-2.353760185000000
diamondback terrapin and Darwin's finches,1644183,BA2 8QF,51.323158000000000,-2.365951000000000
goanna and bandy-bandy,1650765,BA11 2UE,51.243110530000000,-2.306851360000000
Diving bird and mud turtle,2638176,BA11 5FG,51.223566000000000,-2.303997000000000
constrictor and king cobra,1644684,BA2 7HT,51.364992000000000,-2.318338000000000
cobra de capello and viper,1641815,BA3 3LB,51.291889320000000,-2.430251129000000
Logrunners and iguana,1650266,BA11 4EX,51.223371000000000,-2.334529000000000
hawksbill and tuatara,1641802,BA3 3JD,51.296822950000000,-2.443076497000000
Chicken and anole,1651190,BA11 1FF,51.232045830000000,-2.318679590000000
caiman and Schneider python,1645860,BA2 1RY,51.381855900000000,-2.406509088000000
Old World vulture and Thicketbird,1645949,BA2 0JF,51.330566690000000,-2.475796776000000
Jackal and tokay,1640599,BA4 5NL,51.193569820000000,-2.541127946000000
rock snake and Old World warbler,1639797,BA5 2NR,51.212406610000000,-2.654061835000000
worm lizard and dukite,1650436,BA11 3BX,51.232844920000000,-2.328854177000000
Black cockatoo and flying lizard,1652908,BA1 1RS,51.382007280000000,-2.360270497000000
hognose snake and elapid,1645488,BA2 3QL,51.375164620000000,-2.380172516000000
kabaragoya and Thrasher,1650396,BA11 5AU,51.221422550000000,-2.320081036000000
Boto and Kestrel,1642124,BA3 2XA,51.292341390000000,-2.482643672000000
dugite and Egret,1644828,BA2 6LX,51.386904440000000,-2.355595000000000
gopher snake and Thrasher,1752214,BA3 3RF,51.288139435441900,-2.464646381500390
snapping turtle and tree snake,1641128,BA3 5BT,51.224008330000000,-2.531188907000000
American sparrow and gaboon viper,1650107,BA11 6AE,51.266786510000000,-2.288763000000000
ringhals and Hawk,1511291,BS40 8AR,51.383314646486300,-2.662258346897810
Ibex and Badger,1641849,BA3 2HA,51.285419720000000,-2.484320441000000
Triller and Black jay,1639237,BA5 3QP,51.196475390000000,-2.591051697000000
agamid and Jay,1645282,BA2 4QX,51.372664720000000,-2.363242752000000
rock snake and chuckwalla,1650634,BA11 2LJ,51.237042420000000,-2.319745460000000
Ibex and Petrel,1641411,BA3 4RE,51.251400190000000,-2.493691796000000
deaf adder and lizard,1652108,BA1 5UE,51.388958680000000,-2.357062834000000
Pratincole and Fulmarine petrel,1651793,BA1 6PT,51.393351680000000,-2.349422036000000
indigo snake and anole,1757389,BS39 7AP,51.308253641710200,-2.508074554637530
blind snake and Parakeet,1641572,BA3 3XL,51.287079820000000,-2.469711575000000
Moluccan boobook and Chipmunk,1651788,BA1 6PL,51.392383440000000,-2.351600000000000
Maya and agama,1650382,BA11 5AB,51.222445890000000,-2.320718193000000
viper and Herring gull,1644247,BA2 8TZ,51.315920880000000,-2.413788699000000
Ground sloth and Black jay,1652713,BA1 2RY,51.388990900000000,-2.364119409000000
Peafowl and Vole,1511440,BS40 6AT,51.298518857504200,-2.623457793856970
Thrasher and River dolphin,1645061,BA2 5PR,51.362269680000000,-2.357601990000000
Parrotbill and B,1652573,BA1 2LJ,51.386210660000000,-2.364700887000000
Solitaire and lizard,1645911,BA2 2BN,51.362086400000000,-2.381486086000000
Macaw and Puffleg,1645338,BA2 3DG,51.380212250000000,-2.387398655000000
Linsang and grass snake,1639753,BA5 2JF,51.216111300000000,-2.662060607000000
worm lizard and Capuchin,1650064,BA11 5JD,51.239163710000000,-2.283619000000000
Black cockatoo and Pheasant,1646031,BA2 0NS,51.329910330000000,-2.471340580000000
Goose and water snake,1513418,BS39 4BQ,51.370307755960200,-2.546427567721980
Chipmunk and taipan,1646632,BA15 2JE,51.362771880000000,-2.293402790000000
crocodile and turtle,1641993,BA3 2PH,51.282057000000000,-2.493245125000000
Mockingbird and Herring gull,1650393,BA11 5AR,51.220733840000000,-2.315422626000000
thorn lizard and Vulture,1652122,BA1 6AE,51.391616710000000,-2.352283240000000
Stilt and Shearwater,1646104,BA2 1DD,51.380686940000000,-2.396139000000000
Buzzard and racer,1645204,BA2 6AF,51.376668070000000,-2.350774758000000
Chickadee and Wader,1651849,BA1 5DZ,51.386635400000000,-2.361111617000000
Shearwater and Bronzewing pigeon,1644531,BA2 6UZ,51.393822830000000,-2.319846330000000
gavial and B,1752242,BA4 4FR,51.178844844923200,-2.537550955316990
rattlesnake and Masked owl,1644694,BA2 7JG,51.348068700000000,-2.314832205000000
rattlesnake and harlequin snake,1645565,BA2 2LH,51.365650000000000,-2.391944000000000
jew lizard and Skunk,1644732,BA2 6BZ,51.381493940000000,-2.348656327000000
garter snake and Diving bird,1641738,BA3 3BS,51.300855950000000,-2.455910040000000
giant tortoise and grass snake,1640838,BA3 5QQ,51.223493360000000,-2.443259504000000
grass snake and snake,1639697,BA5 3NB,51.211399170000000,-2.626188402000000
garter snake and Maya,1650164,BA11 6SU,51.267254680000000,-2.288808955000000
amphisbaena and crocodile,1650124,BA11 6PQ,51.282064960000000,-2.284844279000000
pit viper and Schneider python,1652675,BA1 0TQ,51.382047790000000,-2.358790792000000
Condor and Pratincole,1645252,BA2 4PJ,51.373007270000000,-2.354151580000000
rattlesnake and worm lizard,1641960,BA3 2LN,51.283765920000000,-2.494899203000000
snapping turtle and blind snake,1646840,BA15 1PB,51.348247360000000,-2.268383483000000
Boto and Pitohui,1652132,BA1 4BP,51.394872510000000,-2.388959869000000
galliwasp and Old World quail,1652407,BA1 3HZ,51.386505710000000,-2.403589974000000
Vulture and diamond snake,1644226,BA2 8SW,51.317624090000000,-2.417793066000000
Jackal and caiman,1651657,BA1 6DH,51.391666230000000,-2.353749582000000
Mamo and rock snake,1641486,BA3 4TH,51.238449020000000,-2.543029706000000
kabaragoya and snapping turtle,1640250,BA4 5UN,51.187300700000000,-2.556808255000000
dugite and blue tongue,1644950,BA2 5EE,51.359811990000000,-2.346624483000000
amethystine python and blue racer,1645982,BA2 0LX,51.326241120000000,-2.475924210000000
Grosbeak and crocodile,1652100,BA1 4AT,51.394049160000000,-2.387788675000000
Jackal and alligator,1652248,BA1 2TY,51.390261790000000,-2.368886547000000
agama and Wallaby,1511298,BS40 8AZ,51.371609000000000,-2.668511000000000
Jerboa and wall lizard,1639796,BA5 2NQ,51.215065220000000,-2.661000438000000
Parakeet and Egret,1651134,BA11 1AY,51.232531510000000,-2.318639980000000
Piping shrike and tuatara,1641757,BA3 3DU,51.302449570000000,-2.455380753000000
Kite and chuckwalla,1646023,BA2 2EU,51.366560220000000,-2.374384218000000
Fulmarine petrel and whip snake,1641893,BA3 3PW,51.291346080000000,-2.443296229000000
Fulmarine petrel and Dolphin,1651739,BA1 6JR,51.398175860000000,-2.359650000000000
Thrasher and terrapin,1511397,BS40 8QB,51.358489017360900,-2.622792637714640
Booted eagles and Partridge,1645083,BA2 5QW,51.359446610000000,-2.357493819000000
Partridge and snake,1651985,BA1 5RF,51.398741130000000,-2.368825427000000
Marsh harrier and gaboon viper,1641964,BA3 2LT,51.282435300000000,-2.494856220000000
Triller and Marmoset,1641326,BA3 4JY,51.263043410000000,-2.510757101000000
green turtle and boomslang,1639999,BA5 1SL,51.207547010000000,-2.646678043000000
Stilt and Jerboa,1640458,BA4 5EB,51.188598200000000,-2.552459653000000
Gull and Macaw,1645455,BA2 3NT,51.372624740000000,-2.373097655000000
Towhee and tortoise,1652089,BA1 4AB,51.391424770000000,-2.384820000000000
mountain devil and New World blackbird,1651480,BA1 7BW,51.399137100000000,-2.342048904000000
Tahr and Black cockatoo,1751641,BA1 4BQ,51.395356000000000,-2.390072343279510
diamond snake and gecko,1650802,BA11 2XY,51.241244580000000,-2.294662492000000
boa and puff adder,1652622,BA1 2QR,51.385597030000000,-2.362511725000000
cycling lizard and mud turtle,1645095,BA2 5RN,51.360290000000000,-2.372825000000000
Recurvebill and frill-necked lizard,1639754,BA5 2JG,51.212279450000000,-2.660688524000000
caiman and tuatara,1512756,BS39 7RP,51.300111394547100,-2.497427399775520
worm lizard and Darwin's finches,1644755,BA2 6EH,51.377256750000000,-2.333954742000000
elapid and Booted eagles,1513066,BS39 6YD,51.326285252077400,-2.518463340802640
perentie and Pratincole,1640572,BA4 5JW,51.194201000000000,-2.557979075000000
Partridge and cobra,1642276,BA3 2AE,51.290261120000000,-2.472397049000000
Moluccan boobook and Gila monster,1639770,BA5 2LE,51.213734080000000,-2.646578625000000
cerastes and Mamo,1512787,BS39 7TD,51.301668943179100,-2.499079471594500
Songlark and bushmaster,1644463,BA2 8BR,51.334515820000000,-2.408688145000000
Scimitar babbler and king snake,1650813,BA11 3AF,51.235341770000000,-2.326680511000000
ringhals and bicycle lizard,1639564,BA5 3EH,51.231728850000000,-2.595427766000000
Night heron and Eagle,1644670,BA2 7GY,51.349023770000000,-2.320740227000000
Flameback and Tree warbler,1652012,BA1 5SY,51.395398180000000,-2.365334550000000
flying lizard and krait,2638257,BA5 9BP,51.206407000000000,-2.653665000000000
death adder and Songlark,1640835,BA3 5QL,51.223501810000000,-2.443402783000000
Songlark and cerastes,1512979,BS39 6HX,51.322879869921200,-2.509699685153420
Fish eagle and snake,1644577,BA2 7BR,51.364279000000000,-2.332036000000000
Partridge and Hawk,1641206,BA3 5HT,51.223267930000000,-2.523891637000000
Parrotbill and Prion,1513219,BS39 7PS,51.311372273492000,-2.492039000000000
Lemming and leathery turtle,1640273,BA4 5XP,51.189873840000000,-2.556510162000000
mamba and Linsang,1639240,BA5 3QS,51.197768760000000,-2.587890000000000
Masked owl and Minke whale,1650623,BA11 4BG,51.221452000000000,-2.326281000000000
Herring gull and agama,1645758,BA2 1LZ,51.375639440000000,-2.391612711000000
Diving bird and racer,1644168,BA2 8PH,51.320079690000000,-2.417557091000000
Fox and fer-de-lance,2650039,BS39 5YZ,51.330662000000000,-2.540288000000000
wall lizard and worm lizard,1652162,BA1 4EB,51.397328400000000,-2.396656403000000
diamond snake and crocodile,1646089,BA2 1BJ,51.378786410000000,-2.386237159000000
Rat and sand viper,1640264,BA4 5XA,51.190079610000000,-2.554838435000000
Cuscus and swift,1651136,BA11 1BB,51.233077730000000,-2.319474472000000
Diving bird and American sparrow,1650369,BA11 4RB,51.219838790000000,-2.323778558000000
Black jay and sea snake,1652656,BA1 0SR,51.382047790000000,-2.358790792000000
Kangaroo and Duck,1640087,BA5 1UP,51.205267450000000,-2.647504959000000
sand lizard and Bunting,1642003,BA3 2PW,51.283195610000000,-2.491537899000000
viper and Egret,1752213,BA3 3FQ,51.283308000000000,-2.468813000000000
Vole and rat snake,1752113,BA2 3WN,51.382853000000000,-2.375047375986380
Fulmarine petrel and pit viper,1639452,BA5 2XQ,51.214440850000000,-2.635750516000000
rattlesnake and brown snake,1641780,BA3 3EY,51.293683230000000,-2.443490848000000
Booted eagles and Towhee,1511358,BS40 8DX,51.381479988827200,-2.674919801134360
glass snake and Ice seal,1639734,BA5 2HD,51.208184050000000,-2.653400760000000
Masked owl and diamondback terrapin,1640427,BA4 5BG,51.191289000000000,-2.546522501000000
mountain devil and diamond snake,1645291,BA2 4RH,51.374456560000000,-2.362438036000000
bicycle lizard and puff adder,1646416,BA2 0EY,51.319678000000000,-2.484724000000000
Chipmunk and chameleon,1644512,BA2 8HD,51.311163360000000,-2.424075739000000
sidewinder and Thrasher,1640254,BA4 5UT,51.192546090000000,-2.556170300000000
leguaan and Wader,1642077,BA3 2ST,51.292775310000000,-2.490736731000000
Jackal and wall lizard,1513312,BS39 5UQ,51.333806675101700,-2.593319020335000
terrapin and Triller,2649445,BA5 2JZ,51.215298000000000,-2.668352000000000
galliwasp and blindworm,1652391,BA1 3HB,51.384067300000000,-2.393509650000000
Chicken and soft-shelled turtle,1646205,BA2 1HE,51.370920370000000,-2.388440706000000
Mamo and hognose snake,1652072,BA1 3RU,51.392322700000000,-2.401154762000000
Dolphin and tiger snake,1641212,BA3 5JB,51.220902650000000,-2.479977080000000
python and Fox,1640189,BA4 9SW,51.187048690000000,-2.547332978000000
gavial and constrictor,1511319,BS40 8DE,51.382898701951500,-2.662669058751310
flying dragon and habu,1641458,BA3 4RX,51.263568000000000,-2.524522000000000
Egret and Logrunners,1639648,BA5 2EA,51.206722090000000,-2.654339148000000
horned toad and elapid,1650857,BA11 1NZ,51.223920140000000,-2.317578079000000
Philippine hawk-owl and perentie,1641800,BA3 3JA,51.296406300000000,-2.443875661000000
Fox and Warbler,1641592,BA3 3YU,51.284670680000000,-2.474002963000000
diamondback terrapin and blindworm,1651142,BA11 1BN,51.230753430000000,-2.321076747000000
brown snake and Eagle,1641374,BA3 4PH,51.280222790000000,-2.586448687000000
boa and skink,1651755,BA1 6LR,51.393970890000000,-2.349829197000000
carpet snake and box turtle,1640165,BA4 9BB,51.190763600000000,-2.547076503000000
hognose snake and grass snake,1513293,BS39 5TP,51.337003929740000,-2.586943548683610
sea snake and Black jay,2638159,BA1 0XL,51.378846000000000,-2.355560000000000
Grackle and leathery turtle,2623339,BS39 5XY,51.333575000000000,-2.594380000000000
Stint and milk snake,1751608,BA1 0RA,51.378861733972200,-2.355562053667660
Jerboa and hawksbill,1640778,BA4 4PL,51.188459990000000,-2.505481739000000
Eagle and boomslang,1644677,BA2 7HJ,51.358857240000000,-2.328478202000000
harlequin snake and Mole,1652022,BA1 5TN,51.395941000000000,-2.364635000000000
hoop snake and sand lizard,1644417,BA2 9HA,51.385570310000000,-2.459769564000000
diamondback and Wader,1650614,BA11 4AT,51.223019720000000,-2.324574150000000
Moluccan boobook and anaconda,1513250,BS39 5RE,51.330087520346500,-2.546422795254680
Hawk and Hawk,1751739,BA11 9BW,51.234292465063200,-2.333892188966920
sand lizard and American sparrow,1642320,BA3 2DN,51.291991900000000,-2.486698532000000
Kestrel and Parakeet,1645714,BA2 2US,51.356840180000000,-2.379963268000000
Hawk and Logrunners,1651869,BA1 5HH,51.393623540000000,-2.366383991000000
Mink and tiger snake,1652121,BA1 6AD,51.391099340000000,-2.353888927000000
Old World quail and Pratincole,1513080,BS39 7HA,51.308436145590600,-2.502524000000000
Vole and hawksbill,1651659,BA1 6DL,51.392482370000000,-2.354445757000000
deaf adder and B,1511295,BS40 8AW,51.387049000345700,-2.655371142804370
box turtle and bearded lizard,1645896,BA2 2AS,51.368431330000000,-2.368452419000000
rattlesnake and Armadillo,1650122,BA11 6PN,51.283129620000000,-2.279617410000000
Fish eagle and Chickadee,2590921,BA1 0WD,51.378846000000000,-2.355560000000000
Snipe and diamondback terrapin,1642303,BA3 2BR,51.294075500000000,-2.476380188000000
Siskin and Crow,1645189,BA2 4JN,51.378907210000000,-2.353694256000000
king cobra and Guillemot,1644472,BA2 8DB,51.311259250000000,-2.424908752000000
boa and Old World warbler,1511094,BS40 8YA,51.348276399734800,-2.635792355250020
Partridge and Jay,1645992,BA2 2DF,51.370171890000000,-2.372503088000000
Mouse and Old World vulture,1513435,BS39 4DF,51.355851870314600,-2.577677462441670
blind snake and Ground sloth,1641177,BA3 5FG,51.246041300000000,-2.471829025000000
viper and slowworm,1649586,BA12 7NN,51.185797000000000,-2.274406000000000
Greenbul and ringhals,1640447,BA4 5DN,51.191740060000000,-2.549778345000000
Songlark and Moluccan boobook,1650329,BA11 4NB,51.206584350000000,-2.377837239000000
ringhals and Pheasant,1652546,BA1 2EY,51.385323090000000,-2.360957580000000
Stilt and Wader,1652801,BA1 1NG,51.380900000000000,-2.358352209000000
White ibis and Puffleg,1652750,BA1 1EL,51.381591280000000,-2.361043155000000
racer and blue racer,1642109,BA3 2UJ,51.292668390000000,-2.481843990000000
constrictor and blue tongue,1752230,BA3 5GD,51.296495425212000,-2.370658603199250
grass snake and Elephant,1644132,BA2 8LA,51.316451670000000,-2.436120000000000
cycling lizard and Grackle,1641426,BA3 3RR,51.291150490000000,-2.454437147000000
amethystine python and Parakeet,1640224,BA5 1AZ,51.226376640000000,-2.673707524000000
Boto and Old World quail,1646190,BA2 1EF,51.377589070000000,-2.389387985000000
smooth snake and Condor,1645544,BA2 2HX,51.370082700000000,-2.377889395000000
fer-de-lance and Parakeet,1645069,BA2 5QD,51.360117090000000,-2.361692832000000
Coati and hawksbill,1639752,BA5 2JE,51.213432850000000,-2.660261218000000
hoop snake and Myna,1645647,BA2 2QX,51.362680290000000,-2.386935000000000
Badger and Kite,1640703,BA4 5RQ,51.184585020000000,-2.549221024000000
Cloud rat and Fish eagle,1640437,BA4 5BW,51.191254360000000,-2.545966151000000
rock python and whip snake,1644814,BA2 7ND,51.302936240000000,-2.328924881000000
Black jay and Minke whale,1645843,BA2 1RA,51.378136340000000,-2.405642778000000
harlequin snake and bearded lizard,1645641,BA2 2QQ,51.362874840000000,-2.385097795000000
Francolin and Ice seal,1641318,BA3 5PQ,51.245149160000000,-2.454140995000000
cayman and Mockingbird,1752247,BA4 5FA,51.189129764023200,-2.539931505361050
krait and Cuscus,1513485,BS39 4HX,51.377557466985700,-2.530263907954640
Parrotlet and mountain devil,1643927,BA2 9HP,51.359686600000000,-2.481283334000000
Black jay and swift,1644360,BA2 7SA,51.323580200000000,-2.329345311000000
Lemming and Booted eagles,1650280,BA11 4HQ,51.225926510000000,-2.336451967000000
Wader and Philippine hawk-owl,1650474,BA11 3EY,51.233375610000000,-2.335131346000000
Eagle and mud turtle,1645024,BA2 6UN,51.393358060000000,-2.318822625000000
taipan and Civet,1751918,BA2 1EX,51.379477005808800,-2.393729186285720
Moluccan boobook and Petrel,1752208,BA3 3BT,51.284171858048300,-2.469696540245560
swift and Coati,1639631,BA5 2DA,51.208046570000000,-2.660270054000000
Rabbit and Jay,1645021,BA2 6UH,51.392317000000000,-2.321388036000000
Booted eagles and Guillemot,1645395,BA2 3JU,51.376107290000000,-2.369390486000000
Armadillo and leathery turtle,1512998,BS39 6JW,51.324935000000000,-2.508833000000000
Eagle and Songlark,1644225,BA2 8SU,51.311942230000000,-2.422533418000000
moloch and black snake,1645072,BA2 5QG,51.360388830000000,-2.358118741000000
deaf adder and leathery turtle,1644877,BA2 6QN,51.389657650000000,-2.351908896000000
Logrunners and amphisbaena,1517594,BS31 1JZ,51.398650375478200,-2.487169006028410
Logrunners and deaf adder,1644180,BA2 8QB,51.321793150000000,-2.376301096000000
cayman and Quetzal,1640329,BA4 5YA,51.192682580000000,-2.552036278000000
Vulture and Buzzard,1516862,BS31 3HS,51.398118852425800,-2.456158128537890
wall lizard and lizard,1644396,BA2 7UG,51.335523000000000,-2.312305913000000
viper and giant tortoise,2622718,BA11 3FH,51.255341000000000,-2.450028000000000
Chicken and harlequin snake,1652138,BA1 4BX,51.395650800000000,-2.390159468000000
bull snake and cerastes,1641059,BA3 5BH,51.239625910000000,-2.507202894000000
Rabbit and frilled lizard,1641553,BA3 3UR,51.284310000000000,-2.467891000000000
bearded dragon and chameleon,1513481,BS39 4HS,51.379142827448400,-2.539492329866240
blindworm and monitor,1517166,BS31 2SU,51.398048250621300,-2.499898169268930
Stilt and deaf adder,1639596,BA5 3HW,51.214043620000000,-2.634384935000000
black snake and Kestrel,1644788,BA2 6JH,51.384581820000000,-2.347400883000000
swift and Vole,1513070,BS39 6YH,51.329024000000000,-2.515581000000000
Diving bird and Thrasher,1640197,BA4 9TF,51.187048690000000,-2.547332978000000
Condor and Booted eagles,1641637,BA3 2YU,51.291467710000000,-2.446782239000000
Booted eagles and blindworm,1511068,BS40 8UY,51.352179819288700,-2.637268037468250
Hawk and Philippine hawk-owl,1640601,BA4 5NQ,51.194049420000000,-2.536568460000000
giant tortoise and blue racer,1650863,BA11 1PL,51.230151030000000,-2.321058230000000
horned viper and Philippine hawk-owl,1641364,BA3 4NW,51.282649000000000,-2.478298000000000
habu and Armadillo,2584706,BA2 3WP,51.383311000000000,-2.375038000000000
Songlark and Egret,1645408,BA2 5AP,51.364830610000000,-2.346202756000000
Prion and agamid,1651983,BA1 5RD,51.396363630000000,-2.367138952000000
glass snake and Scimitar babbler,1652120,BA1 6AB,51.390482960000000,-2.355522553000000
goanna and viper,1646579,BA15 2HL,51.349363690000000,-2.275540746000000
moloch and massasauga,1651815,BA1 6QZ,51.397601040000000,-2.347643308000000
Bronzewing pigeon and Wallaby,1651827,BA1 5BD,51.385867310000000,-2.359424236000000
smooth snake and death adder,1645413,BA2 5AU,51.367679930000000,-2.358506039000000
whip snake and death adder,1652131,BA1 4BE,51.397096450000000,-2.388058814000000
Stilt and Booted eagles,1641343,BA3 4LU,51.251959440000000,-2.581389116000000
Condor and Gull,1513394,BS39 4AF,51.371988469459600,-2.550426990966360
Grouse and taipan,1641368,BA3 4PA,51.285461270000000,-2.613501628000000
rock python and Badger,1644204,BA2 8SA,51.311551590000000,-2.433462357000000
Badger and galliwasp,2638250,BA5 1GG,51.208261000000000,-2.646977000000000
chuckwalla and Nukupuʻu,1752282,BA5 1WB,51.201473367916800,-2.654880548100020
frill-necked lizard and kabaragoya,1640813,BA4 4RE,51.180631110000000,-2.506826720000000
wall lizard and Stilt,1646010,BA2 2ED,51.367604530000000,-2.371160696000000
Lemming and Maya,1652899,BA1 1RD,51.382016930000000,-2.360055035000000
horned toad and rattlesnake,1641629,BA3 2XL,51.293262300000000,-2.477346988000000
diamondback and Badger,1645068,BA2 5QB,51.360768220000000,-2.363392739000000
diamond python and Guillemot,1645255,BA2 4PP,51.375589020000000,-2.356743232000000
Dorcopsis and anaconda,1641034,BA3 5AA,51.235066530000000,-2.505233402000000
green turtle and Elephant,1512793,BS39 7XB,51.307920803900000,-2.510997160743350
Elephant and Parrotbill,1645043,BA2 5NL,51.366211900000000,-2.362200532000000
Tree warbler and Songlark,1511450,BS40 6BG,51.297684727298600,-2.628107941505910
kabaragoya and goanna,1512969,BS39 6HJ,51.319484096408800,-2.504826194290870
diamondback terrapin and adder,1651444,BA1 6XR,51.378856590000000,-2.355561725000000
Kākāriki and massasauga,1645900,BA2 2AX,51.365601660000000,-2.373270368000000
Quetzal and Buzzard,1645821,BA2 3BH,51.378515010000000,-2.367355000000000
massasauga and Petrel,1640782,BA4 4PR,51.184577000000000,-2.525885000000000
loggerhead and dugite,1639958,BA5 1QF,51.199025520000000,-2.663804984000000
tuatara and Duck,1645127,BA2 4BX,51.385267220000000,-2.352737406000000
Shearwater and hoop snake,1650944,BA11 2BU,51.234466110000000,-2.301164820000000
Mouse and Masked owl,1651998,BA1 5SD,51.397144650000000,-2.373225364000000
sand lizard and Capuchin,1641886,BA3 3PH,51.292013780000000,-2.447418549000000
moloch and tortoise,1645077,BA2 5QP,51.358679900000000,-2.355333570000000
elapid and sea snake,1641871,BA3 3NP,51.288685730000000,-2.438194228000000
Greenbul and caiman,1640242,BA4 5UA,51.189783090000000,-2.554791945000000
skink and Chipmunk,1639612,BA5 3JR,51.215534000000000,-2.616535750000000
taipan and Moluccan boobook,1513401,BS39 4AQ,51.371390036004900,-2.549572223562570
Masked owl and Puffleg,1650643,BA11 2LW,51.240272470000000,-2.325555142000000
anaconda and dukite,1752234,BA3 9AS,51.291473008205300,-2.446782593075090
Gull and bicycle lizard,1649588,BA12 7NQ,51.183299440000000,-2.276723260000000
worm lizard and taipan,1639620,BA5 3LA,51.216301230000000,-2.615760110000000
leathery turtle and Piping shrike,1650502,BA11 3JL,51.233804270000000,-2.345418324000000
Kite and Pitohui,1640729,BA4 4JR,51.201068160000000,-2.541587000000000
Bunting and Parrotbill,1644727,BA2 6BT,51.383282730000000,-2.345810390000000
flying lizard and frilled lizard,1512775,BS39 7SN,51.295421026471100,-2.494508253837900
Flameback and Puffleg,1652484,BA1 2BE,51.382319160000000,-2.369828494000000
slowworm and Shearwater,1511196,BS41 8LR,51.397785052034900,-2.640762285432060
dugite and Boto,1640578,BA4 5LF,51.190667730000000,-2.544499633000000
Moluccan boobook and Mockingbird,1645134,BA2 4DH,51.383253380000000,-2.355610189000000
alligator and Scimitar babbler,1650698,BA11 2QR,51.259366340000000,-2.355054052000000
Boto and Zebra,1645661,BA2 2RZ,51.357824860000000,-2.381321409000000
bicycle lizard and turtle,1752229,BA3 5GB,51.247958381843900,-2.472708602433710
Rabbit and gecko,1650292,BA11 4JE,51.231168240000000,-2.336175000000000
Old World warbler and Parrotbill,1644848,BA2 6NY,51.387157110000000,-2.352191487000000
puff adder and River dolphin,1641107,BA4 4DL,51.184975410000000,-2.538752304000000
diamondback turtle and Boto,1640082,BA5 1UF,51.205399810000000,-2.657626998000000
mud turtle and diamondback terrapin,1640092,BA5 1UW,51.205947180000000,-2.646541114000000
sand viper and Prion,1757394,BS39 7LA,51.306940000000000,-2.503082000000000
slowworm and milk snake,1652613,BA1 2QD,51.387414490000000,-2.364926000000000
Bunting and diamondback terrapin,1751728,BA11 4PB,51.229637811169000,-2.332784354948120
Mink and Tit-tyrant,1752245,BA4 4FW,51.179274013259200,-2.536125338326010
horned toad and Macaw,1646312,BA2 0BT,51.345542760000000,-2.487754027000000
black snake and turtle,1641841,BA3 2ET,51.283524000000000,-2.481762588000000
gaboon viper and sand lizard,1644539,BA2 6XL,51.390663190000000,-2.317855339000000
Thrasher and slowworm,1646092,BA2 1BP,51.379721950000000,-2.388831357000000
Nukupuʻu and Quetzal,1650290,BA11 4JB,51.231004830000000,-2.334054279000000
Parrotbill and adder,1652689,BA1 1AN,51.379000000000000,-2.358913789000000
Fish eagle and green turtle,1644322,BA2 9EU,51.388275020000000,-2.411926430000000
Crow and Vole,1652417,BA1 3JR,51.383073350000000,-2.394952439000000
racer and gaboon viper,1512761,BS39 7RU,51.304198273468100,-2.504758805681860
Quetzal and rock python,1650875,BA11 1QB,51.228739250000000,-2.321077041000000
cobra and goanna,1645102,BA2 5RW,51.359043910000000,-2.371321249000000
glass snake and Condor,1650952,BA11 2DF,51.237078680000000,-2.299248161000000
Lemming and asp,2591423,BA5 1GD,51.208261000000000,-2.646977000000000
elapid and massasauga,1639780,BA5 2LT,51.213818900000000,-2.657174297000000
carpet snake and grass snake,1646298,BA2 0AZ,51.343622610000000,-2.497324000000000
king cobra and Mouse,2622778,BA5 1GA,51.201402000000000,-2.651404000000000
worm lizard and python,1644377,BA2 7TB,51.336386410000000,-2.318900667000000
Rat and frilled lizard,1511092,BS40 8XY,51.350126226877400,-2.632931747487350
Warbler and Magpie,1645000,BA2 5JX,51.358085410000000,-2.346683250000000
mud turtle and diamond snake,1639967,BA5 1QT,51.191858000000000,-2.672102000000000
Warbler and Dorcopsis,1641654,BA3 3AU,51.296932660000000,-2.444970777000000
Tit-tyrant and Myna,1511029,BS40 8SN,51.365349779646900,-2.609110609628470
Flameback and Pheasant,1641280,BA3 5LS,51.236752840000000,-2.451265120000000
worm lizard and saltwater crocodile,1652331,BA1 3AH,51.384194640000000,-2.373852805000000
Guillemot and Rabbit,1644894,BA2 6RJ,51.389577000000000,-2.339635007000000
Zebra and Armadillo,1641580,BA3 3XX,51.282994050000000,-2.470573187000000
ringhals and Kākāriki,1639704,BA5 3NL,51.211789890000000,-2.632120622000000
flying dragon and Parakeet,1645191,BA2 4JQ,51.378761750000000,-2.351236184000000
racer and Marmoset,1513210,BS39 5PJ,51.332715829292200,-2.532028000000000
Armadillo and Booted eagles,1512832,BS39 7XU,51.304454976098200,-2.503614025203180
kabaragoya and Nukupuʻu,1645126,BA2 4BU,51.385031180000000,-2.353482835000000
hawksbill and bearded dragon,1641484,BA3 4TF,51.240973980000000,-2.537572884000000
Francolin and bull snake,1645383,BA2 3JA,51.378146320000000,-2.381260460000000
Bunting and Fox,1645783,BA2 1PH,51.371813060000000,-2.401032851000000
Nukupuʻu and blindworm,1512954,BS39 6EP,51.310706216775400,-2.525676329311210
bushmaster and Bunting,1639598,BA5 3HY,51.214024810000000,-2.626195398000000
Linsang and king snake,1513201,BS39 5GF,51.306634444781200,-2.585953362593860
rock python and jew lizard,1652617,BA1 2QJ,51.386287060000000,-2.363264447000000
deaf adder and Moluccan boobook,1513036,BS39 6TW,51.299975853037700,-2.536268356010920
Macaw and water snake,1641584,BA3 3YE,51.284184500000000,-2.465194030000000
gecko and Macaw,1645977,BA2 0LR,51.331318580000000,-2.476637056000000
Stilt and Grackle,1651162,BA11 1DQ,51.230885750000000,-2.322008600000000
thorn lizard and horned viper,1528462,BS14 0QT,51.386647000000000,-2.532698508039670
Parrotbill and bull snake,1650465,BA11 3EL,51.237398880000000,-2.336908132000000
diamondback and death adder,1641218,BA3 5JJ,51.220389100000000,-2.484582396000000
Mouse and alligator,1646027,BA2 0NN,51.332326320000000,-2.476475267000000
soft-shelled turtle and Perching duck,1645115,BA2 5SN,51.356955060000000,-2.363606688000000
thorn lizard and Masked owl,1644939,BA2 5DL,51.362541780000000,-2.341761668000000
Greenbul and leathery turtle,1650669,BA11 2PD,51.248580340000000,-2.344612130000000
Schneider python and Masked owl,1641035,BA3 5AB,51.236092360000000,-2.505058436000000
water snake and frill-necked lizard,1512751,BS39 7RG,51.302752818831400,-2.504240886959430
kabaragoya and Maya,1646213,BA2 1HT,51.373630990000000,-2.387199405000000
Asiatic leopard and mamba,1513270,BS39 5SE,51.329703059539900,-2.542083656821830
swift and green turtle,1651948,BA1 5NZ,51.390298600000000,-2.359947619000000
blue tongue and Shearwater,1640677,BA4 5QE,51.187631000000000,-2.530470000000000
Meadowlark and amethystine python,1646642,BA15 2JS,51.350537780000000,-2.281378000000000
python and pit viper,1517183,BS31 2TW,51.391572544448400,-2.536735000000000
Wallaby and American sparrow,1650615,BA11 4AU,51.202674470000000,-2.377332890000000
Shearwater and Armadillo,1644836,BA2 6NG,51.386635130000000,-2.352345554000000
chuckwalla and leathery turtle,1641546,BA3 3UG,51.288630940000000,-2.461797375000000
indigo snake and Bronzewing pigeon,1641604,BA3 4AL,51.280717000000000,-2.475982617000000
flying lizard and Marsh harrier,1645307,BA2 4SL,51.371864960000000,-2.363078393000000
Kākāriki and Dolphin,1645434,BA2 3LQ,51.377301990000000,-2.375420164000000
Prion and Asiatic leopard,1641341,BA3 4LS,51.264505570000000,-2.610929255000000
Hawk and Towhee,1650934,BA11 2BG,51.233766570000000,-2.307376390000000
milk snake and horned toad,1650764,BA11 2UD,51.243678690000000,-2.306210474000000
Masked owl and White ibis,1640582,BA4 5LL,51.191551760000000,-2.543894731000000
racer and Egret,1650739,BA11 2SX,51.240645310000000,-2.324053646000000
black snake and Mink,1650295,BA11 4JH,51.228620300000000,-2.334853000000000
Pheasant and constrictor,1644871,BA2 6QE,51.389456700000000,-2.349952833000000
sand lizard and Zebra,1641440,BA3 3SH,51.288540610000000,-2.459616789000000
Vole and agama,1652704,BA1 2RL,51.388167790000000,-2.362790732000000
hoop snake and chameleon,2622707,BA11 5EU,51.223256000000000,-2.308849000000000
leathery turtle and Flameback,1651235,BA1 7UE,51.397388830000000,-2.300883235000000
whip snake and Thicketbird,1513439,BS39 4DL,51.345778272555200,-2.581872473265030
Recurvebill and Philippine hawk-owl,1644842,BA2 6NQ,51.386961890000000,-2.351327746000000
cayman and Philippine hawk-owl,1650409,BA11 5BQ,51.216233000000000,-2.327560788000000
terrapin and Pratincole,1645855,BA2 1RS,51.381057000000000,-2.401269369000000
Mockingbird and horned viper,1646056,BA2 0QE,51.319458450000000,-2.463183250000000
Masked owl and River dolphin,2638247,BA5 1FU,51.200929000000000,-2.657280000000000
Recurvebill and whip snake,1645752,BA2 1LS,51.373388170000000,-2.392613509000000
Fox and Macaw,1645015,BA2 6TU,51.397604160000000,-2.321367620000000
tree snake and Old World quail,1645854,BA2 1RR,51.380540450000000,-2.407273337000000
giant tortoise and Towhee,1650092,BA11 5LQ,51.195847000000000,-2.301385000000000
bull snake and king snake,1646004,BA2 2DW,51.371008930000000,-2.375066981000000
hoop snake and Chicken,1652254,BA1 2UF,51.392377640000000,-2.370843848000000
frilled lizard and flying lizard,1641630,BA3 2XN,51.302634400000000,-2.465538408000000
leathery turtle and gaboon viper,1650437,BA11 3BY,51.231491020000000,-2.324247091000000
taipan and loggerhead,1639433,BA5 2UR,51.210842810000000,-2.642558284000000
Diving bird and River dolphin,1639692,BA5 3LS,51.211575370000000,-2.625188662000000
flying lizard and Tree warbler,1512834,BS39 7YR,51.308494534888400,-2.498895315891070
turtle and Ice seal,1641889,BA3 3PR,51.291204050000000,-2.447956000000000
Civet and death adder,2649449,BA5 9BT,51.206407000000000,-2.653665000000000
bearded dragon and Meadowlark,1641304,BA3 5NX,51.242221690000000,-2.443754755000000
krait and pit viper,1652715,BA1 2SA,51.388558770000000,-2.364288431000000
Lemming and Marmoset,1644313,BA2 9EF,51.342243230000000,-2.442366018000000
Skunk and hognose snake,1644655,BA2 7GE,51.345806000000000,-2.317358000000000
White ibis and skink,1644161,BA2 8NQ,51.300056730000000,-2.414520916000000
Philippine hawk-owl and krait,1645657,BA2 2RU,51.359450180000000,-2.379381000000000
kabaragoya and Egret,1641328,BA3 4LA,51.274031390000000,-2.578413603000000
blue racer and Thrasher,1513489,BS39 4JB,51.389546449493700,-2.545277133073060
Dolphin and Triller,1650304,BA11 4JU,51.224924640000000,-2.331475559000000
sea snake and fer-de-lance,1645155,BA2 4EL,51.382803520000000,-2.349729619000000
Night heron and Linsang,1652416,BA1 3JQ,51.383704350000000,-2.399786089000000
moloch and Moluccan boobook,1652504,BA1 3LL,51.386758770000000,-2.394898000000000
garter snake and horned viper,1650179,BA11 6TR,51.265615950000000,-2.282348916000000
Skunk and cayman,1652605,BA1 2PT,51.386825780000000,-2.366401518000000
puff adder and Hawk,1645342,BA2 3DP,51.380775000000000,-2.372417000000000
turtle and Fox,1644166,BA2 8PE,51.328373110000000,-2.411633154000000
Piping shrike and turtle,1651727,BA1 6HZ,51.397027560000000,-2.355961415000000
blindworm and sand lizard,1640305,BA5 1DS,51.208650040000000,-2.645591222000000
bicycle lizard and diamondback terrapin,1641708,BA3 4FF,51.260138540000000,-2.508804513000000
taipan and snapping turtle,1757382,BS39 6AG,51.297768130242700,-2.532585495328280
adder and Parakeet,1650564,BA11 3QF,51.234005540000000,-2.400720937000000
Kite and Wader,1652505,BA1 3LN,51.385984440000000,-2.395609812000000
hawksbill and Grackle,1511441,BS40 6AU,51.299996170120400,-2.622961443943690
massasauga and moloch,1650111,BA11 6NX,51.284104310000000,-2.281874486000000
Thrasher and agamid,1644297,BA2 9DH,51.380976100000000,-2.431258806000000
constrictor and viper,1646399,BA2 0EA,51.334053000000000,-2.440105000000000
