name,postcode,lat,lon
Absurd Bird,BA1 1AN,51.3790,-2.3589
Tapas Revolution Bath,BA1 1AN,51.3790,-2.3589
Smashburger,BA1 1AQ,51.3790,-2.3595
Thaikhun,BA1 1AQ,51.3790,-2.3595
Comptoir Bath,BA1 1AT,51.3784,-2.3590
Kekolo Coffee,BA1 1BL,51.3832,-2.3609
Bandook ,BA1 1BZ,51.3838,-2.3609
Le Vignoble Bath,BA1 1BZ,51.3838,-2.3609
EASTERN CUISINE BATH LIMITED,BA1 1DG,51.3846,-2.3616
The Oven Pizzeria,BA1 1EN,51.3817,-2.3630
Vino Vino ,BA1 1EN,51.3817,-2.3630
Subway,BA1 1EQ,51.3813,-2.3615
The Garricks Head,BA1 1ET,51.3820,-2.3628
Amarone Restaurant,BA1 1EU,51.3822,-2.3626
The Raven of Bath Ltd,BA1 1HE,51.3828,-2.3621
Wild Cafe,BA1 1HE,51.3828,-2.3621
Pintxo de Bath,BA1 1HG,51.3825,-2.3628
Thoughtful Bakery,BA1 1HG,51.3825,-2.3628
Green Park Brasserie,BA1 1JB,51.3815,-2.3669
Pizzas of Bath,BA1 1JB,51.3815,-2.3669
The Royal Hotel,BA1 1JP,51.3782,-2.3567
SALATHAI RESTAURANT,BA1 1LA,51.3802,-2.3573
Yak Yeti Yak,BA1 1LA,51.3802,-2.3573
The Green Rocket,BA1 1LB,51.3803,-2.3569
Abbey Hotel Bath Ltd,BA1 1LF,51.3806,-2.3575
Tagine Zhor Ltd,BA1 1LF,51.3806,-2.3575
Mokoko Coffee & Bakery Abbey Churchyard,BA1 1LY,51.3815,-2.3598
Searcys at The Bath Pump Room ,BA1 1LZ,51.3811,-2.3601
the Courtyard Cafe,BA1 1ND,51.3806,-2.3584
The Ale House,BA1 1NG,51.3809,-2.3584
The Real Italian Ice Cream Company,BA1 1NG,51.3809,-2.3584
The Real Italian Pizza Company,BA1 1NG,51.3809,-2.3584
hands Georgian Tearoom,BA1 1NN,51.3808,-2.3590
The Colombian Company Ltd ,BA1 1NP,51.3803,-2.3591
Bath bun tea shoppe,BA1 1NW,51.3803,-2.3587
Sally Lunn's ,BA1 1NX,51.3808,-2.3585
Chapel Arts Cafe,BA1 1QR,51.3797,-2.3604
Sweet Little Things Limited,BA1 1QR,51.3797,-2.3604
The Drawing Rooms,BA1 1RD,51.3820,-2.3601
Cascara,BA1 1RG,51.3828,-2.3599
The Whole Bagel,BA1 1RG,51.3828,-2.3599
GOOD DAY CAFE,BA1 1RH,51.3825,-2.3605
SAM WELLERS BATH LTD,BA1 1RH,51.3825,-2.3605
Raphael Restaurant,BA1 1RN,51.3824,-2.3621
SOHO Coffee Shops Limited Bath,BA1 1RR,51.3824,-2.3604
Bonghy Bo,BA1 1RZ,51.3828,-2.3600
FLY FITNESS LTD,BA1 1SB,51.3807,-2.3606
Lulu Caffe,BA1 1SJ,51.3803,-2.3616
Cafe au Lait Bath Ltd,BA1 1SS,51.3781,-2.3583
Chilli family noodles ,BA1 1SS,51.3781,-2.3583
Mokoko Coffee Southgate,BA1 1SS,51.3781,-2.3583
Tivoli Cinema Bath,BA1 1SS,51.3781,-2.3583
Graze Bath,BA1 1SX,51.3776,-2.3578
McDonalds,BA1 1TG,51.3793,-2.3599
Subway,BA1 1TP,51.3782,-2.3601
Hondo Sushi ,BA1 1UL,51.3793,-2.3611
Noya's Kitchen,BA1 1UL,51.3793,-2.3611
Creams Cafe,BA1 1UN,51.3808,-2.3631
the black fox,BA1 1UQ,51.3797,-2.3611
The Kingsmead Kitchen,BA1 2AA,51.3815,-2.3636
seafoods  fish and chips restaurant,BA1 2AA,51.3815,-2.3636
Society Cafe ,BA1 2AB,51.3811,-2.3631
The Dark Horse,BA1 2AB,51.3811,-2.3631
The Bath Coffee Company ,BA1 2AD,51.3814,-2.3636
Swoon Gelato,BA1 2AE,51.3815,-2.3631
The Bath Stable,BA1 2AE,51.3815,-2.3631
The Boston Tea Party Group Limited,BA1 2AE,51.3815,-2.3631
Yum Yum Thai Restaurant,BA1 2AE,51.3815,-2.3631
Mission Burrito - Bath,BA1 2AF,51.3813,-2.3637
Subway,BA1 2AG,51.3813,-2.3647
Comins Tea,BA1 2AN,51.3821,-2.3635
New Inn,BA1 2AY,51.3829,-2.3658
The Scallop Shell,BA1 2AY,51.3829,-2.3658
Apex City of Bath,BA1 2DA,51.3808,-2.3634
Goulash ,BA1 2DR,51.3812,-2.3685
Adventure cafe,BA1 2ED,51.3852,-2.3613
SAME SAME BUT DIFFERENT LTD,BA1 2ED,51.3852,-2.3613
Sub 13,BA1 2EE,51.3852,-2.3619
Chandos Deli,BA1 2EH,51.3845,-2.3628
Charm Thai Restaurant,BA1 2EH,51.3845,-2.3628
Champagne Plus Fromage- Bath,BA1 2EJ,51.3846,-2.3625
Comptoir Cuisine,BA1 2EJ,51.3846,-2.3625
Comptoir Plus Cuisine,BA1 2EJ,51.3846,-2.3625
CLAYTONS KITCHEN,BA1 2EN,51.3848,-2.3628
Brasserie Blanc Bath ,BA1 2HH,51.3829,-2.3633
MGALLERY FRANCIS HOTEL BATH,BA1 2HH,51.3829,-2.3633
Ole Tapas,BA1 2JL,51.3834,-2.3623
The Salamander,BA1 2JL,51.3834,-2.3623
THE GRAND EASTERN LTD,BA1 2JS,51.3834,-2.3619
Belushi's Bath,BA1 2JY,51.3835,-2.3606
The Circus Restaurant,BA1 2LN,51.3863,-2.3653
Rustico Bistro Italiano,BA1 2LP,51.3867,-2.3658
The Green Bird Cafe,BA1 2LP,51.3867,-2.3658
Topland (Royal Crescent Hotel) LTD,BA1 2LS,51.3874,-2.3681
The Marlborough Tavern,BA1 2LY,51.3877,-2.3700
Brooks Guesthouse Bath,BA1 2NA,51.3840,-2.3702
Bath and County Club Limited,BA1 2NJ,51.3839,-2.3651
Bath on the Beach,BA1 2NR,51.3850,-2.3655
Royal Pavilion Cafe,BA1 2NR,51.3850,-2.3655
Thirsty Meeples,BA1 2NT,51.3843,-2.3632
beckford bottle shop,BA1 2QP,51.3863,-2.3620
The Boston Tea Party Group Limited,BA1 2QU,51.3859,-2.3617
WOODS RESTAURANT,BA1 2QX,51.3858,-2.3624
Dos Dedos,BA1 2QZ,51.3857,-2.3617
Yen sushi,BA1 2QZ,51.3857,-2.3617
The Hop Pole,BA1 3AR,51.3851,-2.3755
Victoria Pub & Kitchen,BA1 3AT,51.3851,-2.3770
8e Chelsea Road,BA1 3DU,51.3851,-2.3886
The Locksbrook Inn,BA1 3EN,51.3829,-2.3928
Rooted Vegetarian Cafe ,BA1 3JX,51.3847,-2.3880
Lansdown Cricket Club,BA1 3NE,51.3877,-2.3898
Bathen House Hotel,BA1 3QA,51.3880,-2.3945
Society Cafe ,BA1 4BB,51.3962,-2.3849
Society Cafe ,BA1 5AJ,51.3824,-2.3594
Dough pizza ltd,BA1 5AP,51.3822,-2.3598
INDIAN TEMPTATION ,BA1 5AQ,51.3819,-2.3595
Coeur de Lion,BA1 5AR,51.3824,-2.3598
Rosarios Café,BA1 5AR,51.3824,-2.3598
Aqua Restaurant,BA1 5BD,51.3859,-2.3594
Provenist Ltd,BA1 5BD,51.3859,-2.3594
Thai Basil Restaurant,BA1 5BG,51.3876,-2.3588
Walcot House,BA1 5BG,51.3876,-2.3588
The Fine Cheese Co,BA1 5BN,51.3849,-2.3598
Picnic Coffee,BA1 5BR,51.3846,-2.3600
The Pig & Fiddle,BA1 5BR,51.3846,-2.3600
CURRY MAHAL UK LTD,BA1 5HR,51.3883,-2.3613
St Michaels Bath,BA1 5LJ,51.3844,-2.3606
The Broad Street Townhouse,BA1 5LP,51.3841,-2.3601
Mantra Progressive Indian,BA1 5LS,51.3854,-2.3603
Lansdown Tennis Squash & Croquet Club Ltd,BA1 5TN,51.3959,-2.3646
Ma Cuisine,BA1 6RT,51.3968,-2.3451
Larkhall Deli,BA1 6RY,51.3973,-2.3447
Fat Radish,BA11 1AN,51.2314,-2.3208
Subway ,BA11 1AN,51.2314,-2.3208
Black Swan Cafe,BA11 1BB,51.2331,-2.3195
Loop de Loop ,BA11 1BE,51.2336,-2.3201
Archangel,BA11 1BH,51.2308,-2.3206
Nook,BA11 1BH,51.2308,-2.3206
Eight Stony Street,BA11 1BU,51.2309,-2.3224
23 Bath St Ltd,BA11 1DJ,51.2306,-2.3218
Castello,BA11 1DS,51.2302,-2.3223
The High Pavement,BA11 1DS,51.2302,-2.3223
The Old Bath Arms,BA11 1DS,51.2302,-2.3223
palmer street bottle,BA11 1DS,51.2302,-2.3223
The Artisan Frome,BA11 1EQ,51.2304,-2.3262
Alfreds Bread ,BA11 1RE,51.2268,-2.3106
Hesperian Fish,BA11 1RE,51.2268,-2.3106
Station Approach,BA11 1RE,51.2268,-2.3106
The Bell,BA11 2PR,51.2552,-2.2641
The Bell Inn,BA11 2QT,51.2597,-2.3561
Rye Bakery,BA11 3BY,51.2315,-2.3242
The Griffin,BA11 3DB,51.2330,-2.3248
The Talbot Inn,BA11 3PN,51.2414,-2.3911
Babington House,BA11 3RW,51.2566,-2.4187
McDonald's Restaurant,BA11 4DH,51.2171,-2.3320
Tool & Gauge ,BA11 4FN,51.2200,-2.3231
Field 725 Cafe,BA11 4LJ,51.2242,-2.3488
The George Inn,BA11 4LW,51.2096,-2.3780
Cafe Nouveau ,BA11 5BW,51.2055,-2.3315
The White Hart Inn,BA11 5DP,51.1936,-2.3635
Corsham Pub Company Ltd,BA11 6AG,51.2879,-2.2855
The Cross Keys Rode,BA11 6NZ,51.2829,-2.2835
Mes Amis CafeDeli,BA11 6SW,51.2661,-2.2869
Longleat Safari and Adventure Park,BA12 7NW,51.1857,-2.2743
The New Inn Westwood,BA15 2AE,51.3304,-2.2681
Hartley Farm Shop & Kitchen,BA15 2JB,51.3567,-2.2877
The Seven Stars,BA15 2LQ,51.3468,-2.2893
The Butchers Arms,BA2 0AE,51.3431,-2.4825
McDonalds,BA2 1EP,51.3806,-2.3900
Hillier Garden Centre Bath,BA2 2RG,51.3690,-2.4004
The Bear Hotel,BA2 3AQ,51.3741,-2.3668
mattys cafe,BA2 3BT,51.3812,-2.3759
Mintroom,BA2 3EB,51.3810,-2.3735
The Belvoir Castle,BA2 3EH,51.3816,-2.3754
Domino's Pizza,BA2 3PN,51.3770,-2.3783
Subway,BA2 3PN,51.3770,-2.3783
Opa Meze Restaurant,BA2 4AJ,51.3807,-2.3557
La Perla Restaurant,BA2 4AL,51.3807,-2.3566
Bodrum BBQ Bath Ltd,BA2 4AN,51.3827,-2.3581
CAPPADOCIA RESTAURANT (BATH) LTD,BA2 4AN,51.3827,-2.3581
Joya Italian Steakhouse,BA2 4AN,51.3827,-2.3581
Cortado Cafe,BA2 4AS,51.3829,-2.3587
The Bridge Coffee Shop,BA2 4AY,51.3830,-2.3578
ANTICA PULTNEY BRIDGE RESTAURANT,BA2 4BA,51.3834,-2.3574
Chez Dominique,BA2 4BQ,51.3831,-2.3572
The Herd Steak Restaurant,BA2 4BQ,51.3831,-2.3572
No15 Great Pulteney,BA2 4BS,51.3846,-2.3547
Framptons,BA2 4DF,51.3823,-2.3579
Dexter's coffee shop,BA2 4EN,51.3827,-2.3494
The Bird Bath,BA2 4EZ,51.3828,-2.3518
Ring O Bells,BA2 4JT,51.3764,-2.3543
Bikanos Indian Cuisine,BA2 4LD,51.3767,-2.3548
Mús Coffee House,BA2 4LD,51.3767,-2.3548
Widcombe Deli ,BA2 4LD,51.3767,-2.3548
The Good Bear Cafe,BA2 4QW,51.3746,-2.3666
The Hub,BA2 5BU,51.3607,-2.3538
THE CROSS KEYS INN,BA2 5RZ,51.3558,-2.3647
Bath Golf Club,BA2 6JG,51.3822,-2.3395
The Roseate Villa Bath,BA2 6LX,51.3869,-2.3556
The barley mow ,BA2 6NZ,51.3867,-2.3521
The Rising Sun Inn,BA2 6PJ,51.3844,-2.3576
The American Museum in Britain,BA2 7BD,51.3751,-2.3113
the hope and anchor,BA2 7DD,51.3447,-2.3440
The Packhorse Inn,BA2 7DU,51.3495,-2.3643
The Wheatsheaf Inn,BA2 7EG,51.3379,-2.3834
Limpley Stoke Hotel,BA2 7FZ,51.3469,-2.3159
Wheelwrights Arms,BA2 7HB,51.3564,-2.3279
Combe Grove Manor,BA2 7HS,51.3613,-2.3281
At The Manor,BA2 7NE,51.3017,-2.3290
Farleigh Road Farm Shop & Cafe,BA2 7NG,51.3078,-2.3107
CASTLE FARM CAFE MIDFORD,BA2 7PU,51.3524,-2.3542
The Rose & Crown,BA2 7SN,51.3224,-2.3291
Homewood,BA2 7TB,51.3364,-2.3189
The Meeting Place Coffee Shop,BA2 8DH,51.3150,-2.4286
Waggon and Horses,BA2 8DL,51.3155,-2.4279
Newton Farm Foods Ltd,BA2 9BT,51.3816,-2.4275
The Ring O' Bells,BA2 9EE,51.3430,-2.4400
Darwin Bath Mill Limited,BA2 9JF,51.3820,-2.4092
Jacarandas Limited,BA3 2DA,51.2860,-2.4815
Costa Coffee,BA3 2DT,51.2863,-2.4825
The Greek Grill ,BA3 2HQ,51.2853,-2.4834
Longfellow's Cafe,BA3 3AL,51.2830,-2.4719
Subway ,BA3 3PT,51.2920,-2.4461
Castello,BA3 3PZ,51.2920,-2.4478
Best Western Plus Centurion Hotel,BA3 4BD,51.2765,-2.4720
porkys cafe,BA3 4BH,51.2774,-2.4670
THE REDAN INN,BA3 4HA,51.2616,-2.5036
Holy Cow cafe,BA3 4HP,51.2703,-2.5071
Somerset Wagon,BA3 4JW,51.2599,-2.5154
The Waldegrave Arms,BA3 4LL,51.2752,-2.5790
The Litton,BA3 4PW,51.2888,-2.5823
The White Post Inn,BA3 4QA,51.2714,-2.4800
The kings arms,BA3 4RA,51.2538,-2.4919
The old down inn,BA3 4SA,51.2598,-2.5338
Horse and Jockey,BA3 4UH,51.2405,-2.5489
The Oakhill Inn,BA3 5HU,51.2228,-2.5209
The Bell Inn,BA3 5QQ,51.2235,-2.4433
The Jolliffe Arms,BA3 5TD,51.2685,-2.4360
Waggon & Horses,BA4 4LA,51.2089,-2.5032
The Well Inn Shepton Ltd,BA4 4LY,51.1753,-2.5357
Charlton House,BA4 4PR,51.1846,-2.5259
THE POACHERS POCKET,BA4 4PY,51.1938,-2.5036
Rosemary Greek Resturant ,BA4 5AA,51.1902,-2.5467
Sweet11,BA4 5AN,51.1903,-2.5473
The Hive,BA4 5AQ,51.1892,-2.5474
Shepton Brasserie & Cafe Bar Ltd,BA4 5AX,51.1887,-2.5479
THE CHEEKY BEAN,BA4 5AZ,51.1907,-2.5465
La Tavola ,BA4 5BD,51.1910,-2.5469
LOAF,BA4 5BE,51.1916,-2.5467
Harlequin Cafe,BA4 5NF,51.1904,-2.5359
Pantry Restaurant,BA4 5NF,51.1904,-2.5359
Subway,BA4 5SB,51.1884,-2.5501
Wookey Hole Ltd,BA5 1BB,51.2272,-2.6718
The Wookey Hole Inn,BA5 1BP,51.2248,-2.6713
The Good Earth Natural Foods Ltd,BA5 1SY,51.2070,-2.6491
THE FULL MOON,BA5 1UH,51.2051,-2.6495
City Arms Ltd,BA5 2AG,51.2081,-2.6485
Strangers with Coffee,BA5 2AW,51.2079,-2.6512
Pickwicks Country Kitchen ,BA5 2DJ,51.2078,-2.6481
Daniel's Cafe and Sandwich Bar,BA5 2DP,51.2077,-2.6489
New Rajah spice tandoori ,BA5 2DP,51.2077,-2.6489
Loaf. Bakehouse,BA5 2DS,51.2077,-2.6503
The Bishop's Table,BA5 2PD,51.2093,-2.6424
Nosh-Stalgia ,BA5 2PU,51.2090,-2.6481
Bishop's Eye,BA5 2RB,51.2093,-2.6446
Wells Cathedral Cafe,BA5 2RE,51.2096,-2.6445
Market Place Cafe,BA5 2RF,51.2096,-2.6453
Twentyone cafe & kitchen,BA5 2RF,51.2096,-2.6453
kitty banks cafe,BA5 2RF,51.2096,-2.6453
The Crown at Wells,BA5 2RP,51.2092,-2.6454
Thai Dragon ,BA5 2RR,51.2098,-2.6464
The White Hart ,BA5 2RR,51.2098,-2.6464
The courtyard restaurant (Wells) LTD,BA5 2RR,51.2098,-2.6464
goodfellows,BA5 2RR,51.2098,-2.6464
Swan Hotel Wells ,BA5 2RX,51.2096,-2.6467
J & N Rossi Ltd T/A Ancient Gatehouse Hotel,BA5 2SE,51.2096,-2.6459
The Fountain Inn,BA5 2UU,51.2121,-2.6406
Wells (Somerset) Golf Club Ltd,BA5 3DS,51.2271,-2.5904
Cheese Yard Café,BA5 3ED,51.2261,-2.6136
The Britannia Inn ,BA5 3LQ,51.2126,-2.6289
The George Inn,BA5 3QH,51.1969,-2.5903
Riverside Inn,BS31 3EZ,51.3994,-2.4493
THE RISING SUN,BS39 4AQ,51.3714,-2.5496
Carpenters Arms,BS39 4BX,51.3565,-2.5532
Travellers Rest,BS39 4JF,51.3771,-2.5525
The Compton Inn,BS39 4JZ,51.3780,-2.5112
Green Room Cafe,BS39 5BT,51.3168,-2.5372
RAILWAY INN,BS39 5PD,51.3305,-2.5388
The Hunters Rest Inn,BS39 5QL,51.3383,-2.5280
The Red Lion,BS39 5UT,51.3352,-2.5935
The old station Inn,BS39 6EN,51.3119,-2.5284
THE STAR INN,BS39 6HX,51.3229,-2.5097
The Haynes ,BS39 6JH,51.3255,-2.5109
The Farrington Inn,BS39 6TG,51.2995,-2.5342
Farrington Golf and Country Club Limited,BS39 6TS,51.2905,-2.5280
Farrington's Farm Shop,BS39 6UB,51.2978,-2.5291
LA CAMPAGNA BAR & RESTAURANT LIMITED,BS39 7RJ,51.3009,-2.4952
The Castle of Comfort,BS40 6DD,51.2745,-2.6546
The Blue Bowl,BS40 6HJ,51.3165,-2.6369
Stable Tea Rooms Limited,BS40 6HW,51.3225,-2.6118
Ring O' Bells,BS40 6JE,51.3113,-2.6580
The Prince of Waterloo,BS40 8AR,51.3833,-2.6623
The Crown Inn,BS40 8AY,51.3708,-2.6623
Chew Kitchen ,BS40 8EA,51.3551,-2.6307
The Bear and Swan,BS40 8SL,51.3655,-2.6106
The Pelican,BS40 8SL,51.3655,-2.6106
Salt & Malt Limited,BS40 8TF,51.3472,-2.5992
Chew Valley raj ,BS40 8XE,51.3529,-2.6327
THE WOODFORD LODGE CO LTD,BS40 8XH,51.3436,-2.6250
The Dundry Inn,BS41 8LH,51.3988,-2.6355
The Carpenters Tavern,BS41 8NE,51.3944,-2.6267
