name,postcode,lat,lon
Guillemot and River dolphin,BA1 0SQ,51.382047790000000,-2.358790792000000
tree snake and mountain devil,BA1 0SS,51.382047790000000,-2.358790792000000
cobra de capello and Partridge,BA1 0TE,51.382047790000000,-2.358790792000000
massasauga and Partridge,BA1 0TN,51.382047790000000,-2.358790792000000
smooth snake and bicycle lizard,BA1 0TZ,51.382047790000000,-2.358790792000000
black snake and Scimitar babbler,BA1 0UY,51.378849000000000,-2.355562000000000
Tit-tyrant and swift,BA1 1DN,51.383991510000000,-2.361220122000000
Tit-tyrant and Kangaroo,BA1 1HA,51.382450950000000,-2.362185097000000
Mink and Hawk,BA1 1QE,51.380489180000000,-2.359784404000000
Coati and rock snake,BA1 1QR,51.379695980000000,-2.360410391000000
Quetzal and loggerhead,BA1 1UF,51.379009970000000,-2.361267092000000
galliwasp and Wader,BA1 1UN,51.380820610000000,-2.363106191000000
Parakeet and Peafowl,BA1 1UQ,51.379702720000000,-2.361143234000000
chuckwalla and gaboon viper,BA1 1US,51.380268830000000,-2.364165098000000
Badger and goanna,BA1 1ZN,51.378856590000000,-2.355561725000000
diamond snake and turtle,BA1 2AT,51.382984670000000,-2.366931232000000
Puffleg and Fox,BA1 2BE,51.382319160000000,-2.369828494000000
bearded lizard and Capuchin,BA1 2BQ,51.383221120000000,-2.368944858000000
leguaan and agama,BA1 2EY,51.385323090000000,-2.360957580000000
River dolphin and pit viper,BA1 2LL,51.383322660000000,-2.365238329000000
Black cockatoo and jew lizard,BA1 2ND,51.383202540000000,-2.366271978000000
racer and gecko,BA1 2NR,51.384985360000000,-2.365481495000000
moloch and Ibex,BA1 2QJ,51.386287060000000,-2.363264447000000
chameleon and Linsang,BA1 2RL,51.388167790000000,-2.362790732000000
Linsang and Fish eagle,BA1 2RN,51.388924010000000,-2.362494919000000
tortoise and Stilt,BA1 2RQ,51.387279280000000,-2.362251982000000
Warbler and copperhead,BA1 2SQ,51.387909870000000,-2.364771889000000
Rabbit and Elephant,BA1 2SS,51.389569660000000,-2.365949188000000
Ice seal and crocodile,BA1 2SX,51.389585210000000,-2.366725375000000
mountain devil and anaconda,BA1 2UN,51.391803720000000,-2.375998831000000
gopher snake and Mockingbird,BA1 3BZ,51.384697000000000,-2.376385000000000
American sparrow and Wader,BA1 3EB,51.385463510000000,-2.390072775000000
amethystine python and Old World quail,BA1 3HH,51.385583180000000,-2.397273302000000
whip snake and hognose snake,BA1 3LB,51.384844910000000,-2.394895848000000
Marsh harrier and Towhee,BA1 3LL,51.386758770000000,-2.394898000000000
tree snake and carpet snake,BA1 3PF,51.393776280000000,-2.388734974000000
diamond python and Fulmarine petrel,BA1 3QD,51.389886460000000,-2.398374092000000
Asiatic leopard and moloch,BA1 3RZ,51.391398650000000,-2.400543048000000
frilled lizard and swift,BA1 4AF,51.392387790000000,-2.387156607000000
constrictor and blind snake,BA1 4BX,51.395650800000000,-2.390159468000000
dugite and bicycle lizard,BA1 4EG,51.393533040000000,-2.394252053000000
perentie and amethystine python,BA1 4JH,51.398461590000000,-2.393920717000000
Pratincole and cycling lizard,BA1 5BJ,51.384278000000000,-2.359068371000000
mountain devil and bandy-bandy,BA1 5EE,51.389175860000000,-2.362468168000000
death adder and agamid,BA1 5LD,51.390129620000000,-2.362260134000000
thorny devil and Duck,BA1 5LJ,51.384380180000000,-2.360562170000000
elapid and Pheasant,BA1 5QJ,51.397610060000000,-2.362463002000000
grass snake and Cuscus,BA1 5RY,51.395898520000000,-2.369219383000000
Duck and Peafowl,BA1 5UB,51.389236710000000,-2.357294942000000
carpet snake and Magpie,BA1 6AG,51.390806180000000,-2.352708168000000
cayman and Nukupuʻu,BA1 6AS,51.392990000000000,-2.347522974000000
chameleon and bandy-bandy,BA1 6BS,51.394968330000000,-2.343786000000000
leguaan and Thrasher,BA1 6BT,51.395310640000000,-2.352829072000000
sand viper and Kangaroo,BA1 6DY,51.392324150000000,-2.356212335000000
Puffleg and New World blackbird,BA1 6HE,51.395577920000000,-2.356611332000000
rock snake and Recurvebill,BA1 6JS,51.398821700000000,-2.360273300000000
Grosbeak and Parakeet,BA1 6JU,51.398681720000000,-2.356060510000000
Fox and Masked owl,BA1 6JW,51.397848090000000,-2.355205961000000
Herring gull and Recurvebill,BA1 6LL,51.393567290000000,-2.352485078000000
anaconda and Hawaiian honeycreeper,BA1 6NE,51.398764610000000,-2.352438807000000
Siskin and snapping turtle,BA1 6NJ,51.399453500000000,-2.356555243000000
puff adder and Chipmunk,BA1 6NY,51.399475290000000,-2.349324982000000
frill-necked lizard and racer,BA1 6QR,51.397440640000000,-2.350171911000000
Stilt and garter snake,BA1 6RU,51.396837620000000,-2.344302799000000
Capuchin and skink,BA1 6RW,51.396078740000000,-2.345518849000000
Jackal and Chickadee,BA1 6SE,51.398005960000000,-2.344498440000000
Kestrel and Parakeet,BA1 6SH,51.398811810000000,-2.345813000000000
Grosbeak and harlequin snake,BA1 7HY,51.396761850000000,-2.339458272000000
Myna and Chipmunk,BA1 7TJ,51.398726050000000,-2.294811661000000
Cuscus and Boto,BA1 7TL,51.398195870000000,-2.294678882000000
chuckwalla and habu,BA1 8ED,51.391493440000000,-2.306607742000000
whip snake and habu,BA11 1AY,51.232531510000000,-2.318639980000000
horned toad and tuatara,BA11 1BP,51.232695910000000,-2.324255566000000
indigo snake and Stint,BA11 1BX,51.231074660000000,-2.321981275000000
frill-necked lizard and saltwater crocodile,BA11 1DL,51.230518000000000,-2.321676627000000
Capuchin and Egret,BA11 1EJ,51.230071000000000,-2.324380000000000
Stint and massasauga,BA11 1EQ,51.230361510000000,-2.326229885000000
Black cockatoo and Linsang,BA11 1FU,51.229334000000000,-2.319331000000000
Dorcopsis and Komodo dragon,BA11 1HY,51.226814730000000,-2.330844713000000
Bronzewing pigeon and fer-de-lance,BA11 1JJ,51.226739730000000,-2.322280378000000
puff adder and mamba,BA11 1JX,51.225705050000000,-2.322502273000000
Duck and Pratincole,BA11 1LH,51.223329240000000,-2.319936755000000
Bronzewing pigeon and Old World quail,BA11 1RP,51.228725440000000,-2.312899458000000
Myna and Zebra,BA11 1RU,51.231348500000000,-2.313705000000000
Marmoset and anole,BA11 2AZ,51.234173380000000,-2.309957248000000
python and Tattler,BA11 2DP,51.235118440000000,-2.302744648000000
monitor and Crow,BA11 2DT,51.242436070000000,-2.299941931000000
Black jay and cerastes,BA11 2EH,51.235223970000000,-2.310323000000000
anaconda and Hawaiian honeycreeper,BA11 2HF,51.237775710000000,-2.314608176000000
Warbler and blind snake,BA11 2HS,51.241410140000000,-2.313974026000000
cobra de capello and horned toad,BA11 2JN,51.237234280000000,-2.315320679000000
tuatara and Warbler,BA11 2JT,51.239379620000000,-2.316696200000000
king cobra and whip snake,BA11 2LP,51.238547920000000,-2.315014531000000
Lemming and bearded dragon,BA11 2LR,51.237518490000000,-2.323200864000000
Fulmarine petrel and Fulmarine petrel,BA11 2NR,51.248703000000000,-2.317792000000000
gaboon viper and Stint,BA11 2RE,51.271393120000000,-2.370943550000000
dugite and Boto,BA11 2SA,51.240058020000000,-2.311859059000000
Gila monster and Quetzal,BA11 2SH,51.239234640000000,-2.320405277000000
gavial and Solitaire,BA11 3AF,51.235341770000000,-2.326680511000000
king snake and Night heron,BA11 3BA,51.231210960000000,-2.327940228000000
Hawk and Marmoset,BA11 3BQ,51.230790080000000,-2.327321388000000
coral snake and agama,BA11 3DA,51.231795110000000,-2.324836444000000
Egret and terrapin,BA11 3HE,51.231976260000000,-2.333946739000000
diamondback and Marmoset,BA11 3HL,51.232138520000000,-2.330639439000000
kabaragoya and frill-necked lizard,BA11 3HQ,51.232304360000000,-2.335553232000000
Towhee and Jackal,BA11 3JY,51.219098690000000,-2.384110964000000
rock python and Francolin,BA11 3PB,51.260627180000000,-2.414595896000000
Kite and whip snake,BA11 3PN,51.241355940000000,-2.391129000000000
boa and Towhee,BA11 4BA,51.226585190000000,-2.329339394000000
Komodo dragon and Mouse,BA11 4DA,51.219276000000000,-2.332480000000000
habu and Old World vulture,BA11 4DH,51.217136120000000,-2.332006610000000
Tattler and Crow,BA11 4DL,51.214998210000000,-2.337531935000000
copperhead and Marmoset,BA11 4DP,51.227993540000000,-2.336839400000000
American sparrow and Vole,BA11 4EB,51.226417880000000,-2.328077983000000
Booted eagles and Pitohui,BA11 4HA,51.222760020000000,-2.333779757000000
Marsh harrier and Pratincole,BA11 4JD,51.228815130000000,-2.332534668000000
Tit-tyrant and amphisbaena,BA11 4LW,51.209578270000000,-2.377961963000000
Stint and slowworm,BA11 4NQ,51.203155630000000,-2.378696600000000
diamondback terrapin and Eagle,BA11 4PU,51.205357070000000,-2.400758409000000
Elephant and hognose snake,BA11 4PZ,51.204722000000000,-2.389402000000000
Prion and Greenbul,BA11 5AU,51.221422550000000,-2.320081036000000
krait and cayman,BA11 5BP,51.197451970000000,-2.332280037000000
B and Tattler,BA11 5BR,51.188771570000000,-2.330214307000000
diamondback terrapin and rock python,BA11 5DQ,51.192387190000000,-2.360377208000000
diamond snake and tuatara,BA11 5EB,51.220260180000000,-2.320960729000000
taipan and rock python,BA11 5ES,51.180872900000000,-2.321874357000000
fer-de-lance and whip snake,BA11 5FL,51.221395000000000,-2.305200000000000
Boto and Kākāriki,BA11 5HS,51.230398340000000,-2.305950388000000
milk snake and Chicken,BA11 6AP,51.264637000000000,-2.280247000000000
Siskin and gavial,BA11 6PH,51.283188500000000,-2.281309683000000
sea snake and Treepie,BA11 6SB,51.266440660000000,-2.283400287000000
gavial and Asiatic leopard,BA11 6TF,51.259999420000000,-2.288333516000000
gecko and bearded lizard,BA11 6TW,51.265600280000000,-2.281388523000000
rock snake and Scimitar babbler,BA15 1PL,51.346677450000000,-2.262817733000000
smooth snake and Dorcopsis,BA15 2BP,51.330642350000000,-2.279562097000000
asp and Tree warbler,BA15 2DN,51.336271920000000,-2.279251853000000
box turtle and krait,BA15 2DW,51.336629750000000,-2.276239494000000
Siskin and Herring gull,BA15 2HH,51.343702990000000,-2.281378838000000
Petrel and gavial,BA15 2QF,51.390023420000000,-2.279622352000000
indigo snake and Black cockatoo,BA15 2QJ,51.386774280000000,-2.280938997000000
Petrel and Gull,BA15 2QQ,51.388515770000000,-2.281740000000000
Skunk and Guillemot,BA2 0AD,51.341472000000000,-2.483031000000000
deaf adder and Kestrel,BA2 0DF,51.344419150000000,-2.485502333000000
blindworm and cobra,BA2 0DJ,51.333197680000000,-2.451738142000000
Old World vulture and hoop snake,BA2 0DN,51.330438250000000,-2.451467008000000
blue tongue and Zebra,BA2 0DR,51.332488780000000,-2.444310311000000
Meadowlark and hoop snake,BA2 0EY,51.319678000000000,-2.484724000000000
Kite and agamid,BA2 0JW,51.328458140000000,-2.472459527000000
death adder and Rabbit,BA2 0LU,51.326807320000000,-2.473777284000000
horned viper and kabaragoya,BA2 0NN,51.332326320000000,-2.476475267000000
Macaw and Wallaby,BA2 0NT,51.335366000000000,-2.465540000000000
rattlesnake and Chipmunk,BA2 0PB,51.319854400000000,-2.458537919000000
Parakeet and snapping turtle,BA2 1AE,51.374885560000000,-2.383029221000000
flying dragon and Peafowl,BA2 1AX,51.374669650000000,-2.385800221000000
Wader and Bronzewing pigeon,BA2 1BU,51.379737930000000,-2.389434967000000
soft-shelled turtle and death adder,BA2 1BW,51.379459580000000,-2.389317657000000
flying dragon and diamond snake,BA2 1DD,51.380686940000000,-2.396139000000000
Francolin and turtle,BA2 1EY,51.380491000000000,-2.387875000000000
American sparrow and White ibis,BA2 1HB,51.381287000000000,-2.394506000000000
constrictor and goanna,BA2 1HW,51.372023270000000,-2.389369471000000
Old World vulture and Eagle,BA2 1JS,51.367578050000000,-2.393052186000000
cycling lizard and swift,BA2 1ND,51.374937580000000,-2.391764755000000
Stilt and python,BA2 1QX,51.376499300000000,-2.405800710000000
blind snake and Siskin,BA2 1RL,51.380561570000000,-2.398522982000000
smooth snake and Mole,BA2 1TA,51.382253790000000,-2.400635597000000
Schneider python and Marmoset,BA2 2BG,51.363968050000000,-2.380754827000000
Cloud rat and kabaragoya,BA2 2BR,51.354917420000000,-2.382273781000000
Bunting and Treepie,BA2 2EB,51.366494560000000,-2.372415774000000
water snake and Moluccan boobook,BA2 2FL,51.367635716176100,-2.398813203297910
cobra and Thicketbird,BA2 2HF,51.369630010000000,-2.381620638000000
Darwin's finches and Philippine hawk-owl,BA2 2JU,51.372138310000000,-2.384485985000000
Fox and grass snake,BA2 2NY,51.360441710000000,-2.378470672000000
kabaragoya and perentie,BA2 2PP,51.359417980000000,-2.378060091000000
Cloud rat and Meadowlark,BA2 2QS,51.363683000000000,-2.388451000000000
worm lizard and Pratincole,BA2 2RA,51.365881860000000,-2.394761349000000
Grouse and Pheasant,BA2 2SY,51.357003260000000,-2.382348599000000
gavial and taipan,BA2 2UL,51.356592590000000,-2.375882638000000
water snake and chameleon,BA2 2UN,51.357071170000000,-2.375254658000000
Solitaire and loggerhead,BA2 2UT,51.354665030000000,-2.379701132000000
frilled lizard and Argus,BA2 3AJ,51.372978880000000,-2.372008695000000
grass snake and Pratincole,BA2 3BE,51.379100950000000,-2.369572649000000
thorny devil and Tattler,BA2 3BS,51.378825070000000,-2.371510126000000
fer-de-lance and Linsang,BA2 3DT,51.384196000000000,-2.379558000000000
king snake and flying dragon,BA2 3EX,51.378767260000000,-2.369655000000000
Maya and grass snake,BA2 3FB,51.381904326494700,-2.374667831904690
puff adder and cobra de capello,BA2 3GQ,51.382388000000000,-2.381438000000000
gopher snake and Old World warbler,BA2 3HU,51.378679380000000,-2.377701600000000
Crow and cobra de capello,BA2 3HW,51.376960620000000,-2.369670342000000
thorn lizard and Piping shrike,BA2 3JB,51.378852090000000,-2.379901352000000
Parrotlet and mountain devil,BA2 3JJ,51.378190500000000,-2.384249362000000
Petrel and Thicketbird,BA2 3NW,51.373986440000000,-2.374674695000000
agamid and mountain devil,BA2 3PW,51.377703650000000,-2.379130345000000
Parakeet and taipan,BA2 3QX,51.379080870000000,-2.375306000000000
Siskin and massasauga,BA2 3WE,51.378856590000000,-2.355561725000000
Bunting and Argus,BA2 4AQ,51.380564490000000,-2.355733024000000
bearded lizard and horned toad,BA2 4DP,51.384953550000000,-2.352390111000000
adder and blind snake,BA2 4EX,51.380277990000000,-2.352354180000000
Gila monster and Francolin,BA2 4FA,51.376684840626800,-2.352887193057880
American sparrow and Pheasant,BA2 4JP,51.376727100000000,-2.354683000000000
Mink and agama,BA2 4LE,51.376568300000000,-2.357009463000000
galliwasp and Guillemot,BA2 4LP,51.371506000000000,-2.354442000000000
monitor and tiger snake,BA2 4NQ,51.375943310000000,-2.352579487000000
boa constrictor and Bunting,BA2 4QH,51.376124900000000,-2.366646472000000
indigo snake and Meadowlark,BA2 4RB,51.373003000000000,-2.364607009000000
turtle and turtle,BA2 4RZ,51.366541690000000,-2.366024041000000
Buzzard and taipan,BA2 5EE,51.359811990000000,-2.346624483000000
Darwin's finches and constrictor,BA2 5HG,51.361218440000000,-2.342297592000000
python and Prion,BA2 5JZ,51.358848150000000,-2.347206041000000
green turtle and horned toad,BA2 5NA,51.361429930000000,-2.364417000000000
Black jay and tokay,BA2 5ND,51.362459690000000,-2.363061421000000
Fulmarine petrel and leathery turtle,BA2 5QB,51.360768220000000,-2.363392739000000
Diving bird and cerastes,BA2 5QN,51.360969000000000,-2.356958913000000
tuatara and Mamo,BA2 5QS,51.358784310000000,-2.356483328000000
Dolphin and Parrotbill,BA2 5QW,51.359446610000000,-2.357493819000000
Coati and Siskin,BA2 5QY,51.358355740000000,-2.358433196000000
gopher snake and perentie,BA2 5RL,51.359515480000000,-2.372890534000000
galliwasp and Mink,BA2 5SN,51.356955060000000,-2.363606688000000
Kākāriki and thorny devil,BA2 6AF,51.376668070000000,-2.350774758000000
mamba and bull snake,BA2 6BJ,51.390332579075900,-2.347416007564630
Komodo dragon and sea snake,BA2 6DT,51.374343930000000,-2.330614816000000
bearded lizard and Schneider python,BA2 6DY,51.374770190000000,-2.332499948000000
Old World warbler and Tahr,BA2 6EE,51.374336970000000,-2.333071477000000
gavial and Logrunners,BA2 6LD,51.381932780000000,-2.346216914000000
turtle and Towhee,BA2 6LH,51.387559090000000,-2.353071199000000
cerastes and Dorcopsis,BA2 6PN,51.383992760000000,-2.357886347000000
copperhead and puff adder,BA2 6PT,51.387847590000000,-2.355789535000000
Egret and Prion,BA2 6QU,51.389255460000000,-2.348083014000000
Booted eagles and Herring gull,BA2 6RF,51.387658390000000,-2.346921214000000
snake and Treepie,BA2 6RY,51.387373560000000,-2.345941843000000
Egret and deaf adder,BA2 6SS,51.395632500000000,-2.325809000000000
Thrasher and Petrel,BA2 6TB,51.396216980000000,-2.322263428000000
Snipe and boomslang,BA2 6XQ,51.391541460000000,-2.318924966000000
Eagle and River dolphin,BA2 7AD,51.362948220000000,-2.334913463000000
thorn lizard and perentie,BA2 7BX,51.345971090000000,-2.350525823000000
smooth snake and Triller,BA2 7DX,51.349550270000000,-2.365084449000000
Bunting and Macaw,BA2 7ET,51.358566350000000,-2.339046404000000
Warbler and Tattler,BA2 7FL,51.351322800000000,-2.311810304000000
thorny devil and sand lizard,BA2 7FW,51.346839100000000,-2.300278990000000
Mole and sidewinder,BA2 7GH,51.343527490000000,-2.314973349000000
Wader and Cuscus,BA2 7HA,51.355910230000000,-2.327667255000000
mamba and Diving bird,BA2 7JS,51.347142280000000,-2.297496000000000
leathery turtle and Bronzewing pigeon,BA2 7JX,51.380446000000000,-2.322555000000000
Grouse and soft-shelled turtle,BA2 7LT,51.301809000000000,-2.327253000000000
Dolphin and green turtle,BA2 7NG,51.307796780000000,-2.310654233000000
Asiatic leopard and Macaw,BA2 7NP,51.294688310000000,-2.313434056000000
terrapin and sand lizard,BA2 7PS,51.380542000000000,-2.332123000000000
Macaw and horned toad,BA2 7QT,51.284524960000000,-2.300718093000000
Dorcopsis and Thicketbird,BA2 7QU,51.280443770000000,-2.303773965000000
Fish eagle and Armadillo,BA2 7RY,51.292568660000000,-2.295220639000000
water snake and Buzzard,BA2 7SW,51.321847760000000,-2.328285319000000
carpet snake and leathery turtle,BA2 7TP,51.317609870000000,-2.309500899000000
River dolphin and blind snake,BA2 8DP,51.316974610000000,-2.425851211000000
Quetzal and Philippine hawk-owl,BA2 8HF,51.316869960000000,-2.429882257000000
kabaragoya and Pitohui,BA2 8HL,51.314494990000000,-2.425268666000000
agamid and slowworm,BA2 8JL,51.315302010000000,-2.430800235000000
Jackal and Night heron,BA2 8LA,51.316451670000000,-2.436120000000000
python and Parakeet,BA2 8LG,51.311980740000000,-2.434126378000000
mud turtle and Warbler,BA2 8PJ,51.320210630000000,-2.416137645000000
Pratincole and turtle,BA2 8SS,51.311784680000000,-2.421341150000000
boomslang and Chipmunk,BA2 9BP,51.380756070000000,-2.429963547000000
sea snake and chuckwalla,BA2 9BQ,51.378167900000000,-2.436864645000000
chuckwalla and hawksbill,BA2 9BZ,51.381581250000000,-2.425603096000000
mountain devil and Towhee,BA2 9DZ,51.351258000000000,-2.426873000000000
Mink and diamond snake,BA2 9EA,51.345795530000000,-2.422744349000000
Solitaire and diamondback turtle,BA2 9HY,51.366142080000000,-2.465866404000000
ringhals and boa,BA3 2AN,51.290567680000000,-2.467710810000000
gecko and tiger snake,BA3 2EA,51.284345180000000,-2.481054249000000
worm lizard and Gila monster,BA3 2EF,51.289926470000000,-2.481700554000000
blindworm and Kangaroo,BA3 2HG,51.284263320000000,-2.483462290000000
Condor and diamondback terrapin,BA3 2JP,51.283752900000000,-2.491586866000000
Marsh harrier and smooth snake,BA3 2LG,51.279362870000000,-2.498106000000000
whip snake and flying lizard,BA3 2QA,51.283849640000000,-2.492104087000000
king snake and moloch,BA3 2RT,51.289041880000000,-2.493306825000000
monitor and Tattler,BA3 2SU,51.287408440000000,-2.477386640000000
Rabbit and bearded lizard,BA3 2TL,51.293138490000000,-2.479037992000000
king snake and Mockingbird,BA3 2UX,51.294700640000000,-2.475224965000000
Maya and Parakeet,BA3 2UY,51.296303280000000,-2.472487777000000
ringhals and Duck,BA3 2UZ,51.296552510000000,-2.466394777000000
Old World quail and anole,BA3 2XU,51.314126140000000,-2.474450074000000
Logrunners and blind snake,BA3 3AD,51.293421490000000,-2.448464828000000
smooth snake and Francolin,BA3 3AJ,51.295860520000000,-2.450224019000000
Solitaire and diamond python,BA3 3DF,51.290233670000000,-2.430565478000000
Parrotlet and chuckwalla,BA3 3EE,51.295950410000000,-2.447887105000000
galliwasp and agamid,BA3 3FQ,51.283308000000000,-2.468813000000000
B and Jerboa,BA3 3FR,51.287628300900000,-2.428777000000000
swift and death adder,BA3 3LP,51.290094650000000,-2.434120613000000
death adder and Mole,BA3 3PE,51.289548620000000,-2.431017957000000
River dolphin and tree snake,BA3 3QF,51.291467710000000,-2.446782239000000
Boto and sand lizard,BA3 3SW,51.288703300000000,-2.457509000000000
coral snake and blind snake,BA3 3TH,51.287796180000000,-2.459136142000000
garter snake and Petrel,BA3 3XJ,51.287561600000000,-2.468411581000000
gecko and diamondback terrapin,BA3 3XQ,51.285978940000000,-2.470675404000000
Schneider python and hognose snake,BA3 4AB,51.280537190000000,-2.477745498000000
Mamo and Capuchin,BA3 4BR,51.278238290000000,-2.477004799000000
tortoise and Pitohui,BA3 4BT,51.279839520000000,-2.474627065000000
sea snake and habu,BA3 4BZ,51.279851000000000,-2.546213377000000
Eagle and New World blackbird,BA3 4EF,51.272682260000000,-2.523077506000000
Capuchin and Nukupuʻu,BA3 4GT,51.258871110000000,-2.510898000000000
cobra de capello and Meadowlark,BA3 4GW,51.288245260000000,-2.580700208000000
Black cockatoo and skink,BA3 4JR,51.260400000000000,-2.519212000000000
copperhead and Parrotbill,BA3 4LH,51.275334490000000,-2.576738333000000
horned viper and galliwasp,BA3 4LN,51.264814090000000,-2.591125585000000
thorny devil and Triller,BA3 4LP,51.260733160000000,-2.594398102000000
Duck and horned viper,BA3 4LT,51.255734120000000,-2.512553270000000
Lemming and Kestrel,BA3 4LZ,51.260319490000000,-2.569083741000000
krait and garter snake,BA3 4NA,51.263414830000000,-2.568649020000000
Ground sloth and Recurvebill,BA3 4PA,51.285461270000000,-2.613501628000000
galliwasp and Egret,BA3 4PP,51.288964380000000,-2.587951076000000
Triller and jew lizard,BA3 4RF,51.250920980000000,-2.494317107000000
B and Quetzal,BA3 4SE,51.253693720000000,-2.551921500000000
diamondback terrapin and Grackle,BA3 4SH,51.255998780000000,-2.566322017000000
Egret and Black jay,BA3 4TA,51.245025640000000,-2.504067510000000
glass snake and Booted eagles,BA3 4TY,51.250483000000000,-2.538744000000000
habu and leathery turtle,BA3 4XB,51.275835300000000,-2.479732422000000
thorn lizard and Prion,BA3 4XD,51.278525310000000,-2.466025723000000
Guillemot and lizard,BA3 5BN,51.241191790000000,-2.519210392000000
tokay and Argus,BA3 5BT,51.224008330000000,-2.531188907000000
Petrel and diamond python,BA3 5EA,51.245846110000000,-2.473402966000000
Crow and Black cockatoo,BA3 5EE,51.247201570000000,-2.473975648000000
flying lizard and tokay,BA3 5EP,51.249358200000000,-2.472106560000000
Linsang and wall lizard,BA3 5EZ,51.242944100000000,-2.475034954000000
Parrotlet and hawksbill,BA3 5FA,51.233894000000000,-2.506295000000000
Piping shrike and Snipe,BA3 5FG,51.246041300000000,-2.471829025000000
Thicketbird and lizard,BA3 5GA,51.217995690000000,-2.482781814000000
monitor and diamondback turtle,BA3 5HP,51.231425000000000,-2.492532633000000
flying dragon and blue tongue,BA3 5HT,51.223267930000000,-2.523891637000000
Parrotlet and box turtle,BA3 5JH,51.222180270000000,-2.490629671000000
cobra and Asiatic leopard,BA3 5RE,51.232920020000000,-2.440055906000000
thorn lizard and Schneider python,BA3 5RW,51.242522180000000,-2.445132912000000
mud turtle and loggerhead,BA3 5SW,51.272789030000000,-2.415766204000000
grass snake and Fox,BA3 5XE,51.292199060000000,-2.365604311000000
hoop snake and water snake,BA3 5XJ,51.290336250000000,-2.374609692000000
puff adder and Night heron,BA4 4EX,51.181229380000000,-2.539910379000000
krait and boomslang,BA4 4HG,51.181053930000000,-2.537004077000000
Vole and Parrotbill,BA4 4JB,51.197986790000000,-2.570991419000000
Minke whale and brown snake,BA4 4LX,51.183764000000000,-2.542100436000000
Peafowl and Condor,BA4 4PP,51.183084880000000,-2.527398888000000
Nukupuʻu and galliwasp,BA4 4PT,51.194360360000000,-2.517452885000000
Mockingbird and Thrasher,BA4 4QH,51.187939740000000,-2.477359323000000
Boto and moloch,BA4 4RT,51.180358650000000,-2.539356000000000
sidewinder and frilled lizard,BA4 4TQ,51.177853200000000,-2.407801307000000
blue tongue and green turtle,BA4 5BL,51.191608000000000,-2.545655000000000
Kestrel and flying lizard,BA4 5BW,51.191254360000000,-2.545966151000000
diamond python and Linsang,BA4 5DZ,51.194494620000000,-2.547220883000000
Eagle and thorny devil,BA4 5EF,51.192107490000000,-2.546205199000000
Eagle and Jay,BA4 5EZ,51.193144620000000,-2.549394376000000
terrapin and snake,BA4 5HT,51.193641550000000,-2.550802723000000
Minke whale and diamond python,BA4 5JH,51.193366200000000,-2.559557450000000
anaconda and frilled lizard,BA4 5JU,51.191679910000000,-2.556789506000000
blind snake and Mouse,BA4 5LG,51.191125030000000,-2.544776911000000
Darwin's finches and swift,BA4 5NL,51.193569820000000,-2.541127946000000
slowworm and perentie,BA4 5PA,51.188256540000000,-2.538962284000000
monitor and cycling lizard,BA4 5PP,51.184147220000000,-2.535036972000000
Stint and Skunk,BA4 5QF,51.186428000000000,-2.530113000000000
Bronzewing pigeon and racer,BA4 5TG,51.185448180000000,-2.556843155000000
snake and New World blackbird,BA4 5TN,51.185364210000000,-2.553694384000000
Tahr and Parakeet,BA4 5UX,51.192224780000000,-2.555665576000000
leathery turtle and chuckwalla,BA4 9TG,51.187048690000000,-2.547332978000000
brown snake and iguana,BA5 1DJ,51.202102610000000,-2.650681047000000
Lemming and Wader,BA5 1FS,51.190857000000000,-2.667909000000000
chuckwalla and puff adder,BA5 1FZ,51.201379000000000,-2.652406000000000
python and grass snake,BA5 1LY,51.208828000000000,-2.663889000000000
soft-shelled turtle and Peafowl,BA5 1LZ,51.208327230000000,-2.671154000000000
adder and Peafowl,BA5 1SQ,51.204549819918800,-2.648210927265900
Tattler and ringhals,BA5 1UN,51.205473000000000,-2.647909000000000
Warbler and Chicken,BA5 1UU,51.206026560000000,-2.648446047000000
Condor and diamondback turtle,BA5 2EL,51.205786420000000,-2.664002407000000
snake and Philippine hawk-owl,BA5 2ET,51.205127310000000,-2.661301860000000
boa and Vulture,BA5 2JP,51.215611180000000,-2.661452100000000
goanna and Stilt,BA5 2PT,51.209075900000000,-2.651495123000000
Puffleg and Macaw,BA5 2QE,51.208752930000000,-2.651361726000000
diamond snake and Rat,BA5 2XX,51.211766550000000,-2.638075851000000
snake and American sparrow,BA5 3EN,51.244823440000000,-2.622630953000000
Fish eagle and blue tongue,BA5 3FB,51.214650880000000,-2.614964963000000
Kestrel and Gila monster,BA5 3JH,51.214794090000000,-2.631961335000000
Chickadee and Dorcopsis,BA5 3JL,51.214298400000000,-2.632169302000000
Chickadee and Kestrel,BA5 3NE,51.210338510000000,-2.627791693000000
Tit-tyrant and Recurvebill,BS14 0UQ,51.399898674303200,-2.571116862654700
python and Gila monster,BS31 2TF,51.386624596207900,-2.483764725425750
bearded lizard and glass snake,BS31 3HT,51.396676110069600,-2.454893251923740
amethystine python and Thicketbird,BS39 4DT,51.363681304970200,-2.568985538563640
Night heron and thorn lizard,BS39 4ET,51.369993000000000,-2.584061000000000
saltwater crocodile and Kangaroo,BS39 4HT,51.379182087509900,-2.530900527304960
bandy-bandy and Jackal,BS39 4JD,51.378072762384400,-2.545327517197760
gavial and Mink,BS39 5BU,51.317150540775800,-2.534244591716970
goanna and leguaan,BS39 5EA,51.308568577474800,-2.585777158103010
Stilt and leguaan,BS39 5EL,51.321078000000000,-2.543864000000000
king snake and flying lizard,BS39 5EQ,51.329092000000000,-2.533538000000000
cayman and Black jay,BS39 5PE,51.331249199341500,-2.538283906254860
Parrotlet and sand viper,BS39 5PH,51.331044722079500,-2.533846345948360
Peafowl and soft-shelled turtle,BS39 5PP,51.331732478918700,-2.540729663101480
Snipe and Asiatic leopard,BS39 5RY,51.332921124138400,-2.546169416443720
diamond snake and Logrunners,BS39 5UQ,51.333806675101700,-2.593319020335000
fer-de-lance and horned viper,BS39 6EE,51.313945399555500,-2.519156354965550
puff adder and Greenbul,BS39 6JD,51.323782995416600,-2.510857781300190
Schneider python and gopher snake,BS39 6JH,51.325482240526200,-2.510905373059320
Kestrel and caiman,BS39 6JZ,51.325111275292400,-2.507299042972770
Mouse and Crow,BS39 6TZ,51.298717015359700,-2.532323644411280
habu and amphisbaena,BS39 6UW,51.298087393850200,-2.520368640673000
boa constrictor and loggerhead,BS39 6YA,51.324962002567300,-2.514717055049990
Boto and rock snake,BS39 7AR,51.308900232367300,-2.506187978912690
habu and krait,BS39 7AY,51.310565000000000,-2.503970000000000
massasauga and Dolphin,BS39 7LA,51.306940000000000,-2.503082000000000
Darwin's finches and Greenbul,BS39 7NE,51.303859250457700,-2.508298247599700
mountain devil and Mockingbird,BS39 7NP,51.308312049307200,-2.501619109019720
flying dragon and constrictor,BS39 7NW,51.307672244393800,-2.501827000000000
Parakeet and Warbler,BS39 7PY,51.308902168353500,-2.496073506308540
slowworm and Badger,BS39 7PZ,51.308510911623500,-2.497159599205300
Black cockatoo and anole,BS39 7QB,51.307440999572900,-2.495010493077240
snake and Solitaire,BS39 7QG,51.306702770090300,-2.501558518149940
Dorcopsis and bicycle lizard,BS39 7QT,51.304586015480200,-2.498207390593370
diamond python and garter snake,BS39 7QU,51.303576324171000,-2.496704604787050
tuatara and worm lizard,BS39 7RA,51.302502392048100,-2.499734011523410
habu and garter snake,BS39 7RG,51.302752818831400,-2.504240886959430
Tattler and diamond python,BS39 7SN,51.295421026471100,-2.494508253837900
amethystine python and Nukupuʻu,BS39 7TA,51.304923989805900,-2.509515005445480
Jay and Lemming,BS39 7XB,51.307920803900000,-2.510997160743350
Parrotbill and hawksbill,BS39 7XE,51.307294534562300,-2.510272908650830
Fox and Flameback,BS39 7XW,51.304795052003100,-2.501896339788190
python and Dorcopsis,BS40 6AY,51.301717540188800,-2.622224514056750
Tahr and Polecat,BS40 6BH,51.304541679980700,-2.616998081023310
Mamo and Petrel,BS40 6BQ,51.304769379973900,-2.621663000000000
harlequin snake and Solitaire,BS40 6DR,51.311442000000000,-2.632817000000000
Coati and Tattler,BS40 6JS,51.312047283584900,-2.658734979047090
rock snake and Piping shrike,BS40 8AE,51.382920659014200,-2.665140943741950
boomslang and Fulmarine petrel,BS40 8DJ,51.377613824583500,-2.667018035010300
Old World warbler and Quetzal,BS40 8EP,51.382878554857500,-2.659680000000000
Jackal and horned toad,BS40 8ET,51.382426480948700,-2.658523000000000
puff adder and carpet snake,BS40 8HB,51.377192875443100,-2.653965966463950
anole and Goose,BS40 8QH,51.366316272296600,-2.628702052574220
Thicketbird and jew lizard,BS40 8QJ,51.364489105243900,-2.632382880900940
jew lizard and mountain devil,BS40 8RN,51.367666423167000,-2.606268404150490
Peafowl and agamid,BS40 8RW,51.368956000000000,-2.605684112390890
pit viper and Recurvebill,BS40 8SZ,51.355856313852400,-2.612201528075080
Elephant and slowworm,BS40 8UP,51.354717895993700,-2.629548799585320
Boto and thorn lizard,BS40 8XN,51.351947156299200,-2.630027000000000
rock python and Maya,BS40 8XY,51.350126226877400,-2.632931747487350
Booted eagles and Dolphin,BS40 8YE,51.337825374934000,-2.650979341347450
Goose and black snake,BS40 8YG,51.335420518485500,-2.662917103172520
Badger and Puffleg,BS41 8LT,51.394065705681200,-2.646718241649780
habu and Black cockatoo,BS41 8NS,51.391791000000000,-2.621937000000000
