name,postcode,lat,lon
Absurd Bird,BA1 1AN,51.379000000000000,-2.358913789000000
Tapas Revolution Bath,BA1 1AN,51.379000000000000,-2.358913789000000
Smashburger,BA1 1AQ,51.378990000000000,-2.359500000000000
Thaikhun,BA1 1AQ,51.378990000000000,-2.359500000000000
Comptoir Bath,BA1 1AT,51.378377940000000,-2.359007000000000
Kekolo Coffee,BA1 1BL,51.383192200000000,-2.360912066000000
Bandook ,BA1 1BZ,51.383821780000000,-2.360859542000000
Le Vignoble Bath,BA1 1BZ,51.383821780000000,-2.360859542000000
EASTERN CUISINE BATH LIMITED,BA1 1DG,51.384574850000000,-2.361583967000000
The Oven Pizzeria,BA1 1EN,51.381650000000000,-2.362955967000000
Vino Vino ,BA1 1EN,51.381650000000000,-2.362955967000000
Subway,BA1 1EQ,51.381338370000000,-2.361530000000000
The Garricks Head,BA1 1ET,51.382044560000000,-2.362756654000000
Amarone Restaurant,BA1 1EU,51.382179970000000,-2.362585295000000
The Raven of Bath Ltd,BA1 1HE,51.382839000000000,-2.362116000000000
Wild Cafe,BA1 1HE,51.382839000000000,-2.362116000000000
Pintxo de Bath,BA1 1HG,51.382538960000000,-2.362803673000000
Green Park Brasserie,BA1 1JB,51.381528100000000,-2.366905208000000
Pizzas of Bath,BA1 1JB,51.381528100000000,-2.366905208000000
The Royal Hotel,BA1 1JP,51.378178650000000,-2.356734641000000
SALATHAI RESTAURANT,BA1 1LA,51.380173050000000,-2.357310530000000
Yak Yeti Yak,BA1 1LA,51.380173050000000,-2.357310530000000
The Green Rocket,BA1 1LB,51.380309060000000,-2.356938005000000
Abbey Hotel Bath Ltd,BA1 1LF,51.380613150000000,-2.357472015000000
Tagine Zhor Ltd,BA1 1LF,51.380613150000000,-2.357472015000000
Mokoko Coffee & Bakery Abbey Churchyard,BA1 1LY,51.381514110000000,-2.359821183000000
Searcys at The Bath Pump Room ,BA1 1LZ,51.381126600000000,-2.360105520000000
the Courtyard Cafe,BA1 1ND,51.380601300000000,-2.358405888000000
The Ale House,BA1 1NG,51.380900000000000,-2.358352209000000
The Real Italian Ice Cream Company,BA1 1NG,51.380900000000000,-2.358352209000000
The Real Italian Pizza Company,BA1 1NG,51.380900000000000,-2.358352209000000
hands Georgian Tearoom,BA1 1NN,51.380770380000000,-2.358981960000000
The Colombian Company Ltd ,BA1 1NP,51.380311330000000,-2.359136421000000
Bath bun tea shoppe,BA1 1NW,51.380321600000000,-2.358719811000000
Sally Lunn's ,BA1 1NX,51.380753760000000,-2.358536398000000
Sweet Little Things Limited,BA1 1QR,51.379695980000000,-2.360410391000000
The Drawing Rooms,BA1 1RD,51.382016930000000,-2.360055035000000
Cascara,BA1 1RG,51.382835730000000,-2.359874663000000
The Whole Bagel,BA1 1RG,51.382835730000000,-2.359874663000000
GOOD DAY CAFE,BA1 1RH,51.382510220000000,-2.360461249000000
SAM WELLERS BATH LTD,BA1 1RH,51.382510220000000,-2.360461249000000
Raphael Restaurant,BA1 1RN,51.382370300000000,-2.362098245000000
SOHO Coffee Shops Limited Bath,BA1 1RR,51.382357550000000,-2.360402572000000
Bonghy Bo,BA1 1RZ,51.382799280000000,-2.360032440000000
Lulu Caffe,BA1 1SJ,51.380339870000000,-2.361550573000000
Cafe au Lait Bath Ltd,BA1 1SS,51.378051060000000,-2.358272000000000
Chilli family noodles ,BA1 1SS,51.378051060000000,-2.358272000000000
Mokoko Coffee Southgate,BA1 1SS,51.378051060000000,-2.358272000000000
Tivoli Cinema Bath,BA1 1SS,51.378051060000000,-2.358272000000000
Graze Bath,BA1 1SX,51.377583000000000,-2.357836000000000
McDonalds,BA1 1TG,51.379294000000000,-2.359905321000000
Subway,BA1 1TP,51.378150510000000,-2.360053415000000
Hondo Sushi ,BA1 1UL,51.379316170000000,-2.361111453000000
Noya's Kitchen,BA1 1UL,51.379316170000000,-2.361111453000000
the black fox,BA1 1UQ,51.379702720000000,-2.361143234000000
The Kingsmead Kitchen,BA1 2AA,51.381466340000000,-2.363642956000000
seafoods  fish and chips restaurant,BA1 2AA,51.381466340000000,-2.363642956000000
Society Cafe ,BA1 2AB,51.381098490000000,-2.363137000000000
The Bath Coffee Company ,BA1 2AD,51.381376700000000,-2.363556031000000
Swoon Gelato,BA1 2AE,51.381503870000000,-2.363140339000000
The Bath Stable,BA1 2AE,51.381503870000000,-2.363140339000000
The Boston Tea Party Group Limited,BA1 2AE,51.381503870000000,-2.363140339000000
Yum Yum Thai Restaurant,BA1 2AE,51.381503870000000,-2.363140339000000
Mission Burrito - Bath,BA1 2AF,51.381268220000000,-2.363741967000000
Subway,BA1 2AG,51.381274170000000,-2.364719101000000
Comins Tea,BA1 2AN,51.382061000000000,-2.363533000000000
New Inn,BA1 2AY,51.382889320000000,-2.365795285000000
The Scallop Shell,BA1 2AY,51.382889320000000,-2.365795285000000
Apex City of Bath,BA1 2DA,51.380820610000000,-2.363436000000000
Goulash ,BA1 2DR,51.381199260000000,-2.368540631000000
Adventure cafe,BA1 2ED,51.385232200000000,-2.361273007000000
Sub 13,BA1 2EE,51.385185250000000,-2.361919294000000
Charm Thai Restaurant,BA1 2EH,51.384544190000000,-2.362776430000000
Champagne Plus Fromage- Bath,BA1 2EJ,51.384616870000000,-2.362532716000000
Comptoir Cuisine,BA1 2EJ,51.384616870000000,-2.362532716000000
Comptoir Plus Cuisine,BA1 2EJ,51.384616870000000,-2.362532716000000
CLAYTONS KITCHEN,BA1 2EN,51.384849990000000,-2.362750109000000
Brasserie Blanc Bath ,BA1 2HH,51.382933020000000,-2.363309721000000
MGALLERY FRANCIS HOTEL BATH,BA1 2HH,51.382933020000000,-2.363309721000000
Ole Tapas,BA1 2JL,51.383431420000000,-2.362323000000000
The Salamander,BA1 2JL,51.383431420000000,-2.362323000000000
Belushi's Bath,BA1 2JY,51.383454060000000,-2.360554887000000
The Circus Restaurant,BA1 2LN,51.386307640000000,-2.365319590000000
Rustico Bistro Italiano,BA1 2LP,51.386656960000000,-2.365753492000000
The Green Bird Cafe,BA1 2LP,51.386656960000000,-2.365753492000000
Topland (Royal Crescent Hotel) LTD,BA1 2LS,51.387440960000000,-2.368073453000000
The Marlborough Tavern,BA1 2LY,51.387722710000000,-2.369972679000000
Brooks Guesthouse Bath,BA1 2NA,51.383963330000000,-2.370244109000000
Bath and County Club Limited,BA1 2NJ,51.383916680000000,-2.365056254000000
Bath on the Beach,BA1 2NR,51.384985360000000,-2.365481495000000
Royal Pavilion Cafe,BA1 2NR,51.384985360000000,-2.365481495000000
Thirsty Meeples,BA1 2NT,51.384274000000000,-2.363220747000000
beckford bottle shop,BA1 2QP,51.386326850000000,-2.362028899000000
The Boston Tea Party Group Limited,BA1 2QU,51.385887290000000,-2.361694910000000
Cafe Lucca,BA1 2QX,51.385786080000000,-2.362441368000000
WOODS RESTAURANT,BA1 2QX,51.385786080000000,-2.362441368000000
Dos Dedos,BA1 2QZ,51.385653470000000,-2.361707436000000
Yen sushi,BA1 2QZ,51.385653470000000,-2.361707436000000
The Hop Pole,BA1 3AR,51.385070010000000,-2.375512000000000
Victoria Pub & Kitchen,BA1 3AT,51.385112000000000,-2.377022000000000
8e Chelsea Road,BA1 3DU,51.385107490000000,-2.388618000000000
The Locksbrook Inn,BA1 3EN,51.382937460000000,-2.392795000000000
Rooted Vegetarian Cafe ,BA1 3JX,51.384688280000000,-2.387953791000000
Lansdown Cricket Club,BA1 3NE,51.387676460000000,-2.389775442000000
Society Cafe ,BA1 4BB,51.396189660000000,-2.384917692000000
Society Cafe ,BA1 5AJ,51.382405460000000,-2.359440208000000
Dough pizza ltd,BA1 5AP,51.382242600000000,-2.359769423000000
INDIAN TEMPTATION ,BA1 5AQ,51.381901900000000,-2.359450630000000
Coeur de Lion,BA1 5AR,51.382395230000000,-2.359842467000000
Rosarios Café,BA1 5AR,51.382395230000000,-2.359842467000000
Aqua Restaurant,BA1 5BD,51.385867310000000,-2.359424236000000
Provenist Ltd,BA1 5BD,51.385867310000000,-2.359424236000000
Thai Basil Restaurant,BA1 5BG,51.387579000000000,-2.358762000000000
Walcot House,BA1 5BG,51.387579000000000,-2.358762000000000
The Fine Cheese Co,BA1 5BN,51.384868060000000,-2.359804394000000
Picnic Coffee,BA1 5BR,51.384624720000000,-2.359989294000000
The Pig & Fiddle,BA1 5BR,51.384624720000000,-2.359989294000000
The Broad Street Townhouse,BA1 5LP,51.384130500000000,-2.360100000000000
Lansdown Tennis Squash & Croquet Club Ltd,BA1 5TN,51.395941000000000,-2.364635000000000
Larkhall Deli,BA1 6RY,51.397276930000000,-2.344737317000000
Fat Radish,BA11 1AN,51.231401590000000,-2.320809140000000
Subway ,BA11 1AN,51.231401590000000,-2.320809140000000
Black Swan Cafe,BA11 1BB,51.233077730000000,-2.319474472000000
Loop de Loop ,BA11 1BE,51.233563000000000,-2.320065000000000
Archangel,BA11 1BH,51.230808560000000,-2.320647471000000
Nook,BA11 1BH,51.230808560000000,-2.320647471000000
Eight Stony Street,BA11 1BU,51.230893760000000,-2.322366706000000
23 Bath St Ltd,BA11 1DJ,51.230645000000000,-2.321763000000000
Castello,BA11 1DS,51.230219610000000,-2.322276061000000
The High Pavement,BA11 1DS,51.230219610000000,-2.322276061000000
The Old Bath Arms,BA11 1DS,51.230219610000000,-2.322276061000000
The Artisan Frome,BA11 1EQ,51.230361510000000,-2.326229885000000
Hesperian Fish,BA11 1RE,51.226843170000000,-2.310638324000000
Station Approach,BA11 1RE,51.226843170000000,-2.310638324000000
The Bell,BA11 2PR,51.255220000000000,-2.264130000000000
The Bell Inn,BA11 2QT,51.259650810000000,-2.356131067000000
Rye Bakery,BA11 3BY,51.231491020000000,-2.324247091000000
The Talbot Inn,BA11 3PN,51.241355940000000,-2.391129000000000
Babington House,BA11 3RW,51.256558000000000,-2.418744000000000
McDonald's Restaurant,BA11 4DH,51.217136120000000,-2.332006610000000
Tool & Gauge ,BA11 4FN,51.220017000000000,-2.323103000000000
Field 725 Cafe,BA11 4LJ,51.224226710000000,-2.348840646000000
The George Inn,BA11 4LW,51.209578270000000,-2.377961963000000
Cafe Nouveau ,BA11 5BW,51.205492970000000,-2.331507718000000
The White Hart Inn,BA11 5DP,51.193566000000000,-2.363477000000000
Corsham Pub Company Ltd,BA11 6AG,51.287864000000000,-2.285540000000000
The Cross Keys Rode,BA11 6NZ,51.282931400000000,-2.283516192000000
Mes Amis CafeDeli,BA11 6SW,51.266072460000000,-2.286895257000000
Longleat Safari and Adventure Park,BA12 7NW,51.185653000000000,-2.274319000000000
The New Inn Westwood,BA15 2AE,51.330372520000000,-2.268063723000000
Hartley Farm Shop & Kitchen,BA15 2JB,51.356745000000000,-2.287706000000000
The Seven Stars,BA15 2LQ,51.346769000000000,-2.289295000000000
McDonalds,BA2 1EP,51.380565000000000,-2.390002000000000
Hillier Garden Centre Bath,BA2 2RG,51.369036720000000,-2.400419613000000
The Bear Hotel,BA2 3AQ,51.374056320000000,-2.366802337000000
mattys cafe,BA2 3BT,51.381194550000000,-2.375855000000000
Mintroom,BA2 3EB,51.380986300000000,-2.373453000000000
The Belvoir Castle,BA2 3EH,51.381609220000000,-2.375354843000000
Domino's Pizza,BA2 3PN,51.377023000000000,-2.378291398000000
Subway,BA2 3PN,51.377023000000000,-2.378291398000000
Opa Meze Restaurant,BA2 4AJ,51.380654500000000,-2.355704984000000
La Perla Restaurant,BA2 4AL,51.380678810000000,-2.356581665000000
Bodrum BBQ Bath Ltd,BA2 4AN,51.382653000000000,-2.358061704000000
CAPPADOCIA RESTAURANT (BATH) LTD,BA2 4AN,51.382653000000000,-2.358061704000000
Joya Italian Steakhouse,BA2 4AN,51.382653000000000,-2.358061704000000
Cortado Cafe,BA2 4AS,51.382938340000000,-2.358668435000000
The Bridge Coffee Shop,BA2 4AY,51.382994790000000,-2.357849818000000
ANTICA PULTNEY BRIDGE RESTAURANT,BA2 4BA,51.383391780000000,-2.357407460000000
Chez Dominique,BA2 4BQ,51.383149580000000,-2.357218768000000
The Herd Steak Restaurant,BA2 4BQ,51.383149580000000,-2.357218768000000
No15 Great Pulteney,BA2 4BS,51.384595770000000,-2.354744034000000
Framptons,BA2 4DF,51.382302320000000,-2.357887522000000
Dexter's coffee shop,BA2 4EN,51.382669730000000,-2.349369365000000
The Bird Bath,BA2 4EZ,51.382816000000000,-2.351811615000000
Ring O Bells,BA2 4JT,51.376378650000000,-2.354321287000000
Mús Coffee House,BA2 4LD,51.376674020000000,-2.354768961000000
Widcombe Deli ,BA2 4LD,51.376674020000000,-2.354768961000000
The Hub,BA2 5BU,51.360733000000000,-2.353811000000000
THE CROSS KEYS INN,BA2 5RZ,51.355827820000000,-2.364660469000000
Bath Golf Club,BA2 6JG,51.382213180000000,-2.339508613000000
The Roseate Villa Bath,BA2 6LX,51.386904440000000,-2.355595000000000
The barley mow ,BA2 6NZ,51.386734770000000,-2.352102019000000
The Rising Sun Inn,BA2 6PJ,51.384362330000000,-2.357587464000000
The American Museum in Britain,BA2 7BD,51.375118000000000,-2.311312818000000
The Packhorse Inn,BA2 7DU,51.349455000000000,-2.364280000000000
The Wheatsheaf Inn,BA2 7EG,51.337910410000000,-2.383381128000000
Limpley Stoke Hotel,BA2 7FZ,51.346932820000000,-2.315915635000000
Wheelwrights Arms,BA2 7HB,51.356449040000000,-2.327915242000000
Combe Grove Manor,BA2 7HS,51.361260000000000,-2.328064000000000
At The Manor,BA2 7NE,51.301731240000000,-2.328959294000000
Farleigh Road Farm Shop & Cafe,BA2 7NG,51.307796780000000,-2.310654233000000
The Rose & Crown,BA2 7SN,51.322438990000000,-2.329078822000000
Homewood,BA2 7TB,51.336386410000000,-2.318900667000000
The Meeting Place Coffee Shop,BA2 8DH,51.315031280000000,-2.428616766000000
Waggon and Horses,BA2 8DL,51.315510300000000,-2.427946858000000
Newton Farm Foods Ltd,BA2 9BT,51.381610470000000,-2.427456974000000
The Ring O' Bells,BA2 9EE,51.343034460000000,-2.439990380000000
Darwin Bath Mill Limited,BA2 9JF,51.382008330000000,-2.409211842000000
Jacarandas Limited,BA3 2DA,51.285990030000000,-2.481472000000000
Costa Coffee,BA3 2DT,51.286335440000000,-2.482494645000000
Longfellow's Cafe,BA3 3AL,51.282981000000000,-2.471937387000000
Subway ,BA3 3PT,51.292038000000000,-2.446128000000000
Castello,BA3 3PZ,51.291985380000000,-2.447791140000000
Best Western Plus Centurion Hotel,BA3 4BD,51.276469150000000,-2.472011792000000
porkys cafe,BA3 4BH,51.277379380000000,-2.467017679000000
THE REDAN INN,BA3 4HA,51.261590690000000,-2.503618173000000
Holy Cow cafe,BA3 4HP,51.270279770000000,-2.507110435000000
Somerset Wagon,BA3 4JW,51.259902820000000,-2.515408549000000
The Waldegrave Arms,BA3 4LL,51.275170460000000,-2.579001349000000
The Litton,BA3 4PW,51.288821640000000,-2.582327917000000
The White Post Inn,BA3 4QA,51.271419300000000,-2.479973104000000
The kings arms,BA3 4RA,51.253826700000000,-2.491869328000000
The old down inn,BA3 4SA,51.259757520000000,-2.533779350000000
Horse and Jockey,BA3 4UH,51.240480920000000,-2.548869626000000
The Oakhill Inn,BA3 5HU,51.222804870000000,-2.520864945000000
The Bell Inn,BA3 5QQ,51.223493360000000,-2.443259504000000
The Jolliffe Arms,BA3 5TD,51.268509000000000,-2.435981000000000
Waggon & Horses,BA4 4LA,51.208917650000000,-2.503200612000000
The Well Inn Shepton Ltd,BA4 4LY,51.175286990000000,-2.535706833000000
Charlton House,BA4 4PR,51.184577000000000,-2.525885000000000
THE POACHERS POCKET,BA4 4PY,51.193757000000000,-2.503608000000000
Sweet11,BA4 5AN,51.190250080000000,-2.547285063000000
The Hive,BA4 5AQ,51.189215520000000,-2.547387276000000
Shepton Brasserie & Cafe Bar Ltd,BA4 5AX,51.188725620000000,-2.547868000000000
THE CHEEKY BEAN,BA4 5AZ,51.190668180000000,-2.546489000000000
LOAF,BA4 5BE,51.191556530000000,-2.546728149000000
Harlequin Cafe,BA4 5NF,51.190376000000000,-2.535882000000000
Pantry Restaurant,BA4 5NF,51.190376000000000,-2.535882000000000
Subway,BA4 5SB,51.188449000000000,-2.550097000000000
Wookey Hole Ltd,BA5 1BB,51.227223620000000,-2.671843839000000
The Wookey Hole Inn,BA5 1BP,51.224780870000000,-2.671307051000000
The Good Earth Natural Foods Ltd,BA5 1SY,51.207048000000000,-2.649104562000000
THE FULL MOON,BA5 1UH,51.205094250000000,-2.649549455000000
City Arms Ltd,BA5 2AG,51.208085340000000,-2.648517917000000
Strangers with Coffee,BA5 2AW,51.207944510000000,-2.651207167000000
Pickwicks Country Kitchen ,BA5 2DJ,51.207772940000000,-2.648098392000000
Daniel's Cafe and Sandwich Bar,BA5 2DP,51.207660440000000,-2.648927080000000
New Rajah spice tandoori ,BA5 2DP,51.207660440000000,-2.648927080000000
Loaf. Bakehouse,BA5 2DS,51.207715670000000,-2.650316410000000
The Bishop's Table,BA5 2PD,51.209288250000000,-2.642364856000000
Nosh-Stalgia ,BA5 2PU,51.208996080000000,-2.648058306000000
Bishop's Eye,BA5 2RB,51.209275730000000,-2.644640839000000
Wells Cathedral Cafe,BA5 2RE,51.209618030000000,-2.644531095000000
Twentyone cafe & kitchen,BA5 2RF,51.209595710000000,-2.645318139000000
The Crown at Wells,BA5 2RP,51.209190700000000,-2.645384054000000
Thai Dragon ,BA5 2RR,51.209759750000000,-2.646408000000000
The courtyard restaurant (Wells) LTD,BA5 2RR,51.209759750000000,-2.646408000000000
Swan Hotel Wells ,BA5 2RX,51.209588280000000,-2.646663697000000
J & N Rossi Ltd T/A Ancient Gatehouse Hotel,BA5 2SE,51.209628280000000,-2.645934164000000
The Fountain Inn,BA5 2UU,51.212085540000000,-2.640585618000000
Wells (Somerset) Golf Club Ltd,BA5 3DS,51.227053000000000,-2.590441000000000
Cheese Yard Café,BA5 3ED,51.226076630000000,-2.613571000000000
The Britannia Inn ,BA5 3LQ,51.212582000000000,-2.628882000000000
The George Inn,BA5 3QH,51.196876500000000,-2.590328000000000
Riverside Inn,BS31 3EZ,51.399379000000000,-2.449271000000000
THE RISING SUN,BS39 4AQ,51.371390036004900,-2.549572223562570
Carpenters Arms,BS39 4BX,51.356473466031100,-2.553228083104970
Travellers Rest,BS39 4JF,51.377086092366000,-2.552485263081140
The Compton Inn,BS39 4JZ,51.378003000000000,-2.511217000000000
RAILWAY INN,BS39 5PD,51.330455387665600,-2.538834377932990
The Hunters Rest Inn,BS39 5QL,51.338342223825800,-2.527988000000000
The Red Lion,BS39 5UT,51.335163551752200,-2.593494443571930
The old station Inn,BS39 6EN,51.311853831600100,-2.528415434917380
THE STAR INN,BS39 6HX,51.322879869921200,-2.509699685153420
The Haynes ,BS39 6JH,51.325482240526200,-2.510905373059320
The Farrington Inn,BS39 6TG,51.299535859123500,-2.534169082217040
Farrington Golf and Country Club Limited,BS39 6TS,51.290481882267700,-2.528040907311800
Farrington's Farm Shop,BS39 6UB,51.297814265769100,-2.529143413820750
LA CAMPAGNA BAR & RESTAURANT LIMITED,BS39 7RJ,51.300858058594100,-2.495226521901860
The Castle of Comfort,BS40 6DD,51.274547069648100,-2.654628750847280
The Blue Bowl,BS40 6HJ,51.316483961714200,-2.636945317872700
Stable Tea Rooms Limited,BS40 6HW,51.322471990462600,-2.611756782911220
Ring O' Bells,BS40 6JE,51.311297108087900,-2.657979000000000
The Prince of Waterloo,BS40 8AR,51.383314646486300,-2.662258346897810
The Crown Inn,BS40 8AY,51.370797963528800,-2.662278805044480
The Bear and Swan,BS40 8SL,51.365550000000000,-2.610607000000000
The Pelican,BS40 8SL,51.365550000000000,-2.610607000000000
THE WOODFORD LODGE CO LTD,BS40 8XH,51.343595947775800,-2.624973978783730
The Dundry Inn,BS41 8LH,51.398768000000000,-2.635457000000000
The Carpenters Tavern,BS41 8NE,51.394435413999600,-2.626672884031400
