name,postcode,lat,lon
pit viper and Treepie,BA1 0GL,51.378856590000000,-2.355561725000000
Parakeet and smooth snake,BA1 0HE,51.378856590000000,-2.355561725000000
Booted eagles and constrictor,BA1 0SA,51.382047790000000,-2.358790792000000
Myna and harlequin snake,BA1 0SJ,51.382047790000000,-2.358790792000000
Maya and crocodile,BA1 1AU,51.379272000000000,-2.358439000000000
Herring gull and cobra,BA1 1BZ,51.383821780000000,-2.360859542000000
Petrel and boa,BA1 1EQ,51.381338370000000,-2.361530000000000
hognose snake and water snake,BA1 1JP,51.378178650000000,-2.356734641000000
Darwin's finches and Puffleg,BA1 1PF,51.378707220000000,-2.357370949000000
bearded dragon and Towhee,BA1 1QE,51.380489180000000,-2.359784404000000
Chipmunk and boa constrictor,BA1 1QP,51.379518000000000,-2.357275699000000
Kite and Crow,BA1 1UX,51.380376320000000,-2.364295269000000
blue tongue and Fox,BA1 2AU,51.383224960000000,-2.367579000000000
terrapin and Puffleg,BA1 2ER,51.386291990000000,-2.364572200000000
cycling lizard and crocodile,BA1 2LN,51.386307640000000,-2.365319590000000
Nukupuʻu and soft-shelled turtle,BA1 2NE,51.383426650000000,-2.366489312000000
sand viper and Snipe,BA1 2PR,51.387429280000000,-2.366061441000000
horned viper and diamond python,BA1 2QA,51.387561570000000,-2.364007460000000
gopher snake and snapping turtle,BA1 2RD,51.388229620000000,-2.363150499000000
Fish eagle and Pitohui,BA1 2US,51.394557430000000,-2.378091143000000
tortoise and Magpie,BA1 2XY,51.389815090000000,-2.379244872000000
constrictor and jew lizard,BA1 3AJ,51.384482410000000,-2.373840781000000
blindworm and Cuscus,BA1 3BB,51.385405230000000,-2.380458604000000
gecko and Petrel,BA1 3BR,51.386877890000000,-2.383819192000000
iguana and skink,BA1 3EY,51.383712850000000,-2.383807068000000
Pitohui and box turtle,BA1 3HE,51.384294030000000,-2.387533729000000
Mockingbird and Grouse,BA1 3HF,51.384078640000000,-2.390291000000000
Fox and slowworm,BA1 3HQ,51.384189400000000,-2.394631545000000
horned toad and jew lizard,BA1 3JP,51.384322380000000,-2.397851543000000
diamondback and black snake,BA1 3NF,51.388644950000000,-2.390689000000000
cobra and Ice seal,BA1 3PD,51.388275380000000,-2.388127856000000
Dolphin and Moluccan boobook,BA1 3PF,51.393776280000000,-2.388734974000000
Pratincole and Ground sloth,BA1 4AT,51.394049160000000,-2.387788675000000
Magpie and Pitohui,BA1 4DA,51.396390250000000,-2.389518948000000
Ground sloth and Viscacha,BA1 4DQ,51.397892180000000,-2.394792645000000
green turtle and snapping turtle,BA1 4HT,51.399018500000000,-2.391669000000000
Ground sloth and massasauga,BA1 4JD,51.399924140000000,-2.394838899000000
leathery turtle and Old World vulture,BA1 5BL,51.388440540000000,-2.358898307000000
glass snake and diamond snake,BA1 5BW,51.387530820000000,-2.359408536000000
Skunk and carpet snake,BA1 5EL,51.390298410000000,-2.363109000000000
Maya and bull snake,BA1 5PS,51.393095550000000,-2.362686008000000
Chicken and Old World vulture,BA1 5QT,51.393663570000000,-2.362187455000000
Polecat and Night heron,BA1 5RF,51.398741130000000,-2.368825427000000
Pheasant and Mole,BA1 5SP,51.393052240000000,-2.361851000000000
rock snake and River dolphin,BA1 5TA,51.397822320000000,-2.366489429000000
tiger snake and Black cockatoo,BA1 5UB,51.389236710000000,-2.357294942000000
python and grass snake,BA1 6AA,51.390274580000000,-2.356038319000000
Kestrel and taipan,BA1 6AR,51.393238680000000,-2.348113263000000
Skunk and cobra de capello,BA1 6BQ,51.394404770000000,-2.342976577000000
Coati and smooth snake,BA1 6EJ,51.395201400000000,-2.353273802000000
tortoise and Parrotlet,BA1 6HE,51.395577920000000,-2.356611332000000
giant tortoise and Pratincole,BA1 6HP,51.397569860000000,-2.357992364000000
Hawaiian honeycreeper and gaboon viper,BA1 6HS,51.396911550000000,-2.358619669000000
giant tortoise and Chicken,BA1 6JX,51.398203240000000,-2.353728169000000
cobra and cycling lizard,BA1 6NB,51.397581620000000,-2.351136047000000
horned toad and sand viper,BA1 6NL,51.399667820000000,-2.359978084000000
Stilt and garter snake,BA1 6NY,51.399475290000000,-2.349324982000000
sidewinder and Schneider python,BA1 6QX,51.397290210000000,-2.346664000000000
Parrotlet and Dolphin,BA1 6QZ,51.397601040000000,-2.347643308000000
Badger and milk snake,BA1 6RP,51.396241990000000,-2.345045751000000
Mockingbird and habu,BA1 7TJ,51.398726050000000,-2.294811661000000
tortoise and blind snake,BA11 1DA,51.231120250000000,-2.325003554000000
saltwater crocodile and fer-de-lance,BA11 1DT,51.230783600000000,-2.323182289000000
Parrotbill and Asiatic leopard,BA11 1FL,51.223426000000000,-2.314454999000000
garter snake and hawksbill,BA11 1HB,51.226573750000000,-2.327005042000000
bushmaster and indigo snake,BA11 1HD,51.227260810000000,-2.328900272000000
flying lizard and hognose snake,BA11 1HG,51.227589000000000,-2.331051000000000
sea snake and Pheasant,BA11 1QR,51.227971000000000,-2.315916091000000
Skunk and Treepie,BA11 1QZ,51.228022380000000,-2.310159352000000
Francolin and Jay,BA11 2AJ,51.232830840000000,-2.310993772000000
skink and Tahr,BA11 2BY,51.236231400000000,-2.300044785000000
monitor and Prion,BA11 2EB,51.234211270000000,-2.315958859000000
gecko and Grouse,BA11 2EX,51.235248020000000,-2.297803939000000
Tit-tyrant and Stilt,BA11 2HN,51.240611490000000,-2.313366933000000
cycling lizard and harlequin snake,BA11 2JE,51.240118000000000,-2.316787000000000
Chipmunk and Wader,BA11 2LB,51.238758200000000,-2.323624968000000
blind snake and chameleon,BA11 2LG,51.238523160000000,-2.320815737000000
Dorcopsis and Siskin,BA11 2LN,51.238489910000000,-2.323093082000000
Black cockatoo and box turtle,BA11 2LP,51.238547920000000,-2.315014531000000
sea snake and Guillemot,BA11 2QD,51.259739690000000,-2.353509184000000
Guillemot and bicycle lizard,BA11 2RE,51.271393120000000,-2.370943550000000
Elephant and diamondback,BA11 2SU,51.240724830000000,-2.321303792000000
garter snake and Booted eagles,BA11 2UT,51.242831720000000,-2.303425656000000
Pitohui and tree snake,BA11 2XH,51.239423510000000,-2.296527378000000
Kite and python,BA11 3AU,51.234243160000000,-2.324022959000000
Thrasher and Civet,BA11 3EA,51.233624000000000,-2.330364000000000
Elephant and giant tortoise,BA11 3EY,51.233375610000000,-2.335131346000000
taipan and boa,BA11 3JL,51.233804270000000,-2.345418324000000
B and moloch,BA11 3ND,51.235334980000000,-2.338554561000000
constrictor and cayman,BA11 3PU,51.239281030000000,-2.393590150000000
sea snake and king cobra,BA11 4AL,51.224902850000000,-2.323198350000000
Hawk and mountain devil,BA11 4AP,51.223813380000000,-2.323720547000000
Diving bird and lizard,BA11 4HD,51.223455770000000,-2.332596257000000
Stint and asp,BA11 4HG,51.225439680000000,-2.336892345000000
king snake and Perching duck,BA11 4HU,51.224930250000000,-2.332664173000000
horned viper and hognose snake,BA11 4JH,51.228620300000000,-2.334853000000000
Partridge and agama,BA11 4JN,51.227271000000000,-2.332094738000000
Rabbit and iguana,BA11 4JS,51.228808290000000,-2.331775586000000
blind snake and Bunting,BA11 4LS,51.229297010000000,-2.333827081000000
blue tongue and Magpie,BA11 4RD,51.224511110000000,-2.328250577000000
mountain devil and carpet snake,BA11 5AZ,51.221783870000000,-2.319482138000000
diamondback and Solitaire,BA11 5BS,51.209543000000000,-2.336876000000000
copperhead and Grosbeak,BA11 5EH,51.210940500000000,-2.322427678000000
cycling lizard and Puffleg,BA11 5EP,51.200181000000000,-2.325984000000000
Warbler and thorny devil,BA11 5FD,51.224126000000000,-2.302984000000000
Masked owl and Recurvebill,BA11 5JT,51.231341910000000,-2.299225240000000
Maya and rock snake,BA11 6AN,51.265565000000000,-2.279737000000000
Civet and rock python,BA11 6AQ,51.265251000000000,-2.279448000000000
fer-de-lance and racer,BA11 6AS,51.266396000000000,-2.289030000000000
Black jay and Hawaiian honeycreeper,BA11 6NT,51.283166990000000,-2.282772054000000
horned toad and Old World vulture,BA11 6PU,51.284642460000000,-2.282436994000000
rock python and Armadillo,BA11 6SH,51.270537000000000,-2.289030000000000
Parrotbill and galliwasp,BA11 6TN,51.263159000000000,-2.272602000000000
Black jay and Elephant,BA11 6TR,51.265615950000000,-2.282348916000000
leguaan and Gila monster,BA15 1NZ,51.347684890000000,-2.262651201000000
ringhals and rock python,BA15 2AS,51.330107650000000,-2.281309895000000
Night heron and giant tortoise,BA15 2BT,51.331859400000000,-2.278234635000000
brown snake and Skunk,BA15 2JD,51.360118270000000,-2.282872638000000
snapping turtle and tree snake,BA15 2LT,51.346322350000000,-2.287640605000000
deaf adder and diamond snake,BA15 2PY,51.377114000000000,-2.290089000000000
Chickadee and tokay,BA2 0AD,51.341472000000000,-2.483031000000000
wall lizard and goanna,BA2 0EA,51.334053000000000,-2.440105000000000
Songlark and gopher snake,BA2 0ER,51.323393570000000,-2.481821630000000
Mouse and asp,BA2 0EY,51.319678000000000,-2.484724000000000
B and tuatara,BA2 0HB,51.324659150000000,-2.480184503000000
Logrunners and Prion,BA2 0HD,51.326726000000000,-2.480493138000000
Quetzal and bearded dragon,BA2 0HW,51.323086650000000,-2.479924110000000
anole and ringhals,BA2 0JR,51.329072680000000,-2.471690804000000
milk snake and Dolphin,BA2 0LA,51.326884170000000,-2.474782713000000
Mamo and Gila monster,BA2 0LF,51.325233300000000,-2.478310463000000
saltwater crocodile and Magpie,BA2 0LX,51.326241120000000,-2.475924210000000
copperhead and Myna,BA2 0NE,51.326379000000000,-2.466554000000000
Guillemot and Maya,BA2 0NP,51.326972080000000,-2.459513115000000
Snipe and Armadillo,BA2 0NX,51.324670780000000,-2.459360942000000
krait and Pheasant,BA2 0PB,51.319854400000000,-2.458537919000000
garter snake and Tree warbler,BA2 0PX,51.314956580000000,-2.453223265000000
viper and constrictor,BA2 0QD,51.319687600000000,-2.459799028000000
garter snake and Armadillo,BA2 1AA,51.375940000000000,-2.382290929000000
Armadillo and leathery turtle,BA2 1AR,51.373436160000000,-2.386292673000000
turtle and American sparrow,BA2 1DJ,51.378716600000000,-2.396366099000000
Tahr and Hawaiian honeycreeper,BA2 1HY,51.369145640000000,-2.392146248000000
Vole and harlequin snake,BA2 1JD,51.370026570000000,-2.392225605000000
Hawaiian honeycreeper and puff adder,BA2 1JY,51.369860220000000,-2.396232116000000
blue tongue and soft-shelled turtle,BA2 1QH,51.378051540000000,-2.401547171000000
White ibis and Nukupuʻu,BA2 1QS,51.378317880000000,-2.402684000000000
frill-necked lizard and fer-de-lance,BA2 1RE,51.377797170000000,-2.402493000000000
harlequin snake and Booted eagles,BA2 1RL,51.380561570000000,-2.398522982000000
American sparrow and copperhead,BA2 1SU,51.381758420000000,-2.400875544000000
diamondback terrapin and Bunting,BA2 2AY,51.365006530000000,-2.373796988000000
Moluccan boobook and flying dragon,BA2 2DE,51.369116280000000,-2.373629361000000
mountain devil and harlequin snake,BA2 2DZ,51.354169630000000,-2.374383671000000
gecko and Mole,BA2 2EP,51.367547380000000,-2.388771264000000
Masked owl and gavial,BA2 2ER,51.366695780000000,-2.390688873000000
agamid and iguana,BA2 2HE,51.370556690000000,-2.381455960000000
alligator and agamid,BA2 2HY,51.371176040000000,-2.379018931000000
sand viper and boa constrictor,BA2 2LZ,51.365525830000000,-2.388294487000000
chameleon and frill-necked lizard,BA2 2PG,51.362461630000000,-2.379464018000000
monitor and Darwin's finches,BA2 2RJ,51.370859570000000,-2.401139441000000
Grosbeak and goanna,BA2 2SA,51.356167890000000,-2.382083141000000
New World blackbird and Jerboa,BA2 2SN,51.360989930000000,-2.384076597000000
Schneider python and rattlesnake,BA2 2SU,51.354753650000000,-2.382861202000000
Rat and python,BA2 2TQ,51.359213790000000,-2.380026006000000
Fox and Zebra,BA2 3EG,51.378160610000000,-2.365498944000000
Eagle and leguaan,BA2 3FL,51.382545152498700,-2.373911493980250
Tattler and massasauga,BA2 3GF,51.380783000000000,-2.374269000000000
Grackle and Towhee,BA2 3HP,51.377268580000000,-2.371799239000000
Zebra and box turtle,BA2 3HT,51.376362620000000,-2.373932635000000
Recurvebill and Jay,BA2 3NR,51.373096000000000,-2.375055000000000
New World blackbird and frill-necked lizard,BA2 3PG,51.377432020000000,-2.376929839000000
death adder and Tree warbler,BA2 3PQ,51.377635070000000,-2.378095298000000
Dolphin and Gull,BA2 3QA,51.376248660000000,-2.381388359000000
Marmoset and loggerhead,BA2 3RJ,51.379733160000000,-2.379937387000000
amethystine python and amphisbaena,BA2 3WW,51.378856590000000,-2.355561725000000
Duck and Kākāriki,BA2 3WY,51.378856590000000,-2.355561725000000
cobra and crocodile,BA2 4AA,51.380174190000000,-2.356936956000000
diamondback and box turtle,BA2 4BX,51.385267220000000,-2.352737406000000
skink and Stilt,BA2 4HN,51.379633360000000,-2.351429649000000
Tahr and Piping shrike,BA2 4JB,51.378692670000000,-2.353275926000000
Linsang and Boto,BA2 4LD,51.376674020000000,-2.354768961000000
Pitohui and Peafowl,BA2 4NB,51.372110070000000,-2.350510044000000
Tree warbler and fer-de-lance,BA2 4PH,51.373880710000000,-2.353741693000000
iguana and hoop snake,BA2 4PL,51.375177000000000,-2.353637000000000
tiger snake and copperhead,BA2 4PR,51.376272750000000,-2.359564551000000
Old World warbler and Booted eagles,BA2 4QJ,51.374187280000000,-2.365179947000000
diamondback turtle and Stilt,BA2 4RS,51.373051660000000,-2.366032887000000
Shearwater and Polecat,BA2 5EA,51.362486000000000,-2.353753000000000
Vulture and Meadowlark,BA2 5ES,51.360434370000000,-2.342909326000000
adder and bushmaster,BA2 5HQ,51.361316380000000,-2.342628664000000
hognose snake and rock snake,BA2 5JR,51.358578000000000,-2.344863000000000
hawksbill and Ground sloth,BA2 5LW,51.357993290000000,-2.368023935000000
blind snake and elapid,BA2 5LX,51.364531410000000,-2.364787091000000
diamond snake and taipan,BA2 5LY,51.366515750000000,-2.365693455000000
Solitaire and leathery turtle,BA2 5NX,51.362924520000000,-2.361039892000000
Egret and wall lizard,BA2 5QE,51.360218870000000,-2.360760083000000
Marsh harrier and gecko,BA2 5QU,51.358062410000000,-2.360254835000000
Mouse and Mink,BA2 5QZ,51.362467370000000,-2.360576678000000
amphisbaena and Boto,BA2 5RA,51.362765590000000,-2.360090675000000
anaconda and gecko,BA2 5RF,51.355998840000000,-2.371095000000000
Elephant and puff adder,BA2 5SB,51.354379480000000,-2.361977909000000
mountain devil and Chickadee,BA2 6BP,51.382555450000000,-2.348491966000000
frilled lizard and amethystine python,BA2 6EE,51.374336970000000,-2.333071477000000
Bunting and Meadowlark,BA2 6EF,51.373233950000000,-2.332029087000000
pit viper and agama,BA2 6ET,51.377171210000000,-2.332416783000000
dugite and Night heron,BA2 6HU,51.386499120000000,-2.343650328000000
hognose snake and Mole,BA2 6JG,51.382213180000000,-2.339508613000000
black snake and harlequin snake,BA2 6JW,51.384945780000000,-2.342891442000000
Kestrel and Booted eagles,BA2 6LP,51.384941110000000,-2.356499853000000
Jerboa and bicycle lizard,BA2 6NU,51.387108170000000,-2.347506251000000
Snipe and Logrunners,BA2 6QS,51.390671640000000,-2.346298000000000
Gila monster and Perching duck,BA2 6RG,51.388117120000000,-2.343820538000000
Grouse and copperhead,BA2 6RX,51.391645990000000,-2.326672283000000
Gull and Booted eagles,BA2 6SY,51.395892450000000,-2.322562989000000
Ground sloth and amphisbaena,BA2 7AW,51.368035600000000,-2.316204591000000
Tree warbler and blue racer,BA2 7DD,51.344695690000000,-2.343983438000000
leguaan and Tahr,BA2 7DE,51.343833000000000,-2.341062000000000
Linsang and Stilt,BA2 7FL,51.351322800000000,-2.311810304000000
Pratincole and Puffleg,BA2 7GA,51.346938320000000,-2.317207907000000
smooth snake and frilled lizard,BA2 7GN,51.343916800000000,-2.317316246000000
gecko and cobra,BA2 7GU,51.347438220000000,-2.321834739000000
massasauga and Kākāriki,BA2 7HJ,51.358857240000000,-2.328478202000000
Parakeet and Dorcopsis,BA2 7HX,51.359583400000000,-2.316203792000000
caiman and giant tortoise,BA2 7RB,51.282526000000000,-2.338357000000000
sidewinder and Thrasher,BA2 7RF,51.272742720000000,-2.338026850000000
python and skink,BA2 7SS,51.321985530000000,-2.330453210000000
Hawk and thorn lizard,BA2 7TH,51.319757000000000,-2.317341699000000
sand viper and Prion,BA2 7WN,51.332347890000000,-2.298921123000000
Herring gull and bandy-bandy,BA2 7WX,51.339483210000000,-2.300532356000000
Fulmarine petrel and frill-necked lizard,BA2 8AP,51.321565070000000,-2.439196452000000
bandy-bandy and rock snake,BA2 8ER,51.318578490000000,-2.424933363000000
Dorcopsis and indigo snake,BA2 8HU,51.311550000000000,-2.424367981000000
Greenbul and bicycle lizard,BA2 8JQ,51.311980760000000,-2.431687340000000
Warbler and Diving bird,BA2 8ND,51.304385200000000,-2.405852571000000
Petrel and Fox,BA2 8PJ,51.320210630000000,-2.416137645000000
gavial and Solitaire,BA2 8QZ,51.323753400000000,-2.376288446000000
Perching duck and asp,BA2 8SW,51.317624090000000,-2.417793066000000
Quetzal and snapping turtle,BA2 8TB,51.313774170000000,-2.423195908000000
king cobra and elapid,BA2 8TH,51.316742820000000,-2.417813753000000
gopher snake and soft-shelled turtle,BA2 9AF,51.388295040000000,-2.440999424000000
gavial and Jay,BA2 9AX,51.385259470000000,-2.442421619000000
Thrasher and Cloud rat,BA2 9BX,51.381904940000000,-2.425606100000000
bull snake and B,BA2 9HA,51.385570310000000,-2.459769564000000
amethystine python and Rabbit,BA2 9HJ,51.351747960000000,-2.463178660000000
Kākāriki and Cloud rat,BA2 9JG,51.358362160000000,-2.481930089000000
Mouse and Warbler,BA3 2AW,51.289973740000000,-2.472308056000000
Stint and anaconda,BA3 2BL,51.293785090000000,-2.477036896000000
anaconda and hawksbill,BA3 2DF,51.288105500000000,-2.478440682000000
perentie and Mole,BA3 2DR,51.286981510000000,-2.480637282000000
fer-de-lance and Gila monster,BA3 2EP,51.288998750000000,-2.486423091000000
Kangaroo and wall lizard,BA3 2EZ,51.285749000000000,-2.481026000000000
Nukupuʻu and flying dragon,BA3 2FJ,51.285493370000000,-2.496781857000000
python and viper,BA3 2JF,51.284187500000000,-2.490874575000000
green turtle and bull snake,BA3 2LB,51.278127070000000,-2.499354661000000
flying dragon and Minke whale,BA3 2LL,51.283645130000000,-2.493693472000000
Thrasher and cobra,BA3 2NA,51.280564040000000,-2.497201794000000
Coati and Myna,BA3 2NY,51.278704880000000,-2.494572389000000
Tree warbler and box turtle,BA3 2PR,51.278624670000000,-2.490127082000000
crocodile and Piping shrike,BA3 2PX,51.278230030000000,-2.492029674000000
Kangaroo and Thicketbird,BA3 2RE,51.285436630000000,-2.495318662000000
bandy-bandy and blind snake,BA3 2SA,51.289203570000000,-2.495473931000000
Old World quail and thorny devil,BA3 2UF,51.277445360000000,-2.486143301000000
Thicketbird and Coati,BA3 3AA,51.292865670000000,-2.448029170000000
Pratincole and diamond snake,BA3 3AB,51.292702216370100,-2.447482911612330
leguaan and box turtle,BA3 3AP,51.293370670000000,-2.447646867000000
Minke whale and Pratincole,BA3 3BD,51.299357210000000,-2.457472955000000
Schneider python and anole,BA3 3DB,51.301964400000000,-2.459880020000000
B and sand viper,BA3 3DT,51.300852760000000,-2.454418251000000
lizard and diamond python,BA3 3EA,51.302362390000000,-2.454677019000000
swift and Grackle,BA3 3EL,51.282753770000000,-2.460906788000000
Perching duck and Myna,BA3 3EP,51.293060410000000,-2.446482195000000
monitor and Black cockatoo,BA3 3EX,51.284475160000000,-2.459905978000000
milk snake and Elephant,BA3 3HQ,51.296079150000000,-2.447142556000000
Jackal and Old World vulture,BA3 3JL,51.296594970000000,-2.441539654000000
Bronzewing pigeon and Quetzal,BA3 3JS,51.294645700000000,-2.441018979000000
viper and Puffleg,BA3 3JX,51.291808290000000,-2.442339835000000
Marmoset and Perching duck,BA3 3LZ,51.290611210000000,-2.428145446000000
Fish eagle and habu,BA3 3NE,51.292131000000000,-2.426123000000000
Elephant and Chickadee,BA3 3NS,51.288957460000000,-2.437666232000000
flying dragon and Kākāriki,BA3 3NW,51.289386810000000,-2.435863444000000
frill-necked lizard and Tree warbler,BA3 3PT,51.292038000000000,-2.446128000000000
Black jay and Partridge,BA3 3QF,51.291467710000000,-2.446782239000000
Bronzewing pigeon and carpet snake,BA3 3RQ,51.292216580000000,-2.448467424000000
gopher snake and Coati,BA3 3TF,51.287153050000000,-2.462614238000000
Philippine hawk-owl and Argus,BA3 3XL,51.287079820000000,-2.469711575000000
sand viper and Macaw,BA3 3YH,51.283627590000000,-2.462779539000000
cycling lizard and Vulture,BA3 4AQ,51.279216720000000,-2.475208464000000
taipan and wall lizard,BA3 4AS,51.275164050000000,-2.474550190000000
chuckwalla and Asiatic leopard,BA3 4BG,51.280471830000000,-2.473916710000000
Magpie and hognose snake,BA3 4DB,51.281994000000000,-2.543859000000000
B and cayman,BA3 4DN,51.278211680000000,-2.537104385000000
New World blackbird and Pheasant,BA3 4DQ,51.281334000000000,-2.542689000000000
milk snake and leguaan,BA3 4ED,51.282412390000000,-2.510656565000000
Grouse and leguaan,BA3 4HS,51.268726340000000,-2.504527570000000
adder and Towhee,BA3 4LL,51.275170460000000,-2.579001349000000
Civet and Egret,BA3 4NE,51.266893000000000,-2.576704000000000
Prion and Petrel,BA3 4NG,51.276396780000000,-2.574658545000000
Perching duck and puff adder,BA3 4PE,51.290798650000000,-2.584374982000000
diamondback terrapin and Triller,BA3 4PJ,51.281509710000000,-2.588027910000000
Cuscus and horned toad,BA3 4PQ,51.281578620000000,-2.478143429000000
Ice seal and boa,BA3 4QT,51.255262720000000,-2.490365716000000
Flameback and gaboon viper,BA3 4QW,51.255527900000000,-2.493592729000000
Ibex and Black jay,BA3 4SE,51.253693720000000,-2.551921500000000
Masked owl and python,BA3 4SH,51.255998780000000,-2.566322017000000
Jay and Argus,BA3 4TS,51.241477210000000,-2.543480814000000
racer and adder,BA3 4TT,51.243253180000000,-2.542498938000000
Marsh harrier and diamondback turtle,BA3 4UF,51.244534450000000,-2.560636848000000
Stint and rock python,BA3 4UL,51.231623010000000,-2.569732095000000
hawksbill and Lemming,BA3 5AE,51.230449020000000,-2.512501327000000
Pheasant and Snipe,BA3 5AL,51.223795930000000,-2.524456109000000
Grosbeak and Jerboa,BA3 5AQ,51.224220450000000,-2.524031336000000
diamond snake and Asiatic leopard,BA3 5BA,51.229527480000000,-2.533586910000000
kabaragoya and sand lizard,BA3 5DD,51.240407150000000,-2.473117905000000
thorn lizard and krait,BA3 5EQ,51.247346170000000,-2.469335128000000
Stint and Kangaroo,BA3 5FH,51.223429450000000,-2.525969839000000
horned toad and Warbler,BA3 5GE,51.268322124589200,-2.436409678213330
galliwasp and leathery turtle,BA3 5JH,51.222180270000000,-2.490629671000000
Herring gull and soft-shelled turtle,BA3 5JX,51.217215000000000,-2.482716000000000
king snake and Jay,BA3 5LZ,51.237100810000000,-2.449635591000000
box turtle and Hawk,BA3 5NF,51.238099870000000,-2.449387498000000
Bronzewing pigeon and blindworm,BA3 5PH,51.246036320000000,-2.454923383000000
Solitaire and Komodo dragon,BA3 5QD,51.236682090000000,-2.464743184000000
Vole and Tahr,BA3 5QL,51.223501810000000,-2.443402783000000
thorn lizard and Logrunners,BA3 5QU,51.218872660000000,-2.454669769000000
Tit-tyrant and blue racer,BA3 5RH,51.241764370000000,-2.438650497000000
dukite and sea snake,BA3 5RP,51.241566340000000,-2.438705913000000
Dorcopsis and amphisbaena,BA3 5SQ,51.284624920000000,-2.434843307000000
Warbler and Tattler,BA3 5TG,51.269658180000000,-2.435992017000000
Flameback and Hawaiian honeycreeper,BA3 5UR,51.281075000000000,-2.391266000000000
Pratincole and carpet snake,BA3 5YF,51.294629080000000,-2.416092638000000
Kestrel and harlequin snake,BA4 4DN,51.185599010000000,-2.540018687000000
gopher snake and coral snake,BA4 4LF,51.210349970000000,-2.470161264000000
Coati and hawksbill,BA4 4LP,51.190816000000000,-2.562876048000000
Chicken and massasauga,BA4 4PJ,51.188338130000000,-2.504550327000000
mamba and gaboon viper,BA4 4PU,51.194406010000000,-2.517295978000000
constrictor and Francolin,BA4 4QN,51.188918770000000,-2.473205506000000
brown snake and Recurvebill,BA4 4QW,51.189124230000000,-2.475754636000000
Stilt and wall lizard,BA4 4RH,51.188593320000000,-2.475849329000000
hognose snake and deaf adder,BA4 4TQ,51.177853200000000,-2.407801307000000
loggerhead and diamondback terrapin,BA4 5AB,51.190459900000000,-2.546643618000000
blue tongue and habu,BA4 5BP,51.187592740000000,-2.546366435000000
Treepie and Pratincole,BA4 5DD,51.186830410000000,-2.549777136000000
cayman and Triller,BA4 5DR,51.186118020000000,-2.536662323000000
glass snake and Armadillo,BA4 5JL,51.194703240000000,-2.556368013000000
python and tortoise,BA4 5JQ,51.193300000000000,-2.558583000000000
Parrotlet and Fox,BA4 5LS,51.191366790000000,-2.543062581000000
agamid and glass snake,BA4 5NH,51.190959180000000,-2.543701725000000
B and chuckwalla,BA4 5NY,51.188820260000000,-2.543447599000000
Mink and cycling lizard,BA4 5PW,51.186007880000000,-2.535187300000000
Badger and Gila monster,BA4 5QB,51.182700880000000,-2.534734077000000
mamba and chuckwalla,BA4 5RE,51.185619000000000,-2.543768000000000
Wallaby and saltwater crocodile,BA4 5SW,51.184543440000000,-2.556116861000000
Stint and Treepie,BA4 5UG,51.187877250000000,-2.556586265000000
Ground sloth and turtle,BA4 9SR,51.187048690000000,-2.547332978000000
blue racer and grass snake,BA4 9TP,51.187048690000000,-2.547332978000000
adder and diamond snake,BA5 1DS,51.208650040000000,-2.645591222000000
Magpie and Triller,BA5 1GG,51.208261000000000,-2.646977000000000
Viscacha and Marmoset,BA5 1SQ,51.204549819918800,-2.648210927265900
elapid and smooth snake,BA5 1SX,51.200988000000000,-2.654003445487850
anaconda and ringhals,BA5 2DF,51.208841230000000,-2.658076861000000
Masked owl and Badger,BA5 2EN,51.205545770000000,-2.663626773000000
Rabbit and Parrotbill,BA5 2ES,51.204729100000000,-2.663343065000000
mountain devil and Maya,BA5 2FY,51.209269470000000,-2.663580000000000
elapid and Quetzal,BA5 2HN,51.206769210000000,-2.653953319000000
box turtle and thorny devil,BA5 2HP,51.206550190000000,-2.652919564000000
chameleon and Mouse,BA5 2HW,51.205912000000000,-2.651403451000000
Coati and Boto,BA5 2JR,51.201573700000000,-2.660020030000000
Stilt and smooth snake,BA5 2LQ,51.212101000000000,-2.646222795000000
constrictor and Parrotbill,BA5 2LS,51.214751190000000,-2.654695000000000
anole and dukite,BA5 2NF,51.213503890000000,-2.657227078000000
Jerboa and boomslang,BA5 2PG,51.210352520000000,-2.649924091000000
Greenbul and Maya,BA5 2PJ,51.209748740000000,-2.650158954000000
Kākāriki and massasauga,BA5 2PQ,51.209464760000000,-2.649482124000000
Argus and Grosbeak,BA5 2PT,51.209075900000000,-2.651495123000000
cycling lizard and Ice seal,BA5 2RL,51.208368930000000,-2.649266291000000
dukite and Grosbeak,BA5 2TF,51.214444330000000,-2.643338604000000
krait and monitor,BA5 2TN,51.213124400000000,-2.639712407000000
horned viper and Maya,BA5 2UA,51.210227000000000,-2.643582935000000
Ibex and bushmaster,BA5 2UW,51.211422190000000,-2.641850545000000
Fish eagle and American sparrow,BA5 2XX,51.211766550000000,-2.638075851000000
White ibis and turtle,BA5 3AW,51.235919570000000,-2.647806398000000
habu and Grackle,BA5 3FE,51.231709485856500,-2.598550123033880
horned viper and cobra de capello,BA5 3HL,51.215805690000000,-2.614235846000000
puff adder and Komodo dragon,BA5 3HR,51.213306850000000,-2.630953115000000
Ground sloth and Philippine hawk-owl,BA5 3JT,51.215715550000000,-2.632833002000000
Recurvebill and rock python,BA5 3LW,51.212867200000000,-2.630775305000000
Magpie and mamba,BS14 0UQ,51.399898674303200,-2.571116862654700
Tahr and Fulmarine petrel,BS31 3HP,51.398920703946300,-2.455749249048810
Treepie and chuckwalla,BS31 3HS,51.398118852425800,-2.456158128537890
Mamo and perentie,BS31 3HT,51.396676110069600,-2.454893251923740
Nukupuʻu and Black cockatoo,BS31 3JP,51.396674693958000,-2.452938404346620
boa constrictor and Wader,BS31 3LG,51.399975242984800,-2.468783316973540
Chicken and krait,BS39 4AX,51.366488815474100,-2.545879340716150
leathery turtle and flying lizard,BS39 4BX,51.356473466031100,-2.553228083104970
hoop snake and rock snake,BS39 4DQ,51.356890741141100,-2.578523495235190
thorny devil and Scimitar babbler,BS39 4EJ,51.365713724946600,-2.579927483408450
bandy-bandy and indigo snake,BS39 4EY,51.388635945250700,-2.570315495060720
Peafowl and elapid,BS39 4HB,51.381626800604700,-2.585818835997700
Buzzard and Dorcopsis,BS39 4HD,51.381247230297700,-2.586201951362050
alligator and Nukupuʻu,BS39 4JL,51.372808544072100,-2.565147973471060
fer-de-lance and snapping turtle,BS39 4JT,51.375028341266100,-2.524818303527840
Night heron and pit viper,BS39 4LF,51.371245427699800,-2.493184555103230
Minke whale and blue racer,BS39 4NW,51.355296351756500,-2.525727205131770
Flameback and Goose,BS39 5AJ,51.314375386665900,-2.573454373531670
boa constrictor and Eagle,BS39 5BH,51.318206948716800,-2.543067326033420
Diving bird and diamondback turtle,BS39 5DY,51.320037134448300,-2.538123899723570
smooth snake and crocodile,BS39 5PW,51.329494648854200,-2.530656368965100
bicycle lizard and Pratincole,BS39 5RQ,51.330687503340300,-2.545353000000000
frilled lizard and Greenbul,BS39 5RZ,51.332653727047600,-2.545663855136770
Gila monster and gavial,BS39 5TQ,51.333382531288000,-2.577266000000000
horned toad and Masked owl,BS39 5TZ,51.336016872003900,-2.595443374193790
bull snake and copperhead,BS39 5UD,51.333959123457200,-2.602206256005830
chameleon and Dorcopsis,BS39 5XB,51.332421764635200,-2.595124062808350
blind snake and amethystine python,BS39 5XJ,51.331623760370000,-2.599965209718310
slowworm and Solitaire,BS39 5XR,51.327996556910700,-2.609347361351830
goanna and diamond snake,BS39 6EU,51.309199780589800,-2.540550740168660
crocodile and Prion,BS39 6HJ,51.319484096408800,-2.504826194290870
Parrotlet and boa constrictor,BS39 6JF,51.323673219472700,-2.511287090224460
Old World vulture and Masked owl,BS39 6JN,51.326286699408000,-2.512005052301130
sea snake and Diving bird,BS39 6UN,51.295711927940300,-2.518706754641810
Scimitar babbler and Condor,BS39 6US,51.297307438811200,-2.529869064833070
hognose snake and kabaragoya,BS39 7AA,51.308541258085900,-2.506026218636790
habu and Partridge,BS39 7AE,51.307969137910000,-2.503996815683870
Nukupuʻu and Ibex,BS39 7LG,51.307416000000000,-2.503174602608180
Triller and Fox,BS39 7LW,51.306764925755300,-2.505920286628540
cycling lizard and indigo snake,BS39 7PH,51.307978035405300,-2.493466898871110
Jerboa and dukite,BS39 7QE,51.306923125353800,-2.502593814828560
Parrotbill and deaf adder,BS39 7RN,51.299841237207100,-2.495402040434350
adder and constrictor,BS39 7RQ,51.301914187234400,-2.496385427271300
Mink and saltwater crocodile,BS39 7RX,51.303829563475400,-2.504769103900530
Magpie and Marmoset,BS39 7SE,51.301002859088700,-2.492875682655760
Perching duck and carpet snake,BS39 7SP,51.292481454818100,-2.504701000000000
Philippine hawk-owl and amphisbaena,BS39 7YT,51.307517769112200,-2.497966000000000
tortoise and diamond snake,BS40 6AQ,51.294787668489900,-2.614873731811750
fer-de-lance and Wallaby,BS40 6EW,51.300200000000000,-2.652644000000000
Vole and diamond python,BS40 6HL,51.316665112313200,-2.636703897047640
alligator and Ice seal,BS40 6NB,51.311892561072100,-2.655863287279800
Mink and tree snake,BS40 6NJ,51.337065633218800,-2.643647410013140
Wader and slowworm,BS40 6XA,51.310744000000000,-2.655003000000000
Wallaby and anole,BS40 8AA,51.383663915895400,-2.662507676841630
Vole and viper,BS40 8AT,51.384294958610900,-2.663810093057120
jew lizard and Asiatic leopard,BS40 8BG,51.351679343190500,-2.665808367581720
Stint and Tahr,BS40 8EW,51.382461808608300,-2.660580000000000
Crow and Mockingbird,BS40 8EY,51.380967998148800,-2.660629510668070
Grouse and Moluccan boobook,BS40 8RG,51.366942877074000,-2.610539479660860
Songlark and Mouse,BS40 8SB,51.373864361910300,-2.618750000000000
frilled lizard and diamondback,BS40 8SU,51.363049778815800,-2.610473328730810
chuckwalla and hawksbill,BS40 8TG,51.352191005382700,-2.602890502120810
tortoise and leguaan,BS40 8TL,51.355933196868000,-2.593777265121510
Songlark and puff adder,BS40 8UY,51.352179819288700,-2.637268037468250
White ibis and Rabbit,BS40 8XL,51.351962437749300,-2.632583701243440
king snake and gopher snake,BS41 8NW,51.385891609106400,-2.613263000000000
