name,postcode,lat,lon
Mezbaan,BB10 1AS,53.7973,-2.2398
Samosa chaat ,BB10 1QX,53.7996,-2.2397
Cuppa Cake Limited ,BB10 2TP,53.7996,-2.2190
The Thornton,BB10 3JS,53.7877,-2.2076
Burnley Football CLub,BB10 4BX,53.7885,-2.2303
The Haven Community Home,BB10 4QR,53.7884,-2.2232
Kettledrum Inn,BB10 4RG,53.7716,-2.1927
Towneley Garden Centre,BB10 4SD,53.7837,-2.2070
Ellis’s ,BB11 1AP,53.7911,-2.2435
GRANADA CAFE,BB11 1AZ,53.7903,-2.2444
Siam Thai Cafe,BB11 1BB,53.7905,-2.2442
Astoria (Burnley) Ltd,BB11 1DR,53.7891,-2.2443
Mr Greens Diner Ltd,BB11 1DW,53.7888,-2.2439
Brambles tearooms,BB11 1EP,53.7885,-2.2438
Illuminati,BB11 1NA,53.7888,-2.2457
The Hideaway Bar & Kitchen,BB11 1NG,53.7890,-2.2405
Lancashire coffee ltd,BB11 1NH,53.7891,-2.2434
Quick Crepes Burnley,BB11 1NH,53.7890,-2.2435
RHODE ISLAND COFFEE LTD,BB11 1NH,53.7890,-2.2435
St James coffee House,BB11 1NL,53.7896,-2.2462
Starvin Marvin,BB11 1PP,53.7899,-2.2461
Costa Coffee,BB11 1QE,53.7893,-2.2431
McDonald's,BB11 1QL,53.7893,-2.2410
Salva Fast Food ,BB11 1QL,53.7893,-2.2408
Whats 4 Dessert,BB11 1RA,53.7894,-2.2540
Bannys Drive Thru,BB11 1TQ,53.7865,-2.2495
KFC BURNLEY 02032,BB11 1TQ,53.7865,-2.2494
KFC,BB11 1TQ,53.7865,-2.2494
Subway,BB11 1TQ,53.7877,-2.2505
The Bridge Bier Huis Ltd,BB11 1UH,53.7902,-2.2416
The Palazzo,BB11 2AS,53.7879,-2.2424
Ivy Joans Diner,BB11 2DB,53.7891,-2.2400
Aroma Asian Restaurant ,BB11 2DL,53.7919,-2.2393
Shimla spice,BB11 2DW,53.7917,-2.2384
Burger King,BB11 2EG,53.7842,-2.2473
star cafe ltd,BB11 2EQ,53.7881,-2.2399
Costa Coffee,BB11 2HE,53.7853,-2.2417
Rosehill House Hotel Limited,BB11 2PW,53.7801,-2.2531
The Boathouse ,BB11 2RU,53.7931,-2.2366
Lahori Kebabish,BB11 3AB,53.7878,-2.2358
Towneley Golf Club,BB11 3ED,53.7771,-2.2325
Dine Experience Limited,BB11 3RF,53.7690,-2.2232
Cramptons Catering,BB11 3RW,53.7717,-2.2517
Chocstop dessert cafe ,BB11 4HU,53.7853,-2.2488
zil mil,BB11 4HU,53.7853,-2.2488
BALLERO,BB11 4SB,53.7894,-2.2611
Barracks Starbucks,BB11 4SB,53.7890,-2.2606
New Waggonners ltd,BB11 5NS,53.7620,-2.2613
Holiday Inn Express Burnley M65 J10,BB12 0TJ,53.7939,-2.2565
The Old Library Waterfoot ,BB4 7AW,53.6920,-2.2502
The Hargreaves Arms Pub & Restaurant ,BB4 9PQ,53.7193,-2.2480
THE QUEENS HEAD,BD13 1NA,53.7779,-1.8685
Absolutely by CH&Co at Shibden Head Primary Academy,BD13 2ND,53.7636,-1.8536
Ring O Bells Inn Thornton,BD13 3QL,53.7947,-1.8646
WHITE HORSE INN,BD13 3SJ,53.7930,-1.8769
Emilys Eatery ,BD13 4EN,53.7952,-1.8930
The Waggon at Birtle,BL9 6UE,53.6048,-2.2389
The Church Inn,BL9 6UH,53.6060,-2.2596
IL CASTELLO LIMITED,BL9 7TB,53.6016,-2.2565
PINNACLE LIVING THE PAVILION LTD,BL9 7UJ,53.6076,-2.2500
The white swan,HD3 3YJ,53.6589,-1.8687
The Weavers Shed Restuarant,HD7 4AN,53.6380,-1.8501
The Golcar Lily Pub and Restaurant,HD7 4JR,53.6357,-1.8688
Bolster Moor Coffee Shop,HD7 4JU,53.6359,-1.8711
Scape house inn,HD7 4NJ,53.6442,-1.8678
The Haveli Restaurant LTD,HD7 4QA,53.6393,-1.8566
Destination ,HD7 5AB,53.6236,-1.8784
Om Is Where The Heart Is ,HD7 5AG,53.6242,-1.8787
Vanilla Bean ,HD7 5AN,53.6229,-1.8806
Ruddis,HD7 5AW,53.6227,-1.8817
The Cookhouse Cafe,HD7 5AW,53.6227,-1.8817
ASHBY'S DELI CAFE LIMITED,HD7 5HF,53.6216,-1.8810
The Little Bridge,HD7 5HF,53.6216,-1.8810
Monsoon Tandoori,HD7 5HG,53.6215,-1.8806
Rose and crown ,HD7 5XA,53.6188,-1.9135
Katies homemade kitchen ,HD7 6BY,53.6009,-1.9275
The New Inn,HD7 6EZ,53.6001,-1.9264
Pink Elephant ,HD9 4ES,53.5913,-1.8505
H Lounge,HD9 5NX,53.5931,-1.8515
Wills O Nats,HD9 5PS,53.6067,-1.8625
Blue Mountain Diner,HX1 1DD,53.7210,-1.8595
Pizza Hut,HX1 1DE,53.7212,-1.8601
Cinnamon,HX1 1DJ,53.7215,-1.8592
Delicious Coffee Shop,HX1 1DJ,53.7215,-1.8591
La Luna cafebar diner ,HX1 1DJ,53.7215,-1.8592
Sultan Mahal ,HX1 1DJ,53.7215,-1.8592
THE GATE CAFE BAR,HX1 1DJ,53.7215,-1.8592
BROWNS CAFE,HX1 1DL,53.7221,-1.8599
Caffe Nero,HX1 1DL,53.7221,-1.8599
Merrie England Coffee Shops Ltd,HX1 1DL,53.7221,-1.8599
Adams cafe halifax,HX1 1DZ,53.7224,-1.8594
Borough Kitchen,HX1 1DZ,53.7224,-1.8594
My Crepe,HX1 1DZ,53.7225,-1.8593
Top Door Espresso,HX1 1DZ,53.7224,-1.8594
KFC HALIFAX 02011,HX1 1HA,53.7221,-1.8625
THAI CORNER BURY MARKET LIMITED,HX1 1HX,53.7235,-1.8628
Thai Corner 2 Ltd,HX1 1HX,53.7235,-1.8628
E.T. Harvey Ltd.,HX1 1LJ,53.7218,-1.8620
C.R.E.A.M,HX1 1LN,53.7214,-1.8622
Alibi Halifax,HX1 1NH,53.7217,-1.8625
Deli indulge ,HX1 1NH,53.7217,-1.8625
Meandering Bear,HX1 1PR,53.7215,-1.8582
Romeo & Juliet,HX1 1PU,53.7209,-1.8588
Pride & Provenance,HX1 1QE,53.7213,-1.8570
Burger King,HX1 1QG,53.7224,-1.8551
Blondins Ice Cream Parlour,HX1 1RE,53.7215,-1.8567
The Deli,HX1 1RE,53.7220,-1.8575
The Trading Rooms,HX1 1RE,53.7220,-1.8575
COFFEE AT NO1,HX1 1RU,53.7234,-1.8579
Wool Merchant Hotel,HX1 1SP,53.7253,-1.8539
Little Lotus Halifax,HX1 1TH,53.7233,-1.8601
McDonald's Restaurant,HX1 1TN,53.7236,-1.8599
McDonalds Restaurants Ltd,HX1 1TN,53.7236,-1.8599
Subway,HX1 1TN,53.7236,-1.8599
AB travel inn ,HX1 1TQ,53.7228,-1.8609
Julio's Italian Restaurant Limited ,HX1 1TS,53.7237,-1.8607
Cafe Sol Diner Ltd,HX1 1TT,53.7232,-1.8609
Franganos (Halifax) ltd,HX1 1TT,53.7232,-1.8609
RICCI'S PLACE,HX1 1UG,53.7239,-1.8609
Jamocha Coffee Lounge ,HX1 1UR,53.7239,-1.8598
Nando's,HX1 1UX,53.7213,-1.8734
Pizza Express,HX1 1UX,53.7251,-1.8603
TGI Fridays UK Ltd,HX1 1UX,53.7213,-1.8734
Kashmiri Aroma (Halifax) LLP,HX1 1YA,53.7239,-1.8623
Mecca Bingo Limited,HX1 1YA,53.7239,-1.8623
Café Passion,HX1 2JF,53.7197,-1.8598
Sagra restaurant,HX1 2SB,53.7210,-1.8647
Whats 4 Dessert,HX1 3JL,53.7152,-1.8809
SHEESH MAHAL HFX LTD,HX1 3JP,53.7153,-1.8814
Pollino,HX1 3SU,53.7154,-1.8874
McDonald's Restaurant,HX1 4JT,53.7231,-1.8862
RAJA'S,HX1 4NE,53.7234,-1.8814
SPICY WAVES,HX1 4NJ,53.7248,-1.8816
McDonalds Restaurants Ltd,HX1 4PG,53.7248,-1.8889
La Tradizione Italian Pizzeria,HX1 5AB,53.7218,-1.8641
delhi wala food,HX1 5AB,53.7219,-1.8640
PAX,HX1 5AE,53.7221,-1.8648
Dixy Chicken,HX1 5BP,53.7234,-1.8692
Thai Style Restaurant,HX1 5DT,53.7232,-1.8637
Cafe No5,HX1 5ER,53.7212,-1.8708
Dunelm,HX1 5RA,53.7273,-1.8722
Long Can Hall Halifax Ltd,HX2 0TQ,53.7363,-1.9026
The Secret Cafe,HX2 6EQ,53.7128,-1.9379
Wainhouse Tavern,HX2 7DR,53.7129,-1.8858
Maypole Inn,HX2 7RZ,53.7200,-1.9140
The Winterburn ,HX2 7SQ,53.7190,-1.9203
The Crossroads Inn,HX2 7TB,53.7477,-1.9305
Airtime Halifax,HX2 8DB,53.7424,-1.8855
Mags Cafe,HX2 8DB,53.7424,-1.8855
MUNCHIES,HX2 8EF,53.7485,-1.8939
The Moorlands Inn,HX2 8XD,53.7695,-1.8998
Ivy House Inn,HX2 9BB,53.7519,-1.8761
HOLDSWORTH HOUSE HOTEL,HX2 9TG,53.7581,-1.8753
Gower Furniture Staff Canteen ,HX2 9TN,53.7587,-1.8730
McDonald's Restaurant,HX3 0QE,53.7025,-1.8535
McDonalds Restaurants Ltd,HX3 0QE,53.7025,-1.8535
The Murgatroyd Arms,HX3 0RX,53.7025,-1.8638
B K RESTAURANT (YORKSHIRE) LTD,HX3 5AX,53.7282,-1.8640
Next Level Bar Ltd,HX3 5AX,53.7282,-1.8640
Stod Fold Tap,HX3 5AX,53.7282,-1.8640
TRUE NORTH RESTAURANT,HX3 5AX,53.7282,-1.8621
Thai Corner Dean Clough,HX3 5AX,53.7282,-1.8640
the mill bar and kitchen,HX3 5AX,53.7282,-1.8640
Pizza Hut Restaurant,HX3 6AB,53.7266,-1.8535
KFC HALEY HILL 02030,HX3 6AD,53.7277,-1.8571
Cafe at 19,HX3 6EU,53.7330,-1.8649
The Prospect Pub & Dining,HX3 6JR,53.7321,-1.8588
Five Food ,HX3 6SN,53.7527,-1.8736
Shears inn,HX3 9EZ,53.7133,-1.8543
The Griffin Inn,HX4 0AQ,53.6759,-1.9143
The Fleece Countryside Inn,HX4 0DJ,53.6778,-1.9304
Taquitos,HX4 8AB,53.6872,-1.8553
Cafe Thai,HX4 8AD,53.6869,-1.8556
Catch West Vale Limited,HX4 8AD,53.6870,-1.8556
Cinnamon At The Mill ,HX4 8AD,53.6869,-1.8556
Cafe Italia,HX4 8BD,53.6857,-1.8576
Viaduct,HX4 8BD,53.6857,-1.8576
The Sportsmans Inn,HX4 8PL,53.6891,-1.8908
The Spring Rock Inn,HX4 8PT,53.6876,-1.8997
1885 the Pub,HX4 9HF,53.6721,-1.8818
The New Inn,HX4 9LB,53.6585,-1.8839
Syhiba Restaurant ,HX6 2AF,53.7098,-1.9057
Village restaurant ,HX6 2AF,53.7098,-1.9057
the larder delicatessen,HX6 2AF,53.7098,-1.9057
F S Halifax trading as Temujin Restaurant,HX6 2AG,53.7098,-1.9040
Gabriels Coffee Lounge,HX6 2AG,53.7098,-1.9040
THE MOORINGS,HX6 2AG,53.7098,-1.9040
Kipplings Indian Restaurent ,HX6 2EA,53.7085,-1.9113
The Olive Branch ,HX6 2EA,53.7085,-1.9113
Wharf Cafe Bar at Sowerby Bridge LTD,HX6 2LA,53.7094,-1.9085
KUJA LIMITED,HX6 2QD,53.7083,-1.9122
Copper Cow,HX6 2UG,53.7144,-1.9216
The Willow Tree Cafe,HX6 3AH,53.7073,-1.9127
Del Taverns and Estates,HX6 3LF,53.7092,-1.8999
New Hobbit,HX6 3QL,53.7003,-1.9131
The Moorcock Inn,HX6 3RP,53.6932,-1.9200
Stanley's Kitchen,HX6 4BG,53.6747,-1.9416
The Lion Pub and Grill,HX6 4BQ,53.6746,-1.9425
Old Bridge Inn Ltd.,HX6 4DF,53.6744,-1.9401
the larder delicatessen,HX6 4EB,53.6700,-1.9477
Cinnamon Lounge ,HX6 4EW,53.6650,-1.9485
Just Scrumptious,HX6 4EW,53.6650,-1.9485
The Alma Inn,HX6 4NS,53.6897,-1.9595
Beehive inn,HX6 4NX,53.6736,-1.9516
Booth Wood Inn,HX6 4QU,53.6487,-1.9490
Shoulder of mutton ,HX7 5DZ,53.7297,-1.9827
Aux Delices,HX7 5LH,53.7308,-1.9827
The Blue Teapot,HX7 5LL,53.7308,-1.9817
Kitchen (West Yorkshire) ,HX7 5LN,53.7302,-1.9791
The hinchliffe arms,HX7 5TA,53.7033,-2.0038
Kitties Restaurant,HX7 6AA,53.7414,-2.0170
Mooch Cafe Bar,HX7 6AA,53.7414,-2.0170
Chapter 17 ,HX7 6EU,53.7412,-2.0160
The Coffee station ,HX7 6JE,53.7377,-2.0087
The Stubbing Wharf,HX7 6LU,53.7408,-2.0276
The Town Hall Cafe Ltd,HX7 7BY,53.7426,-2.0131
La Perla,HX7 7DD,53.7438,-2.0127
Vocation & Co,HX7 8AD,53.7407,-2.0114
Rim Nam Thai Restaurant,HX7 8AF,53.7403,-2.0123
Cinnamon at the bridge Ltd,HX7 8AH,53.7412,-2.0114
Leila's Kitchen,HX7 8AH,53.7412,-2.0114
Lhamo's Taste of the East Ltd,HX7 8AH,53.7415,-2.0115
Squeeze Sandwiches & Smoothies,HX7 8EH,53.7416,-2.0128
Il Mulino Italian Restaurant ,HX7 8ET,53.7421,-2.0123
Little H Cafe,HX7 8ET,53.7421,-2.0123
Mijo,HX7 8ET,53.7421,-2.0123
Square One Coffee Co.,HX7 8ET,53.7421,-2.0123
AyaSophia,HX7 8EX,53.7416,-2.0132
Shoulder of Mutton,HX7 8EX,53.7417,-2.0132
The AP Hotel Company Limited T/A The White Lion Hotel,HX7 8EX,53.7417,-2.0132
Watergate Tea Rooms,HX7 8EX,53.7417,-2.0132
Old Gate Bar & Restaurant,HX7 8JP,53.7416,-2.0145
Robinhoodinn ,HX7 8QR,53.7622,-2.0046
Hare and Hounds Inn,HX7 8TN,53.7467,-1.9972
Olive branch,HX7 8UQ,53.7411,-2.0142
The Black Ladd,OL1 4ST,53.5774,-2.0641
Waterfall Elior LTD at Siddal Moor Sports College,OL10 2NT,53.5823,-2.2171
THE BIRD AT BIRTLE,OL10 4BQ,53.6050,-2.2328
Bella Sera,OL10 4DX,53.5934,-2.2113
Naga naga chilli,OL10 4NN,53.5936,-2.2177
SUBWAY,OL10 4PN,53.5947,-2.2240
Le Latte ,OL11 1DN,53.6116,-2.1542
Chaiiwala Rochdale,OL11 1EB,53.6104,-2.1568
Cuckoos Cafe & Grill,OL11 1EB,53.6104,-2.1568
Istanblue,OL11 1EB,53.6104,-2.1568
NEW YORK CHICKEN LIMITED,OL11 1EB,53.6104,-2.1568
Jungle Grill,OL11 1EF,53.6119,-2.1595
Shish cafe ,OL11 1HH,53.6098,-2.1583
McDonalds  Sandbrook Park,OL11 1RY,53.6024,-2.1634
McDonalds Restaurants,OL11 1RY,53.6027,-2.1636
Pizza Hut Restaurant,OL11 1RY,53.6024,-2.1633
SUBWAY SANDBROOK PARK,OL11 1RY,53.6024,-2.1634
Tenpin Rochdale,OL11 1RY,53.6024,-2.1633
Coco’s Grill House & Desserts,OL11 1TU,53.6011,-2.1572
LA Scala (pvt) Ltd,OL11 2AL,53.5979,-2.1455
Blue Diamond Restaurant,OL11 2ER,53.6029,-2.1464
Blue diamond chinese restaurant,OL11 2ER,53.6029,-2.1464
meraki scents,OL11 2JG,53.5945,-2.1571
Norton Grange Hotel & Spa,OL11 2XZ,53.5805,-2.1742
FLIP OUT ROCHDALE,OL11 3EX,53.5979,-2.1737
The Royal Toby Hotel,OL11 3HF,53.5984,-2.1802
THE PLOUGH,OL11 3LW,53.6025,-2.1876
Rochdale Starbucks,OL11 3PT,53.6042,-2.1707
The Hare and Hounds,OL11 4AA,53.6073,-2.2079
The Elephant & Castle,OL11 4AU,53.6106,-2.1971
Platos Y Bebidas,OL11 4DQ,53.6127,-2.1879
Suburb cafe,OL11 4DQ,53.6127,-2.1883
Sweet coffee ,OL11 5AQ,53.6223,-2.1887
The Cemetery Pub Limited,OL11 5EU,53.6136,-2.1801
The Grapes,OL11 5PN,53.6126,-2.2094
La Dolce Vita,OL11 5QY,53.6147,-2.2072
True Taste Of India Norden Ltd,OL11 5XE,53.6266,-2.2101
Spicy kitchen,OL12 0JJ,53.6243,-2.1556
TREE & TOAD LTD,OL12 0NU,53.6207,-2.1606
Zoya ,OL12 0RA,53.6225,-2.1556
Ruchi Indian Restaurant ,OL12 0RD,53.6247,-2.1561
THE OXFORD(ROCHDALE)LTD,OL12 0TB,53.6368,-2.1690
Pepe's Piri Piri Rochdale,OL12 0UW,53.6223,-2.1546
The Healey ,OL12 6LW,53.6312,-2.1732
Eastern Restaurant & Takeaway,OL12 6PE,53.6191,-2.1635
alis chippy ,OL12 6PJ,53.6203,-2.1675
Subway Aldi Rochdale,OL12 6XD,53.6147,-2.1674
NUTTERS RESTAURANT,OL12 7TT,53.6319,-2.2327
Owd Betts,OL12 7TY,53.6406,-2.2590
Basils Restaurant Whitworth,OL12 8PW,53.6549,-2.1768
Samson Beer Company Limited,OL12 8PY,53.6555,-2.1730
Nibbles Café,OL12 8QS,53.6612,-2.1740
Ashoka Restaurant,OL12 8QW,53.6604,-2.1744
Nok ThaiCuisine ,OL12 8RU,53.6449,-2.1810
Marios of Bacup Ltd,OL13 0AT,53.7003,-2.2009
Lucy Lous Cafe,OL13 0DH,53.6934,-2.2089
The crust Bacup LTD,OL13 0UE,53.6928,-2.2187
Rose 'n' Bowl,OL13 0UG,53.6922,-2.2224
Dolce & Gelato,OL13 8AB,53.7042,-2.2023
The street food kitchen,OL13 8EX,53.7028,-2.2014
Anna's Cafe-Bar,OL13 8QE,53.7239,-2.1982
Nash bash catering ,OL13 9JA,53.7024,-2.1983
Zee Desserts,OL13 9NH,53.7032,-2.2006
1832 Barista,OL13 9NJ,53.7027,-2.2000
The Old Boot Cafe & Wine Bar,OL13 9NJ,53.7031,-2.2002
The Boardroom,OL14 5AA,53.7129,-2.0985
The Honest John Bar & Coffee Tavern,OL14 5AA,53.7131,-2.0985
The Cafe,OL14 5AB,53.7130,-2.0977
Exchange Coffee Company Todmorden,OL14 5AJ,53.7140,-2.0967
Mandys breakfast bar,OL14 5AQ,53.7142,-2.0971
The little bird cafe,OL14 5BB,53.7142,-2.0936
The Copper Tree,OL14 5EY,53.7174,-2.0991
The Top Brink Inn Ltd,OL14 6JB,53.7085,-2.0677
The Shepherds Rest Inn,OL14 6JJ,53.7051,-2.0846
Site Restaurant Ltd,OL14 6LD,53.7117,-2.0993
THE THREE LADY CHEFS LTD,OL14 6LZ,53.7122,-2.0987
The White Rabbit,OL14 7BD,53.7141,-2.0981
Bombay lounge lydgate limited,OL14 7DH,53.7259,-2.1181
Glen view inn,OL14 7EW,53.7314,-2.1504
The Vedas,OL14 7LD,53.7123,-2.0992
Tea Rooms at Gordon Rigg Nurseries,OL14 7TJ,53.6896,-2.1019
Border Rose Inn,OL14 7UA,53.6881,-2.1007
Hare and Hounds ,OL14 8EA,53.7220,-2.1092
staff of life inn,OL14 8JF,53.7274,-2.1285
Zaika Cuisine,OL14 8LF,53.7322,-2.1390
The waterside restaurant,OL15 0AY,53.6418,-2.0955
The Wine Press,OL15 0AZ,53.6346,-2.0965
Lake lounge,OL15 0DQ,53.6315,-2.1028
Riva Italian Limited,OL15 0DQ,53.6315,-2.1028
The Olive & Pickle,OL15 0DQ,53.6315,-2.1028
The Moorcock Inn,OL15 0LD,53.6514,-2.0734
The White House,OL15 0LG,53.6564,-2.0495
Back2Work Kitchen Downstairs,OL15 8AU,53.6437,-2.0978
Back2Work Kitchen,OL15 8AU,53.6437,-2.0978
Toppo’s Bar & Kitchen ,OL15 8DA,53.6438,-2.0944
Autumn Holdings Limited ,OL15 8NL,53.6391,-2.1168
Rebecca's coffee shop,OL15 9AB,53.6442,-2.0965
The Cherry tree cafe ,OL15 9AE,53.6442,-2.0953
Bay of bengal(Rochdale LTD),OL15 9DQ,53.6451,-2.0931
The Hairy Bear Beer Co Limited,OL15 9HL,53.6484,-2.1005
LITTLEBOROUGH CRICKET CLUB,OL15 9LD,53.6492,-2.0993
Waterfall Tea Rooms,OL15 9LZ,53.6695,-2.0836
The Summit Inn,OL15 9QX,53.6646,-2.0827
Cuppaccino Littleborough Ltd,OL15 9RP,53.6474,-2.0993
The Medicine Tap,OL16 1AE,53.6166,-2.1593
Clock Tower Dining Room,OL16 1AZ,53.6156,-2.1593
Bean,OL16 1BE,53.6177,-2.1544
Heavenly Desserts Rochdale,OL16 1BE,53.6177,-2.1544
Pudding Paradise,OL16 1DR,53.6196,-2.1552
The laughing loaf ,OL16 1EP,53.6171,-2.1581
La Mancha ,OL16 1ES,53.6173,-2.1577
Mecca Social Club,OL16 1HE,53.6179,-2.1529
Subway,OL16 1JG,53.6175,-2.1577
Vicolos Ltd,OL16 1JG,53.6175,-2.1577
Knockout Kitchen Ltd,OL16 1JJ,53.6177,-2.1579
Russells of Rochdale,OL16 1JZ,53.6185,-2.1557
Gumboo Hotels Limited,OL16 1NJ,53.6158,-2.1574
Rajas chicken grill rochdale limited ,OL16 1PN,53.6139,-2.1543
Funkie Fusion Limited,OL16 1RE,53.6166,-2.1560
the castle cafe,OL16 1SR,53.6156,-2.1509
PLAYERS ROCHDALE,OL16 1UA,53.6146,-2.1530
Caffe Grande Abaco Rochdale Interchange,OL16 1YG,53.6177,-2.1546
Sahara Rochdale,OL16 2DR,53.6218,-2.1482
indialicious caterers limited,OL16 2US,53.6216,-2.1329
Bellavista,OL16 3JW,53.6147,-2.1089
Haydens Kitchen at The Gallows,OL16 3JW,53.6147,-2.1089
River Beal Indian Takeaway ,OL16 3NJ,53.6100,-2.1098
The Waggon inn,OL16 3PE,53.6071,-2.1043
Char,OL16 3QF,53.6004,-2.0972
the cedar tree,OL16 3RF,53.6012,-2.0880
The Milnrow Balti Restaurant ,OL16 4HS,53.6104,-2.1118
Bank chambers ,OL16 4LU,53.5999,-2.0977
The Fair View Inn,OL16 4QQ,53.5904,-2.1250
110 pizza,OL16 4SZ,53.6034,-2.1461
Bistro at Gordon Rigg Nurseries,OL16 4UX,53.6055,-2.1385
Costa Coffee,OL16 5AF,53.6148,-2.1283
KFC,OL16 5AF,53.6148,-2.1283
McDonalds  Kingsway Retail Park,OL16 5AF,53.6153,-2.1283
McDonalds Restaurant,OL16 5AF,53.6148,-2.1283
Subway,OL16 5AF,53.6148,-2.1283
Khans original ,OL16 5DN,53.6137,-2.1413
Mr cod ,OL16 5DN,53.6137,-2.1413
Asda CDC,OL16 5EB,53.6097,-2.1399
the halfway house ( nw ) ltd,OL2 5RY,53.5765,-2.1317
Turks Head (2014) Ltd,OL2 6UP,53.5836,-2.1317
THE PUCKERSLEY INN ,OL2 6YD,53.5817,-2.1240
THE NORTH  STAR,OL2 7PR,53.5850,-2.1100
Bengal brasserie,OL2 8AP,53.5784,-2.0931
The Morning Star,OL2 8HZ,53.5779,-2.0850
Naughty but nice,OL2 8NH,53.5770,-2.0940
Donnelly's,OL2 8NR,53.5769,-2.0936
Elior UK,OL2 8PJ,53.5753,-2.0881
Junction Inn,OL3 5SE,53.5931,-2.0412
The Printers Arms,OL3 5SN,53.5896,-2.0426
THE RAMS HEAD INN,OL3 5UN,53.5994,-2.0366
