name,postcode,lat,lon
hoop snake and brown snake,BB10 1BG,53.799550060000000,-2.240238988000000
anaconda and Myna,BB10 1LD,53.796782980000000,-2.239631083000000
cayman and Logrunners,BB10 3AE,53.797081000000000,-2.238919254000000
puff adder and cayman,BB10 3AL,53.799529780000000,-2.236883568000000
worm lizard and Quetzal,BB10 3AS,53.788024000000000,-2.193105000000000
Tree warbler and Buzzard,BB10 3LD,53.794486820000000,-2.223207806000000
blind snake and Schneider python,BB10 3NN,53.787986000000000,-2.188020558000000
deaf adder and Pheasant,BB10 3PE,53.793995080000000,-2.184738150000000
fer-de-lance and Coati,BB10 3PR,53.789884300000000,-2.186845105000000
Grosbeak and Capuchin,BB10 4BQ,53.793212640000000,-2.231565263000000
Armadillo and sand lizard,BB10 4DG,53.788395370000000,-2.226711988000000
Marmoset and habu,BB10 4DU,53.787286370000000,-2.228542534000000
garter snake and Civet,BB10 4EE,53.786311810000000,-2.230555853000000
Warbler and Macaw,BB10 4EW,53.786437360000000,-2.225988071000000
whip snake and jew lizard,BB10 4HL,53.787127290000000,-2.207292624000000
tortoise and constrictor,BB10 4HS,53.785106980000000,-2.205962000000000
snapping turtle and Eagle,BB10 4JB,53.781527990000000,-2.201907913000000
tree snake and Macaw,BB10 4PD,53.785029540000000,-2.219378444000000
Jay and milk snake,BB10 4SN,53.765309550000000,-2.204302709000000
Boto and hawksbill,BB10 4SZ,53.744795050000000,-2.178578226000000
Shearwater and Hawk,BB10 4TA,53.743467060000000,-2.177071535000000
king snake and American sparrow,BB11 1AP,53.791445980000000,-2.243167804000000
Jackal and snake,BB11 1DR,53.788971840000000,-2.244367766000000
Guillemot and Marmoset,BB11 1HT,53.788776610000000,-2.243137172000000
Old World vulture and Songlark,BB11 1JH,53.788435650000000,-2.242846809000000
rock snake and blue racer,BB11 1JZ,53.786217100000000,-2.246522133000000
lizard and rock python,BB11 1PH,53.789313500000000,-2.244309039000000
amphisbaena and Cloud rat,BB11 1PY,53.789735530000000,-2.244508818000000
blind snake and king cobra,BB11 1QW,53.790281430000000,-2.245665603000000
Badger and Coati,BB11 2AU,53.788575000000000,-2.241299000000000
blindworm and Thicketbird,BB11 2HN,53.784352680000000,-2.244037359000000
Jackal and diamond python,BB11 2HX,53.779765280000000,-2.236832827000000
Parrotlet and Fox,BB11 2JF,53.781991300000000,-2.238347803000000
Black jay and Mink,BB11 2PG,53.776341330000000,-2.254142245000000
milk snake and Eagle,BB11 2RN,53.776856760000000,-2.235010706000000
Treepie and Songlark,BB11 2RZ,53.793504000000000,-2.234891000000000
tuatara and Grouse,BB11 3AW,53.784698140000000,-2.237619486000000
goanna and saltwater crocodile,BB11 3BN,53.789176900000000,-2.236431000000000
carpet snake and Ground sloth,BB11 3BT,53.789090130000000,-2.234487000000000
monitor and Stilt,BB11 3BU,53.787696590000000,-2.234858856000000
cobra de capello and bearded dragon,BB11 3NY,53.783213970000000,-2.233862000000000
smooth snake and Goose,BB11 3QF,53.772315100000000,-2.253951002000000
giant tortoise and taipan,BB11 3QS,53.766305060000000,-2.234891031000000
Hawk and tiger snake,BB11 4EU,53.778957120000000,-2.262352540000000
Quetzal and Komodo dragon,BB11 4HF,53.774603430000000,-2.255649074000000
lizard and thorny devil,BB11 4JE,53.785081190000000,-2.252480092000000
Condor and Masked owl,BB11 4LN,53.786499400000000,-2.257588314000000
milk snake and Moluccan boobook,BB11 4RA,53.777208190000000,-2.260642097000000
Partridge and horned toad,BB11 4RD,53.777635090000000,-2.258581016000000
tuatara and worm lizard,BB11 4RE,53.776814460000000,-2.255662524000000
alligator and Ice seal,BB11 4RH,53.779691260000000,-2.255361347000000
smooth snake and Gull,BB11 5HG,53.772120140000000,-2.256862941000000
blind snake and sand lizard,BB11 5HJ,53.773832850000000,-2.258724527000000
garter snake and chuckwalla,BB11 5HW,53.774527910000000,-2.261490357000000
Siskin and Skunk,BB12 0AD,53.794019610000000,-2.246234000000000
Philippine hawk-owl and Meadowlark,BB12 0AL,53.796563770000000,-2.245793442000000
mamba and flying lizard,BB12 0AP,53.795670720000000,-2.247367037000000
Prion and gaboon viper,BB12 0BA,53.796744510000000,-2.249665749000000
Armadillo and Rabbit,BB12 0BS,53.796645000000000,-2.250455000000000
Marsh harrier and blindworm,BB12 0LY,53.793471380000000,-2.258845487000000
Parrotbill and Bronzewing pigeon,BB12 0TJ,53.793899060000000,-2.256404087000000
Chickadee and Guillemot,BB4 7DR,53.686756880000000,-2.249983079000000
rattlesnake and blue racer,BB4 7EA,53.679707000000000,-2.243113000000000
sand viper and chuckwalla,BB4 7JB,53.692506000000000,-2.260209000000000
Old World vulture and Petrel,BB4 8LH,53.697587000000000,-2.246337000000000
Gull and Zebra,BB4 9AH,53.693471730000000,-2.253914956000000
Diving bird and New World blackbird,BB4 9DT,53.700051250000000,-2.249546949000000
hoop snake and Piping shrike,BB4 9ER,53.697695460000000,-2.254243315000000
Skunk and Chipmunk,BB4 9LU,53.710447370000000,-2.251047805000000
Old World vulture and gecko,BB4 9QT,53.732029440000000,-2.241505671000000
Kangaroo and boa constrictor,BB4 9RB,53.727954390000000,-2.229554068000000
king snake and Kestrel,BB4 9SN,53.696954560000000,-2.247514270000000
Capuchin and Viscacha,BB4 9TJ,53.703607080000000,-2.246886841000000
Greenbul and Nukupuʻu,BD13 1LQ,53.774571060000000,-1.860565527000000
taipan and Grouse,BD13 1PN,53.771506170000000,-1.853035064000000
Rat and tree snake,BD13 2AN,53.765580330000000,-1.850810546000000
soft-shelled turtle and taipan,BD13 2BP,53.763966400000000,-1.861586613000000
rat snake and Tahr,BD13 2BU,53.763166570000000,-1.861680254000000
boa constrictor and indigo snake,BD13 2DL,53.760782220000000,-1.859503829000000
skink and whip snake,BD13 2EA,53.766415520000000,-1.857649441000000
anaconda and Grackle,BD13 2HH,53.767454090000000,-1.854278022000000
Argus and mamba,BD13 2HQ,53.767812110000000,-1.853047942000000
galliwasp and bandy-bandy,BD13 2HS,53.766436840000000,-1.852961713000000
Darwin's finches and snake,BD13 2HY,53.764868510000000,-1.856744473000000
sand viper and Tahr,BD13 2JB,53.765387880000000,-1.855134685000000
mud turtle and black snake,BD13 2NE,53.763105030000000,-1.855218374000000
Linsang and rock python,BD13 2NT,53.772873000000000,-1.868400000000000
mud turtle and galliwasp,BD13 2TE,53.764847000000000,-1.863331000000000
Wader and Lemming,BD13 3GF,53.791656000000000,-1.866581000000000
soft-shelled turtle and elapid,BD13 3JT,53.790012360000000,-1.852970505000000
Hawaiian honeycreeper and Kangaroo,BD13 3NH,53.790787690000000,-1.854910735000000
cerastes and bearded lizard,BD13 3PA,53.793720910000000,-1.857541995000000
turtle and Meadowlark,BD13 3QN,53.794535380000000,-1.855034000000000
Stint and horned viper,BD13 3QP,53.793671860000000,-1.854111428000000
death adder and Elephant,BD13 3RB,53.797803310000000,-1.859122267000000
Hawk and mountain devil,BD13 3RD,53.798144770000000,-1.859045215000000
Recurvebill and Jerboa,BD13 3TA,53.786914290000000,-1.871042890000000
diamondback and habu,BD13 4HG,53.787288660000000,-1.885718797000000
mud turtle and coral snake,BL9 6TS,53.607941000000000,-2.253431312000000
rock python and skink,BL9 7JA,53.590033620000000,-2.254713907000000
Civet and skink,BL9 7TF,53.602416420000000,-2.251917270000000
Grouse and Marsh harrier,BL9 7TQ,53.602878780000000,-2.254292572000000
box turtle and constrictor,HD3 3FB,53.657079832860900,-1.878035830839340
indigo snake and Argus,HD7 4EJ,53.634803615256600,-1.851074891444240
Chipmunk and snapping turtle,HD7 4JH,53.637696159498300,-1.857099269741990
Parrotlet and Pitohui,HD7 4NW,53.639562595310900,-1.878766875916970
saltwater crocodile and rattlesnake,HD7 4NZ,53.648597196963300,-1.863401149905940
Solitaire and Ice seal,HD7 4PR,53.641646778592100,-1.861184976840660
Jackal and Goose,HD7 5AG,53.624183715986100,-1.878720139912990
cerastes and Chicken,HD7 5BU,53.627608691577900,-1.879179079072160
Prion and coral snake,HD7 5BX,53.625919251810200,-1.870883033084280
Komodo dragon and Maya,HD7 5DL,53.623777059041100,-1.885434000000000
carpet snake and ringhals,HD7 5DT,53.627411093385100,-1.888614832276040
Warbler and diamondback,HD7 5EG,53.625290843678000,-1.880289425698750
Civet and Kangaroo,HD7 5ER,53.625149614001400,-1.882905530649970
chameleon and hognose snake,HD7 5FF,53.620832000000000,-1.872849000000000
Quetzal and rock python,HD7 5HW,53.620258830758900,-1.881694482567640
crocodile and diamondback terrapin,HD7 5JY,53.620696782059400,-1.879213892683690
Bunting and Rabbit,HD7 5LB,53.619247283309300,-1.876859678954170
Pheasant and Maya,HD7 5LN,53.621258370434500,-1.874661684934230
Capuchin and diamondback,HD7 5PG,53.617876471332600,-1.856546287348510
Bronzewing pigeon and bull snake,HD7 5TY,53.607621653680000,-1.881986653603940
caiman and glass snake,HD7 5WE,53.619797000000000,-1.885959000000000
Black cockatoo and bicycle lizard,HD7 6AB,53.602246089779000,-1.926248092114970
Kestrel and Towhee,HD7 6DF,53.602112420177300,-1.928152367451840
frill-necked lizard and elapid,HD7 6DJ,53.601448998974200,-1.931069954166190
tuatara and Polecat,HD7 6DN,53.601486004004600,-1.932928575554890
thorny devil and Rabbit,HD7 6ES,53.600609320064400,-1.924785173852020
Jackal and Gila monster,HD7 6HG,53.595479073703000,-1.928133362319270
Marsh harrier and terrapin,HD7 6HL,53.593064720819900,-1.934226059322170
Thicketbird and Shearwater,HD7 6JE,53.598615692615800,-1.927659642066600
deaf adder and Linsang,HD7 6JN,53.601478913015000,-1.921247606831010
leguaan and Stint,HD7 6JR,53.604325928012900,-1.917872297812890
kabaragoya and B,HD7 6JW,53.602269220179700,-1.920248781974660
elapid and agama,HD7 6LF,53.598255196511200,-1.926073697446140
perentie and Flameback,HD7 6LG,53.598525011124300,-1.926345211220980
coral snake and box turtle,HD7 9BA,53.625829000000000,-1.872380000000000
bearded lizard and Old World quail,HD9 4ET,53.590546644423700,-1.852000740875380
Duck and asp,HD9 4JF,53.590960000000000,-1.850927000000000
green turtle and Mockingbird,HD9 5AE,53.593569286632800,-1.861689800921540
Peafowl and Civet,HD9 5PY,53.598143196333500,-1.860722957233740
copperhead and Vole,HD9 5QZ,53.596570266677700,-1.853203595958680
Boto and sea snake,HX1 1JF,53.723072505537800,-1.863084608595680
flying dragon and water snake,HX1 1NL,53.721849958594900,-1.862937028302280
anole and tortoise,HX1 1PB,53.722465463976400,-1.858903913397230
blindworm and Perching duck,HX1 1QH,53.723098974363900,-1.855128000000000
diamondback terrapin and massasauga,HX1 1YH,53.726251270942200,-1.860467481013840
Cuscus and Hawaiian honeycreeper,HX1 2BJ,53.715533847198600,-1.865154574183300
soft-shelled turtle and loggerhead,HX1 2BT,53.715652787459000,-1.867033058266000
Darwin's finches and frill-necked lizard,HX1 2DA,53.715548607399800,-1.862321086262250
agamid and iguana,HX1 2EE,53.720880112201600,-1.863697875942910
puff adder and dugite,HX1 2HH,53.719431000000000,-1.871508000000000
cobra and agama,HX1 2JZ,53.720145888247600,-1.858350974129160
Fulmarine petrel and krait,HX1 2WH,53.724315209783800,-1.857382208773310
slowworm and Wader,HX1 2XP,53.714778484654500,-1.873066231133710
Pheasant and king snake,HX1 2XR,53.715380010172500,-1.872428038833430
Maya and garter snake,HX1 2YL,53.714572855154900,-1.865809166288080
diamondback turtle and Diving bird,HX1 3ER,53.713542000000000,-1.876237000000000
Jackal and Macaw,HX1 3LD,53.716693644012200,-1.873727187254190
smooth snake and Kestrel,HX1 3PJ,53.715911969573200,-1.883018000000000
tortoise and Vulture,HX1 3QX,53.716789000000000,-1.887243000000000
perentie and Schneider python,HX1 3TB,53.717509000000000,-1.887726220177680
Peafowl and Polecat,HX1 3XE,53.717856127466800,-1.876633072861430
Gull and Bronzewing pigeon,HX1 4AS,53.728726435401300,-1.880314743859820
rattlesnake and Black cockatoo,HX1 4DJ,53.721086625852200,-1.880366696287260
asp and diamondback turtle,HX1 4GQ,53.729509227231800,-1.886269490677360
Condor and bicycle lizard,HX1 4NP,53.725089000000000,-1.882189532179400
Asiatic leopard and Scimitar babbler,HX1 4QE,53.729162552989800,-1.885118270969010
amethystine python and galliwasp,HX1 4QP,53.726316274189000,-1.888232982762280
Ice seal and cerastes,HX1 4SA,53.726073286209800,-1.887900196490240
Tree warbler and horned viper,HX1 5AE,53.722085709988600,-1.864754795963040
mountain devil and frill-necked lizard,HX1 5BW,53.723914000000000,-1.867066825720950
American sparrow and agama,HX1 5DR,53.723388292083000,-1.864144428382950
Recurvebill and Minke whale,HX1 5EJ,53.720840145799500,-1.876609204929140
Mink and River dolphin,HX1 5EQ,53.721289905993400,-1.876956436715850
krait and Ibex,HX1 5PA,53.725323709525600,-1.875171480891550
puff adder and Grouse,HX1 5PR,53.726227000000000,-1.878943000000000
coral snake and Asiatic leopard,HX1 5PS,53.725660176235200,-1.878989728519560
Meadowlark and Old World vulture,HX1 5SX,53.725861165217600,-1.865167067195020
horned toad and Mamo,HX1 9WE,53.724349000000000,-1.857460000000000
boa and Tit-tyrant,HX2 0EH,53.729472255823300,-1.889497828114680
Mink and Tahr,HX2 0ET,53.728233000000000,-1.889834189887810
frilled lizard and grass snake,HX2 0PY,53.730336399652200,-1.901303183108330
Peafowl and Black cockatoo,HX2 0QB,53.729138615289900,-1.898684000000000
mamba and Stilt,HX2 0RD,53.736124498461100,-1.912644112578560
Songlark and Egret,HX2 0RQ,53.736338469557600,-1.910278779155040
Parrotbill and Flameback,HX2 0SB,53.732072950186700,-1.903587988331570
Magpie and python,HX2 0SD,53.731704000000000,-1.901846000000000
Badger and Duck,HX2 0TN,53.745791681166300,-1.907362575576640
kabaragoya and diamondback terrapin,HX2 0TQ,53.736296460424700,-1.902502022335570
tiger snake and Macaw,HX2 0TT,53.748294069975100,-1.912315669518270
Greenbul and Gila monster,HX2 0UZ,53.734199755043000,-1.889258077743180
tuatara and Flameback,HX2 6BU,53.716222674457700,-1.937974455767030
Armadillo and Buzzard,HX2 6HJ,53.723616534672200,-1.950163380599620
sand lizard and Badger,HX2 6HP,53.729229000000000,-1.956780000000000
Puffleg and dukite,HX2 6JD,53.728098000000000,-1.963784000000000
box turtle and Treepie,HX2 6LD,53.719529279249600,-1.956123516204470
soft-shelled turtle and Pitohui,HX2 6LG,53.723025213406400,-1.954968136901280
River dolphin and agama,HX2 6NQ,53.731748000000000,-1.941817000000000
Jackal and Triller,HX2 6NU,53.724261557169200,-1.945282644041080
Polecat and box turtle,HX2 6ST,53.737784876513500,-1.937654807724870
krait and elapid,HX2 6UU,53.735975136125500,-1.950209477878900
Capuchin and monitor,HX2 6UW,53.735859681636500,-1.953696271528280
loggerhead and Asiatic leopard,HX2 6XE,53.728243832911600,-1.946535499997640
carpet snake and copperhead,HX2 7AE,53.714452756535800,-1.888840000000000
Rabbit and asp,HX2 7EG,53.710615051566700,-1.879911529391070
Parrotbill and New World blackbird,HX2 7JG,53.716262526468100,-1.892517381167780
Pitohui and Puffleg,HX2 7NB,53.719562799350000,-1.905147029084880
wall lizard and Tattler,HX2 7RE,53.723748175771500,-1.912972787564980
Black cockatoo and Night heron,HX2 7RG,53.723328115162500,-1.916322880363680
hognose snake and Marmoset,HX2 7SD,53.718248859693400,-1.914908543346320
Guillemot and krait,HX2 7SP,53.724746686172900,-1.927807856875020
Tattler and Perching duck,HX2 7TX,53.753049643118600,-1.927137726860030
viper and agama,HX2 7TZ,53.755431292165800,-1.926845457867230
box turtle and Thrasher,HX2 7UB,53.764332631981700,-1.932321451453700
indigo snake and Linsang,HX2 7UQ,53.757844000000000,-1.932635605099990
Old World warbler and diamond python,HX2 8HF,53.748355361520000,-1.888644717344960
monitor and Nukupuʻu,HX2 8LA,53.743569642212100,-1.894070232572370
rattlesnake and Fish eagle,HX2 8NE,53.744713000000000,-1.895552830975330
Badger and Greenbul,HX2 8PE,53.747145304895200,-1.902840898759380
slowworm and Siskin,HX2 8PY,53.751687634126600,-1.907107000288710
dugite and Chickadee,HX2 8SU,53.751488507695100,-1.917525801594980
Black jay and cayman,HX2 8UL,53.758779488814100,-1.907500922172130
Nukupuʻu and Booted eagles,HX2 8WJ,53.757777000000000,-1.903880000000000
mountain devil and black snake,HX2 8XF,53.766410319417000,-1.896485666028960
flying lizard and Elephant,HX2 8YB,53.777808000000000,-1.896200000000000
Puffleg and copperhead,HX2 9BE,53.751867115056600,-1.876806633404080
Peafowl and Mamo,HX2 9BG,53.749018000000000,-1.879440000000000
crocodile and Duck,HX2 9BU,53.747569116573200,-1.884112873733700
Hawaiian honeycreeper and Bronzewing pigeon,HX2 9ED,53.758007789527300,-1.887876046129200
galliwasp and cayman,HX2 9JY,53.756971169468900,-1.894491608073400
moloch and constrictor,HX2 9QH,53.760754283759700,-1.883833965512780
horned viper and Argus,HX2 9RS,53.760535017839200,-1.889598513578270
galliwasp and Warbler,HX2 9RY,53.761279307030600,-1.887746003918650
cobra de capello and mamba,HX2 9SS,53.754159083236700,-1.885929860556240
blindworm and Duck,HX2 9UQ,53.753519324910200,-1.884248191861050
Logrunners and asp,HX2 9UR,53.762720387764800,-1.881507684976950
Towhee and box turtle,HX2 9XB,53.770015646198900,-1.878498364995770
Herring gull and Mockingbird,HX3 0EB,53.708643000000000,-1.867010000000000
Parrotlet and Schneider python,HX3 0HJ,53.709352090520700,-1.875370159559180
hognose snake and box turtle,HX3 0HQ,53.710173111530600,-1.878397769543290
death adder and Snipe,HX3 0JJ,53.707848000000000,-1.871769000000000
Tattler and cycling lizard,HX3 0JL,53.706980759170500,-1.868378309344610
mountain devil and cayman,HX3 0LS,53.704629855652600,-1.863886625135360
Gull and pit viper,HX3 0LT,53.703749710060700,-1.864495373804450
brown snake and Gila monster,HX3 0PP,53.705283145432800,-1.853690000000000
rattlesnake and chameleon,HX3 0SL,53.703246721650700,-1.857044332223160
deaf adder and whip snake,HX3 0SN,53.702719198722900,-1.859393976426760
iguana and mud turtle,HX3 0UF,53.698811623935000,-1.869342802588150
chuckwalla and Thicketbird,HX3 5BJ,53.732061420001600,-1.871998694833020
boa constrictor and Tahr,HX3 5BX,53.732766000000000,-1.874710000000000
Nukupuʻu and Mink,HX3 5DE,53.733878592586300,-1.873493895099560
Kite and Greenbul,HX3 5ER,53.736051184694900,-1.879793720630480
Lemming and gopher snake,HX3 5HN,53.734589728364700,-1.874522571936090
Boto and Chicken,HX3 5LF,53.735663028668400,-1.887177000000000
Capuchin and sand viper,HX3 5NN,53.737592690399700,-1.884428296194060
Gila monster and smooth snake,HX3 5RR,53.740070982803300,-1.881950284930710
skink and horned viper,HX3 5SU,53.740144749054200,-1.884346000000000
bearded dragon and slowworm,HX3 5YD,53.724315209783800,-1.857382208773310
hawksbill and indigo snake,HX3 6AF,53.727889542998400,-1.854945091192580
anaconda and blue tongue,HX3 6DG,53.729757815516500,-1.861501739497020
grass snake and blindworm,HX3 6EH,53.730770005540200,-1.866379154230880
Mole and Treepie,HX3 6HP,53.733666837263600,-1.860821936677490
Mouse and sand viper,HX3 6HR,53.735386974425500,-1.863802632354520
rattlesnake and bearded dragon,HX3 6JD,53.735325103482700,-1.864727543235180
Siskin and amphisbaena,HX3 6LU,53.732729024871100,-1.866039472371760
asp and Buzzard,HX3 6SA,53.745924177001400,-1.875019581872800
worm lizard and kabaragoya,HX3 6TE,53.726860062158300,-1.858419388087340
Quetzal and elapid,HX3 9AJ,53.710519702051900,-1.850974760434410
rat snake and cobra de capello,HX3 9DR,53.702959911451200,-1.850334929096760
boomslang and Parrotbill,HX3 9JU,53.705333534069300,-1.850947606974160
tokay and diamondback,HX4 0AG,53.675865961221900,-1.909498677451120
ringhals and hawksbill,HX4 0AU,53.665237614457200,-1.915877676442760
Grackle and Hawk,HX4 0BT,53.684706000000000,-1.902893000000000
puff adder and adder,HX4 0BU,53.683468623952100,-1.908059000000000
agama and horned toad,HX4 0DA,53.679997629873800,-1.918013283817440
Perching duck and Fish eagle,HX4 0ED,53.648617822563100,-1.928754391838890
Meadowlark and jew lizard,HX4 0FG,53.672861014558100,-1.905388000000000
rock python and Partridge,HX4 0HG,53.674017416046800,-1.901888627697110
Perching duck and Armadillo,HX4 8AX,53.689137867872800,-1.859288000000000
Skunk and tree snake,HX4 8BP,53.684450330181600,-1.855184982183770
leguaan and Thrasher,HX4 8DP,53.685010257595400,-1.857408810355270
racer and snapping turtle,HX4 8DQ,53.686167877139200,-1.855860469588570
terrapin and Scimitar babbler,HX4 8DS,53.684920700128800,-1.857681652032160
Gull and diamondback turtle,HX4 8EG,53.687926257486500,-1.852841000000000
Masked owl and Treepie,HX4 8HH,53.689885612016300,-1.860632944272820
Treepie and fer-de-lance,HX4 8NA,53.686459626742700,-1.867230851136570
puff adder and Tree warbler,HX4 9BE,53.674691181348100,-1.864573321506170
frill-necked lizard and agama,HX4 9DP,53.673160091035400,-1.869891265537110
anaconda and asp,HX4 9EF,53.671895141891400,-1.880838787142700
sand viper and gopher snake,HX4 9FE,53.673904710816400,-1.864999898751620
agama and Masked owl,HX4 9JD,53.663574627179400,-1.883404624719940
Polecat and Quetzal,HX4 9JQ,53.663188401430200,-1.883678087702460
smooth snake and python,HX4 9JR,53.660651688224600,-1.881581653964690
perentie and Dorcopsis,HX4 9LS,53.663662656036900,-1.881512698587050
Shearwater and Egret,HX4 9PT,53.675957164772900,-1.899840519854970
Booted eagles and Maya,HX4 9QG,53.671682540224400,-1.884018017836410
B and Pitohui,HX6 1AD,53.706143986607500,-1.917902036503390
Tree warbler and anaconda,HX6 1BA,53.706527276048700,-1.926869406217000
Badger and blindworm,HX6 1BW,53.705806797058400,-1.924552918022130
Francolin and Kākāriki,HX6 1JH,53.706068434066600,-1.942609671411340
Fox and kabaragoya,HX6 1JY,53.705511143536300,-1.942549832319530
Old World vulture and sand viper,HX6 1LF,53.706098560139300,-1.931475347276670
Asiatic leopard and Mamo,HX6 1NQ,53.710977963829000,-1.947042098797340
Kangaroo and Moluccan boobook,HX6 1NT,53.701574681715300,-1.943236786534380
Mink and Nukupuʻu,HX6 2EA,53.708467184183200,-1.911262031054950
sand viper and boomslang,HX6 2EH,53.709193748134900,-1.909291032886530
cobra and Dorcopsis,HX6 2ET,53.712703166433900,-1.914843944678940
anaconda and giant tortoise,HX6 2HE,53.713502555073500,-1.914069616598810
tree snake and diamond snake,HX6 2QS,53.709905243302500,-1.911213563937890
Triller and grass snake,HX6 2SQ,53.714778210473900,-1.901506177539840
moloch and Quetzal,HX6 2ST,53.714797943279800,-1.903672840953600
mamba and tuatara,HX6 3AF,53.707367618312300,-1.907264963800700
coral snake and slowworm,HX6 3EN,53.688292653925500,-1.948584655546650
Cloud rat and mamba,HX6 3HF,53.686274148099600,-1.936580000000000
milk snake and Pheasant,HX6 3HP,53.683190096956000,-1.935524619874590
blue racer and Goose,HX6 3HU,53.684970475898100,-1.936899751749270
Treepie and Hawk,HX6 3JA,53.684925937887100,-1.937672013399660
Scimitar babbler and frilled lizard,HX6 3PG,53.705224000000000,-1.911814000000000
Triller and rat snake,HX6 3QA,53.702859870999000,-1.912985462565140
Gull and Gila monster,HX6 4BH,53.676146215881800,-1.941015265399640
diamond python and Warbler,HX6 4DG,53.674041312897600,-1.937688012472430
Parakeet and leathery turtle,HX6 4DN,53.673783090077700,-1.942577671782420
amphisbaena and mamba,HX6 4DT,53.673954570533500,-1.944076017579560
elapid and Fox,HX6 4EY,53.664718917697700,-1.953910050325320
sand lizard and terrapin,HX6 4FE,53.665643934520000,-1.951956738635590
Night heron and Kangaroo,HX6 4HZ,53.670765668343600,-1.948303166586860
python and diamondback terrapin,HX6 4JQ,53.667594710354000,-1.952832354389680
Parakeet and Myna,HX6 4LE,53.666016815032200,-1.964563192849590
New World blackbird and mountain devil,HX6 4LP,53.668438119438300,-1.979711483489140
leguaan and Gila monster,HX6 4NL,53.680837996071300,-1.963657608090040
Jay and Dolphin,HX6 4NX,53.673644000000000,-1.951554000000000
diamondback turtle and blue racer,HX6 4RH,53.642713000000000,-1.969135000000000
Jay and turtle,HX6 4RW,53.660836149177500,-1.954216911105490
Chipmunk and Duck,HX7 5EA,53.728928520175500,-1.982744000000000
Marsh harrier and Darwin's finches,HX7 5HG,53.726870282143100,-1.982790740077930
Argus and cerastes,HX7 5HP,53.727122258922400,-1.985155011878440
Towhee and Fish eagle,HX7 5JA,53.727445261355500,-1.981062684507270
bushmaster and Grouse,HX7 5JF,53.727175441973400,-1.979956397291870
Linsang and blue racer,HX7 5LZ,53.732675660663500,-1.977270807666840
Recurvebill and White ibis,HX7 5NJ,53.732667443325900,-1.981848598271050
cayman and puff adder,HX7 5NU,53.731507833119300,-1.980863832552780
boa and anole,HX7 5PR,53.730949066423200,-1.972951808057050
Komodo dragon and Perching duck,HX7 5TE,53.705767469219000,-1.999250559607040
Songlark and Partridge,HX7 5TS,53.689509000000000,-2.005808000000000
tortoise and horned viper,HX7 5UB,53.705643644200000,-2.022943085100000
cobra de capello and Bronzewing pigeon,HX7 6BG,53.742869130285100,-2.015837253313080
gopher snake and Piping shrike,HX7 6DP,53.744233683870600,-2.025223297299320
Ground sloth and Marsh harrier,HX7 6DT,53.742588869788200,-2.025237463882710
Tree warbler and indigo snake,HX7 6HJ,53.740505075709500,-2.017261488708240
Puffleg and loggerhead,HX7 6LZ,53.741716306685300,-2.028436009801250
Flameback and skink,HX7 6PP,53.734268439860800,-2.046697301760180
Triller and Gull,HX7 7AQ,53.757573722990600,-2.014447494056670
Logrunners and Jerboa,HX7 7BL,53.742599874502400,-2.012653171024320
perentie and loggerhead,HX7 7EU,53.752843478648600,-2.028489089879720
fer-de-lance and Maya,HX7 7HL,53.752944171673500,-2.050175869585070
tree snake and Snipe,HX7 7JE,53.744001844346700,-2.066934679093650
monitor and White ibis,HX7 7JH,53.744886485150400,-2.059749002767320
Herring gull and Parrotlet,HX7 7NR,53.750526084926500,-2.021253964467960
Maya and Maya,HX7 7PG,53.761865653800000,-2.074350375075640
Logrunners and Minke whale,HX7 8BT,53.742222699490000,-2.009196194449200
Lemming and Old World quail,HX7 8BX,53.742483278712700,-2.010090797069840
puff adder and box turtle,HX7 8BZ,53.742716842099100,-2.011455420851770
Myna and Fish eagle,HX7 8EN,53.741611250788400,-2.012076732762970
puff adder and Mink,HX7 8EZ,53.744307855699100,-2.010030595890910
Booted eagles and sea snake,HX7 8HR,53.747347000000000,-2.009910000000000
Black cockatoo and loggerhead,HX7 8HX,53.746923635323800,-2.006316211272200
gecko and Chipmunk,HX7 8HY,53.746824780831100,-2.006058419264350
saltwater crocodile and sand viper,HX7 8LJ,53.747687192634200,-2.011790403844710
giant tortoise and tiger snake,HX7 8NL,53.733773971731800,-1.990746244566800
habu and diamond python,HX7 8PD,53.735644000000000,-1.989336000000000
blue racer and moloch,HX7 8PE,53.739921674668900,-1.989244009092170
grass snake and Piping shrike,HX7 8PF,53.740461196470400,-1.992473175508100
Marmoset and Magpie,HX7 8QN,53.761619070574700,-2.005954460174830
python and Logrunners,HX7 8TA,53.754644406323800,-2.005210289175950
krait and elapid,HX7 8TS,53.747408833354000,-1.990758497438320
Stilt and Mockingbird,HX7 9AY,53.740653544753400,-2.014062796551170
Treepie and flying lizard,HX7 9BT,53.740656000000000,-2.014064000000000
Mockingbird and Hawk,OL10 1BE,53.591362903808900,-2.218916768942430
blind snake and worm lizard,OL10 1HA,53.592306615300400,-2.223801531993040
bull snake and rock snake,OL10 1LJ,53.592472937976100,-2.216459902071860
Parrotbill and cobra de capello,OL10 1LT,53.592965451487100,-2.217474672986060
rat snake and Hawaiian honeycreeper,OL10 1NH,53.590278000000000,-2.208200000000000
wall lizard and River dolphin,OL10 1PH,53.591824170980900,-2.212347257633000
Kangaroo and terrapin,OL10 1PJ,53.591698926179400,-2.212014258079880
gavial and bandy-bandy,OL10 1QJ,53.594504565816800,-2.206135901762610
Old World vulture and coral snake,OL10 1WP,53.592628854150700,-2.219678725164840
adder and Macaw,OL10 2AD,53.588388880800000,-2.210849836500000
mountain devil and bull snake,OL10 2DG,53.588009448669300,-2.214412801235570
Herring gull and gavial,OL10 2EE,53.587704000000000,-2.210197111629070
Linsang and moloch,OL10 2HT,53.584819277131800,-2.208958723071890
alligator and Prion,OL10 2ND,53.581446309833700,-2.210301437432290
bearded dragon and hoop snake,OL10 2PA,53.582744647437000,-2.218086745398380
Capuchin and cobra de capello,OL10 2QA,53.575311939022300,-2.217746410900020
Thicketbird and White ibis,OL10 2TB,53.577700039910100,-2.224116965822870
bushmaster and Ibex,OL10 3AN,53.589619143511100,-2.223787315751360
puff adder and frill-necked lizard,OL10 3AP,53.588501540435500,-2.225412920523960
Lemming and Eagle,OL10 3DE,53.590747881191600,-2.235123860605450
alligator and Gull,OL10 3EA,53.588265704978300,-2.226544655063120
Duck and thorny devil,OL10 3EU,53.591639676535600,-2.229493625404060
Mamo and flying lizard,OL10 3FW,53.586754641600000,-2.234135157200000
python and slowworm,OL10 3JP,53.592149963937200,-2.244135982387180
Condor and Macaw,OL10 3PN,53.587348250128100,-2.249440776573580
chameleon and Skunk,OL10 3PT,53.586828885950800,-2.248501140661620
Tree warbler and galliwasp,OL10 4BQ,53.604980936225800,-2.232769876772870
Songlark and Gila monster,OL10 4BT,53.594618823234500,-2.207632230451550
Goose and krait,OL10 4HY,53.595586640443300,-2.214375663746510
B and Pheasant,OL10 4JE,53.596921125112200,-2.212010215722470
Cloud rat and Hawaiian honeycreeper,OL10 4NR,53.593534720588500,-2.215952000000000
Mouse and American sparrow,OL10 4NS,53.593107060541000,-2.213713441834180
Peafowl and gecko,OL10 4PF,53.595090771867800,-2.224979653571990
gopher snake and rattlesnake,OL10 4PJ,53.594179967811000,-2.226561218327340
carpet snake and Fox,OL10 4TL,53.598311430813000,-2.228215242315520
Ice seal and Partridge,OL10 4UP,53.599332599714100,-2.225319537441470
Ground sloth and Schneider python,OL10 4UR,53.599415397494400,-2.224307573485660
horned viper and Schneider python,OL10 9AQ,53.592633440100000,-2.219679016900000
Francolin and Grackle,OL11 1AD,53.607023000000000,-2.147618000000000
hognose snake and Grackle,OL11 1BB,53.604306935709400,-2.148077062788000
B and hoop snake,OL11 1DS,53.610906656287100,-2.153344960575410
Skunk and Magpie,OL11 1LZ,53.606639551303400,-2.151531019462370
frilled lizard and sand lizard,OL11 1NW,53.606686000000000,-2.158075000000000
Badger and Logrunners,OL11 1PB,53.605395599112000,-2.154322397348070
water snake and Mouse,OL11 1PE,53.605268196386700,-2.155530939668000
Linsang and taipan,OL11 1PN,53.606923419555200,-2.154463995198540
Kangaroo and Black jay,OL11 1RH,53.605958252330300,-2.157090101796860
Rat and Meadowlark,OL11 1TP,53.602025173922100,-2.154189199795470
diamondback turtle and ringhals,OL11 2AS,53.590981000000000,-2.151337000000000
Chipmunk and python,OL11 2DX,53.591720700727500,-2.150208495927380
brown snake and Skunk,OL11 2EL,53.595933617233600,-2.145025878736360
agama and sidewinder,OL11 2HQ,53.598310861921100,-2.155852873969570
gopher snake and moloch,OL11 2SY,53.590211824137000,-2.175719236291550
Moluccan boobook and taipan,OL11 2TX,53.586931674998000,-2.175327958254680
lizard and Quetzal,OL11 2XJ,53.584102000000000,-2.175029000000000
Kākāriki and snapping turtle,OL11 2XP,53.584233599360500,-2.170211254044890
galliwasp and blue racer,OL11 2XX,53.582430000000000,-2.174961040449030
bearded dragon and anaconda,OL11 3BG,53.590266436366600,-2.181278929931730
carpet snake and Myna,OL11 3BS,53.590942062142700,-2.186146437093040
alligator and bearded dragon,OL11 3BZ,53.589455794851900,-2.182393370564400
indigo snake and Triller,OL11 3DT,53.595267000000000,-2.180061000000000
Eagle and turtle,OL11 3ED,53.593306510807500,-2.179932210884430
Old World quail and tuatara,OL11 3EN,53.601690000000000,-2.176447000000000
Dorcopsis and Treepie,OL11 3HB,53.599539364809600,-2.177269055559040
cobra and rat snake,OL11 3JU,53.601596651265800,-2.183896426497080
Guillemot and Prion,OL11 3LJ,53.601287142321600,-2.186418647379830
asp and Mouse,OL11 3PA,53.598723397961400,-2.187752158183160
Linsang and Moluccan boobook,OL11 3PZ,53.604687784626400,-2.166047025981900
tortoise and Jerboa,OL11 3RF,53.605111800192500,-2.164915251161140
horned toad and Fox,OL11 3UB,53.609998020277900,-2.160808119030410
Grosbeak and dukite,OL11 4BU,53.611724000000000,-2.180464000000000
slowworm and iguana,OL11 4EB,53.614336976891100,-2.175275371329050
constrictor and New World blackbird,OL11 4HG,53.611668851596600,-2.168054505854710
cobra de capello and perentie,OL11 4NT,53.602966471266300,-2.187362982391090
diamondback and Treepie,OL11 4QJ,53.605366866100700,-2.175162611396840
Stint and bull snake,OL11 4QZ,53.602933347729700,-2.185549423428850
mud turtle and chameleon,OL11 5AE,53.622356915102300,-2.179693068835420
Buzzard and loggerhead,OL11 5BD,53.621252752095100,-2.178766155596820
cobra de capello and coral snake,OL11 5BG,53.620184466899700,-2.177884795620470
anaconda and massasauga,OL11 5JG,53.611662000000000,-2.207217000000000
Schneider python and Parrotbill,OL11 5PB,53.607679102509200,-2.212562904160460
Kite and cobra de capello,OL11 5PH,53.623476900976600,-2.214547377249870
diamond python and turtle,OL11 5QN,53.619015440166400,-2.211350048157540
leathery turtle and Grouse,OL11 5QY,53.614744033950500,-2.207217000000000
constrictor and sand viper,OL11 5SQ,53.619143368847700,-2.204986194064730
milk snake and slowworm,OL11 5UF,53.627426250705500,-2.217576417140640
Dolphin and alligator,OL11 5UN,53.627899144160000,-2.251434099424350
Komodo dragon and cobra de capello,OL11 5WL,53.622556642436900,-2.211443354063910
Pratincole and B,OL11 5XA,53.623592865502300,-2.209981981620690
Magpie and Prion,OL11 5XR,53.622335195663700,-2.199075147418260
Marmoset and Stilt,OL11 5XS,53.622269903437000,-2.200495995472090
Mole and Jay,OL12 0BU,53.631273760799200,-2.153524775553800
turtle and Bunting,OL12 0EJ,53.628323275466500,-2.148267120256720
River dolphin and copperhead,OL12 0HE,53.622828000000000,-2.151995489646440
asp and amphisbaena,OL12 0NS,53.619681000000000,-2.159454000000000
Old World quail and bicycle lizard,OL12 0NX,53.621497374352000,-2.158266648954350
Mink and crocodile,OL12 0QA,53.624872868541500,-2.161318337206810
Songlark and pit viper,OL12 0QJ,53.625108390332600,-2.159958465391170
Condor and diamond python,OL12 0QQ,53.624434256411400,-2.159971031649360
Mink and Rat,OL12 0QX,53.623099680506200,-2.156050000000000
frilled lizard and Booted eagles,OL12 0RL,53.625738027993300,-2.159613092280140
Rabbit and sidewinder,OL12 0RY,53.624633910486500,-2.158535434190250
blindworm and Partridge,OL12 0ST,53.634319521638000,-2.161293937478100
mamba and bull snake,OL12 0UW,53.622295496744900,-2.152615000000000
rat snake and Ground sloth,OL12 6AA,53.616637000000000,-2.170236000000000
Jackal and Jerboa,OL12 6AL,53.630850000000000,-2.174981000000000
Logrunners and lizard,OL12 6HU,53.626725431486900,-2.160584520788000
Recurvebill and blind snake,OL12 6HX,53.626652201444500,-2.161567057557920
Komodo dragon and Petrel,OL12 6JS,53.629512375090400,-2.160141481209960
Grosbeak and anole,OL12 6NJ,53.631881803580100,-2.169178364039950
snapping turtle and Tit-tyrant,OL12 6NS,53.629493843487700,-2.167112307452400
Badger and Jackal,OL12 6RG,53.619659005528500,-2.161827546494940
anole and White ibis,OL12 6SH,53.619183172162900,-2.167948337861480
Partridge and crocodile,OL12 6TT,53.618068339232600,-2.168155546417720
Mole and sand lizard,OL12 7AR,53.622981549596300,-2.182689273315520
Kestrel and Armadillo,OL12 7EB,53.627467846165600,-2.181922408988510
Capuchin and Songlark,OL12 7ED,53.629354877454600,-2.182248082215590
whip snake and diamondback,OL12 7EJ,53.625300645674700,-2.176621161083880
Komodo dragon and Bunting,OL12 7ET,53.624718350802400,-2.175303325811100
Partridge and krait,OL12 7HT,53.635857777432300,-2.179327059362140
perentie and Piping shrike,OL12 7HX,53.637485154883300,-2.178986116527590
krait and Parakeet,OL12 7LG,53.627925251422900,-2.182574568914420
kabaragoya and Vulture,OL12 7NF,53.624288033263000,-2.186293000000000
Shearwater and Chickadee,OL12 7QQ,53.623233003645900,-2.199684138531570
mountain devil and Myna,OL12 7RZ,53.628290523408600,-2.211789588904060
Peafowl and Duck,OL12 7SB,53.628076571409200,-2.210790546412930
cayman and water snake,OL12 7SQ,53.628533890238000,-2.200979352449720
bearded lizard and cycling lizard,OL12 7SW,53.628317286217900,-2.216915688870530
Goose and Boto,OL12 7TW,53.629539042264900,-2.226947372166080
jew lizard and tortoise,OL12 8BE,53.662387585878700,-2.175520366941430
sand viper and New World blackbird,OL12 8DB,53.664799382738600,-2.173487328161560
Night heron and loggerhead,OL12 8JH,53.662267000000000,-2.172433000000000
milk snake and Linsang,OL12 8LP,53.669044545392500,-2.171295000000000
Treepie and Vulture,OL12 8NX,53.675269000000000,-2.168838000000000
swift and Prion,OL12 8QT,53.661628043680600,-2.172460390611650
box turtle and Nukupuʻu,OL12 8SE,53.642336778661600,-2.180322635012340
gavial and Capuchin,OL12 8SG,53.643100930712300,-2.180220016325380
diamond python and box turtle,OL12 8TZ,53.653704527061600,-2.181853940969710
Old World vulture and asp,OL12 8UQ,53.650790664866700,-2.183082000000000
American sparrow and Eagle,OL12 9AG,53.635641000000000,-2.132580000000000
copperhead and American sparrow,OL12 9AX,53.634814748400100,-2.131200761877880
indigo snake and snapping turtle,OL12 9EG,53.644383317067600,-2.126450520797780
Fish eagle and gopher snake,OL12 9EU,53.640100000000000,-2.121234000000000
goanna and bicycle lizard,OL12 9EY,53.634844252581100,-2.136947653519150
fer-de-lance and diamondback,OL12 9HL,53.639041469322300,-2.137188143587220
Stilt and box turtle,OL12 9JU,53.647386666607800,-2.133524133809730
Puffleg and Civet,OL12 9JW,53.648377211840800,-2.131863189217250
Kestrel and Maya,OL12 9PR,53.644469025994900,-2.145888460130500
Warbler and Buzzard,OL12 9QA,53.638612000000000,-2.119824425633490
turtle and Parakeet,OL12 9SE,53.632780000000000,-2.135580000000000
milk snake and rattlesnake,OL12 9UD,53.637225497435400,-2.159217926103110
Bronzewing pigeon and Zebra,OL12 9UT,53.636933190810000,-2.125414892845250
Mole and python,OL13 0BJ,53.696731527891500,-2.203727741411980
Crow and dukite,OL13 0BY,53.693820633901100,-2.202986742623280
Vole and Fish eagle,OL13 0DE,53.692732744771200,-2.203178373622790
green turtle and New World blackbird,OL13 0HG,53.691152130222400,-2.217768940198980
constrictor and Shearwater,OL13 0HR,53.689743149764300,-2.216580519225760
Darwin's finches and mud turtle,OL13 0LH,53.690871193974300,-2.228640342177950
Chicken and chuckwalla,OL13 0NP,53.690625284040500,-2.239481514548220
saltwater crocodile and cobra de capello,OL13 0NY,53.691986020794400,-2.233144054018960
snake and Wader,OL13 0PB,53.689051531205000,-2.235368929632380
Diving bird and king snake,OL13 0PH,53.691071753800000,-2.224825581300000
Kākāriki and Dorcopsis,OL13 0QZ,53.693327420640800,-2.222565724797670
tiger snake and soft-shelled turtle,OL13 0RG,53.693127282352200,-2.223851913013310
cycling lizard and dugite,OL13 0TT,53.692348889338000,-2.217033078343770
Scimitar babbler and cycling lizard,OL13 0UB,53.692613972306900,-2.219533182521520
cayman and swift,OL13 3SH,53.693461963723800,-2.207725141610840
Capuchin and Jerboa,OL13 3SS,53.693466515700000,-2.207725430300000
Kestrel and Old World quail,OL13 8BQ,53.705234167268700,-2.203799157080310
Eagle and Thrasher,OL13 8DZ,53.708052189074400,-2.200995001097890
Scimitar babbler and Greenbul,OL13 8GE,53.726271287339500,-2.195428817488130
Marsh harrier and Black jay,OL13 8GU,53.702719496610300,-2.202620634819400
alligator and thorn lizard,OL13 8NJ,53.696833376877700,-2.222251041719510
Kangaroo and frill-necked lizard,OL13 9AA,53.703530950582400,-2.201124906648470
Jackal and Fish eagle,OL13 9AW,53.703317950989800,-2.199503084637340
Fish eagle and carpet snake,OL13 9AY,53.690187214900000,-2.184964484100000
puff adder and deaf adder,OL13 9DF,53.705737271639400,-2.198590479495910
Lemming and elapid,OL13 9EN,53.704966965460300,-2.191436849390090
Mole and Maya,OL13 9EQ,53.705492325008600,-2.194393000000000
hawksbill and Viscacha,OL13 9EW,53.705102028430500,-2.191285979736600
gavial and Tattler,OL13 9LL,53.703405026160000,-2.190187636294310
diamondback and Treepie,OL13 9NF,53.703305037705600,-2.196443186884190
fer-de-lance and Petrel,OL13 9NR,53.699742747557300,-2.198259294473860
Argus and elapid,OL13 9PL,53.695782118752500,-2.190804462223370
Old World vulture and Snipe,OL13 9QD,53.695124490001800,-2.197268300240510
frill-necked lizard and Buzzard,OL13 9QF,53.695833470948100,-2.197922855338910
Bunting and giant tortoise,OL13 9QG,53.697693120189400,-2.198461689851800
Linsang and Herring gull,OL13 9QL,53.698886540351400,-2.199663854672970
Viscacha and diamondback,OL13 9RE,53.694994993771000,-2.194011578813800
Mamo and Rat,OL13 9SE,53.689810000000000,-2.176831000000000
Siskin and Songlark,OL13 9SZ,53.691234596176900,-2.178866040615090
Solitaire and saltwater crocodile,OL13 9TJ,53.693849056849500,-2.191189461261480
goanna and Macaw,OL13 9TZ,53.710135926818300,-2.185218480507540
Boto and alligator,OL14 5AP,53.713790452135400,-2.096825789069110
Buzzard and bandy-bandy,OL14 5EW,53.717711643030400,-2.093834552334050
Bunting and giant tortoise,OL14 5HA,53.716298795574000,-2.095998185604480
Bronzewing pigeon and Tahr,OL14 5HX,53.718498000000000,-2.101004000517060
Badger and Quetzal,OL14 5LD,53.719129142094400,-2.097110844189390
worm lizard and python,OL14 5LJ,53.720328985004000,-2.102568984413910
Grouse and water snake,OL14 5LL,53.717698674034800,-2.098774354543290
Kangaroo and frill-necked lizard,OL14 5RX,53.716406072040500,-2.084891727931950
tiger snake and death adder,OL14 6AH,53.713576871906000,-2.081961799225370
horned viper and boomslang,OL14 6AJ,53.713376768075900,-2.085340149278050
Night heron and tree snake,OL14 6AR,53.713151860222600,-2.085627565893530
Dorcopsis and viper,OL14 6BD,53.683540000000000,-2.093546000000000
Grouse and Logrunners,OL14 6HH,53.714095003796500,-2.056569000000000
rattlesnake and Quetzal,OL14 6JL,53.709023126000200,-2.089982281635420
agamid and iguana,OL14 6LG,53.710543000000000,-2.101333419938670
Komodo dragon and black snake,OL14 6NF,53.712354300389500,-2.094398332727560
boa constrictor and Parrotlet,OL14 6NH,53.710780423764800,-2.095606829408820
garter snake and fer-de-lance,OL14 6NR,53.712228191560100,-2.094746520110190
flying lizard and cycling lizard,OL14 6PD,53.703437170608400,-2.106223848041050
Minke whale and Pheasant,OL14 6QA,53.697831427724600,-2.102983660413650
diamond snake and Cuscus,OL14 6QW,53.696142704107500,-2.101767918922170
blindworm and Magpie,OL14 6QX,53.693594481343600,-2.096461287501030
Old World quail and Stint,OL14 6SJ,53.694633933268700,-2.100310391626980
garter snake and Jay,OL14 6TJ,53.688683834717800,-2.100265927300740
wall lizard and Duck,OL14 6TT,53.686379177643200,-2.093749545706500
water snake and Capuchin,OL14 6UF,53.685281947379100,-2.094610151231520
leathery turtle and dugite,OL14 7BD,53.714139961278600,-2.097842000000000
Puffleg and leathery turtle,OL14 7EG,53.732805724760600,-2.144769800945730
jew lizard and alligator,OL14 7ER,53.730119553862800,-2.151020533685440
Condor and Darwin's finches,OL14 7LB,53.712719196930900,-2.098868716614000
leathery turtle and amphisbaena,OL14 7NF,53.707807098554300,-2.104280621009010
Fox and amphisbaena,OL14 7PB,53.706475745934400,-2.105549822330940
Old World quail and Fish eagle,OL14 7PX,53.701414094647600,-2.107066973635790
green turtle and Eagle,OL14 7QU,53.694462000000000,-2.102642000000000
Logrunners and frill-necked lizard,OL14 7RS,53.688470321176600,-2.117573138872860
Quetzal and frilled lizard,OL14 7ST,53.692637949884400,-2.101047683479670
Elephant and thorny devil,OL14 7TL,53.682000000000000,-2.097570000000000
Logrunners and Dorcopsis,OL14 7TP,53.691324279705800,-2.102695158761790
Asiatic leopard and chuckwalla,OL14 7UA,53.687903000000000,-2.100415000000000
rattlesnake and Recurvebill,OL14 7UR,53.687746922688100,-2.102792426702750
gavial and dukite,OL14 8AE,53.718599877741600,-2.083880896066640
Diving bird and mamba,OL14 8AS,53.720576381753200,-2.071398037093770
Peafowl and brown snake,OL14 8BS,53.720272655605500,-2.094582803997410
galliwasp and viper,OL14 8EB,53.721771023306000,-2.108285681324830
Gila monster and American sparrow,OL14 8HE,53.726345210425400,-2.118346000000000
Crow and Parrotlet,OL14 8HP,53.727281978022300,-2.116499435182880
leguaan and Puffleg,OL14 8JA,53.727215000000000,-2.121880000000000
brown snake and saltwater crocodile,OL14 8LF,53.732192418196200,-2.138735000000000
New World blackbird and Quetzal,OL14 8LY,53.732569703920200,-2.139160450476950
Wallaby and kabaragoya,OL14 8QA,53.733839897078000,-2.144318600577100
goanna and mamba,OL14 8RF,53.725343625958500,-2.079953901774810
slowworm and carpet snake,OL14 8SA,53.738439434288200,-2.113088964801510
Parrotbill and taipan,OL14 8ST,53.732147000000000,-2.050151000000000
bandy-bandy and green turtle,OL15 0AF,53.627305269548400,-2.118113344253990
goanna and Schneider python,OL15 0AL,53.626729189038000,-2.087553000000000
king snake and Nukupuʻu,OL15 0AZ,53.634614137121600,-2.096492687926250
agama and Jerboa,OL15 0DW,53.633748130225500,-2.100301642105650
Tit-tyrant and anaconda,OL15 0DX,53.633377543711100,-2.112701316370020
Black jay and Chipmunk,OL15 0HL,53.645216931545900,-2.089150172829980
thorny devil and Skunk,OL15 0HX,53.645379000000000,-2.086941000000000
Stint and Lemming,OL15 0LQ,53.644754214495300,-2.068471002448250
Solitaire and slowworm,OL15 8AH,53.642439155597900,-2.100972726863850
Moluccan boobook and anole,OL15 8AQ,53.642765262091500,-2.097933184672110
Thicketbird and Condor,OL15 8BG,53.645166000000000,-2.098362000000000
Civet and Viscacha,OL15 8EP,53.649614371194300,-2.108221305381010
frilled lizard and Asiatic leopard,OL15 8HA,53.648009117171000,-2.113980901404450
dukite and bull snake,OL15 8HB,53.648243198470600,-2.113573079500340
cobra and Kite,OL15 8JL,53.642105421294100,-2.102348370940680
bandy-bandy and Fulmarine petrel,OL15 8LD,53.642196225680400,-2.111363558000090
Magpie and harlequin snake,OL15 8LX,53.640729576064900,-2.113038589450120
Kestrel and Crow,OL15 8NT,53.645358884952600,-2.112627443326420
Jackal and Duck,OL15 8NU,53.643744616445800,-2.108735663775590
Rat and Perching duck,OL15 8PE,53.641453632050600,-2.107625594457740
Pitohui and cobra de capello,OL15 8PW,53.639325120557400,-2.115439662261800
skink and Towhee,OL15 8QT,53.633696188177000,-2.108316571996900
Partridge and Schneider python,OL15 8RL,53.644595983053000,-2.111460654530090
death adder and rattlesnake,OL15 8SD,53.640655000000000,-2.107155105930630
king cobra and loggerhead,OL15 9EH,53.645095570465700,-2.095003994850690
glass snake and leguaan,OL15 9JS,53.651238394938000,-2.101205609356860
whip snake and American sparrow,OL15 9NP,53.655706281420500,-2.088960537940920
skink and Nukupuʻu,OL15 9NX,53.653972169610100,-2.099578133718260
Mouse and Flameback,OL15 9PP,53.657416509113700,-2.085574754103330
Parrotbill and Snipe,OL15 9PQ,53.654936295315200,-2.084843459620690
massasauga and Guillemot,OL15 9PZ,53.659266041180000,-2.088362779515570
perentie and Pitohui,OL15 9QE,53.660362214071000,-2.088879576584530
Jackal and Eagle,OL15 9QH,53.661479813387700,-2.084659916005540
gaboon viper and smooth snake,OL15 9QW,53.662127907848800,-2.083314389321330
Fox and Jerboa,OL15 9RA,53.663512441029800,-2.082802592529740
indigo snake and horned viper,OL15 9RL,53.662073989499500,-2.083299149756660
Kite and Black jay,OL16 1LA,53.619353633782800,-2.154872269010710
Hawaiian honeycreeper and Hawaiian honeycreeper,OL16 1LL,53.616455857710300,-2.157749000000000
Francolin and mountain devil,OL16 1NL,53.615694534983000,-2.156007000000000
terrapin and Solitaire,OL16 1ST,53.614495857254600,-2.151075488737280
River dolphin and blindworm,OL16 1TQ,53.616239988183300,-2.150749162922230
gecko and Argus,OL16 1TU,53.616820000000000,-2.154802000000000
swift and caiman,OL16 1UP,53.612309912258100,-2.159380981916850
puff adder and Buzzard,OL16 1YL,53.619270077570000,-2.156912837979970
amethystine python and fer-de-lance,OL16 1ZL,53.611534000000000,-2.148783000000000
Ground sloth and Chickadee,OL16 2BQ,53.625331000000000,-2.139818000000000
smooth snake and Mockingbird,OL16 2BY,53.618998504471900,-2.151439295067800
galliwasp and diamondback turtle,OL16 2DT,53.623376000000000,-2.145120000000000
gopher snake and Bronzewing pigeon,OL16 2EX,53.620517114597100,-2.144505560050300
American sparrow and Nukupuʻu,OL16 2HW,53.618650250235800,-2.149623961816800
Kangaroo and cerastes,OL16 2LU,53.623411969853700,-2.144077000000000
Mole and Myna,OL16 2LZ,53.625383506649300,-2.141362179783940
anaconda and Grouse,OL16 2NJ,53.627746970035500,-2.141732987829620
amphisbaena and amethystine python,OL16 2NU,53.630206420951300,-2.136872121535030
Chicken and loggerhead,OL16 2RY,53.636452903286500,-2.120483129059870
Parrotbill and puff adder,OL16 2SG,53.636307464833700,-2.122085823714280
Boto and Pratincole,OL16 2TU,53.622025235221700,-2.130541156412320
Diving bird and Chickadee,OL16 2US,53.621663073186800,-2.132777000000000
habu and Peafowl,OL16 2XH,53.622487681784200,-2.134987495771850
adder and Pheasant,OL16 3BL,53.616000620992900,-2.124460848546570
Old World warbler and soft-shelled turtle,OL16 3DS,53.611068736770700,-2.102771895650610
Fish eagle and Eagle,OL16 3DU,53.611309498738400,-2.104979234122960
frilled lizard and bearded lizard,OL16 3EP,53.614121742349900,-2.106060000000000
Boto and Pheasant,OL16 3ER,53.613169821011300,-2.105255937449620
Chipmunk and Logrunners,OL16 3JG,53.613271475572800,-2.112073255976990
chameleon and bearded dragon,OL16 3LW,53.613535980340900,-2.117424858880900
Recurvebill and Meadowlark,OL16 3LZ,53.611823000000000,-2.114458000000000
wall lizard and glass snake,OL16 3NJ,53.609965972393000,-2.109601000000000
garter snake and amphisbaena,OL16 3NP,53.606733798002600,-2.105753739729800
soft-shelled turtle and Logrunners,OL16 3PE,53.607130596119300,-2.104258521710570
bandy-bandy and cayman,OL16 3PS,53.605557800842800,-2.104088398895460
anole and Petrel,OL16 3SY,53.596016260753300,-2.087958391195380
Scimitar babbler and puff adder,OL16 3XE,53.615946107576600,-2.116116434645780
American sparrow and Darwin's finches,OL16 4DA,53.611304029100700,-2.120305568505680
Ground sloth and king cobra,OL16 4EL,53.605507170996400,-2.110420483249380
cayman and Elephant,OL16 4HN,53.610547917235900,-2.112202057594900
dugite and Pitohui,OL16 4HZ,53.608052503138400,-2.108613509004160
gavial and indigo snake,OL16 5AP,53.612677522300000,-2.142272175100000
diamondback and gavial,OL16 5BL,53.614742727397100,-2.132393026732960
Greenbul and Mockingbird,OL16 5HH,53.611619501771600,-2.136222411421960
python and anaconda,OL16 5HJ,53.611098770367100,-2.135706833367530
asp and Kākāriki,OL16 5JF,53.607902703100000,-2.143994153200000
horned viper and goanna,OL16 5JP,53.606998560778600,-2.144701135637780
milk snake and rock python,OL16 5LD,53.607334676066700,-2.141740074075170
caiman and bushmaster,OL16 5NB,53.610181000000000,-2.145362000000000
agamid and constrictor,OL16 5QQ,53.610534874313500,-2.141418292055850
Marmoset and thorny devil,OL16 5QR,53.612644440229100,-2.150947946519970
leathery turtle and box turtle,OL16 5SP,53.611862696553800,-2.143463254697910
bandy-bandy and fer-de-lance,OL16 9AJ,53.611534000000000,-2.148783000000000
Civet and wall lizard,OL16 9SD,53.615565000000000,-2.159272000000000
thorny devil and harlequin snake,OL16 9SE,53.615690099222600,-2.158925127492100
iguana and cobra,OL2 5SB,53.575041174278600,-2.132721780330090
Wallaby and Parrotlet,OL2 5UN,53.582551000000000,-2.137609000000000
New World blackbird and brown snake,OL2 6SZ,53.576057024861600,-2.124207343888510
leguaan and Linsang,OL2 6TP,53.575682562046400,-2.129793997668080
Parrotbill and blue tongue,OL2 6XG,53.581671613781300,-2.135325403135280
elapid and Snipe,OL2 6YG,53.581990422257400,-2.123122160819920
puff adder and Pratincole,OL2 7AG,53.576278909066900,-2.098307642493100
wall lizard and bicycle lizard,OL2 7DR,53.579281051247500,-2.108615086993540
blue racer and Treepie,OL2 7GA,53.581123638500700,-2.098258496670670
carpet snake and turtle,OL2 7HG,53.582416363351400,-2.110360153575170
dukite and agama,OL2 7HQ,53.580682669912100,-2.109222841119170
galliwasp and skink,OL2 7JF,53.579394631274600,-2.102136039012300
boa and Masked owl,OL2 7JN,53.579431318059800,-2.101275235646870
viper and bearded lizard,OL2 7JP,53.580032992226200,-2.101911027908380
snake and Thicketbird,OL2 7LY,53.582726108892500,-2.115481403010450
mountain devil and Old World vulture,OL2 7PJ,53.583305205163200,-2.111434911634110
tortoise and Black cockatoo,OL2 7QY,53.584875500598400,-2.104430187634380
king cobra and rock python,OL2 7UP,53.584508015006100,-2.092269611178020
green turtle and Condor,OL2 7UX,53.585603820095000,-2.093375000000000
giant tortoise and chameleon,OL2 7UZ,53.583889097965500,-2.090606714213090
Stilt and Chicken,OL2 7XD,53.583991107217000,-2.098008379693730
python and cobra,OL2 7YF,53.585587586143400,-2.102105690547120
Quetzal and thorn lizard,OL2 7YT,53.583040902034100,-2.094849302905260
deaf adder and Komodo dragon,OL2 8AL,53.579916000000000,-2.092139000000000
Buzzard and skink,OL2 8HF,53.580881000000000,-2.087459000000000
Myna and rock python,OL2 8LR,53.581706744388600,-2.075074939346850
Flameback and bearded lizard,OL2 8LT,53.583486876899500,-2.074353073754970
Greenbul and Fulmarine petrel,OL2 8NE,53.583242310697000,-2.077313168977120
Marsh harrier and thorn lizard,OL2 8NH,53.577028452416800,-2.093944760040990
American sparrow and Goose,OL2 8PB,53.577344315341600,-2.092314378846300
Marmoset and green turtle,OL2 8PE,53.584327064245200,-2.081559691475120
Fox and giant tortoise,OL2 8QW,53.575331522697800,-2.091721000000000
gopher snake and Fulmarine petrel,OL2 8QX,53.578106508553600,-2.094626786967350
anole and Linsang,OL2 8QY,53.576272044804500,-2.095694938627600
agamid and lizard,OL2 8TL,53.582279526735200,-2.078897366206700
Prion and diamond python,OL3 5LZ,53.581523502722300,-2.006970000000000
Puffleg and Komodo dragon,OL3 5SE,53.593120424246800,-2.041162121607730
taipan and bearded lizard,OL3 5TD,53.579592000000000,-2.046118000000000
