name,postcode,lat,lon
leathery turtle and Moluccan boobook,BB10 1AB,53.796650270000000,-2.243046126000000
Kestrel and Boto,BB10 1AD,53.797117050000000,-2.243337277000000
Hawaiian honeycreeper and Dorcopsis,BB10 1DQ,53.798147190000000,-2.240610509000000
Petrel and blue racer,BB10 3JF,53.790836030000000,-2.219241803000000
Darwin's finches and bull snake,BB10 3JN,53.791303440000000,-2.198615447000000
Badger and Wallaby,BB10 3LB,53.795702410000000,-2.226812162000000
cayman and rock snake,BB10 3NA,53.789185740000000,-2.190955404000000
Old World warbler and Mockingbird,BB10 3NQ,53.788378900000000,-2.189646398000000
mountain devil and Ice seal,BB10 3PU,53.789071600000000,-2.189254884000000
boa constrictor and adder,BB10 4AE,53.787987820000000,-2.233008743000000
Solitaire and B,BB10 4BE,53.791494000000000,-2.233224772000000
turtle and Peafowl,BB10 4DS,53.787404540000000,-2.227844990000000
smooth snake and frill-necked lizard,BB10 4HR,53.784798740000000,-2.207675736000000
blue tongue and crocodile,BB10 4LG,53.787750090000000,-2.220910465000000
Boto and thorn lizard,BB10 4LT,53.787835380000000,-2.223384952000000
adder and Hawaiian honeycreeper,BB10 4PF,53.785018770000000,-2.220349724000000
Chipmunk and deaf adder,BB10 4PY,53.791226530000000,-2.221945770000000
constrictor and hognose snake,BB10 4QP,53.789397340000000,-2.224425412000000
horned viper and gopher snake,BB10 4QW,53.788906470000000,-2.227352246000000
Stint and Puffleg,BB10 4RS,53.772916160000000,-2.180199837000000
dugite and Buzzard,BB11 1DW,53.788640620000000,-2.243713166000000
Armadillo and Marsh harrier,BB11 1EL,53.791916000000000,-2.240651000000000
blind snake and Crow,BB11 1HD,53.787992340000000,-2.244270998000000
Petrel and Duck,BB11 1HG,53.788129000000000,-2.243847000000000
Mink and garter snake,BB11 1HW,53.787273160000000,-2.244342706000000
Grosbeak and rattlesnake,BB11 1JG,53.786524000000000,-2.246251000000000
garter snake and loggerhead,BB11 1JH,53.788435650000000,-2.242846809000000
crocodile and Logrunners,BB11 1JY,53.786829990000000,-2.245690951000000
thorny devil and bushmaster,BB11 1NU,53.789369139932700,-2.245493000000000
Stint and Vole,BB11 1PB,53.789843000000000,-2.245253000000000
Stint and Grackle,BB11 1PP,53.789849140000000,-2.246088083000000
soft-shelled turtle and Grosbeak,BB11 1PQ,53.790942690000000,-2.247536521000000
Songlark and Buzzard,BB11 1PW,53.790746430000000,-2.246821942000000
Puffleg and Marmoset,BB11 1QW,53.790281430000000,-2.245665603000000
Tahr and cerastes,BB11 1RN,53.788668120000000,-2.252137368000000
bearded dragon and Partridge,BB11 1RW,53.789698680000000,-2.249305113000000
Minke whale and massasauga,BB11 2EE,53.788520650000000,-2.240813395000000
cerastes and Rabbit,BB11 2GA,53.790929280000000,-2.240887922000000
Egret and blue tongue,BB11 2LW,53.781716560000000,-2.245327179000000
box turtle and Grosbeak,BB11 2PJ,53.778575680000000,-2.251621563000000
Marsh harrier and boomslang,BB11 2QF,53.774678820000000,-2.254010804000000
Rabbit and tree snake,BB11 2RD,53.775451660000000,-2.241026800000000
green turtle and asp,BB11 2RH,53.775158290000000,-2.239416718000000
bull snake and python,BB11 2SB,53.792772180000000,-2.236192713000000
Gull and diamondback terrapin,BB11 2SD,53.792653840000000,-2.236951042000000
Fox and tokay,BB11 2SF,53.791898370000000,-2.237189654000000
hoop snake and Zebra,BB11 3AA,53.788386570000000,-2.236396000000000
Asiatic leopard and flying lizard,BB11 3BP,53.788240750000000,-2.236941325000000
blue racer and Pitohui,BB11 3BX,53.788201600000000,-2.233996517000000
Gull and Old World vulture,BB11 3DP,53.791041900000000,-2.233951624000000
Asiatic leopard and bicycle lizard,BB11 3EF,53.779389250000000,-2.231489072000000
Kangaroo and Civet,BB11 3EQ,53.779947490000000,-2.230976187000000
hognose snake and Logrunners,BB11 3HD,53.777004120000000,-2.233190621000000
Old World quail and Zebra,BB11 3LE,53.782477710000000,-2.237819395000000
Stilt and adder,BB11 3LP,53.783295420000000,-2.237915083000000
Herring gull and asp,BB11 3LY,53.782132000000000,-2.236102000000000
bicycle lizard and bushmaster,BB11 3NQ,53.780695400000000,-2.234622436000000
sea snake and garter snake,BB11 3QQ,53.779469730000000,-2.236300031000000
bearded dragon and Thrasher,BB11 3QU,53.763882000000000,-2.219207000000000
Cloud rat and boomslang,BB11 4HE,53.775240410000000,-2.256199199000000
viper and racer,BB11 4HY,53.785941620000000,-2.249343526000000
leathery turtle and alligator,BB11 4HZ,53.775239140000000,-2.256790962000000
taipan and amethystine python,BB11 4JY,53.784851020000000,-2.255058812000000
Fulmarine petrel and Bronzewing pigeon,BB11 4QT,53.775770590000000,-2.260420748000000
blue tongue and New World blackbird,BB11 4SD,53.787258080000000,-2.251628032000000
Rat and diamondback turtle,BB11 5HJ,53.773832850000000,-2.258724527000000
Herring gull and Pratincole,BB11 9SJ,53.787596100000000,-2.244648146000000
dukite and whip snake,BB11 9SW,53.787596100000000,-2.244648146000000
thorn lizard and Tree warbler,BB11 9TH,53.787600699187000,-2.244648443995920
anaconda and smooth snake,BB12 0AF,53.798345000000000,-2.245515000000000
hawksbill and Pitohui,BB12 0BX,53.799808180000000,-2.245918711000000
Parrotbill and loggerhead,BB12 0JT,53.796980990000000,-2.261007705000000
turtle and Grouse,BB12 0TW,53.796224350000000,-2.257617598000000
Towhee and Argus,BB4 7AE,53.680388000000000,-2.248643000000000
blindworm and Condor,BB4 7DE,53.688849100000000,-2.250949464000000
Tit-tyrant and giant tortoise,BB4 7DG,53.689035140000000,-2.252237692000000
Buzzard and leguaan,BB4 7ED,53.683002030000000,-2.244570824000000
Hawk and boomslang,BB4 7HH,53.692861000000000,-2.254152762000000
goanna and Songlark,BB4 9AD,53.693024000000000,-2.253850645000000
rock python and chuckwalla,BB4 9BB,53.694567700000000,-2.249923387000000
Kestrel and Bronzewing pigeon,BB4 9BJ,53.694662680000000,-2.247470522000000
Masked owl and Grouse,BB4 9BW,53.695341640000000,-2.245111910000000
Badger and White ibis,BB4 9BZ,53.693902330000000,-2.241181000000000
leguaan and Parrotlet,BB4 9ER,53.697695460000000,-2.254243315000000
monitor and Mouse,BB4 9HH,53.699069380000000,-2.259022658000000
glass snake and snake,BB4 9NJ,53.733079210000000,-2.237934307000000
Chickadee and horned viper,BB4 9QU,53.731570780000000,-2.241639460000000
harlequin snake and tuatara,BB4 9RJ,53.728878440000000,-2.239608137000000
Peafowl and Stilt,BB4 9RU,53.721720000000000,-2.241947000000000
frilled lizard and Tree warbler,BB4 9SP,53.696865370000000,-2.247180547000000
Elephant and racer,BB4 9SR,53.697099280000000,-2.247075900000000
Argus and cerastes,BB4 9TA,53.701628180000000,-2.247617455000000
Perching duck and Triller,BD13 1JD,53.773374840000000,-1.859856357000000
python and mud turtle,BD13 1LL,53.774092750000000,-1.858898060000000
Thicketbird and Tahr,BD13 1LQ,53.774571060000000,-1.860565527000000
Petrel and Logrunners,BD13 1NS,53.773396560000000,-1.863103288000000
Crow and Logrunners,BD13 2DH,53.762087630000000,-1.861350078000000
Minke whale and thorny devil,BD13 2HW,53.769609460000000,-1.852844446000000
Grouse and Lemming,BD13 2JP,53.769889850000000,-1.854284774000000
Dorcopsis and blindworm,BD13 2JR,53.771232320000000,-1.856995946000000
Tattler and tokay,BD13 2JW,53.769792900000000,-1.855878129000000
leguaan and Grackle,BD13 2LZ,53.762105750000000,-1.853886947000000
boa constrictor and blue racer,BD13 2QF,53.769839960000000,-1.850264463000000
leguaan and Civet,BD13 3JG,53.791027910000000,-1.852891064000000
Crow and kabaragoya,BD13 3JJ,53.791109830000000,-1.853740819000000
soft-shelled turtle and Magpie,BD13 3JY,53.790145820000000,-1.851861975000000
diamond python and Chipmunk,BD13 3ND,53.790363060000000,-1.853105892000000
Snipe and wall lizard,BD13 3NL,53.790958660000000,-1.855077118000000
Puffleg and coral snake,BD13 3NQ,53.791568310000000,-1.853815124000000
Masked owl and hognose snake,BD13 3NT,53.793611830000000,-1.856510109000000
galliwasp and blind snake,BD13 3QB,53.791704390000000,-1.870770000000000
bushmaster and River dolphin,BD13 3QX,53.794442930000000,-1.859892000000000
chuckwalla and rock python,BD13 3QZ,53.794191870000000,-1.860591666000000
carpet snake and puff adder,BD13 4DP,53.799121180000000,-1.900747440000000
horned toad and flying lizard,BD13 4EP,53.792885000000000,-1.890818496000000
River dolphin and blindworm,BD13 4FD,53.798759000000000,-1.900068000000000
Marmoset and Minke whale,BD13 4HG,53.787288660000000,-1.885718797000000
green turtle and Partridge,BL9 7JJ,53.587803300000000,-2.259458996000000
Treepie and gavial,BL9 7RT,53.602829260000000,-2.260593875000000
hawksbill and American sparrow,BL9 7RX,53.601006070000000,-2.259932865000000
Kestrel and frilled lizard,BL9 7SW,53.601266140000000,-2.260206464000000
Elephant and Booted eagles,BL9 7TE,53.602395530000000,-2.253292301000000
Macaw and rock snake,BL9 7TF,53.602416420000000,-2.251917270000000
Kite and tiger snake,HD3 3XN,53.658466444827000,-1.855909421345140
Meadowlark and Egret,HD3 3YA,53.661213530385200,-1.853191334372180
jew lizard and gopher snake,HD3 3YW,53.657811104439700,-1.872495641303440
lizard and Badger,HD7 4DQ,53.639139354692000,-1.853857716261350
American sparrow and Piping shrike,HD7 4FB,53.639989000000000,-1.859920000000000
mountain devil and sand viper,HD7 4NB,53.640801347429300,-1.860718863436070
Jerboa and Pratincole,HD7 4NU,53.644846371692000,-1.868995012559280
Skunk and sand viper,HD7 4NX,53.644611568455800,-1.867377000000000
Bronzewing pigeon and Rabbit,HD7 4PG,53.641779681803500,-1.859884000000000
sidewinder and Mockingbird,HD7 4PZ,53.638937282002800,-1.857730317034370
Tahr and Chipmunk,HD7 4QN,53.642014000000000,-1.851942000000000
Schneider python and Parrotlet,HD7 5AN,53.622846249472800,-1.880599000000000
bandy-bandy and Jay,HD7 5AR,53.621960000000000,-1.883368000000000
frilled lizard and Dorcopsis,HD7 5ED,53.624097861821900,-1.883165000000000
harlequin snake and amphisbaena,HD7 5EQ,53.624986550301300,-1.881726000000000
leathery turtle and brown snake,HD7 5LW,53.621697362791700,-1.873299726090110
agamid and cobra de capello,HD7 5NF,53.624379152060700,-1.860092460839070
Francolin and pit viper,HD7 5NY,53.622399530105200,-1.858209156298910
Francolin and mountain devil,HD7 5RT,53.627014268568900,-1.853869293953560
ringhals and hawksbill,HD7 5SE,53.625868631810000,-1.850516615234710
Moluccan boobook and loggerhead,HD7 5UR,53.630202954423500,-1.884932974261560
B and Philippine hawk-owl,HD7 5WE,53.619797000000000,-1.885959000000000
green turtle and slowworm,HD7 6AF,53.604383223097100,-1.922511000000000
boa and rat snake,HD7 6AJ,53.604258119129100,-1.924098664180180
lizard and king snake,HD7 6BU,53.600350958281500,-1.928412000000000
terrapin and blue racer,HD7 6DD,53.600755626704700,-1.928879987935270
tokay and Marsh harrier,HD7 6DP,53.600975339005800,-1.935981813106250
constrictor and frill-necked lizard,HD7 6LW,53.609460005422000,-1.907947532317760
Old World quail and Marmoset,HD7 6NR,53.607241000000000,-1.956934866242850
blindworm and carpet snake,HD7 6NW,53.591799682972000,-1.922987831228400
Dorcopsis and Siskin,HD9 4ER,53.591146830857100,-1.850367031645190
Mink and loggerhead,HD9 4NJ,53.592135631211900,-1.850439084045560
horned viper and dukite,HD9 5JB,53.592659880540100,-1.860317928702030
tiger snake and Parrotlet,HD9 5JP,53.590713652999100,-1.856290659613540
Maya and Recurvebill,HD9 5QY,53.596397350014700,-1.851466610222430
Puffleg and Francolin,HD9 5RA,53.596876254633100,-1.853519838700190
smooth snake and Mink,HD9 5RD,53.597666812233200,-1.853184691639400
skink and Kākāriki,HX1 1LJ,53.721794901775700,-1.861952175184880
Komodo dragon and Black jay,HX1 1QW,53.722748495681100,-1.855053679268980
Wallaby and Myna,HX1 1YH,53.726251270942200,-1.860467481013840
Towhee and frill-necked lizard,HX1 2AZ,53.719109294554900,-1.863552056570670
crocodile and Nukupuʻu,HX1 2DF,53.715555112647200,-1.856927000000000
Linsang and gopher snake,HX1 2NZ,53.713231000000000,-1.862661327009530
Parrotbill and puff adder,HX1 2PJ,53.714504999443400,-1.861460839648780
worm lizard and blue racer,HX1 2TE,53.719286000000000,-1.868340000000000
taipan and python,HX1 2XU,53.724315209783800,-1.857382208773310
Old World vulture and Thrasher,HX1 2YD,53.712363392715800,-1.867255523479150
River dolphin and goanna,HX1 3AZ,53.716656523466700,-1.872621166695300
crocodile and Greenbul,HX1 3DZ,53.714103802283900,-1.872522801490630
Black jay and bandy-bandy,HX1 3EG,53.713727504794200,-1.873660294307560
Asiatic leopard and Chickadee,HX1 3ER,53.713542000000000,-1.876237000000000
boa constrictor and Grosbeak,HX1 3HE,53.713120997589800,-1.878192321123820
bandy-bandy and Moluccan boobook,HX1 3NP,53.716331050331700,-1.879486171074580
horned toad and Coati,HX1 3PJ,53.715911969573200,-1.883018000000000
tuatara and krait,HX1 3PU,53.716333488581000,-1.881940847892660
turtle and cobra de capello,HX1 3QH,53.717800565058600,-1.884012695597220
Mink and Rat,HX1 3RY,53.716067683646700,-1.885911486020940
diamondback and Flameback,HX1 3SB,53.715536825175700,-1.885321987955890
flying lizard and Asiatic leopard,HX1 3SU,53.715693000000000,-1.887383144893920
lizard and River dolphin,HX1 3TG,53.717204494243700,-1.890545137210570
saltwater crocodile and snapping turtle,HX1 3UE,53.718603348026200,-1.886995669236620
gaboon viper and sea snake,HX1 3XB,53.718285703848100,-1.874843756078420
Linsang and Prion,HX1 3YL,53.719632373615600,-1.882204394238970
Duck and soft-shelled turtle,HX1 4DY,53.720114793810500,-1.879248072273000
Piping shrike and Kestrel,HX1 4EX,53.720291739625900,-1.885551543751540
python and Chickadee,HX1 4GG,53.729509227231800,-1.886269490677360
Triller and Capuchin,HX1 4HN,53.720522934866300,-1.892582314804290
blue tongue and Jackal,HX1 4LH,53.721862299324200,-1.883107438200450
Cloud rat and copperhead,HX1 4NE,53.723165000000000,-1.881420995358640
tortoise and Recurvebill,HX1 4NP,53.725089000000000,-1.882189532179400
Wader and wall lizard,HX1 4NS,53.725698577121700,-1.881444847682720
Ice seal and Chickadee,HX1 4NT,53.723471101444500,-1.883042367045250
Gila monster and Masked owl,HX1 4QS,53.726515000000000,-1.887778000000000
Parakeet and iguana,HX1 4QW,53.725839851250200,-1.888173620037600
Chipmunk and Treepie,HX1 4RF,53.725702083367900,-1.885051903111350
Marmoset and Kestrel,HX1 4TJ,53.724034751982200,-1.889799997395690
chameleon and tokay,HX1 4YL,53.724315209783800,-1.857382208773310
Masked owl and goanna,HX1 5BD,53.723812706372300,-1.865901050088600
Komodo dragon and thorny devil,HX1 5DQ,53.722746674131700,-1.869117226252690
Meadowlark and sand viper,HX1 5DR,53.723388292083000,-1.864144428382950
Parrotbill and black snake,HX1 5JZ,53.722024179496500,-1.874302275316300
Solitaire and worm lizard,HX1 5PD,53.725821000000000,-1.876701299968250
cobra de capello and green turtle,HX1 5PJ,53.725560326490700,-1.878020050655910
Darwin's finches and worm lizard,HX1 5RA,53.727398000000000,-1.872210300936690
galliwasp and terrapin,HX2 0AR,53.723369000000000,-1.897652000000000
blind snake and anaconda,HX2 0EF,53.730334982301200,-1.889359154623990
Cuscus and Nukupuʻu,HX2 0EL,53.729707026618000,-1.890679473671700
massasauga and death adder,HX2 0EQ,53.730137175562900,-1.889283886080950
leguaan and Tattler,HX2 0HX,53.728254431530400,-1.894442000000000
B and Mole,HX2 0NS,53.726172989817600,-1.910300357173220
Kangaroo and gavial,HX2 0QF,53.728579622793400,-1.896426806876370
thorn lizard and dugite,HX2 0QN,53.730825370632600,-1.894966173850010
Tree warbler and Tree warbler,HX2 0SA,53.732522485965100,-1.903753702627310
gaboon viper and Siskin,HX2 0SB,53.732072950186700,-1.903587988331570
king cobra and Black cockatoo,HX2 0SR,53.736354000000000,-1.905170000000000
Old World vulture and Chickadee,HX2 0SX,53.731935916441500,-1.912440558351830
Dolphin and Wallaby,HX2 0TE,53.732717452989900,-1.890050193696470
king snake and boa,HX2 0TG,53.733280000000000,-1.895096074478320
Argus and Pratincole,HX2 0TJ,53.737338974070400,-1.902378336876870
cobra and Rabbit,HX2 0UG,53.743377498978700,-1.912159091268870
tortoise and Tree warbler,HX2 0UL,53.742331360495400,-1.919788000000000
sidewinder and Old World warbler,HX2 6AJ,53.724801951166100,-1.947782587764670
bearded dragon and Hawaiian honeycreeper,HX2 6BA,53.715521930955200,-1.938611869195870
saltwater crocodile and Shearwater,HX2 6BJ,53.713997633953700,-1.928962558877340
tiger snake and python,HX2 6DP,53.717970742711500,-1.938487324642900
Quetzal and bearded dragon,HX2 6EX,53.718140984064600,-1.945957282378840
Petrel and bearded lizard,HX2 6HQ,53.722097114390100,-1.949119511659470
Armadillo and Hawk,HX2 6HX,53.727261000000000,-1.958252438430300
Goose and death adder,HX2 6QY,53.731440914735600,-1.940832133412900
Siskin and hognose snake,HX2 6RP,53.729410000000000,-1.939137000000000
thorny devil and hognose snake,HX2 6SR,53.740919000000000,-1.931404000000000
boa and moloch,HX2 6TG,53.746073182810400,-1.940280963116070
cayman and mud turtle,HX2 6TH,53.743501619708900,-1.938328677939030
skink and Treepie,HX2 6US,53.737607247889800,-1.965367000000000
dugite and Parakeet,HX2 6UX,53.737501645659000,-1.946796689315040
Herring gull and bandy-bandy,HX2 7DB,53.713550723124600,-1.885600101775560
boa and racer,HX2 7ED,53.709941082693200,-1.880049795032340
Old World vulture and gecko,HX2 7NG,53.718561700097100,-1.900906388617290
Jerboa and python,HX2 7RG,53.723328115162500,-1.916322880363680
Eagle and rock python,HX2 7SP,53.724746686172900,-1.927807856875020
Duck and Macaw,HX2 7SY,53.739342440643100,-1.926403319588810
box turtle and lizard,HX2 7TG,53.752584284196900,-1.930550745329690
death adder and Eagle,HX2 7UW,53.753979917367000,-1.935007228714140
Parrotbill and asp,HX2 7YU,53.724315209783800,-1.857382208773310
thorn lizard and black snake,HX2 8BB,53.743181566259700,-1.882684525850640
Ice seal and American sparrow,HX2 8HG,53.748688366769300,-1.889129087092500
sidewinder and White ibis,HX2 8NB,53.747175000000000,-1.894243736200410
New World blackbird and soft-shelled turtle,HX2 8NE,53.744713000000000,-1.895552830975330
saltwater crocodile and Ibex,HX2 8PQ,53.744779129689900,-1.900010936683170
Night heron and Mole,HX2 8QL,53.747098404151400,-1.900445184330640
hognose snake and Marmoset,HX2 8RS,53.749684951226300,-1.909264745174830
rock python and mountain devil,HX2 8SJ,53.752804146464500,-1.909728173182190
Gila monster and Elephant,HX2 8ST,53.750464812149000,-1.918907782681490
frill-necked lizard and Jackal,HX2 8SU,53.751488507695100,-1.917525801594980
puff adder and Fish eagle,HX2 8SY,53.752208056339300,-1.918267494970490
chameleon and Diving bird,HX2 8TY,53.742278273814400,-1.897424207393490
Siskin and anaconda,HX2 8WF,53.757957000000000,-1.904517000000000
soft-shelled turtle and tuatara,HX2 8XA,53.760565446008200,-1.893436010009730
Rabbit and Tattler,HX2 8XD,53.769451074393800,-1.899800760647590
wall lizard and Dorcopsis,HX2 9EZ,53.753210546188800,-1.890436618166740
harlequin snake and Macaw,HX2 9HD,53.751863649881800,-1.891880803678850
gopher snake and Ice seal,HX2 9JB,53.762620926930800,-1.890351506725910
New World blackbird and mountain devil,HX2 9JD,53.762270519678200,-1.890488937455070
galliwasp and Schneider python,HX2 9JL,53.760837068624400,-1.895695413011180
Perching duck and goanna,HX2 9JQ,53.761400084141000,-1.892038392355720
slowworm and chameleon,HX2 9JY,53.756971169468900,-1.894491608073400
River dolphin and Mink,HX2 9LG,53.757226000000000,-1.896645000000000
massasauga and terrapin,HX2 9PF,53.766805220768300,-1.885926005687040
tuatara and Chipmunk,HX2 9PZ,53.759053331557500,-1.881563487606900
asp and frilled lizard,HX2 9QE,53.760329671644400,-1.881605409082320
turtle and Fish eagle,HX2 9QL,53.760080433203300,-1.884093678795070
Thrasher and Kangaroo,HX2 9QR,53.757859413513900,-1.883083570215960
Tattler and tokay,HX2 9RF,53.754851173931300,-1.885943156003510
Jay and Nukupuʻu,HX2 9SH,53.759039941384600,-1.886311026646990
Ibex and swift,HX2 9SZ,53.757728668171300,-1.878139404330630
Cuscus and agama,HX2 9UA,53.770266339249400,-1.877375000000000
River dolphin and flying dragon,HX2 9UX,53.764981104953200,-1.886401204694540
Mink and rock snake,HX3 0AL,53.710194622830000,-1.857126875387540
Mockingbird and Gila monster,HX3 0BA,53.712734422106700,-1.861527250108970
racer and snake,HX3 0DB,53.711692000000000,-1.861213832343800
chameleon and grass snake,HX3 0DJ,53.711426355394500,-1.865213135213550
goanna and fer-de-lance,HX3 0ED,53.709549591911900,-1.866779565067140
Armadillo and taipan,HX3 0GZ,53.712063141258300,-1.880922520488890
Duck and Cloud rat,HX3 0NP,53.709972515807700,-1.859324389147830
Francolin and Tit-tyrant,HX3 0PY,53.708295000000000,-1.854073000000000
Partridge and rattlesnake,HX3 0QH,53.699122000000000,-1.857255000000000
Schneider python and garter snake,HX3 0QT,53.702829752842600,-1.854122270873700
python and rat snake,HX3 0RU,53.703075262178300,-1.864194583981940
Condor and gavial,HX3 0SR,53.702242262072800,-1.858910849222460
Dolphin and fer-de-lance,HX3 0TA,53.724315209783800,-1.857382208773310
giant tortoise and Peafowl,HX3 0TU,53.699611744441600,-1.869506939604390
Crow and perentie,HX3 0TZ,53.700656340042900,-1.871336470392890
milk snake and Mockingbird,HX3 0UB,53.699189764856700,-1.869932336156790
bandy-bandy and frill-necked lizard,HX3 0UH,53.699592000000000,-1.875369000000000
brown snake and death adder,HX3 5DD,53.733420903690600,-1.874162241017110
Greenbul and terrapin,HX3 5EA,53.733333399806400,-1.876148000000000
gecko and saltwater crocodile,HX3 5JE,53.735921426058500,-1.884963449679320
agamid and perentie,HX3 5JR,53.735549801841900,-1.891270721606070
Duck and sidewinder,HX3 5JX,53.736260335506000,-1.891799476010160
diamondback and Pitohui,HX3 5QB,53.737073073566300,-1.877077202232920
Polecat and skink,HX3 5WG,53.727558468106800,-1.863888509482860
indigo snake and Black cockatoo,HX3 6AH,53.726921865579400,-1.850098437870290
Jackal and Philippine hawk-owl,HX3 6BD,53.729870430981500,-1.850482056315060
Zebra and bandy-bandy,HX3 6EG,53.731254071883700,-1.865225634353320
jew lizard and Quetzal,HX3 6JH,53.735843530377500,-1.862194264217820
box turtle and Mamo,HX3 6LP,53.734211456578100,-1.865504210481520
Kite and leathery turtle,HX3 6LZ,53.733531308166800,-1.868159124430250
rat snake and cerastes,HX3 6PB,53.737053562315600,-1.867193055388690
kabaragoya and blue racer,HX3 6PE,53.737487000000000,-1.868041000000000
diamond python and wall lizard,HX3 6QY,53.743519532646400,-1.879074995606440
perentie and Hawaiian honeycreeper,HX3 6RY,53.745682114471400,-1.875611652817340
agama and bearded dragon,HX3 6TL,53.737128650054500,-1.870103510200860
Fulmarine petrel and elapid,HX3 6UL,53.737639168760200,-1.868449495740590
Flameback and River dolphin,HX3 9AY,53.708550317536300,-1.850178779565800
puff adder and bicycle lizard,HX3 9EX,53.711108330058500,-1.854563351639720
alligator and Thrasher,HX3 9HB,53.715630456248000,-1.855184000000000
New World blackbird and Thicketbird,HX3 9HG,53.717536000000000,-1.854814000000000
Tattler and Rabbit,HX4 0AS,53.664690740335900,-1.917906695771340
Warbler and Schneider python,HX4 0BT,53.684706000000000,-1.902893000000000
Grackle and Mole,HX4 0DT,53.670368148194400,-1.927022623602410
rock python and Jackal,HX4 0JE,53.677182059768600,-1.914733720235690
bull snake and Grackle,HX4 8LW,53.685653579794900,-1.878437983971080
Civet and viper,HX4 8NP,53.681426624779800,-1.884990539164260
frill-necked lizard and Greenbul,HX4 8NX,53.683773835146800,-1.896294244930160
Flameback and anaconda,HX4 8PB,53.685409999139400,-1.886705814993160
diamondback turtle and Jay,HX4 8PL,53.689107912730300,-1.890799553744730
brown snake and copperhead,HX4 8PQ,53.687518852497300,-1.883202360448170
Masked owl and caiman,HX4 8QA,53.697186255220500,-1.879343851126890
Booted eagles and New World blackbird,HX4 8QQ,53.686016848182800,-1.873364542738720
Parrotbill and sea snake,HX4 9AB,53.673329264515200,-1.868422462568990
Gull and kabaragoya,HX4 9BG,53.674886196926000,-1.862180973040530
thorn lizard and cayman,HX4 9BH,53.676704000000000,-1.863159000000000
flying dragon and Kangaroo,HX4 9ED,53.676765164259700,-1.862568444173320
snapping turtle and Marmoset,HX4 9HQ,53.672514916197100,-1.880428352840990
Fish eagle and horned toad,HX4 9HS,53.669120952336300,-1.884055307221390
Kestrel and American sparrow,HX4 9JR,53.660651688224600,-1.881581653964690
Jackal and diamondback terrapin,HX4 9PZ,53.665783325604400,-1.900742367244110
rattlesnake and anaconda,HX6 1HQ,53.702732078527600,-1.939009090667430
Jerboa and iguana,HX6 1PQ,53.707725432232500,-1.949985000000000
black snake and green turtle,HX6 2AQ,53.708439703320500,-1.910565210397870
Grackle and cycling lizard,HX6 2BY,53.710860680431200,-1.903075794268010
Herring gull and Dorcopsis,HX6 2EL,53.710688491614000,-1.912969358771390
gopher snake and Francolin,HX6 2HA,53.712963583973400,-1.914510095024890
Asiatic leopard and caiman,HX6 2HX,53.713105577810300,-1.911994708098220
Piping shrike and krait,HX6 2JF,53.713942141836700,-1.912917209123130
box turtle and diamond snake,HX6 2LF,53.709805552237400,-1.910107821804340
rat snake and Perching duck,HX6 2PP,53.711069563263200,-1.905787250320150
snake and Chickadee,HX6 2RL,53.712987440065700,-1.923221964569840
slowworm and garter snake,HX6 2RR,53.713199681233300,-1.917964100067570
lizard and agama,HX6 2SP,53.714024750344900,-1.903401874846950
bearded dragon and worm lizard,HX6 2TY,53.714710284373300,-1.918855125518820
Lemming and White ibis,HX6 2UG,53.714343603044500,-1.921613428916450
Booted eagles and tortoise,HX6 3AH,53.707245848178400,-1.912688608480600
Flameback and Fox,HX6 3AT,53.706439528052700,-1.916356284534960
Philippine hawk-owl and Vulture,HX6 3DF,53.706363377449600,-1.910463558749730
diamond python and coral snake,HX6 3ER,53.689472208446900,-1.953792319919160
Nukupuʻu and garter snake,HX6 3GE,53.705827403131800,-1.915024418743790
Marmoset and Partridge,HX6 3PG,53.705224000000000,-1.911814000000000
Linsang and dukite,HX6 3PH,53.703271360347300,-1.923300180490240
galliwasp and Mink,HX6 3PR,53.705349020357700,-1.912222922202930
Tattler and thorn lizard,HX6 3QU,53.705854564730400,-1.903784000000000
monitor and amphisbaena,HX6 3RJ,53.700253075996700,-1.901055311095600
gopher snake and cycling lizard,HX6 4AE,53.682174463235300,-1.935571585041370
bearded dragon and Myna,HX6 4BW,53.670038000000000,-1.946775000000000
agamid and Asiatic leopard,HX6 4DZ,53.671942509007700,-1.946909181819730
boomslang and Piping shrike,HX6 4EU,53.665948667615600,-1.949837594601310
viper and anaconda,HX6 4HA,53.664271501416800,-1.959646000000000
Mink and New World blackbird,HX6 4NA,53.677369146146400,-1.942133804338620
Tattler and skink,HX6 4NF,53.684731785939900,-1.945030832302490
deaf adder and Wader,HX6 4QS,53.653745479841000,-1.956917673283960
Tattler and Mole,HX6 4RH,53.642713000000000,-1.969135000000000
agama and Masked owl,HX7 5AB,53.732623263634300,-1.988002852927990
tokay and Myna,HX7 5AJ,53.732290762033300,-1.988594111299040
box turtle and Marmoset,HX7 5AP,53.731751902745700,-1.994990888839660
Recurvebill and Masked owl,HX7 5BS,53.730044146328500,-1.994384789641080
Goose and perentie,HX7 5BT,53.732245972345900,-1.990640000000000
Pheasant and River dolphin,HX7 5ER,53.726529464144600,-1.989126095452700
flying lizard and bearded dragon,HX7 5EU,53.725738577940900,-1.989868925841140
bandy-bandy and Grackle,HX7 5HF,53.726295080132400,-1.983033466405500
bull snake and Tahr,HX7 5HH,53.727310779340400,-1.983381658880140
monitor and Tahr,HX7 5HS,53.728200609819100,-1.983472253303150
puff adder and Chicken,HX7 5JF,53.727175441973400,-1.979956397291870
mamba and Fish eagle,HX7 5QT,53.735561000000000,-1.974828530821950
Masked owl and Pratincole,HX7 5SY,53.706001151690700,-2.001204732388630
garter snake and Goose,HX7 6BX,53.743738762533400,-2.027815736909860
Towhee and boa constrictor,HX7 6DF,53.750855321229400,-2.035220894415710
death adder and cerastes,HX7 6DS,53.742993484140900,-2.024509935308810
tokay and Nukupuʻu,HX7 6NH,53.737391725897100,-2.033541961119760
boomslang and Stint,HX7 6PQ,53.736644852465200,-2.036482336680700
skink and coral snake,HX7 6QA,53.739712000000000,-2.030739000000000
Greenbul and cerastes,HX7 7AF,53.756424000000000,-2.012475000000000
Schneider python and cobra,HX7 7AX,53.778518289394000,-2.041769367215160
Chipmunk and Eagle,HX7 7HF,53.753775281182400,-2.038908652195880
Kite and Eagle,HX7 7NJ,53.749474375264200,-2.021966000000000
water snake and Logrunners,HX7 7NS,53.748988902469500,-2.022496635814540
water snake and horned viper,HX7 7NW,53.750166647296300,-2.020783680346060
Lemming and Egret,HX7 7PJ,53.759024682909600,-2.075558757556110
water snake and indigo snake,HX7 8BG,53.741961883213500,-2.011076171406290
anole and Rat,HX7 8BN,53.742159729986700,-2.009848131173790
Egret and alligator,HX7 8HA,53.744424749500200,-2.009439288387310
saltwater crocodile and rat snake,HX7 8LR,53.746554592416700,-2.012821179352520
agama and boa constrictor,HX7 8NB,53.748451185907000,-2.011684475116780
Condor and bearded lizard,HX7 8NR,53.733212271605000,-1.998992786826420
dugite and fer-de-lance,HX7 8QP,53.761565117201800,-2.006424679950530
taipan and gopher snake,HX7 8SH,53.750006710385200,-1.999659489244000
tokay and Parakeet,HX7 8WF,53.740649309415600,-2.014062555663030
green turtle and ringhals,HX7 8WJ,53.740649309415600,-2.014062555663030
water snake and elapid,M24 2UD,53.576318879000600,-2.173698244191510
rock snake and boa,OL10 1AQ,53.591631552433100,-2.219462037940810
green turtle and Prion,OL10 1BB,53.590750625383400,-2.219502790401630
Dolphin and dugite,OL10 1DL,53.591122000000000,-2.213416000000000
Piping shrike and Polecat,OL10 1FJ,53.591893871314600,-2.218556928493690
tokay and snake,OL10 1FY,53.591387299000000,-2.202570678100000
Francolin and Grosbeak,OL10 1HA,53.592306615300400,-2.223801531993040
agamid and sand viper,OL10 1JQ,53.593699814105100,-2.223793794186240
Tree warbler and fer-de-lance,OL10 1PD,53.592297148463500,-2.214253237380870
coral snake and Pitohui,OL10 1PJ,53.591698926179400,-2.212014258079880
galliwasp and Greenbul,OL10 1QP,53.596408426757000,-2.201734000000000
anole and blind snake,OL10 2AS,53.584689512143200,-2.211193661629630
Thrasher and Warbler,OL10 2AY,53.583829305752600,-2.214739033970970
Ice seal and puff adder,OL10 2BB,53.586199000000000,-2.212062000000000
fer-de-lance and Fish eagle,OL10 2BH,53.584575300506600,-2.214757924982670
Puffleg and boa,OL10 2BJ,53.585634686302400,-2.215443054047000
alligator and Cuscus,OL10 2EY,53.585908564277400,-2.207982232109290
Wallaby and Asiatic leopard,OL10 2LN,53.577930943101900,-2.205677598396080
Old World quail and Egret,OL10 2LP,53.579100595894200,-2.210168954981800
Skunk and Towhee,OL10 2LR,53.579988886265000,-2.211049374577710
goanna and Peafowl,OL10 2NH,53.580756891556900,-2.208772521155410
garter snake and alligator,OL10 2PD,53.582591102840400,-2.218493776159530
amphisbaena and Parrotbill,OL10 2PJ,53.585247951913500,-2.220501416588320
bearded dragon and soft-shelled turtle,OL10 2PX,53.578394000000000,-2.213715000000000
Egret and smooth snake,OL10 2TA,53.584728000000000,-2.229637000000000
Zebra and Perching duck,OL10 2TD,53.576593356123500,-2.219882438836780
snapping turtle and Asiatic leopard,OL10 2TR,53.580638306652100,-2.247362214993270
Dolphin and Chickadee,OL10 3AR,53.589353048220600,-2.226671332603510
gecko and rock python,OL10 3BL,53.589980528502400,-2.227566016668310
diamond snake and Grouse,OL10 3DB,53.591370230867000,-2.234024460339760
Pitohui and soft-shelled turtle,OL10 3DL,53.588390740749200,-2.231651352506310
sand lizard and Rabbit,OL10 3EG,53.592985824701200,-2.225874952661420
Gull and Kākāriki,OL10 3EW,53.591273705753100,-2.228162169674360
cobra and elapid,OL10 3HS,53.591483543902700,-2.235822903012400
caiman and Tit-tyrant,OL10 3JD,53.591548361961300,-2.239388686344840
fer-de-lance and Viscacha,OL10 3LX,53.588903011901900,-2.240778650182650
giant tortoise and Thicketbird,OL10 3QQ,53.586500234155400,-2.242215146912380
dukite and Black jay,OL10 3RF,53.590070898218600,-2.241072332830350
Piping shrike and Asiatic leopard,OL10 3RJ,53.589288633066200,-2.236717084427260
galliwasp and wall lizard,OL10 3SQ,53.586478869821400,-2.239435536527040
goanna and gavial,OL10 4BU,53.594709229862600,-2.207330497470190
Coati and brown snake,OL10 4DP,53.596017878417900,-2.204224395532830
Magpie and Diving bird,OL10 4HB,53.594876014780600,-2.219629959779020
Grosbeak and hoop snake,OL10 4JN,53.596599013594700,-2.216209046290250
coral snake and Flameback,OL10 4NB,53.593794868894700,-2.221014329907340
diamondback terrapin and Linsang,OL10 4PY,53.594783566944900,-2.230538084392090
leathery turtle and Mamo,OL10 4SH,53.594488315415700,-2.238997385625750
Francolin and slowworm,OL10 4TL,53.598311430813000,-2.228215242315520
Peafowl and Tree warbler,OL10 4TQ,53.599702807129500,-2.229159608879980
Kestrel and hognose snake,OL10 9BL,53.592646000000000,-2.219677000000000
smooth snake and Dolphin,OL11 1ER,53.611931480000000,-2.156674233200000
Cloud rat and Thrasher,OL11 1HN,53.610308067909200,-2.157469017705700
Stint and Piping shrike,OL11 1JL,53.608714017877400,-2.152959157966440
Skunk and Jackal,OL11 1JN,53.608829641823300,-2.153911750024260
Prion and White ibis,OL11 1JT,53.607726000000000,-2.152971000000000
amethystine python and Mole,OL11 1NH,53.605244238740000,-2.153203513328440
green turtle and Bunting,OL11 1NT,53.608415247475800,-2.154635699132990
caiman and Herring gull,OL11 1NY,53.606287625932400,-2.152361000000000
Old World warbler and Darwin's finches,OL11 1QD,53.606741039822500,-2.156473373561580
whip snake and Tree warbler,OL11 1QW,53.604441264172700,-2.162298206900170
Macaw and bushmaster,OL11 1TS,53.601986866988900,-2.156002430811080
Bunting and tuatara,OL11 1TW,53.602745359399700,-2.153315348844240
king cobra and Capuchin,OL11 2AY,53.597283000000000,-2.145015000000000
moloch and Fish eagle,OL11 2AZ,53.589764114631200,-2.140472598635750
alligator and Night heron,OL11 2BA,53.590141000000000,-2.141939000000000
Vole and diamond python,OL11 2BE,53.590990000000000,-2.151987000000000
Ibex and River dolphin,OL11 2DH,53.595520679643200,-2.151838672559940
Parakeet and Kākāriki,OL11 2EQ,53.593946095097800,-2.145940682075860
Pheasant and leathery turtle,OL11 2QA,53.594520000000000,-2.168076413200000
Old World vulture and Kite,OL11 2QS,53.595746019429800,-2.158275999369730
Marmoset and Myna,OL11 2RP,53.593452856979600,-2.159143701178130
caiman and Goose,OL11 2WJ,53.586902000000000,-2.176821000000000
Kestrel and Songlark,OL11 2XB,53.584567436654100,-2.175544737521470
Nukupuʻu and brown snake,OL11 2XN,53.583913505228400,-2.174031525926830
Perching duck and Minke whale,OL11 2XR,53.583449091581000,-2.171975360666240
sand viper and Gull,OL11 2YG,53.582363204623900,-2.170792801082580
Fish eagle and tree snake,OL11 3AT,53.591984969083000,-2.180107882763220
bearded dragon and snake,OL11 3AU,53.591295000000000,-2.179379012277790
pit viper and mountain devil,OL11 3BL,53.590400800953800,-2.181581651717770
Goose and loggerhead,OL11 3DT,53.595267000000000,-2.180061000000000
Rat and worm lizard,OL11 3LB,53.599512385130100,-2.183237607957460
New World blackbird and Vulture,OL11 3LT,53.598307652588300,-2.189200883541470
Kangaroo and king snake,OL11 3PE,53.598830472012700,-2.188251273647860
Pratincole and Grosbeak,OL11 3RT,53.606695656575200,-2.163515912412370
brown snake and bull snake,OL11 3SG,53.606220436677500,-2.162667749443180
Grouse and perentie,OL11 3TG,53.609010048705200,-2.160260257980540
python and Herring gull,OL11 3TR,53.608315879267400,-2.161799221246100
cobra de capello and Chipmunk,OL11 4AB,53.604348000000000,-2.206275000000000
viper and dukite,OL11 4AU,53.610636717308800,-2.196919000000000
sand lizard and Mink,OL11 4BW,53.607744593948300,-2.205958637525850
black snake and Condor,OL11 4DB,53.610839872890500,-2.181745025976100
New World blackbird and tortoise,OL11 4DS,53.611266858705300,-2.190377380520340
Jay and Black jay,OL11 4EU,53.614254328214100,-2.170271696407270
bicycle lizard and blue tongue,OL11 4HS,53.611919000000000,-2.170066000000000
Francolin and Magpie,OL11 4JU,53.609815142402800,-2.163104784418390
Argus and Old World warbler,OL11 4LL,53.607105381505500,-2.166222769775690
death adder and Chickadee,OL11 4NE,53.605442488170300,-2.172608885109410
whip snake and diamondback terrapin,OL11 4PF,53.603325944508200,-2.175562176114420
lizard and Diving bird,OL11 4QB,53.607365832901200,-2.172707419676790
Old World vulture and Fulmarine petrel,OL11 4QE,53.607461648585800,-2.174808571223430
Stint and galliwasp,OL11 4RF,53.605270514689400,-2.185408555495440
alligator and Gull,OL11 5BN,53.618016000000000,-2.172734000000000
Schneider python and Piping shrike,OL11 5BT,53.619868000000000,-2.173968000000000
boa constrictor and Logrunners,OL11 5BY,53.617079060947800,-2.175045000000000
Stilt and hognose snake,OL11 5DR,53.619120670096800,-2.180011890830320
Marsh harrier and Grackle,OL11 5JA,53.609467790077000,-2.207433101209340
amethystine python and diamondback turtle,OL11 5LZ,53.613884715666100,-2.194545984797140
Thrasher and asp,OL11 5NG,53.626008810258500,-2.216087355960610
cobra and Cloud rat,OL11 5NR,53.623031951239700,-2.217054864451610
Parrotbill and Partridge,OL11 5PR,53.613944374730000,-2.207182987475760
bushmaster and soft-shelled turtle,OL11 5QN,53.619015440166400,-2.211350048157540
Darwin's finches and puff adder,OL11 5SD,53.620466389967300,-2.209165189681310
Black cockatoo and cobra de capello,OL11 5TN,53.627707799716000,-2.220889284332090
Civet and Tahr,OL11 5WG,53.621181667705200,-2.211315527627870
mountain devil and Songlark,OL11 5XH,53.625085503223700,-2.204455594840510
Diving bird and Grosbeak,OL11 5XQ,53.625542448321800,-2.205304517675480
tortoise and Gila monster,OL11 5XT,53.621561709357600,-2.199373871610420
Civet and River dolphin,OL11 5YA,53.621169470996100,-2.203001000000000
Vole and Tattler,OL11 5YB,53.622303770460700,-2.201735888755950
bandy-bandy and anole,OL12 0AA,53.628810000000000,-2.154801000000000
diamondback turtle and monitor,OL12 0AD,53.627676000000000,-2.156007000000000
Siskin and Moluccan boobook,OL12 0AH,53.629504522184800,-2.152399369995580
cobra de capello and Tit-tyrant,OL12 0AL,53.633963925000000,-2.154910996100000
worm lizard and Civet,OL12 0DP,53.621885943142000,-2.149680780300050
horned viper and rat snake,OL12 0NG,53.621938495182700,-2.157739152619160
Peafowl and Dolphin,OL12 0PJ,53.621659821442100,-2.157768348809880
constrictor and blue tongue,OL12 0PS,53.622402663474300,-2.160159880489220
Songlark and Kite,OL12 0PW,53.621784615589700,-2.158554976625430
blindworm and Thicketbird,OL12 0RQ,53.625578190515800,-2.158145862766650
green turtle and taipan,OL12 0SJ,53.633106302499500,-2.161153199925300
diamondback turtle and Buzzard,OL12 0SS,53.634470517158900,-2.162625340938300
New World blackbird and saltwater crocodile,OL12 6BP,53.630579000000000,-2.198736000000000
gavial and Marmoset,OL12 6DR,53.636612826008300,-2.173205127437550
saltwater crocodile and Coati,OL12 6EE,53.637414801805200,-2.171801877545660
Herring gull and king snake,OL12 6EW,53.630019289203800,-2.157451787791580
perentie and Old World warbler,OL12 6HB,53.633201968257700,-2.163512686937590
pit viper and hognose snake,OL12 6HP,53.628381740873700,-2.158730954330300
Cloud rat and anole,OL12 6JP,53.626405602447100,-2.164438941990310
Argus and Capuchin,OL12 6ND,53.630888917003800,-2.172108005970780
saltwater crocodile and asp,OL12 6PN,53.620148345761700,-2.165487955442720
Black jay and horned viper,OL12 6PS,53.620568116455000,-2.167409593642290
king cobra and krait,OL12 6QJ,53.622339085035600,-2.167204950482400
Treepie and sea snake,OL12 6QL,53.621738499730800,-2.166038450304420
harlequin snake and Jackal,OL12 6RJ,53.620207244105600,-2.161859882610220
Maya and Minke whale,OL12 6SZ,53.619212377934300,-2.166345990822860
American sparrow and Treepie,OL12 7AB,53.620214357759600,-2.169690999953510
New World blackbird and blindworm,OL12 7AG,53.620433921500800,-2.173274851284480
Bronzewing pigeon and puff adder,OL12 7BX,53.623271763871500,-2.174949584911870
turtle and American sparrow,OL12 7HW,53.634491350511200,-2.179472486859410
Mockingbird and Badger,OL12 7PN,53.626111546155300,-2.192803001625860
Marsh harrier and iguana,OL12 7SE,53.626885809240900,-2.208123427143930
python and Parakeet,OL12 7SY,53.626911106418900,-2.203874736787360
sea snake and Tree warbler,OL12 7TP,53.630301366240200,-2.227828517615690
Puffleg and Bunting,OL12 7TQ,53.631899551678600,-2.223980994324860
gaboon viper and diamond python,OL12 7UY,53.632116721272600,-2.174577927132290
Herring gull and Prion,OL12 7WD,53.611534000000000,-2.148783000000000
brown snake and Mouse,OL12 8BS,53.691160000000000,-2.160800000000000
Marsh harrier and Old World vulture,OL12 8DF,53.664951344956600,-2.174063043043340
Ibex and elapid,OL12 8DG,53.664924248398300,-2.174153734818260
mud turtle and slowworm,OL12 8DL,53.666823109867900,-2.172527037455780
Old World vulture and frill-necked lizard,OL12 8DU,53.664973168797200,-2.171399557848360
Magpie and alligator,OL12 8HQ,53.681790476109100,-2.164670085166740
elapid and anole,OL12 8JD,53.686211026630900,-2.165732000000000
leathery turtle and Herring gull,OL12 8NF,53.674702562125100,-2.168441895540660
agama and perentie,OL12 8NR,53.676372379238200,-2.169841266388370
chuckwalla and horned viper,OL12 8NS,53.676070951991000,-2.173200671950320
Polecat and Piping shrike,OL12 8PW,53.654925570755800,-2.176760274246640
Moluccan boobook and Booted eagles,OL12 8QN,53.659405000000000,-2.175263638552190
hoop snake and flying dragon,OL12 8QQ,53.655833729376600,-2.176521987949230
pit viper and milk snake,OL12 8QY,53.660962857200900,-2.172503068637500
Crow and Scimitar babbler,OL12 8SE,53.642336778661600,-2.180322635012340
Scimitar babbler and Chicken,OL12 8SZ,53.652265374535400,-2.176552448889940
Old World warbler and Scimitar babbler,OL12 8TN,53.655388145678800,-2.179985012554890
Marsh harrier and rock python,OL12 8UE,53.654673536748500,-2.182977756587340
Macaw and cycling lizard,OL12 8UF,53.651575000000000,-2.181860000000000
Gila monster and cycling lizard,OL12 9AH,53.638345699707700,-2.132316000000000
Wader and Maya,OL12 9DL,53.633302131850700,-2.141358451418890
gopher snake and flying lizard,OL12 9DS,53.625255148932300,-2.143478512399560
Meadowlark and Black cockatoo,OL12 9DZ,53.633412792705400,-2.138969443781340
mamba and Wallaby,OL12 9EE,53.632020309392700,-2.138375095734250
Marsh harrier and coral snake,OL12 9PS,53.639988000000000,-2.143771000000000
gaboon viper and Hawk,OL12 9PW,53.647663629009500,-2.157078911129280
grass snake and python,OL12 9RW,53.631455049093500,-2.137511291862460
frilled lizard and soft-shelled turtle,OL12 9TZ,53.637218574240300,-2.157660126784110
leathery turtle and Diving bird,OL13 0AX,53.699334143443800,-2.200741361748670
Diving bird and Triller,OL13 0BE,53.697310074078000,-2.201776762025630
chameleon and Prion,OL13 0BH,53.696005000000000,-2.203194000000000
blue tongue and frilled lizard,OL13 0BT,53.692943051900800,-2.201059229318460
jew lizard and horned viper,OL13 0EB,53.691760900111500,-2.209049391329120
coral snake and green turtle,OL13 0ET,53.692198720695500,-2.215578507562970
Recurvebill and Jerboa,OL13 0NB,53.692040214518500,-2.233008060713050
copperhead and hoop snake,OL13 0NH,53.691400643681400,-2.238289587251980
flying lizard and gavial,OL13 0PD,53.690427743230600,-2.234846605216330
Coati and Komodo dragon,OL13 0PZ,53.690885702478100,-2.225732915657580
grass snake and Bunting,OL13 0SP,53.692566739659600,-2.230315364027700
grass snake and Siskin,OL13 0TB,53.693042000000000,-2.231409361961580
Warbler and Chicken,OL13 0UJ,53.691636059103700,-2.223419974745230
Fish eagle and Bronzewing pigeon,OL13 3SA,53.693461963723800,-2.207725141610840
Ibex and blind snake,OL13 3SQ,53.693461963723800,-2.207725141610840
tree snake and Goose,OL13 8AA,53.703917003284300,-2.201384264542500
turtle and leguaan,OL13 8AL,53.704489267612500,-2.203144183650050
Bunting and Grosbeak,OL13 8BQ,53.705234167268700,-2.203799157080310
agama and massasauga,OL13 8DS,53.708040903053000,-2.202358393948800
puff adder and goanna,OL13 8EL,53.707386000000000,-2.202204312199270
diamondback terrapin and sand viper,OL13 8HH,53.702603318315000,-2.202226242217080
Triller and New World blackbird,OL13 8HP,53.697149502247700,-2.206334787874680
python and Diving bird,OL13 8JE,53.694133825893600,-2.209015728623710
Thicketbird and Minke whale,OL13 8JH,53.695034557387900,-2.207914630044730
Snipe and Chickadee,OL13 8LW,53.693484002827300,-2.220522086400520
habu and Meadowlark,OL13 8NH,53.695815358534400,-2.223517855076820
Piping shrike and Maya,OL13 8QD,53.722664584433100,-2.196942693826750
monitor and Stilt,OL13 8RZ,53.724105374017800,-2.195297520144540
Chicken and tuatara,OL13 9DD,53.705215864650900,-2.198648614894640
massasauga and Nukupuʻu,OL13 9EQ,53.705492325008600,-2.194393000000000
Pheasant and krait,OL13 9HG,53.708308450304100,-2.192588000000000
viper and Black jay,OL13 9HW,53.705632008110300,-2.191485317579870
Bunting and Herring gull,OL13 9JS,53.701251097425200,-2.193782890121160
caiman and Warbler,OL13 9JT,53.701493185434400,-2.194147532994610
Triller and Crow,OL13 9PS,53.696306463418700,-2.194502263464530
bicycle lizard and leathery turtle,OL13 9PT,53.698927600628100,-2.191030753165990
hognose snake and sand viper,OL13 9PW,53.694606584907000,-2.189602717321320
Viscacha and thorny devil,OL13 9QE,53.695835095457000,-2.196832000000000
Scimitar babbler and diamondback terrapin,OL13 9TP,53.693416878613600,-2.191656969228220
Goose and Hawaiian honeycreeper,OL13 9TX,53.708585897705500,-2.187832544148260
Shearwater and rattlesnake,OL14 5AW,53.714141975007700,-2.095736000000000
Elephant and Magpie,OL14 5BH,53.714918994141100,-2.090404000293660
Mockingbird and Schneider python,OL14 5DT,53.717477893815500,-2.093909794514420
Schneider python and diamondback,OL14 5HH,53.716612877208600,-2.096620153802290
water snake and puff adder,OL14 5LF,53.716259878823200,-2.074921000000000
Rat and Asiatic leopard,OL14 5NU,53.721912455455600,-2.100724013832170
horned viper and ringhals,OL14 5NZ,53.724898232037600,-2.108521000000000
alligator and gavial,OL14 5PB,53.723849018627100,-2.106336028749640
gecko and goanna,OL14 5TB,53.716739000000000,-2.085923000000000
Goose and Elephant,OL14 6DG,53.720880000000000,-2.059624216476590
Marsh harrier and Diving bird,OL14 6HF,53.715875112037900,-2.055889000000000
indigo snake and perentie,OL14 6JE,53.707356346993500,-2.068951711226250
anaconda and hognose snake,OL14 6LF,53.711595838193000,-2.098684267856090
gopher snake and fer-de-lance,OL14 6PW,53.704356321244200,-2.103529813059400
bushmaster and soft-shelled turtle,OL14 6QA,53.697831427724600,-2.102983660413650
Scimitar babbler and Greenbul,OL14 6QG,53.697713980068200,-2.103680074231960
bushmaster and Jay,OL14 6QJ,53.696510672565200,-2.102404909103190
Pitohui and tuatara,OL14 6QR,53.696189267296000,-2.099844599860150
gaboon viper and Thicketbird,OL14 6RP,53.697632083006000,-2.104830941836950
whip snake and soft-shelled turtle,OL14 6SW,53.694463337212400,-2.100097961852590
anole and kabaragoya,OL14 6UA,53.687624260983600,-2.099036896913490
elapid and Night heron,OL14 6UY,53.677812391038400,-2.083088078133610
agamid and Marsh harrier,OL14 7AZ,53.715047407241800,-2.098510544656300
king snake and Towhee,OL14 7DL,53.725725365386000,-2.118207722019920
water snake and Black jay,OL14 7DQ,53.723194913334900,-2.113896636728290
Gull and galliwasp,OL14 7DT,53.716360038856500,-2.098059048469980
Black cockatoo and Vulture,OL14 7ES,53.728806000000000,-2.145832000000000
Polecat and Tit-tyrant,OL14 7ET,53.731743940974500,-2.152951420778100
swift and anaconda,OL14 7HL,53.710658864658300,-2.137345711409410
Vole and Vole,OL14 7HX,53.710854746865000,-2.138952293401100
Chickadee and whip snake,OL14 7JS,53.706491789357000,-2.107716145443710
Mockingbird and bushmaster,OL14 7LD,53.712251515822600,-2.099231238747430
cobra de capello and giant tortoise,OL14 7QJ,53.694181776809600,-2.103535073431350
Shearwater and deaf adder,OL14 7TG,53.693114062686500,-2.101351707091580
sea snake and frill-necked lizard,OL14 8AA,53.718732212850700,-2.074046716725400
Old World vulture and Masked owl,OL14 8AG,53.719134049003600,-2.078654000000000
flying dragon and Goose,OL14 8AW,53.717404000000000,-2.085530000000000
Darwin's finches and moloch,OL14 8AY,53.727797099963600,-2.122684710418640
carpet snake and Pitohui,OL14 8BD,53.719786637729100,-2.095415158902240
terrapin and Prion,OL14 8HS,53.726581763785100,-2.115618444239690
Black cockatoo and gopher snake,OL14 8HY,53.727184620364100,-2.114498000000000
sand viper and ringhals,OL14 8JF,53.727377586715700,-2.128458052340170
tokay and viper,OL14 8JQ,53.729596537039900,-2.129480358308100
Argus and Grosbeak,OL14 8JY,53.732258921566400,-2.135854956712680
frilled lizard and Mouse,OL14 8QD,53.732570994077900,-2.152833162295560
dukite and elapid,OL15 0AJ,53.630477146433500,-2.087984890400690
Solitaire and flying dragon,OL15 0DH,53.631759474638700,-2.102958394122170
Shearwater and blue racer,OL15 0ED,53.630913704426900,-2.113828866759130
rock python and blindworm,OL15 0JP,53.645442198370500,-2.088394302208870
anole and dukite,OL15 8AJ,53.642873194616700,-2.097842679227340
Tahr and Kākāriki,OL15 8AL,53.641048298500000,-2.113327078700000
Duck and Condor,OL15 8AR,53.642440475380700,-2.099399639602900
Pheasant and horned toad,OL15 8DY,53.646005964100100,-2.102736017732740
boomslang and Rat,OL15 8JP,53.641608893338400,-2.104858010849050
Maya and Diving bird,OL15 8LD,53.642196225680400,-2.111363558000090
sand lizard and death adder,OL15 8LR,53.644532513923200,-2.112050424955410
Cloud rat and indigo snake,OL15 8NB,53.640423317635700,-2.113733525622320
sand lizard and hognose snake,OL15 8NZ,53.641495190348300,-2.111316330456730
cobra de capello and diamondback terrapin,OL15 8QZ,53.639325747308500,-2.114789299411200
chuckwalla and gecko,OL15 8RW,53.644781786380100,-2.114577247654720
Zebra and Piping shrike,OL15 8SE,53.640160351321700,-2.106487915199090
Rat and skink,OL15 9AL,53.658784293900000,-2.089375843800000
frill-necked lizard and milk snake,OL15 9BD,53.645461714641100,-2.097939448311970
Towhee and Linsang,OL15 9DB,53.644628221474100,-2.094957561676870
smooth snake and Grackle,OL15 9DX,53.646552038741200,-2.094523202464640
boomslang and blue tongue,OL15 9EF,53.647991897669200,-2.092287508766060
gopher snake and cobra de capello,OL15 9HQ,53.646268411405600,-2.100633970950690
Quetzal and Hawaiian honeycreeper,OL15 9NG,53.663860426404500,-2.086405058385510
Piping shrike and diamondback terrapin,OL15 9NT,53.655331017862000,-2.097599251000580
diamondback and gopher snake,OL15 9QW,53.662127907848800,-2.083314389321330
Schneider python and mamba,OL15 9RH,53.661118843130300,-2.086671820115520
Parrotlet and frilled lizard,OL16 1DH,53.619861411600000,-2.154904625200000
worm lizard and alligator,OL16 1DL,53.619459661661500,-2.156278600380610
Herring gull and Cloud rat,OL16 1JN,53.617803627892700,-2.157950468813970
monitor and hognose snake,OL16 1PB,53.615569073752700,-2.155266534150980
diamondback terrapin and amphisbaena,OL16 1PS,53.613349400364700,-2.154940951804740
Solitaire and dugite,OL16 1QT,53.614099650069900,-2.158571482763250
sand viper and turtle,OL16 1UA,53.614628237581900,-2.152995686001900
Solitaire and Greenbul,OL16 1XL,53.615884601319500,-2.154542107304630
agama and soft-shelled turtle,OL16 2BA,53.624719000000000,-2.141662000000000
Kestrel and amphisbaena,OL16 2BG,53.615256000000000,-2.140300000000000
racer and Civet,OL16 2BP,53.625718000000000,-2.138942000000000
tortoise and horned viper,OL16 2EN,53.620249028654200,-2.150521584103580
Tahr and carpet snake,OL16 2ET,53.620398041699000,-2.146334430132350
dukite and lizard,OL16 2LJ,53.621561546012700,-2.143012411038720
bandy-bandy and blue racer,OL16 2NT,53.629556845507900,-2.138971871683180
Bunting and Marmoset,OL16 2RT,53.637874747064400,-2.118778150249800
elapid and mountain devil,OL16 2YE,53.618295569567300,-2.138133599736870
grass snake and Francolin,OL16 3AZ,53.615371540763500,-2.124368297301140
River dolphin and sand viper,OL16 3DB,53.615483701217100,-2.120166314033280
Kestrel and Viscacha,OL16 3DJ,53.613561000000000,-2.109548000000000
ringhals and brown snake,OL16 3EF,53.610912651381300,-2.106519936643670
dugite and Night heron,OL16 3EQ,53.611425128289500,-2.106354966965540
tokay and Marmoset,OL16 3FS,53.599614000000000,-2.095942000000000
Wader and smooth snake,OL16 3JY,53.610642137746100,-2.107486582452220
anaconda and Ice seal,OL16 3LL,53.613724002301300,-2.118166046462970
Guillemot and Wallaby,OL16 3NY,53.607281932595000,-2.105921358853510
giant tortoise and Thicketbird,OL16 3PD,53.607705273444000,-2.104909819264860
Goose and soft-shelled turtle,OL16 3QJ,53.607297554351500,-2.086546136308420
Gila monster and Marsh harrier,OL16 3QT,53.603327184464600,-2.095151772850540
snapping turtle and thorny devil,OL16 3RX,53.600799524856600,-2.097578946009320
American sparrow and Marmoset,OL16 3TB,53.602663620368300,-2.080839541618430
Mamo and Eagle,OL16 3TR,53.616276485195600,-2.098551950713830
Nukupuʻu and Buzzard,OL16 3UA,53.613513759466100,-2.112497133942590
ringhals and hawksbill,OL16 3UB,53.611161899992400,-2.098887647341580
gecko and frilled lizard,OL16 3UU,53.618718771969000,-2.111619078177470
crocodile and Bronzewing pigeon,OL16 4BZ,53.611674089171400,-2.118764905452570
rattlesnake and Pheasant,OL16 4DG,53.610850696385900,-2.115165319771350
Mouse and gecko,OL16 4DR,53.612619479136700,-2.117120006097300
Vulture and Viscacha,OL16 4GA,53.609593000000000,-2.130849000000000
Skunk and Recurvebill,OL16 4HX,53.608789468908200,-2.108690973802440
Boto and crocodile,OL16 4HZ,53.608052503138400,-2.108613509004160
puff adder and Pratincole,OL16 4JQ,53.608025194140100,-2.108991278018330
anaconda and kabaragoya,OL16 4JS,53.600569474933900,-2.103909884722920
tortoise and Eagle,OL16 4NL,53.600065000000000,-2.122735000000000
Scimitar babbler and ringhals,OL16 4NZ,53.597777000000000,-2.129560000000000
copperhead and jew lizard,OL16 4PG,53.598658366964900,-2.143947290721620
constrictor and Asiatic leopard,OL16 4SJ,53.584297479879400,-2.134185818396710
Hawk and saltwater crocodile,OL16 4TT,53.602125248738300,-2.138534081330550
deaf adder and Tahr,OL16 4UD,53.603440884004000,-2.143313767201160
Pitohui and Chickadee,OL16 4XA,53.603922840969700,-2.138585310884040
Elephant and Maya,OL16 4XQ,53.603394988912900,-2.136452798730650
Maya and Hawk,OL16 4XU,53.603435785011000,-2.140034459486460
hognose snake and asp,OL16 5AB,53.618205678540700,-2.130136301435570
grass snake and swift,OL16 5BP,53.614374979446300,-2.131696545280540
diamondback turtle and flying lizard,OL16 5BW,53.613466435129700,-2.132358795156260
copperhead and amethystine python,OL16 5DB,53.614117257490900,-2.129005138311820
Piping shrike and black snake,OL16 5HP,53.605799190336500,-2.140465449797920
pit viper and Pitohui,OL16 5JQ,53.607022279651800,-2.139880100363170
rock python and Scimitar babbler,OL16 5LP,53.605144925978400,-2.145934000000000
bearded dragon and Quetzal,OL16 5PY,53.610004265368700,-2.141673458739790
Bronzewing pigeon and harlequin snake,OL16 5QT,53.612078698195500,-2.150537819594840
cerastes and gopher snake,OL16 9PD,53.611534000000000,-2.148783000000000
Maya and blind snake,OL16 9PQ,53.611550000000000,-2.148781000000000
Viscacha and Mockingbird,OL16 9TB,53.615690099222600,-2.158925127492100
massasauga and blue racer,OL2 5SA,53.575562879420500,-2.132376071489260
Macaw and Elephant,OL2 5UW,53.581931535474700,-2.135975718314900
deaf adder and Vulture,OL2 5YJ,53.576287833161800,-2.135142052850430
bull snake and grass snake,OL2 6TP,53.575682562046400,-2.129793997668080
Black cockatoo and indigo snake,OL2 6UT,53.583419105269600,-2.131962626087990
diamondback turtle and Mole,OL2 6XG,53.581671613781300,-2.135325403135280
Grouse and Kite,OL2 7AU,53.575406958931000,-2.098411328004870
Prion and bicycle lizard,OL2 7EA,53.579277797128200,-2.112134151098070
agamid and boa constrictor,OL2 7HG,53.582416363351400,-2.110360153575170
kabaragoya and Vulture,OL2 7JA,53.580302000000000,-2.104056130503750
giant tortoise and cerastes,OL2 7LP,53.580950912279300,-2.110749029306520
worm lizard and harlequin snake,OL2 7NN,53.583627790895200,-2.112493102724130
caiman and death adder,OL2 7PT,53.586948000000000,-2.109873000000000
rat snake and Jay,OL2 7QT,53.585574850732900,-2.106395638602990
Parrotbill and chameleon,OL2 7QZ,53.584136997654500,-2.106089917856490
Marsh harrier and constrictor,OL2 7SE,53.579684878341300,-2.099025427854750
dugite and Logrunners,OL2 7SN,53.581751639860600,-2.099679751281210
Parakeet and Cloud rat,OL2 7UF,53.584464151802800,-2.090864735352390
smooth snake and worm lizard,OL2 7UJ,53.591960000000000,-2.092528000000000
Fox and Hawaiian honeycreeper,OL2 7UP,53.584508015006100,-2.092269611178020
Dolphin and leguaan,OL2 7XA,53.585127666002400,-2.092965812899740
Snipe and bicycle lizard,OL2 7XD,53.583991107217000,-2.098008379693730
python and River dolphin,OL2 7XN,53.583998047991200,-2.100470510200770
rattlesnake and king snake,OL2 8AY,53.581767751508200,-2.090753206649480
Viscacha and diamond python,OL2 8BJ,53.586596366092700,-2.088210679699420
Thicketbird and tokay,OL2 8DU,53.582373261282500,-2.086313809129450
king snake and Polecat,OL2 8DW,53.587237956668000,-2.083453582435590
puff adder and constrictor,OL2 8EE,53.587521573870400,-2.088998137074250
giant tortoise and deaf adder,OL2 8EU,53.579565313741400,-2.091156268143880
galliwasp and American sparrow,OL2 8NP,53.575725080631900,-2.094032475007400
Grosbeak and glass snake,OL2 8NQ,53.585701447318600,-2.082755688443380
soft-shelled turtle and Puffleg,OL2 8QE,53.575436067370100,-2.083838020246330
loggerhead and Peafowl,OL2 8UU,53.578568463910500,-2.090036491154960
Perching duck and hoop snake,OL3 5LF,53.580967989666200,-2.041980954924930
Wader and horned viper,OL3 5LS,53.577261990805800,-1.982140803424770
diamond python and Chickadee,OL3 5LY,53.581397770782700,-1.994252544267910
habu and black snake,OL3 5NA,53.576022649971800,-2.007482720611140
Tattler and caiman,OL3 5SW,53.589380394599500,-2.043711531765340
green turtle and soft-shelled turtle,OL3 5TD,53.579592000000000,-2.046118000000000
flying dragon and Mole,OL3 5TF,53.579630000000000,-2.059166000000000
soft-shelled turtle and Tattler,OL3 5TP,53.578145000000000,-2.046011115908640
kabaragoya and Myna,OL3 5UD,53.597000281093600,-2.049068000000000
