name,postcode,lat,lon
cobra and whip snake,BB10 1DH,53.796291120000000,-2.242861873000000
Masked owl and White ibis,BB10 1DQ,53.798147190000000,-2.240610509000000
mamba and krait,BB10 1NH,53.799589620000000,-2.238432510000000
Mockingbird and Jerboa,BB10 3HY,53.789162400000000,-2.215316982000000
Jerboa and brown snake,BB10 3JD,53.792351110000000,-2.221359702000000
Night heron and caiman,BB10 3JF,53.790836030000000,-2.219241803000000
snake and bushmaster,BB10 3LR,53.789284000000000,-2.191819840000000
Grouse and diamond python,BB10 3LY,53.789706780000000,-2.191124740000000
Treepie and turtle,BB10 3PZ,53.799892000000000,-2.226455000000000
Warbler and python,BB10 4AX,53.788098940000000,-2.231324574000000
water snake and Fulmarine petrel,BB10 4BQ,53.793212640000000,-2.231565263000000
Marmoset and Grackle,BB10 4EG,53.786427160000000,-2.231330545000000
bushmaster and Argus,BB10 4EL,53.786288740000000,-2.228521929000000
Tit-tyrant and Prion,BB10 4HH,53.787036000000000,-2.208506000000000
loggerhead and Thrasher,BB10 4HZ,53.782875710000000,-2.202187565000000
Ice seal and Bronzewing pigeon,BB10 4JR,53.782890500000000,-2.209274995000000
mud turtle and Francolin,BB10 4PD,53.785029540000000,-2.219378444000000
adder and Mockingbird,BB10 4RN,53.770218000000000,-2.188137708000000
Cloud rat and krait,BB10 4RW,53.769785490000000,-2.182082864000000
giant tortoise and bandy-bandy,BB10 4SH,53.765537950000000,-2.207383349000000
blue racer and chuckwalla,BB10 4SP,53.758527000000000,-2.197535000000000
dugite and tuatara,BB10 4TE,53.762374080000000,-2.196779808000000
harlequin snake and Darwin's finches,BB10 4TW,53.765957460000000,-2.203850750000000
Komodo dragon and whip snake,BB10 4TY,53.767440780000000,-2.208894645000000
king cobra and turtle,BB10 4UE,53.768118750000000,-2.211810853000000
python and Prion,BB11 1ER,53.787667000000000,-2.245848000000000
snake and Myna,BB11 1HX,53.788343980000000,-2.243726623000000
Egret and king snake,BB11 1NG,53.788997830000000,-2.240406310000000
Argus and smooth snake,BB11 1NL,53.789570230000000,-2.246223058000000
boa and monitor,BB11 1PR,53.790146300000000,-2.245816602000000
Mockingbird and Grackle,BB11 2BA,53.784045900000000,-2.248983209000000
sand viper and leguaan,BB11 2BY,53.788502000000000,-2.241466000000000
wall lizard and soft-shelled turtle,BB11 2DW,53.790819000000000,-2.238125000000000
Kestrel and bearded dragon,BB11 2HY,53.779666870000000,-2.236604644000000
Kangaroo and king cobra,BB11 2JB,53.782968080000000,-2.239810278000000
skink and Marmoset,BB11 2LJ,53.781454290000000,-2.246114792000000
sand lizard and iguana,BB11 2PE,53.777474230000000,-2.249672643000000
box turtle and River dolphin,BB11 2QF,53.774678820000000,-2.254010804000000
cerastes and Kite,BB11 2SA,53.792304210000000,-2.236493676000000
Philippine hawk-owl and mountain devil,BB11 3AH,53.781235800000000,-2.234048775000000
Petrel and harlequin snake,BB11 3AJ,53.785935000000000,-2.235213000000000
brown snake and blind snake,BB11 3AR,53.785033210000000,-2.236346502000000
habu and Jerboa,BB11 3BS,53.788881260000000,-2.235745834000000
Egret and Grouse,BB11 3EX,53.781933180000000,-2.231320976000000
Polecat and mamba,BB11 3HA,53.780492790000000,-2.232511910000000
horned toad and wall lizard,BB11 3PH,53.780783000000000,-2.236535000000000
Wallaby and Condor,BB11 3QF,53.772315100000000,-2.253951002000000
perentie and River dolphin,BB11 4AF,53.789457260000000,-2.257075000000000
flying dragon and habu,BB11 4HQ,53.778633920000000,-2.253837438000000
Mamo and boomslang,BB11 4LQ,53.785322810000000,-2.257201669000000
fer-de-lance and Fulmarine petrel,BB11 4LX,53.785870420000000,-2.253289240000000
Grouse and Mink,BB11 4NY,53.784592000000000,-2.258943761000000
Scimitar babbler and Mink,BB11 4SA,53.788511610000000,-2.253897123000000
pit viper and Piping shrike,BB11 4SL,53.786829520000000,-2.250259464000000
thorn lizard and Tree warbler,BB11 5HH,53.772794930000000,-2.260705766000000
Quetzal and Vulture,BB11 5NG,53.771166160000000,-2.257328000000000
asp and bearded dragon,BB11 9HD,53.790944000000000,-2.240889000000000
gopher snake and Ibex,BB12 0AP,53.795670720000000,-2.247367037000000
wall lizard and king cobra,BB4 7BG,53.693877110000000,-2.249207509000000
viper and Wader,BB4 7DY,53.684608100000000,-2.245942831000000
harlequin snake and cobra de capello,BB4 7EA,53.679707000000000,-2.243113000000000
Buzzard and rattlesnake,BB4 7TX,53.698012780000000,-2.261318329000000
deaf adder and horned viper,BB4 9AH,53.693471730000000,-2.253914956000000
Tree warbler and blind snake,BB4 9DA,53.693723000000000,-2.245890000000000
Gila monster and Bunting,BB4 9DD,53.697094660000000,-2.249302260000000
tree snake and constrictor,BB4 9JU,53.704768120000000,-2.250453482000000
saltwater crocodile and leguaan,BB4 9LP,53.711365380000000,-2.250462402000000
Treepie and bearded dragon,BB4 9NZ,53.711675850000000,-2.252418692000000
Asiatic leopard and tortoise,BB4 9QD,53.725167750000000,-2.243375912000000
Lemming and Greenbul,BB4 9RL,53.713636390000000,-2.251884989000000
Civet and Myna,BB4 9RU,53.721720000000000,-2.241947000000000
Booted eagles and hawksbill,BD13 1JG,53.774310590000000,-1.860718121000000
Piping shrike and water snake,BD13 1LW,53.775575130000000,-1.858346845000000
Petrel and hognose snake,BD13 1LX,53.777199310000000,-1.872120000000000
diamondback turtle and Solitaire,BD13 1NA,53.778123000000000,-1.868960000000000
Old World quail and gaboon viper,BD13 2BD,53.765645020000000,-1.852251478000000
Treepie and rattlesnake,BD13 2DF,53.764712000000000,-1.852513000000000
Quetzal and Vulture,BD13 2FB,53.766247430000000,-1.859925559000000
Linsang and sand lizard,BD13 2FT,53.753273000000000,-1.857560000000000
Treepie and Tit-tyrant,BD13 2HP,53.766732330000000,-1.852050451000000
Linsang and Grackle,BD13 2JE,53.766673040000000,-1.855024076000000
terrapin and monitor,BD13 2JN,53.770645940000000,-1.855192476000000
python and Rabbit,BD13 2LU,53.760630510000000,-1.852906118000000
boa and Komodo dragon,BD13 2NP,53.758607070000000,-1.859465572000000
puff adder and Darwin's finches,BD13 3AY,53.798260000000000,-1.859503000000000
mountain devil and Grouse,BD13 3GD,53.791472460000000,-1.866354000000000
Mockingbird and Macaw,BD13 3JF,53.791126060000000,-1.852313907000000
galliwasp and Marmoset,BD13 3JY,53.790145820000000,-1.851861975000000
Egret and Old World vulture,BD13 3PF,53.793279690000000,-1.856860383000000
gopher snake and slowworm,BD13 3PR,53.791456260000000,-1.857807704000000
hawksbill and asp,BD13 3PZ,53.791588120000000,-1.863135000000000
gecko and sidewinder,BD13 3QU,53.794532420000000,-1.852241240000000
coral snake and Solitaire,BD13 3QZ,53.794191870000000,-1.860591666000000
swift and viper,BD13 3SL,53.786801800000000,-1.884141632000000
boomslang and Eagle,BD13 3SU,53.781646720000000,-1.862393574000000
Goose and anole,BD13 4EZ,53.785861000000000,-1.895967000000000
Grouse and Crow,BD13 4HB,53.783362000000000,-1.895473000000000
Old World quail and taipan,BD13 4HH,53.787937030000000,-1.886871000000000
mud turtle and bandy-bandy,BD13 4HW,53.790186440000000,-1.889627114000000
turtle and indigo snake,BD13 4NJ,53.799975340000000,-1.901109809000000
Skunk and River dolphin,BD22 9QQ,53.796661490000000,-1.978420767000000
Parrotbill and Pitohui,BL9 6TZ,53.611330850000000,-2.252831924000000
puff adder and rock snake,BL9 7JD,53.588991310000000,-2.254556565000000
Rat and Mamo,BL9 7JJ,53.587803300000000,-2.259458996000000
Komodo dragon and king cobra,BL9 7RY,53.600700640000000,-2.259855433000000
tokay and Linsang,BL9 7SR,53.600432080000000,-2.259355123000000
Crow and Myna,BL9 7TX,53.604238100000000,-2.249026569000000
Argus and horned toad,BL9 7UA,53.604627620000000,-2.243044000000000
Ground sloth and Kite,HD3 3FE,53.656206372797500,-1.876464743343060
Kite and agama,HD3 3FG,53.656644830086900,-1.874693000000000
lizard and bull snake,HD3 3FT,53.632169681498300,-1.929190300112560
cerastes and Snipe,HD3 3GF,53.663051147918500,-1.864247369092560
Snipe and lizard,HD3 3TH,53.656466959106200,-1.852526906264090
Moluccan boobook and smooth snake,HD3 3YL,53.658310774512400,-1.869089536743330
Songlark and Puffleg,HD3 3YP,53.657765373587700,-1.871754342419280
Meadowlark and frill-necked lizard,HD3 3YQ,53.659439127368300,-1.865333321689960
green turtle and Asiatic leopard,HD7 4EN,53.632587529415600,-1.854333987343790
tiger snake and Zebra,HD7 4ET,53.633525755133500,-1.857204072264390
Jerboa and Mink,HD7 4EU,53.633203579320700,-1.858491000000000
hawksbill and Buzzard,HD7 4JQ,53.636783160658800,-1.860323730054260
sand viper and B,HD7 4PH,53.640687252269100,-1.863109027813210
python and bull snake,HD7 4QB,53.643875000000000,-1.851996650531180
Cuscus and Bunting,HD7 4RN,53.644563933754700,-1.850374997519900
Rat and harlequin snake,HD7 5AF,53.624587094828300,-1.877645502322730
Pratincole and snake,HD7 5FE,53.621796000000000,-1.884593000000000
Pitohui and rock snake,HD7 5FF,53.620832000000000,-1.872849000000000
gaboon viper and Elephant,HD7 5NF,53.624379152060700,-1.860092460839070
Ibex and Rat,HD7 5NL,53.623609723928700,-1.855650000000000
flying lizard and gaboon viper,HD7 5PZ,53.612759104977500,-1.858166038823710
Duck and diamondback terrapin,HD7 5SS,53.621070000000000,-1.850276947491280
goanna and Peafowl,HD7 5TS,53.617985729903700,-1.865510377237690
Fulmarine petrel and Triller,HD7 5XB,53.611990008056700,-1.913746199049780
amphisbaena and Tree warbler,HD7 5ZA,53.621029000000000,-1.856354000000000
python and Vulture,HD7 5ZB,53.620850000000000,-1.856839000000000
Stint and Bronzewing pigeon,HD7 6BA,53.601004218740900,-1.931962456538530
Mink and viper,HD7 6DE,53.601988363038800,-1.931189970697020
tokay and Goose,HD7 6DS,53.601677600651400,-1.938232339176380
New World blackbird and Old World quail,HD7 6HR,53.596675485622500,-1.929778276465170
sand lizard and diamond python,HD7 6JG,53.598073764981800,-1.923414650611860
Coati and tortoise,HD7 6JN,53.601478913015000,-1.921247606831010
horned viper and Grackle,HD7 6JY,53.602653877011600,-1.917527962968310
Kestrel and black snake,HD7 6NG,53.606258000000000,-1.946598000000000
Polecat and Peafowl,HD9 4AA,53.591596035173000,-1.850199262636670
soft-shelled turtle and hognose snake,HD9 4AE,53.592017933982600,-1.850017000000000
Philippine hawk-owl and Vulture,HD9 4EE,53.590401522288000,-1.850943736884220
Fulmarine petrel and dugite,HD9 4ER,53.591146830857100,-1.850367031645190
worm lizard and Capuchin,HD9 5JP,53.590713652999100,-1.856290659613540
gopher snake and Partridge,HD9 5NW,53.591931000935500,-1.852131882708550
Fox and boa,HD9 5QP,53.594041964612800,-1.851097141739300
Myna and flying dragon,HD9 5RW,53.604018858187500,-1.851153000000000
Flameback and Linsang,HX1 1PS,53.721889031649900,-1.857890496460010
Stint and Old World vulture,HX1 1QP,53.720403164557000,-1.855516343919110
Coati and Greenbul,HX1 1RU,53.723417034686200,-1.857915664329500
hawksbill and Cloud rat,HX1 1SG,53.724787752885900,-1.854365000000000
bandy-bandy and Kangaroo,HX1 1TN,53.723339000000000,-1.859689000000000
mountain devil and mamba,HX1 1UP,53.724462068928700,-1.860170000000000
leathery turtle and Kestrel,HX1 1UU,53.724569837008800,-1.860170000000000
copperhead and rat snake,HX1 2AD,53.720752688709100,-1.862304122786640
Thrasher and Skunk,HX1 2AR,53.717663589914500,-1.864768954509400
diamondback terrapin and Mockingbird,HX1 2AZ,53.719109294554900,-1.863552056570670
Mockingbird and Marsh harrier,HX1 2BA,53.717897432799700,-1.864904582300870
frill-necked lizard and saltwater crocodile,HX1 2BW,53.718973263605000,-1.862491763538730
Mockingbird and snake,HX1 2LG,53.719338086622500,-1.859308350844090
horned viper and black snake,HX1 2NF,53.717236508626200,-1.860709399010040
sea snake and Flameback,HX1 2NN,53.712999927979900,-1.865799010956370
diamond python and Logrunners,HX1 2NY,53.713430454506700,-1.865131000000000
Civet and Boto,HX1 2PQ,53.713338946669000,-1.863555542342440
Stint and box turtle,HX1 2SE,53.720541000000000,-1.865139000000000
American sparrow and Gila monster,HX1 2TS,53.720412000000000,-1.870715257113930
mamba and boomslang,HX1 2XF,53.713236668210100,-1.868555788021780
Old World warbler and Civet,HX1 2XQ,53.713210217325100,-1.869025559019200
frill-necked lizard and Mamo,HX1 2YD,53.712363392715800,-1.867255523479150
soft-shelled turtle and rock python,HX1 3AJ,53.715247677326200,-1.874792147271350
Hawk and Pratincole,HX1 3AU,53.714736647004800,-1.876036108867800
Rabbit and Coati,HX1 3BG,53.714563405069800,-1.882279000000000
bearded dragon and Tattler,HX1 3EN,53.713216169994200,-1.874601200666660
Black cockatoo and indigo snake,HX1 3JY,53.717601421758200,-1.873709321243140
B and ringhals,HX1 3LG,53.716812198503100,-1.875363307465340
sidewinder and python,HX1 3QQ,53.717468167734400,-1.884180288522360
loggerhead and gaboon viper,HX1 3SA,53.715483200205700,-1.885640326788300
Quetzal and B,HX1 3SH,53.716020283465100,-1.883350882760720
turtle and horned viper,HX1 3SX,53.715377174502300,-1.887580072815720
mud turtle and gecko,HX1 3TA,53.716717000000000,-1.887499958357640
turtle and Night heron,HX1 3UB,53.717785049031500,-1.886588729472900
Jerboa and indigo snake,HX1 4GG,53.729509227231800,-1.886269490677360
mud turtle and massasauga,HX1 4HJ,53.721014904983600,-1.889959413609450
bicycle lizard and Fish eagle,HX1 4LH,53.721862299324200,-1.883107438200450
puff adder and gavial,HX1 4LN,53.721357424120300,-1.881532800910180
Gila monster and whip snake,HX1 4LQ,53.721970229672700,-1.883182911553270
python and blue tongue,HX1 4RX,53.725681969257200,-1.882839221396730
gaboon viper and Egret,HX1 5AX,53.722571643719600,-1.865496000000000
Jackal and Pratincole,HX1 5DJ,53.725953000000000,-1.865985000000000
Meadowlark and Prion,HX1 5EJ,53.720840145799500,-1.876609204929140
mamba and Fox,HX1 5EQ,53.721289905993400,-1.876956436715850
Linsang and blue racer,HX1 5JB,53.721751000000000,-1.878880000000000
rock snake and rattlesnake,HX1 5JL,53.722170000000000,-1.875681000000000
gaboon viper and cobra,HX1 5LG,53.724028371252700,-1.874159914894400
Eagle and Jerboa,HX1 5LL,53.724098243247600,-1.872235001225900
Meadowlark and water snake,HX1 5LQ,53.724064037264300,-1.873523000000000
cobra de capello and Night heron,HX1 5PR,53.726227000000000,-1.878943000000000
Perching duck and Myna,HX1 5SA,53.727932598985700,-1.877452407415750
Buzzard and Magpie,HX1 5SS,53.724206238268300,-1.864172107538710
gavial and tuatara,HX1 9SD,53.724426998141100,-1.860731148595220
Hawaiian honeycreeper and Asiatic leopard,HX1 9SE,53.724426998141100,-1.860731148595220
Ground sloth and Shearwater,HX2 0HA,53.729860579064300,-1.891512723982630
Booted eagles and blind snake,HX2 0LP,53.724701512831800,-1.902074111827810
diamondback turtle and perentie,HX2 0LQ,53.724471171135500,-1.906272661085310
Tree warbler and Black jay,HX2 0LR,53.725230513060500,-1.900496707397840
Myna and amethystine python,HX2 0NH,53.725609877381300,-1.914605770654080
Capuchin and Rabbit,HX2 0NP,53.726635040870500,-1.915346347242550
goanna and horned toad,HX2 0PL,53.730621167386800,-1.897892079733350
lizard and Capuchin,HX2 0PP,53.730639580318900,-1.898407390569360
horned toad and sand lizard,HX2 0QH,53.729836976944400,-1.895302090072040
Fish eagle and goanna,HX2 0SX,53.731935916441500,-1.912440558351830
tokay and Zebra,HX2 6AW,53.722309999229400,-1.942814980096800
White ibis and dukite,HX2 6BB,53.715369280184500,-1.938899978786120
Lemming and Hawaiian honeycreeper,HX2 6BL,53.714158679020000,-1.927719858907610
Recurvebill and lizard,HX2 6BQ,53.713609000089900,-1.925417787380970
krait and Thrasher,HX2 6DJ,53.721117000000000,-1.946620000000000
alligator and Maya,HX2 6EN,53.713744652693800,-1.943311000000000
jew lizard and Herring gull,HX2 6HN,53.730450603449700,-1.958446458997180
Tahr and Greenbul,HX2 6JT,53.714521131857700,-1.951461970101050
Black jay and tiger snake,HX2 6NG,53.726097089499400,-1.940324000000000
habu and tuatara,HX2 6NS,53.725923351343400,-1.943128372175210
Viscacha and thorny devil,HX2 6PG,53.726766523982400,-1.939626177751260
cerastes and garter snake,HX2 6ST,53.737784876513500,-1.937654807724870
bushmaster and slowworm,HX2 6TA,53.747303431926200,-1.938080518463140
Treepie and Thrasher,HX2 6TT,53.732127033031600,-1.947349131471530
hoop snake and Black cockatoo,HX2 6UF,53.733945262252000,-1.953789315604530
Vulture and Civet,HX2 7EA,53.709481932079700,-1.879293602752180
habu and wall lizard,HX2 7EH,53.710543887129600,-1.880654095745710
boomslang and garter snake,HX2 7HQ,53.713071464323600,-1.892313000000000
gopher snake and sand viper,HX2 7JN,53.716021993525600,-1.894942353645390
Chickadee and Jerboa,HX2 7JS,53.716005306850500,-1.896427315494690
Grosbeak and Darwin's finches,HX2 7LL,53.718864562863000,-1.897647724314690
Maya and Mouse,HX2 7QB,53.718041687050500,-1.891982502132960
Triller and Thrasher,HX2 7QP,53.723380379892200,-1.902213566964410
flying lizard and Mamo,HX2 7RW,53.721196492495100,-1.914266139170400
gopher snake and puff adder,HX2 7TA,53.740780739262500,-1.926749522264610
grass snake and Tahr,HX2 8AL,53.743269911188600,-1.881122588452930
Dolphin and Francolin,HX2 8DB,53.742385000000000,-1.885537000000000
dukite and rock snake,HX2 8JG,53.750545539353200,-1.895417549102870
Old World quail and Flameback,HX2 8LX,53.747059291076500,-1.896699912089250
Hawk and black snake,HX2 8NE,53.744713000000000,-1.895552830975330
Mamo and goanna,HX2 8PD,53.746425796101100,-1.902266352927890
Thicketbird and Siskin,HX2 8QD,53.749610755129300,-1.906277530319540
Herring gull and Myna,HX2 8SG,53.756594699975100,-1.906595697757370
hawksbill and elapid,HX2 8SZ,53.751849343927600,-1.919466235169790
Solitaire and king cobra,HX2 8TA,53.752038284878800,-1.919754013955270
Old World vulture and Pratincole,HX2 8UF,53.748150203047200,-1.900685325445620
Pratincole and Old World quail,HX2 8XP,53.766487000000000,-1.901325000000000
Peafowl and Mink,HX2 8XQ,53.761642174426300,-1.901836735038510
constrictor and rock snake,HX2 9AG,53.750527309848400,-1.876234287262830
rock snake and Mamo,HX2 9BD,53.751345592839600,-1.876595846427010
copperhead and Black jay,HX2 9DG,53.755866136373000,-1.895055534366270
Jackal and Stint,HX2 9DP,53.755846111582000,-1.892735096794070
boomslang and frill-necked lizard,HX2 9DQ,53.759136138889000,-1.893196935033900
boa constrictor and box turtle,HX2 9DX,53.759899916343900,-1.892967481281310
gavial and iguana,HX2 9EF,53.756870445636700,-1.892398820340320
Guillemot and galliwasp,HX2 9EZ,53.753210546188800,-1.890436618166740
frill-necked lizard and Night heron,HX2 9HZ,53.763588979907700,-1.887481979025800
Kite and Philippine hawk-owl,HX2 9JL,53.760837068624400,-1.895695413011180
gaboon viper and Duck,HX2 9LJ,53.758600519089100,-1.897399709215360
dugite and water snake,HX2 9NL,53.761312333230900,-1.894435248354760
Argus and Stint,HX2 9NT,53.776533829851400,-1.880376336483460
Fulmarine petrel and Gila monster,HX2 9NU,53.773193716256800,-1.893571008306590
indigo snake and Perching duck,HX2 9QN,53.760387117004100,-1.885230452872200
coral snake and grass snake,HX2 9RX,53.758987566240900,-1.887964448909870
Thrasher and Cloud rat,HX2 9SU,53.755648070081300,-1.882786367165080
monitor and Wallaby,HX3 0AH,53.710115256089100,-1.858414905574370
Tree warbler and thorny devil,HX3 0BG,53.709141000000000,-1.862584000000000
soft-shelled turtle and racer,HX3 0DW,53.712353850799600,-1.866755572394590
Moluccan boobook and Wallaby,HX3 0EA,53.709791409785500,-1.866006151621970
Fish eagle and flying dragon,HX3 0EL,53.711096594317000,-1.867729168448280
Pratincole and Dolphin,HX3 0EN,53.711357648199700,-1.868091965246480
Mink and Prion,HX3 0HX,53.707785866217000,-1.873178129748110
Snipe and python,HX3 0HZ,53.706520249360100,-1.874802853794550
Cuscus and python,HX3 0JJ,53.707848000000000,-1.871769000000000
water snake and Hawk,HX3 0JW,53.706385000000000,-1.865169000000000
Condor and diamond snake,HX3 0LH,53.704549887726300,-1.864704882168190
gaboon viper and Eagle,HX3 0NH,53.704821000000000,-1.857509000000000
Pheasant and Tit-tyrant,HX3 0QB,53.703115446044500,-1.852545931605430
Darwin's finches and sidewinder,HX3 0QP,53.704869638994600,-1.853781967179310
krait and Chickadee,HX3 0RN,53.701870928657000,-1.864259042347870
Logrunners and hoop snake,HX3 0SN,53.702719198722900,-1.859393976426760
Buzzard and krait,HX3 0SQ,53.701521390161700,-1.857217000000000
anaconda and horned viper,HX3 0TJ,53.701010806087500,-1.866700450269720
boa constrictor and Zebra,HX3 0UH,53.699592000000000,-1.875369000000000
blue tongue and diamond snake,HX3 0UR,53.701565765952500,-1.872863555959000
snapping turtle and Fulmarine petrel,HX3 0UY,53.699359000000000,-1.876096000000000
Dolphin and Grackle,HX3 5AS,53.727812000000000,-1.864388000000000
Jay and hognose snake,HX3 5DA,53.733312410465000,-1.873556225344950
Condor and blindworm,HX3 5DT,53.733601928820200,-1.875374387849960
king snake and Mamo,HX3 5EH,53.733039188612100,-1.878801841806810
grass snake and chameleon,HX3 5EX,53.728664168275800,-1.863597000000000
sand viper and snapping turtle,HX3 5JZ,53.735962078314400,-1.889981109029680
boa constrictor and anaconda,HX3 5RA,53.737913468567500,-1.881562153799340
rock python and Capuchin,HX3 5RJ,53.740902591112100,-1.877672499688250
diamond python and Civet,HX3 5TH,53.739783692834900,-1.887454682073030
Guillemot and terrapin,HX3 5TJ,53.742034772540200,-1.877365986545820
puff adder and python,HX3 5WG,53.727558468106800,-1.863888509482860
Darwin's finches and Logrunners,HX3 6AB,53.726602487420400,-1.853494530585460
Dorcopsis and blind snake,HX3 6BL,53.731218804893500,-1.850613700003940
Kestrel and chuckwalla,HX3 6DX,53.730424000000000,-1.861681000000000
Jerboa and boomslang,HX3 6EF,53.731298107680200,-1.864422132919330
viper and king cobra,HX3 6EP,53.729482405190300,-1.864321863417500
deaf adder and Pitohui,HX3 6EW,53.729645230963500,-1.865245926822490
amethystine python and diamondback,HX3 6HU,53.735169532895100,-1.862287419361240
Black jay and mamba,HX3 6HW,53.732434472922000,-1.859961984263930
puff adder and agama,HX3 6NH,53.734642473853900,-1.865139022393070
tuatara and Armadillo,HX3 6PD,53.737242260510100,-1.867146982056840
tree snake and Fulmarine petrel,HX3 6PW,53.734961944195800,-1.869564450208610
smooth snake and Magpie,HX3 6QR,53.743213450614200,-1.878590687242050
gaboon viper and Pratincole,HX3 6QW,53.743185000000000,-1.879563000000000
Ground sloth and kabaragoya,HX3 6SE,53.744950520410100,-1.880966228861260
Philippine hawk-owl and sand lizard,HX3 6TA,53.737024000000000,-1.871923000000000
Shearwater and Tree warbler,HX3 6UB,53.741551000000000,-1.869149393885360
Chipmunk and Shearwater,HX3 6UG,53.734616910829900,-1.858697000000000
hognose snake and Bronzewing pigeon,HX3 9AY,53.708550317536300,-1.850178779565800
chuckwalla and rock snake,HX3 9EB,53.701153592440300,-1.850568530155490
gavial and crocodile,HX3 9HU,53.717702169032500,-1.851767672917450
Bunting and death adder,HX3 9JA,53.717188573531200,-1.850739093106180
Mamo and American sparrow,HX3 9JD,53.716478442354500,-1.850680992980180
bicycle lizard and lizard,HX4 0AR,53.676434000000000,-1.922758000000000
rattlesnake and diamond python,HX4 0BA,53.685505169886200,-1.903012738005160
diamondback turtle and Scimitar babbler,HX4 0BH,53.685647908751700,-1.901695113633910
worm lizard and Skunk,HX4 0DF,53.675427164137000,-1.924894636792340
terrapin and Goose,HX4 0DG,53.676515450888600,-1.926058339209710
amethystine python and Grouse,HX4 0DP,53.675726559745700,-1.929495993459060
Boto and harlequin snake,HX4 0DS,53.670808086653600,-1.926234792871810
River dolphin and Greenbul,HX4 0EJ,53.656079506321400,-1.917076050962860
agama and crocodile,HX4 0EX,53.676715115942200,-1.915355324142310
Bunting and mud turtle,HX4 0HB,53.676474592820800,-1.918474244463960
thorny devil and rock snake,HX4 0HL,53.676408138757700,-1.913418269390170
Bunting and boa constrictor,HX4 8AY,53.689082887471600,-1.858258203823960
gecko and Booted eagles,HX4 8DE,53.684615803583000,-1.858273176537230
Civet and dukite,HX4 8JW,53.687650719533000,-1.871512318056840
galliwasp and swift,HX4 8JX,53.690833828915200,-1.872744390231100
Marsh harrier and Chipmunk,HX4 8JZ,53.689573748588600,-1.862996243222650
taipan and mamba,HX4 8LB,53.691171617071400,-1.869245263430500
Triller and carpet snake,HX4 8NG,53.685847203549500,-1.873970000000000
boomslang and Recurvebill,HX4 8NH,53.682612353405700,-1.876266000000000
Greenbul and rock python,HX4 8NR,53.679866132365200,-1.888643346165110
box turtle and mountain devil,HX4 8QS,53.681263000000000,-1.885386000000000
Schneider python and krait,HX4 9AH,53.674874788883900,-1.868024081629230
Polecat and Elephant,HX4 9AR,53.674098596332400,-1.865135295150750
American sparrow and Kangaroo,HX4 9BT,53.676710986591100,-1.854727058348360
blind snake and amphisbaena,HX4 9DB,53.672097304288200,-1.859964992460370
Mockingbird and rattlesnake,HX4 9EH,53.672870813819900,-1.876839932848980
bicycle lizard and slowworm,HX4 9EZ,53.673401686517100,-1.877398455405650
White ibis and diamond python,HX4 9FB,53.670822000000000,-1.862725000000000
rock snake and horned viper,HX4 9LJ,53.661613513450400,-1.891173117995490
Thrasher and krait,HX4 9LR,53.672440000000000,-1.876129401278220
mamba and swift,HX4 9PW,53.670980921840300,-1.893116731049510
Schneider python and Ground sloth,HX5 0QY,53.684113236567000,-1.851476639124530
Logrunners and black snake,HX6 1AE,53.705236919691000,-1.918979331157840
Egret and Elephant,HX6 1BL,53.705590586057800,-1.923765581235330
Kite and mud turtle,HX6 1BZ,53.705565541471500,-1.926855919216300
Bronzewing pigeon and Ibex,HX6 1DS,53.706919012978500,-1.920960626939360
skink and Nukupuʻu,HX6 1HJ,53.704943439824700,-1.939581541172260
Solitaire and Petrel,HX6 1JL,53.706266459440200,-1.943215352981740
Grouse and Grosbeak,HX6 1JQ,53.705690811196400,-1.942352657727170
blindworm and deaf adder,HX6 1JX,53.706560502471600,-1.938018903243820
rock snake and glass snake,HX6 1LH,53.705723401931800,-1.935717548535370
moloch and diamondback turtle,HX6 1NX,53.699717582243900,-1.951069958693040
Recurvebill and agama,HX6 2AD,53.708994880462100,-1.907610000000000
copperhead and Puffleg,HX6 2AX,53.710396082964500,-1.895668395376300
Black cockatoo and asp,HX6 2AZ,53.710459025791600,-1.896032000000000
Siskin and krait,HX6 2DJ,53.712156043296700,-1.904421251922570
Warbler and Lemming,HX6 2EL,53.710688491614000,-1.912969358771390
Siskin and leguaan,HX6 2EW,53.712351907999900,-1.913420000000000
Black jay and coral snake,HX6 2NQ,53.712018020808700,-1.911996971038720
amethystine python and Tattler,HX6 2QH,53.709437840827000,-1.911184245275830
racer and Old World vulture,HX6 2SP,53.714024750344900,-1.903401874846950
anaconda and Elephant,HX6 2SQ,53.714778210473900,-1.901506177539840
Pitohui and Darwin's finches,HX6 3EN,53.688292653925500,-1.948584655546650
glass snake and White ibis,HX6 3EQ,53.688087000000000,-1.947919000000000
Pratincole and Chickadee,HX6 3HJ,53.688520679285500,-1.936697615266410
Vole and Egret,HX6 3LL,53.701949000000000,-1.920303000000000
Coati and Maya,HX6 3NE,53.695091000000000,-1.935612000000000
Dorcopsis and Minke whale,HX6 3PS,53.705465998107700,-1.912404461016110
Dorcopsis and mud turtle,HX6 3RG,53.700132727501900,-1.896890292246740
turtle and moloch,HX6 4BB,53.675769698684700,-1.943059392212150
Chicken and rock snake,HX6 4DZ,53.671942509007700,-1.946909181819730
python and viper,HX6 4JL,53.674218930302800,-1.933676381283890
Goose and king cobra,HX6 4JQ,53.667594710354000,-1.952832354389680
monitor and Macaw,HX6 4NS,53.689663007374400,-1.959485798728560
Fox and king cobra,HX6 4QN,53.661573514329600,-1.955108946701260
deaf adder and Night heron,HX6 4QS,53.653745479841000,-1.956917673283960
deaf adder and Flameback,HX6 4RA,53.655516731915200,-1.937715217186430
hoop snake and galliwasp,HX7 5DS,53.730015984799900,-1.981970982049230
boa and dugite,HX7 5EU,53.725738577940900,-1.989868925841140
Zebra and Tahr,HX7 5EX,53.725432976203400,-1.989778063610740
Peafowl and Kite,HX7 5HE,53.721774179466800,-1.983747510704360
Wallaby and copperhead,HX7 5JW,53.727174952067400,-1.977182802485700
soft-shelled turtle and Zebra,HX7 5JY,53.729090576681900,-1.984608680757180
Zebra and Kangaroo,HX7 5LL,53.730761955103100,-1.981712989248890
Nukupuʻu and Dorcopsis,HX7 5LR,53.732102000000000,-1.979878000000000
worm lizard and Mamo,HX7 5QY,53.733410793019900,-1.968796814115430
fer-de-lance and wall lizard,HX7 5RN,53.721432000000000,-1.976110000000000
glass snake and sand viper,HX7 5RY,53.712732808468200,-1.989568948459570
hawksbill and Eagle,HX7 5TW,53.694262694306800,-1.998902370349670
Mockingbird and blind snake,HX7 5TX,53.706657000000000,-1.979693000000000
thorny devil and Old World quail,HX7 6BS,53.742103921774900,-2.023250996996450
Marmoset and sand viper,HX7 6BX,53.743738762533400,-2.027815736909860
Tree warbler and Grackle,HX7 6DJ,53.745976864465100,-2.027468479483900
rock snake and Kestrel,HX7 6DS,53.742993484140900,-2.024509935308810
rock snake and boa,HX7 6HH,53.740541219612800,-2.015897007839520
Civet and Logrunners,HX7 6NN,53.737022986693900,-2.034345134653960
racer and jew lizard,HX7 6NT,53.739106669020200,-2.039334667381470
Grackle and Skunk,HX7 6PF,53.736851857482600,-2.035557773167610
Mink and mud turtle,HX7 6PH,53.736239794410900,-2.038376923216860
Recurvebill and Herring gull,HX7 7AY,53.758349088012700,-2.042128413581440
Diving bird and Zebra,HX7 7BS,53.742590724412400,-2.014078377721380
copperhead and Logrunners,HX7 7DH,53.744073902937100,-2.012744597054460
Triller and tortoise,HX7 7ER,53.751193000000000,-2.018494000000000
Perching duck and tree snake,HX7 7ES,53.755460558392500,-2.020983490343130
leguaan and bull snake,HX7 7EY,53.753832058491400,-2.028914408788810
bushmaster and Partridge,HX7 7HB,53.755771102670900,-2.037409020620850
Grouse and Hawk,HX7 7HN,53.753644398086100,-2.052133094682370
Herring gull and boa constrictor,HX7 7NP,53.749420587329500,-2.021086592722430
Vole and rock snake,HX7 8AB,53.740775497022600,-2.010696823310660
harlequin snake and slowworm,HX7 8AU,53.739930751228900,-2.009165358114160
dukite and Dolphin,HX7 8BA,53.739166883118300,-2.007558166647700
turtle and Egret,HX7 8DN,53.742124116896600,-2.004314125786000
sand viper and moloch,HX7 8DS,53.743022919110900,-2.004359709325560
perentie and slowworm,HX7 8EL,53.741440365744800,-2.012986000000000
Herring gull and king snake,HX7 8HW,53.747291854076900,-2.010501000000000
Asiatic leopard and Scimitar babbler,HX7 8NR,53.733212271605000,-1.998992786826420
Parrotbill and Old World warbler,HX7 8PH,53.741297039081600,-1.991760448509000
Grosbeak and frilled lizard,HX7 8RA,53.763964681744000,-2.009777521092220
water snake and swift,HX7 8RF,53.770175117031300,-2.012646461836790
Maya and Vole,HX7 8ST,53.753835538891300,-2.003845257344750
White ibis and Zebra,M24 2UD,53.576318879000600,-2.173698244191510
Chickadee and Boto,OL10 1AQ,53.591631552433100,-2.219462037940810
Marsh harrier and carpet snake,OL10 1BT,53.588122810672900,-2.216075000000000
caiman and constrictor,OL10 1DG,53.591170905112700,-2.215758291264630
Towhee and Rabbit,OL10 1HY,53.593270890782700,-2.222446883659320
ringhals and hoop snake,OL10 1JG,53.593546766291200,-2.228673007338130
Booted eagles and Stilt,OL10 1JY,53.593436484817400,-2.220393013529530
Schneider python and deaf adder,OL10 1LT,53.592965451487100,-2.217474672986060
Puffleg and Darwin's finches,OL10 1PD,53.592297148463500,-2.214253237380870
thorn lizard and Wallaby,OL10 1PT,53.591996748800000,-2.213663000000000
diamondback terrapin and cobra de capello,OL10 2AW,53.586335741250900,-2.210416374280710
Hawaiian honeycreeper and Thicketbird,OL10 2BD,53.586478241595600,-2.216187538623430
Mink and king snake,OL10 2EN,53.586024700576600,-2.208390658015920
bushmaster and blind snake,OL10 2HH,53.584395666884500,-2.209621258214190
Diving bird and ringhals,OL10 2JH,53.588924000000000,-2.210352000000000
Ice seal and lizard,OL10 2JW,53.583905608314600,-2.207156717746220
green turtle and grass snake,OL10 2LL,53.580210404024900,-2.212847815994990
agamid and Elephant,OL10 2LR,53.579988886265000,-2.211049374577710
Francolin and adder,OL10 2NT,53.582243177253100,-2.217057062164410
Francolin and tuatara,OL10 2PA,53.582744647437000,-2.218086745398380
bearded dragon and Kangaroo,OL10 3AG,53.590279233743700,-2.226464793011320
Old World vulture and Vole,OL10 3AU,53.588444311201200,-2.222376187196630
giant tortoise and jew lizard,OL10 3BG,53.589101779512100,-2.226458490638210
diamondback and amethystine python,OL10 3DB,53.591370230867000,-2.234024460339760
Moluccan boobook and frill-necked lizard,OL10 3HA,53.591801667057500,-2.229388749469540
Tit-tyrant and turtle,OL10 3HH,53.593056111713900,-2.231420057719040
terrapin and Treepie,OL10 3HQ,53.592301362000000,-2.233652181200000
terrapin and Wallaby,OL10 3HU,53.592585830993200,-2.237325000000000
king cobra and Black cockatoo,OL10 3HX,53.592709228101500,-2.238700280674320
puff adder and Wallaby,OL10 3JB,53.591454158744800,-2.237046461831670
anaconda and Night heron,OL10 3LH,53.590661797567100,-2.242223862398810
pit viper and black snake,OL10 3LZ,53.588585182013800,-2.246774187903910
carpet snake and bushmaster,OL10 3NW,53.588378429734100,-2.242392070419620
rock snake and amethystine python,OL10 3SB,53.587323033432800,-2.239802862209950
Jerboa and Pheasant,OL10 3SE,53.587298849054200,-2.238412954257430
Viscacha and Bunting,OL10 3ST,53.589505000000000,-2.240432000000000
tiger snake and Mouse,OL10 4AR,53.601018000000000,-2.222198000000000
green turtle and Magpie,OL10 4BQ,53.604980936225800,-2.232769876772870
Mamo and Peafowl,OL10 4DJ,53.596964980158500,-2.202264715373470
Masked owl and blind snake,OL10 4JX,53.595390750198000,-2.218666000000000
Warbler and Partridge,OL10 4NS,53.593107060541000,-2.213713441834180
Maya and copperhead,OL10 4SQ,53.595244258477500,-2.238533276191870
Mole and taipan,OL10 4UQ,53.601190811798000,-2.226568552440240
rat snake and galliwasp,OL10 4UY,53.599161000000000,-2.216585000000000
Snipe and Scimitar babbler,OL10 4XH,53.595450217745000,-2.234379431718850
Ice seal and chuckwalla,OL11 1EF,53.611923258233500,-2.159682000000000
Maya and Minke whale,OL11 1NZ,53.606727487714400,-2.153057759361700
Rabbit and python,OL11 1QL,53.603614984004900,-2.161826562030920
Vulture and gecko,OL11 1TJ,53.603089607981600,-2.151412000000000
Black jay and sidewinder,OL11 1TX,53.601345241326900,-2.158629410589560
Chickadee and green turtle,OL11 2DD,53.596278928179500,-2.149272800464760
blindworm and moloch,OL11 2DP,53.593804311116200,-2.151530338335610
Marmoset and Black jay,OL11 2DX,53.591720700727500,-2.150208495927380
Puffleg and Skunk,OL11 2ED,53.592155673953500,-2.147369753433120
bushmaster and Prion,OL11 2JX,53.601404376151100,-2.147553112152670
Viscacha and Mockingbird,OL11 2LP,53.597345623144200,-2.158508634489330
slowworm and cycling lizard,OL11 2LZ,53.596783482077900,-2.168629937397760
loggerhead and bicycle lizard,OL11 2ND,53.600326277033700,-2.161088652305540
Herring gull and crocodile,OL11 2NN,53.598940311540700,-2.162397970383310
blindworm and cobra de capello,OL11 2PW,53.592809918315300,-2.169157985101790
Myna and Rabbit,OL11 2SH,53.592747227327400,-2.155771933142140
bearded dragon and Mink,OL11 2SW,53.587518000800000,-2.176977233500000
Herring gull and Argus,OL11 2TW,53.587588480127200,-2.174877492007190
leguaan and Black jay,OL11 2YQ,53.582325887465000,-2.171744228473110
Partridge and Gull,OL11 3AD,53.596056000000000,-2.181406692836020
rat snake and Francolin,OL11 3BJ,53.590482291240000,-2.181189211134450
Cuscus and Flameback,OL11 3BY,53.589946000000000,-2.191520000000000
sidewinder and flying lizard,OL11 3DE,53.592923225800000,-2.186653990400000
Wader and boa,OL11 3DL,53.593572054445900,-2.182637749002370
Rat and Mamo,OL11 3ED,53.593306510807500,-2.179932210884430
copperhead and diamondback turtle,OL11 3EX,53.597910000000000,-2.173636000000000
bandy-bandy and Towhee,OL11 3HB,53.599539364809600,-2.177269055559040
boomslang and Triller,OL11 3HE,53.599282054110700,-2.181030482063230
box turtle and anole,OL11 3HL,53.598887597248100,-2.186211634173860
boa constrictor and diamondback terrapin,OL11 3HP,53.597505220115800,-2.185042089762630
Coati and Cuscus,OL11 3HU,53.597949153748100,-2.182762424128630
Shearwater and Wallaby,OL11 3JZ,53.600412223690300,-2.182576629488080
slowworm and blue racer,OL11 3LD,53.600102789358200,-2.185068568241100
Songlark and swift,OL11 3LJ,53.601287142321600,-2.186418647379830
Solitaire and Prion,OL11 3LL,53.601753868206500,-2.186843822955070
harlequin snake and puff adder,OL11 3LR,53.602243263884400,-2.189989182351290
Parrotlet and adder,OL11 3TW,53.608137074885400,-2.161088196549070
king snake and krait,OL11 4AU,53.610636717308800,-2.196919000000000
Grackle and Jay,OL11 4DW,53.610931781642800,-2.191947792267010
boomslang and Tree warbler,OL11 4EU,53.614254328214100,-2.170271696407270
death adder and hawksbill,OL11 4HJ,53.611950904551700,-2.171970408312330
Greenbul and horned toad,OL11 4HQ,53.611991147924700,-2.168962687452260
viper and worm lizard,OL11 4HS,53.611919000000000,-2.170066000000000
Grosbeak and Nukupuʻu,OL11 4HW,53.611581022459100,-2.166588016031310
adder and Goose,OL11 4NB,53.605973881403600,-2.171855412603310
Chicken and cobra,OL11 4PG,53.603934845641800,-2.177121253583590
Marsh harrier and Pheasant,OL11 4PS,53.604268950250900,-2.176079908732510
Nukupuʻu and White ibis,OL11 4PU,53.603938581717400,-2.174582432356780
tiger snake and indigo snake,OL11 4PW,53.603450175931900,-2.176650752446280
Armadillo and Chipmunk,OL11 4QD,53.606827630415000,-2.171949562800120
Perching duck and snapping turtle,OL11 4QJ,53.605366866100700,-2.175162611396840
Triller and hoop snake,OL11 4RH,53.604092000000000,-2.186975000000000
frill-necked lizard and Towhee,OL11 4YA,53.611534000000000,-2.148783000000000
Kangaroo and sea snake,OL11 5AE,53.622356915102300,-2.179693068835420
Ibex and moloch,OL11 5AJ,53.621465511133300,-2.186583261234800
adder and Parrotbill,OL11 5BW,53.616429000000000,-2.171157000000000
taipan and Mole,OL11 5DA,53.621508000000000,-2.176847000000000
Ground sloth and Marsh harrier,OL11 5DP,53.618692383652800,-2.177908748380850
Peafowl and coral snake,OL11 5EE,53.618199399542600,-2.182955823408310
Condor and cayman,OL11 5HA,53.615020300978200,-2.175127044912950
Greenbul and krait,OL11 5JD,53.610027149507000,-2.206226701468110
Tit-tyrant and Vole,OL11 5JL,53.611709318644100,-2.205433818237750
Perching duck and horned viper,OL11 5LU,53.615659687972800,-2.191893684418640
Darwin's finches and ringhals,OL11 5NP,53.623770650769000,-2.216136386706500
Parrotbill and Old World warbler,OL11 5QE,53.615220709050900,-2.201928820209430
Treepie and Jay,OL11 5RW,53.620656804022600,-2.208213691669580
Jackal and Gull,OL11 5RZ,53.623068046105500,-2.206834628742520
pit viper and boa,OL11 5SQ,53.619143368847700,-2.204986194064730
rat snake and Civet,OL11 5TZ,53.629919525290400,-2.220553055988830
Stint and copperhead,OL11 5XE,53.626639026357800,-2.210057000000000
Parakeet and cycling lizard,OL11 5XJ,53.622128744650400,-2.198907869808910
grass snake and alligator,OL12 0AU,53.635646461512600,-2.157034194185020
Stint and Argus,OL12 0EE,53.626272500541200,-2.149439286939580
Cloud rat and hoop snake,OL12 0EP,53.623611372323400,-2.149928801959930
Guillemot and B,OL12 0ES,53.628621231332600,-2.147179459192410
blindworm and gaboon viper,OL12 0JH,53.625204885636100,-2.154939085114990
cycling lizard and Siskin,OL12 0LT,53.623853576715100,-2.157292727974030
jew lizard and Hawk,OL12 0NE,53.622260487432700,-2.158934729579390
Komodo dragon and rat snake,OL12 0QA,53.624872868541500,-2.161318337206810
Warbler and turtle,OL12 0QJ,53.625108390332600,-2.159958465391170
Logrunners and leguaan,OL12 0QL,53.625145000000000,-2.160261000000000
worm lizard and sand lizard,OL12 0RF,53.626036327508100,-2.158344138526270
bandy-bandy and Rabbit,OL12 0SR,53.635116923114600,-2.163172268206810
mamba and tiger snake,OL12 0SS,53.634470517158900,-2.162625340938300
Moluccan boobook and hawksbill,OL12 0TB,53.636780695138000,-2.168956012004200
Zebra and anole,OL12 6AL,53.630850000000000,-2.174981000000000
Boto and hoop snake,OL12 6BB,53.629966990914300,-2.162940667870700
Jay and black snake,OL12 6BL,53.643587887235100,-2.196331601981910
Treepie and Eagle,OL12 6DE,53.633240574162100,-2.168079858835500
Gila monster and Boto,OL12 6DF,53.636379987046100,-2.172614347382290
death adder and Chipmunk,OL12 6DL,53.636481636511600,-2.170678922811830
snake and Old World warbler,OL12 6EH,53.631684842256800,-2.162130706918170
Parakeet and Mockingbird,OL12 6EZ,53.634537891437500,-2.165922426284070
thorn lizard and mud turtle,OL12 6NP,53.631174694853000,-2.167073593655040
harlequin snake and cerastes,OL12 6NS,53.629493843487700,-2.167112307452400
Marsh harrier and iguana,OL12 6QW,53.620535840443700,-2.164763807079220
fer-de-lance and Wader,OL12 6RG,53.619659005528500,-2.161827546494940
blue racer and Asiatic leopard,OL12 6RY,53.616727746936700,-2.162632619438630
Hawaiian honeycreeper and slowworm,OL12 6ST,53.619669022388100,-2.167602561334090
moloch and Gila monster,OL12 6UA,53.618239116951800,-2.161640700616400
garter snake and boa constrictor,OL12 6UJ,53.617785079230700,-2.165025186180610
Kestrel and boa,OL12 6XL,53.633381969655700,-2.169789280220360
python and goanna,OL12 7AB,53.620214357759600,-2.169690999953510
constrictor and flying dragon,OL12 7AZ,53.632295394900000,-2.178374613900000
Tit-tyrant and Fox,OL12 7BP,53.622621722059200,-2.176912336426360
Old World warbler and gecko,OL12 7EH,53.625387313007800,-2.178783652859990
Prion and Mockingbird,OL12 7ER,53.625774639880300,-2.178225855023050
Armadillo and Ibex,OL12 7EY,53.611534000000000,-2.148783000000000
black snake and Pitohui,OL12 7HA,53.639244672945200,-2.180430426205740
Tahr and Booted eagles,OL12 7HD,53.634619242943200,-2.178096829531000
Cuscus and thorn lizard,OL12 7HT,53.635857777432300,-2.179327059362140
dugite and smooth snake,OL12 7JQ,53.634056700368600,-2.187425277978040
frill-necked lizard and Argus,OL12 7PX,53.627423476425300,-2.193020676767080
black snake and Komodo dragon,OL12 7RN,53.628081233726100,-2.208129316397970
snake and Towhee,OL12 7SL,53.627121849373100,-2.211904693579230
viper and krait,OL12 7TP,53.630301366240200,-2.227828517615690
New World blackbird and Pheasant,OL12 8AL,53.660854242289700,-2.178904000000000
Coati and B,OL12 8EA,53.656302544600000,-2.178597137400000
Solitaire and krait,OL12 8ET,53.657740824900000,-2.178482174800000
moloch and Treepie,OL12 8JW,53.664380213254000,-2.171215543376080
agama and saltwater crocodile,OL12 8NG,53.674644091987400,-2.171635656617860
hawksbill and Perching duck,OL12 8PT,53.655701883551800,-2.174493931892200
python and Pheasant,OL12 8RQ,53.657819210190300,-2.177135550622080
Marmoset and Kākāriki,OL12 8RU,53.644852453350400,-2.180998958474570
viper and python,OL12 8SY,53.650097215786700,-2.177904954392410
blue racer and Tit-tyrant,OL12 8TJ,53.648634457831100,-2.176340594013260
Fox and Skunk,OL12 8UP,53.651309254834700,-2.184733269586620
gaboon viper and diamond snake,OL12 9AF,53.634571017556500,-2.132152756938920
Logrunners and Moluccan boobook,OL12 9BQ,53.625084300709600,-2.143538410561160
Tree warbler and tokay,OL12 9EG,53.644383317067600,-2.126450520797780
bushmaster and Mamo,OL12 9JW,53.648377211840800,-2.131863189217250
hognose snake and box turtle,OL12 9NN,53.647069162711400,-2.136109936730030
Goose and Hawaiian honeycreeper,OL12 9QD,53.637746282384700,-2.121394274003530
Shearwater and goanna,OL12 9QG,53.638392799411400,-2.122016235578830
Wader and Siskin,OL12 9QN,53.641039574246900,-2.126576627428110
tree snake and Puffleg,OL12 9QX,53.637186688599200,-2.123661263008030
New World blackbird and water snake,OL12 9QY,53.637231785941700,-2.123510155077910
massasauga and wall lizard,OL12 9RA,53.637065384041500,-2.127895613665460
jew lizard and Masked owl,OL12 9RB,53.638242640627000,-2.128080674321210
Magpie and constrictor,OL12 9RP,53.631976624436900,-2.137286158960520
Chickadee and Fish eagle,OL12 9TJ,53.640589860885600,-2.126862657291010
Old World quail and puff adder,OL12 9XB,53.631156495588900,-2.139188843533270
bearded lizard and gaboon viper,OL13 0BH,53.696005000000000,-2.203194000000000
cobra de capello and Flameback,OL13 0BJ,53.696731527891500,-2.203727741411980
bicycle lizard and Parrotbill,OL13 0DN,53.692990140690400,-2.210267009083350
boomslang and Vulture,OL13 0ET,53.692198720695500,-2.215578507562970
gaboon viper and box turtle,OL13 0NY,53.691986020794400,-2.233144054018960
mud turtle and Stint,OL13 0RD,53.693433130801500,-2.223490000000000
amethystine python and sand lizard,OL13 0UD,53.692011939674600,-2.219439184887870
Lemming and Old World vulture,OL13 8AR,53.702574814684200,-2.203134952094410
Tree warbler and Kangaroo,OL13 8HH,53.702603318315000,-2.202226242217080
Tahr and Schneider python,OL13 8HN,53.701826251861000,-2.204630913268990
Old World vulture and death adder,OL13 8JS,53.693604901110900,-2.213329210181480
garter snake and chameleon,OL13 8NH,53.695815358534400,-2.223517855076820
Pitohui and leathery turtle,OL13 8PF,53.712379369961600,-2.204000393471760
Civet and thorny devil,OL13 8RP,53.726903453301200,-2.193582698151210
Triller and gopher snake,OL13 9BD,53.703742001594300,-2.198535629635060
frill-necked lizard and boomslang,OL13 9EN,53.704966965460300,-2.191436849390090
Badger and Bunting,OL13 9ES,53.704659899913400,-2.186678922146000
Philippine hawk-owl and Asiatic leopard,OL13 9LR,53.704227194642900,-2.193145215347080
Peafowl and Elephant,OL13 9LS,53.704163886821800,-2.193387293277150
brown snake and water snake,OL13 9LY,53.703775140231000,-2.194779112965410
Rabbit and agamid,OL13 9NQ,53.703194910200000,-2.200547956200000
lizard and Recurvebill,OL13 9NT,53.697048981264300,-2.196641200775020
rattlesnake and agamid,OL13 9NW,53.701754510591500,-2.199207885027020
chuckwalla and alligator,OL13 9PW,53.694606584907000,-2.189602717321320
Ice seal and thorn lizard,OL13 9PX,53.696613218131200,-2.188157798106480
green turtle and New World blackbird,OL13 9QN,53.697754727554800,-2.199249557126220
Egret and viper,OL13 9RN,53.692224946998600,-2.195058886970590
Marsh harrier and Goose,OL13 9SH,53.691811447200000,-2.186652550500000
Crow and perentie,OL13 9SN,53.689345898131600,-2.173573225487130
Mouse and Herring gull,OL13 9SW,53.691140000000000,-2.176882000000000
tiger snake and Chicken,OL13 9TH,53.691059554875300,-2.181697095767280
tree snake and skink,OL13 9TP,53.693416878613600,-2.191656969228220
Black cockatoo and water snake,OL13 9UZ,53.707961000000000,-2.180058000000000
fer-de-lance and Fulmarine petrel,OL13 9WU,53.693678000000000,-2.180542000000000
Bronzewing pigeon and Dorcopsis,OL13 9XA,53.700352987698100,-2.187704954837240
Thrasher and Myna,OL14 5BW,53.714305426687000,-2.093493614755600
amphisbaena and hognose snake,OL14 5BX,53.714982185238000,-2.090040491072640
jew lizard and agamid,OL14 5HU,53.717995679915500,-2.098290157411030
racer and Ground sloth,OL14 5JQ,53.719379579374300,-2.098611615245630
Fulmarine petrel and hoop snake,OL14 5LB,53.719626764633300,-2.103900783938440
perentie and Wader,OL14 5NX,53.722110460473700,-2.100406244895660
Recurvebill and Polecat,OL14 5PQ,53.722590623740300,-2.106408619469610
snake and chameleon,OL14 5PX,53.713134457901000,-2.096657615278150
Civet and Fish eagle,OL14 5RW,53.717149821455900,-2.074831865836580
Meadowlark and Thicketbird,OL14 5SQ,53.716840336929800,-2.080801417566530
Asiatic leopard and sea snake,OL14 6AQ,53.714241999753000,-2.081947944637890
crocodile and Macaw,OL14 6BD,53.683540000000000,-2.093546000000000
boa and Eagle,OL14 6BU,53.716740146012800,-2.068542844943890
kabaragoya and sea snake,OL14 6LX,53.711784525141500,-2.098760464252770
leguaan and soft-shelled turtle,OL14 6NF,53.712354300389500,-2.094398332727560
Scimitar babbler and smooth snake,OL14 6SY,53.692719861245000,-2.099836369257640
Mouse and coral snake,OL14 6XD,53.683876160349200,-2.087596842117010
whip snake and Puffleg,OL14 7BJ,53.714293180172000,-2.097569376626550
Viscacha and smooth snake,OL14 7BS,53.716539488744700,-2.098438277946890
Komodo dragon and Perching duck,OL14 7DT,53.716360038856500,-2.098059048469980
Ground sloth and ringhals,OL14 7HG,53.705890217520000,-2.116621991584370
black snake and Towhee,OL14 7LD,53.712251515822600,-2.099231238747430
dugite and diamondback,OL14 7QA,53.694128527970200,-2.102581000000000
whip snake and slowworm,OL14 7TQ,53.691350433388200,-2.103634113051970
Eagle and Parakeet,OL14 7UR,53.687746922688100,-2.102792426702750
puff adder and Recurvebill,OL14 7UW,53.687436923947000,-2.107788526826190
jew lizard and asp,OL14 8DZ,53.721960769444900,-2.107179899467740
Scimitar babbler and Elephant,OL14 8EG,53.724674274099700,-2.108171915098450
lizard and Cuscus,OL14 8EJ,53.724277391149900,-2.109716726826370
snake and Armadillo,OL14 8ER,53.724220213167600,-2.113202274295110
gecko and python,OL14 8HA,53.726463340095700,-2.117239811730310
cycling lizard and Mouse,OL14 8PB,53.733798422097800,-2.155884511848690
rat snake and Lemming,OL14 8PL,53.732078675367800,-2.151239779754290
hoop snake and Chickadee,OL14 8RT,53.730908707187600,-2.062260000000000
Jackal and cobra de capello,OL14 8SD,53.742824293728600,-2.132068000000000
Philippine hawk-owl and Guillemot,OL14 8SH,53.738483000000000,-2.133283000000000
Thrasher and Pitohui,OL15 0BP,53.629156629022400,-2.108879520893120
box turtle and Boto,OL15 0BQ,53.632150411468700,-2.108100892761500
Vole and Lemming,OL15 0DQ,53.631525950970300,-2.102761238626940
Siskin and Stilt,OL15 0DR,53.633626894246400,-2.105397709538350
king snake and puff adder,OL15 0DU,53.631537404969500,-2.110080300328630
Fulmarine petrel and Wallaby,OL15 0EE,53.631461955194300,-2.113860589609760
Petrel and Triller,OL15 0HT,53.644893605265000,-2.088816700541640
White ibis and mamba,OL15 0JB,53.649347372512000,-2.082381414485560
flying lizard and Zebra,OL15 0JS,53.646523000000000,-2.087155660686400
Chickadee and Herring gull,OL15 0RA,53.631006388372200,-2.110850125788150
goanna and python,OL15 0RB,53.630747069404500,-2.109397762418920
Triller and blue racer,OL15 8BG,53.645166000000000,-2.098362000000000
Kite and Zebra,OL15 8BW,53.644481030176000,-2.099117044891740
Jay and mamba,OL15 8BZ,53.644513836397400,-2.102838268421250
Mink and Marmoset,OL15 8DB,53.640956000000000,-2.112298000000000
perentie and Pheasant,OL15 8DE,53.643495771417600,-2.094879379690910
thorn lizard and bull snake,OL15 8DN,53.642167308464800,-2.103543457142580
Mockingbird and Peafowl,OL15 8EP,53.649614371194300,-2.108221305381010
Dolphin and Marmoset,OL15 8JG,53.641709863680400,-2.102438164541130
diamondback turtle and Pitohui,OL15 8JQ,53.641989593127500,-2.101153158855660
Treepie and Piping shrike,OL15 8NA,53.641448056005600,-2.113645535550700
Black cockatoo and cerastes,OL15 8NB,53.640423317635700,-2.113733525622320
thorn lizard and monitor,OL15 8ND,53.640448992875000,-2.115079734004240
cycling lizard and fer-de-lance,OL15 8PF,53.641310000000000,-2.108472000000000
boa constrictor and chameleon,OL15 8PX,53.637696254827100,-2.117492092873290
Nukupuʻu and Kākāriki,OL15 8QN,53.633089000000000,-2.114455610036130
boomslang and Meadowlark,OL15 8RF,53.636385238005800,-2.116202927023010
monitor and glass snake,OL15 8RR,53.646188998720900,-2.109180655848720
Solitaire and frill-necked lizard,OL15 9AG,53.650662414800000,-2.096529674400000
Egret and Kangaroo,OL15 9BY,53.644735402896200,-2.095804897739990
copperhead and jew lizard,OL15 9DD,53.644807852528400,-2.095124360171640
Tit-tyrant and Treepie,OL15 9DQ,53.645061095529000,-2.093128193174420
blue racer and boomslang,OL15 9HG,53.646807956222400,-2.100332710176500
sand viper and rock snake,OL15 9JE,53.649853638771600,-2.101883068373770
Tree warbler and mountain devil,OL15 9JP,53.650636136657000,-2.101264678642640
Gull and flying lizard,OL15 9LU,53.650584722033000,-2.108632273283150
Gull and gopher snake,OL15 9NE,53.661721000000000,-2.087505000000000
Myna and New World blackbird,OL15 9NJ,53.668706025234200,-2.084508000000000
Kākāriki and Mole,OL15 9NQ,53.663796671481700,-2.087555074614720
galliwasp and wall lizard,OL15 9PP,53.657416509113700,-2.085574754103330
Night heron and Partridge,OL15 9QF,53.660506886207600,-2.087714692017830
chameleon and Recurvebill,OL15 9QL,53.660907786087400,-2.079997962889720
Pratincole and death adder,OL15 9QT,53.662945829586300,-2.083316007488570
rat snake and bandy-bandy,OL15 9QW,53.662127907848800,-2.083314389321330
Triller and Solitaire,OL15 9RG,53.665291968276800,-2.082987700432280
dugite and Eagle,OL16 1DF,53.618903000000000,-2.156806000000000
Bronzewing pigeon and Siskin,OL16 1DR,53.619568977788000,-2.155009000000000
mountain devil and asp,OL16 1DY,53.619586718479200,-2.155341772550170
terrapin and crocodile,OL16 1ED,53.617353035964300,-2.159233000000000
hognose snake and Grosbeak,OL16 1NT,53.616403794147200,-2.156025000000000
Solitaire and frill-necked lizard,OL16 2AL,53.624756758400000,-2.143068848200000
Fulmarine petrel and Egret,OL16 2AX,53.613565130428500,-2.147837431582920
Linsang and Petrel,OL16 2BN,53.626005000000000,-2.139231000000000
Coati and amethystine python,OL16 2BY,53.618998504471900,-2.151439295067800
goanna and amethystine python,OL16 2DP,53.621184181194900,-2.150222551262690
Grosbeak and sand viper,OL16 2EG,53.620862252586700,-2.148906126106050
Triller and Siskin,OL16 2EL,53.620869917295600,-2.149964424696550
bicycle lizard and monitor,OL16 2HZ,53.618400000000000,-2.149427000000000
Marmoset and Nukupuʻu,OL16 2NQ,53.625591091442700,-2.140637121917160
Kākāriki and milk snake,OL16 2NT,53.629556845507900,-2.138971871683180
Fulmarine petrel and perentie,OL16 2PR,53.631152262237800,-2.135045445945520
Jackal and Jackal,OL16 2PT,53.631934746003800,-2.134594285822940
agama and boa constrictor,OL16 2TE,53.626825000000000,-2.139553000000000
saltwater crocodile and diamondback terrapin,OL16 2TR,53.624207085559700,-2.132619254010890
flying lizard and Darwin's finches,OL16 2TX,53.621988603470200,-2.131160904177470
water snake and amphisbaena,OL16 2UP,53.622813401887800,-2.140915129191840
cobra de capello and Black cockatoo,OL16 2XJ,53.622119830493200,-2.134396694071700
Towhee and smooth snake,OL16 3BJ,53.615667804961600,-2.124701728473100
racer and anole,OL16 3DJ,53.613561000000000,-2.109548000000000
leathery turtle and Chipmunk,OL16 3DS,53.611068736770700,-2.102771895650610
agamid and Viscacha,OL16 3JG,53.613271475572800,-2.112073255976990
Piping shrike and Tit-tyrant,OL16 3JR,53.612017512456000,-2.107293588955730
death adder and Fulmarine petrel,OL16 3JT,53.611449112389500,-2.109650052191460
coral snake and flying dragon,OL16 3LF,53.612148316446800,-2.111677283726890
Songlark and tiger snake,OL16 3LL,53.613724002301300,-2.118166046462970
sand lizard and gaboon viper,OL16 3NT,53.608485938499200,-2.106392904877240
krait and mud turtle,OL16 3PR,53.605522229246900,-2.103650043611860
smooth snake and Crow,OL16 3RB,53.601658992164400,-2.090493734472230
goanna and gecko,OL16 3TS,53.614309437904900,-2.085079169194220
crocodile and Myna,OL16 3UB,53.611161899992400,-2.098887647341580
Grosbeak and amethystine python,OL16 3UD,53.611728507975700,-2.098465757742660
Black cockatoo and swift,OL16 3UT,53.615140981991600,-2.112123566876750
agama and Goose,OL16 4DL,53.611900080277600,-2.117465654850010
B and Wader,OL16 4DR,53.612619479136700,-2.117120006097300
Chipmunk and Skunk,OL16 4DX,53.612036057408200,-2.116287062799530
ringhals and Francolin,OL16 4EY,53.605681530755800,-2.116118439899560
Zebra and Maya,OL16 4HG,53.610009416235400,-2.111354227131020
diamondback and Pratincole,OL16 4NE,53.598661925092000,-2.095594567122000
snake and elapid,OL16 4PE,53.595809170623700,-2.143877151349720
Mole and Darwin's finches,OL16 4PS,53.607319779700000,-2.135165984500000
saltwater crocodile and Guillemot,OL16 4QQ,53.590401498172100,-2.125004856445890
diamond snake and whip snake,OL16 4QS,53.597543462018200,-2.136600114408900
cycling lizard and Thrasher,OL16 4RY,53.587348937637200,-2.138183538947170
sand lizard and hawksbill,OL16 4TF,53.601460697349300,-2.145603959664930
krait and Vulture,OL16 4XS,53.603437055593300,-2.138946404199340
agama and fer-de-lance,OL16 5AJ,53.616864412641300,-2.131976409379320
harlequin snake and giant tortoise,OL16 5BG,53.614550054122400,-2.135884196721290
diamond python and Magpie,OL16 5DZ,53.612114801463800,-2.143101349940210
diamondback and blindworm,OL16 5LF,53.605768397248600,-2.143684367481230
Pratincole and Buzzard,OL16 5LR,53.604994000000000,-2.145510000000000
lizard and giant tortoise,OL16 5LU,53.606205072016500,-2.146768889378170
asp and cycling lizard,OL16 5ND,53.612346565020100,-2.144704337659220
rock python and dugite,OL16 5QT,53.612078698195500,-2.150537819594840
racer and lizard,OL16 5SN,53.611290989710700,-2.140483709120780
Gila monster and grass snake,OL16 9SQ,53.615690099222600,-2.158925127492100
agama and dugite,OL2 5SA,53.575562879420500,-2.132376071489260
Chickadee and adder,OL2 6ST,53.577190251905900,-2.123531056520420
Dorcopsis and Black jay,OL2 6SZ,53.576057024861600,-2.124207343888510
Darwin's finches and Tattler,OL2 6TB,53.575516671692600,-2.125217589351620
saltwater crocodile and Marmoset,OL2 6TN,53.576170724076500,-2.127197915492240
Grosbeak and krait,OL2 6XQ,53.580962002821700,-2.134915326570780
Pitohui and crocodile,OL2 6XW,53.582358707772600,-2.131762959410200
Ice seal and king snake,OL2 7DH,53.580502544563200,-2.109615073241920
chuckwalla and Asiatic leopard,OL2 7LD,53.580312871331600,-2.110611424554640
mountain devil and Boto,OL2 7LR,53.581526049166000,-2.110871369087570
blind snake and diamondback,OL2 7LY,53.582726108892500,-2.115481403010450
copperhead and bicycle lizard,OL2 7PY,53.587380339492800,-2.107684211676000
coral snake and elapid,OL2 7QR,53.585097593628200,-2.107376287384250
water snake and Asiatic leopard,OL2 7RL,53.584655800404900,-2.108885688138460
hoop snake and cayman,OL2 7SD,53.580862000000000,-2.100251939808870
rock python and Black jay,OL2 7SX,53.581970343546000,-2.096040137289560
bandy-bandy and Myna,OL2 7TD,53.580642472661400,-2.093016359412510
crocodile and Goose,OL2 7TG,53.580093275694600,-2.094178127905610
Jackal and B,OL2 7TH,53.579464263268100,-2.093965278687270
Jerboa and Snipe,OL2 7UP,53.584508015006100,-2.092269611178020
sand viper and whip snake,OL2 7XG,53.584862620836800,-2.098433349753990
skink and Ice seal,OL2 8AE,53.578305108106400,-2.093539818097620
Parrotlet and Quetzal,OL2 8AF,53.578916370013300,-2.093465655274970
Bronzewing pigeon and Songlark,OL2 8AJ,53.578493529600500,-2.093963120122080
mud turtle and thorny devil,OL2 8BE,53.582882377428500,-2.090649868860660
boa and Grackle,OL2 8DJ,53.583011853325400,-2.085726032944870
turtle and indigo snake,OL2 8DZ,53.584145173415100,-2.084610559650620
Mockingbird and cayman,OL2 8ED,53.588627298946000,-2.088773867349710
Tattler and Tit-tyrant,OL2 8EL,53.577955891173400,-2.091832423973580
Grouse and rock snake,OL2 8FN,53.585411646800000,-2.079145154800000
Dolphin and cycling lizard,OL2 8PE,53.584327064245200,-2.081559691475120
deaf adder and saltwater crocodile,OL2 8PQ,53.576421000000000,-2.090757000000000
Viscacha and Meadowlark,OL2 8QE,53.575436067370100,-2.083838020246330
Boto and slowworm,OL2 8QP,53.575393436878800,-2.092990000000000
Grosbeak and New World blackbird,OL3 5LY,53.581397770782700,-1.994252544267910
sand lizard and carpet snake,OL3 5SL,53.590874000000000,-2.040994000000000
chuckwalla and Argus,OL3 5SS,53.583212242491200,-2.048750000000000
Ibex and Minke whale,OL3 5TN,53.577245683974600,-2.045133684364610
sea snake and saltwater crocodile,OL3 5TT,53.579197733984900,-2.040725617907820
