name,postcode,lat,lon
Samosa chaat ,BB10 1QX,53.79963820000000,-2.23969370000000
Cuppa Cake Limited ,BB10 2TP,53.7996,-2.2190
The Thornton,BB10 3JS,53.78767395019530,-2.20758390426636
Burnley Football CLub,BB10 4BX,53.78847885131840,-2.23034095764160
The Haven Community Home,BB10 4QR,53.78841710000000,-2.22322160000000
Kettledrum Inn,BB10 4RG,53.77157930000000,-2.19270530000000
Towneley Garden Centre,BB10 4SD,53.78370285034180,-2.20695805549622
Ellis’s ,BB11 1AP,53.79110110000000,-2.24345480000000
Siam Thai Cafe,BB11 1BB,53.79047040000000,-2.24417970000000
Astoria (Burnley) Ltd,BB11 1DR,53.78909500000000,-2.24429310000000
Mr Greens Diner Ltd,BB11 1DW,53.78881850000000,-2.24385950000000
Brambles tearooms,BB11 1EP,53.78854370117190,-2.24377393722534
Illuminati,BB11 1NA,53.78884950000000,-2.24568800000000
The Hideaway Bar & Kitchen,BB11 1NG,53.7890,-2.2405
Lancashire coffee ltd,BB11 1NH,53.7891,-2.2434
Quick Crepes Burnley,BB11 1NH,53.78904724121090,-2.24353408813477
RHODE ISLAND COFFEE LTD,BB11 1NH,53.78904724121090,-2.24353408813477
St James coffee House,BB11 1NL,53.78958129882810,-2.24623894691467
Starvin Marvin,BB11 1PP,53.78985977172850,-2.24610400199890
Costa Coffee,BB11 1QE,53.78931310000000,-2.24311040000000
McDonald's,BB11 1QL,53.78930830000000,-2.24104610000000
Salva Fast Food ,BB11 1QL,53.78934480000000,-2.24077310000000
Whats 4 Dessert,BB11 1RA,53.7894,-2.2540
Bannys Drive Thru,BB11 1TQ,53.78649902343750,-2.24945402145386
KFC BURNLEY 02032,BB11 1TQ,53.78654990000000,-2.24937780000000
KFC,BB11 1TQ,53.78654990000000,-2.24937780000000
Subway,BB11 1TQ,53.78772490000000,-2.25053840000000
The Bridge Bier Huis Ltd,BB11 1UH,53.79018790000000,-2.24164310000000
The Palazzo,BB11 2AS,53.78792130000000,-2.24244960000000
Ivy Joans Diner,BB11 2DB,53.78908580000000,-2.23996710000000
Aroma Asian Restaurant ,BB11 2DL,53.79190930000000,-2.23933060000000
Shimla spice,BB11 2DW,53.79174930000000,-2.23843410000000
Burger King,BB11 2EG,53.78417587280270,-2.24727010726929
star cafe ltd,BB11 2EQ,53.78814220000000,-2.23990100000000
Costa Coffee,BB11 2HE,53.78530120849610,-2.24167609214783
Rosehill House Hotel Limited,BB11 2PW,53.78009033203130,-2.25305795669556
The Boathouse ,BB11 2RU,53.79313278198240,-2.23657488822937
Lahori Kebabish,BB11 3AB,53.78779990000000,-2.23575540000000
Towneley Golf Club,BB11 3ED,53.77711486816410,-2.23246288299561
Dine Experience Limited,BB11 3RF,53.76898510000000,-2.22316340000000
Cramptons Catering,BB11 3RW,53.7717,-2.2517
Chocstop dessert cafe ,BB11 4HU,53.78534670000000,-2.24882430000000
zil mil,BB11 4HU,53.78533935546880,-2.24884009361267
BALLERO,BB11 4SB,53.78941390000000,-2.26109580000000
Barracks Starbucks,BB11 4SB,53.78900909423830,-2.26059389114380
New Waggonners ltd,BB11 5NS,53.76198959350590,-2.26129198074341
Holiday Inn Express Burnley M65 J10,BB12 0TJ,53.79388710000000,-2.25649560000000
The Old Library Waterfoot ,BB4 7AW,53.69196100000000,-2.25015000000000
The Hargreaves Arms Pub & Restaurant ,BB4 9PQ,53.71928000000000,-2.24796400000000
THE QUEENS HEAD,BD13 1NA,53.77794200000000,-1.86846100000000
Absolutely by CH&Co at Shibden Head Primary Academy,BD13 2ND,53.76358900000000,-1.85362500000000
christophe's coffee house,BD13 3JX,53.79007200000000,-1.85001100000000
Ring O Bells Inn Thornton,BD13 3QL,53.79467400000000,-1.86464400000000
WHITE HORSE INN,BD13 3SJ,53.79296100000000,-1.87685400000000
Emilys Eatery ,BD13 4EN,53.79520500000000,-1.89304500000000
The Waggon at Birtle,BL9 6UE,53.60482500000000,-2.23895000000000
The Church Inn,BL9 6UH,53.60599600000000,-2.25961600000000
IL CASTELLO LIMITED,BL9 7TB,53.60164300000000,-2.25650700000000
PINNACLE LIVING THE PAVILION LTD,BL9 7UJ,53.60759800000000,-2.24996800000000
The white swan,HD3 3YJ,53.65891300000000,-1.86868000000000
The Weavers Shed Restuarant,HD7 4AN,53.6380,-1.8501
The Golcar Lily Pub and Restaurant,HD7 4JR,53.63568800000000,-1.86876700000000
Bolster Moor Coffee Shop,HD7 4JU,53.63591500000000,-1.87111000000000
Scape house inn,HD7 4NJ,53.6442,-1.8678
The Haveli Restaurant LTD,HD7 4QA,53.63930500000000,-1.85659500000000
Destination ,HD7 5AB,53.62360900000000,-1.87840500000000
Om Is Where The Heart Is ,HD7 5AG,53.62419300000000,-1.87873500000000
Vanilla Bean ,HD7 5AN,53.62285600000000,-1.88055300000000
Ruddis,HD7 5AW,53.62272200000000,-1.88170300000000
The Cookhouse Cafe,HD7 5AW,53.62272200000000,-1.88170300000000
ASHBY'S DELI CAFE LIMITED,HD7 5HF,53.6216,-1.8810
The Little Bridge,HD7 5HF,53.62156200000000,-1.88104100000000
Monsoon Tandoori,HD7 5HG,53.62149000000000,-1.88057300000000
Rose and crown ,HD7 5XA,53.61882200000000,-1.91349100000000
Katies homemade kitchen ,HD7 6BY,53.60093500000000,-1.92749000000000
The New Inn,HD7 6EZ,53.60012600000000,-1.92640300000000
Pink Elephant ,HD9 4ES,53.59131900000000,-1.85051800000000
H Lounge,HD9 5NX,53.59308242797850,-1.85146403312683
Wills O Nats,HD9 5PS,53.60672100000000,-1.86249400000000
Blue Mountain Diner,HX1 1DD,53.72104700000000,-1.85954600000000
Pizza Hut,HX1 1DE,53.72117300000000,-1.86006100000000
Cinnamon,HX1 1DJ,53.72147800000000,-1.85916500000000
Delicious Coffee Shop,HX1 1DJ,53.7215,-1.8591
La Luna cafebar diner ,HX1 1DJ,53.72147800000000,-1.85916500000000
Sultan Mahal ,HX1 1DJ,53.72147800000000,-1.85916500000000
THE GATE CAFE BAR,HX1 1DJ,53.72147800000000,-1.85916500000000
BROWNS CAFE,HX1 1DL,53.72212600000000,-1.85987500000000
Caffe Nero,HX1 1DL,53.72212600000000,-1.85987500000000
Merrie England Coffee Shops Ltd,HX1 1DL,53.72212600000000,-1.85987500000000
Adams cafe halifax,HX1 1DZ,53.7224,-1.8594
Borough Kitchen,HX1 1DZ,53.72241973876950,-1.85937595367432
My Crepe,HX1 1DZ,53.72245800000000,-1.85934400000000
Top Door Espresso,HX1 1DZ,53.7224,-1.8594
KFC HALIFAX 02011,HX1 1HA,53.7221,-1.8625
THAI CORNER BURY MARKET LIMITED,HX1 1HX,53.72354000000000,-1.86276500000000
Thai Corner 2 Ltd,HX1 1HX,53.72354000000000,-1.86276500000000
E.T. Harvey Ltd.,HX1 1LJ,53.72180500000000,-1.86196800000000
C.R.E.A.M,HX1 1LN,53.7214,-1.8622
Alibi Halifax,HX1 1NH,53.72172400000000,-1.86248300000000
Deli indulge ,HX1 1NH,53.72172400000000,-1.86248300000000
Meandering Bear,HX1 1PR,53.72147390000000,-1.85819690000000
Romeo & Juliet,HX1 1PU,53.72087500000000,-1.85878900000000
Pride & Provenance,HX1 1QE,53.72125680000000,-1.85703070000000
Burger King,HX1 1QG,53.72239000000000,-1.85508600000000
Blondins Ice Cream Parlour,HX1 1RE,53.72153854370120,-1.85668003559113
The Deli,HX1 1RE,53.7220,-1.8575
The Trading Rooms,HX1 1RE,53.7220,-1.8575
COFFEE AT NO1,HX1 1RU,53.72342700000000,-1.85793100000000
Wool Merchant Hotel,HX1 1SP,53.72530900000000,-1.85390900000000
Little Lotus Halifax,HX1 1TH,53.72327370000000,-1.86007000000000
McDonald's Restaurant,HX1 1TN,53.72355500000000,-1.85991600000000
McDonalds Restaurants Ltd,HX1 1TN,53.72355500000000,-1.85991600000000
Subway,HX1 1TN,53.72355500000000,-1.85991600000000
AB travel inn ,HX1 1TQ,53.72283700000000,-1.86090400000000
Julio's Italian Restaurant Limited ,HX1 1TS,53.72374500000000,-1.86065800000000
Cafe Sol Diner Ltd,HX1 1TT,53.7232,-1.8609
Franganos (Halifax) ltd,HX1 1TT,53.72321500000000,-1.86093300000000
RICCI'S PLACE,HX1 1UG,53.72389800000000,-1.86088500000000
Jamocha Coffee Lounge ,HX1 1UR,53.7239,-1.8598
Nando's,HX1 1UX,53.72133600000000,-1.87337200000000
Pizza Express,HX1 1UX,53.72508300000000,-1.86032000000000
TGI Fridays UK Ltd,HX1 1UX,53.72133600000000,-1.87337200000000
Kashmiri Aroma (Halifax) LLP,HX1 1YA,53.72392600000000,-1.86232500000000
Mecca Bingo Limited,HX1 1YA,53.72392600000000,-1.86232500000000
Café Passion,HX1 2JF,53.71974400000000,-1.85977700000000
Sagra restaurant,HX1 2SB,53.72096300000000,-1.86468300000000
Whats 4 Dessert,HX1 3JL,53.71521600000000,-1.88090020000000
SHEESH MAHAL HFX LTD,HX1 3JP,53.71528200000000,-1.88144400000000
Pollino,HX1 3SU,53.71536900000000,-1.88739900000000
McDonald's Restaurant,HX1 4JT,53.72311500000000,-1.88622600000000
SPICY WAVES,HX1 4NJ,53.7248,-1.8816
McDonalds Restaurants Ltd,HX1 4PG,53.72481700000000,-1.88892000000000
La Tradizione Italian Pizzeria,HX1 5AB,53.7218,-1.8641
delhi wala food,HX1 5AB,53.72193300000000,-1.86404400000000
PAX,HX1 5AE,53.72209500000000,-1.86477000000000
Thai Style Restaurant,HX1 5DT,53.72324500000000,-1.86366000000000
Cafe No5,HX1 5ER,53.7212,-1.8708
Dunelm,HX1 5RA,53.72726300000000,-1.87222600000000
Long Can Hall Halifax Ltd,HX2 0TQ,53.73634200000000,-1.90256300000000
The Secret Cafe,HX2 6EQ,53.71284400000000,-1.93788900000000
Wainhouse Tavern,HX2 7DR,53.71290400000000,-1.88575400000000
Maypole Inn,HX2 7RZ,53.72001100000000,-1.91402700000000
The Winterburn ,HX2 7SQ,53.71903500000000,-1.92025700000000
The Crossroads Inn,HX2 7TB,53.74766900000000,-1.93052900000000
Airtime Halifax,HX2 8DB,53.7424,-1.8855
Mags Cafe,HX2 8DB,53.7424,-1.8855
MUNCHIES,HX2 8EF,53.7485,-1.8939
The Moorlands Inn,HX2 8XD,53.76946100000000,-1.89981700000000
Ivy House Inn,HX2 9BB,53.75186700000000,-1.87606400000000
HOLDSWORTH HOUSE HOTEL,HX2 9TG,53.75810400000000,-1.87533300000000
Gower Furniture Staff Canteen ,HX2 9TN,53.75866800000000,-1.87298000000000
McDonald's Restaurant,HX3 0QE,53.70254200000000,-1.85350300000000
McDonalds Restaurants Ltd,HX3 0QE,53.70254200000000,-1.85350300000000
The Murgatroyd Arms,HX3 0RX,53.70253600000000,-1.86375800000000
B K RESTAURANT (YORKSHIRE) LTD,HX3 5AX,53.7282,-1.8640
Next Level Bar Ltd,HX3 5AX,53.72821500000000,-1.86399300000000
Stod Fold Tap,HX3 5AX,53.7282,-1.8640
TRUE NORTH RESTAURANT,HX3 5AX,53.72824650000000,-1.86214520000000
Thai Corner Dean Clough,HX3 5AX,53.72821500000000,-1.86399300000000
the mill bar and kitchen,HX3 5AX,53.7282,-1.8640
Pizza Hut Restaurant,HX3 6AB,53.72661200000000,-1.85351000000000
KFC HALEY HILL 02030,HX3 6AD,53.7277,-1.8571
The Prospect Pub & Dining,HX3 6JR,53.73214600000000,-1.85881100000000
Five Food ,HX3 6SN,53.75273600000000,-1.87363500000000
Shears inn,HX3 9EZ,53.71326600000000,-1.85431400000000
The Griffin Inn,HX4 0AQ,53.67586100000000,-1.91425200000000
The Fleece Countryside Inn,HX4 0DJ,53.67784900000000,-1.93043200000000
Taquitos,HX4 8AB,53.68719880000000,-1.85529810000000
Cafe Thai,HX4 8AD,53.68694100000000,-1.85560100000000
Catch West Vale Limited,HX4 8AD,53.6870,-1.8556
Cinnamon At The Mill ,HX4 8AD,53.68694100000000,-1.85560000000000
Cafe Italia,HX4 8BD,53.68572100000000,-1.85761900000000
Viaduct,HX4 8BD,53.68572100000000,-1.85761900000000
The Sportsmans Inn,HX4 8PL,53.68911800000000,-1.89081500000000
The Spring Rock Inn,HX4 8PT,53.68757000000000,-1.89966200000000
1885 the Pub,HX4 9HF,53.67213100000000,-1.88182200000000
The New Inn,HX4 9LB,53.65845300000000,-1.88390300000000
Syhiba Restaurant ,HX6 2AF,53.70980300000000,-1.90570000000000
Village restaurant ,HX6 2AF,53.70980300000000,-1.90570000000000
the larder delicatessen,HX6 2AF,53.70980300000000,-1.90570000000000
F S Halifax trading as Temujin Restaurant,HX6 2AG,53.70975700000000,-1.90401800000000
Gabriels Coffee Lounge,HX6 2AG,53.70975700000000,-1.90401800000000
THE MOORINGS,HX6 2AG,53.70975700000000,-1.90401800000000
Kipplings Indian Restaurent ,HX6 2EA,53.70847700000000,-1.91127800000000
The Olive Branch ,HX6 2EA,53.70847700000000,-1.91127800000000
Wharf Cafe Bar at Sowerby Bridge LTD,HX6 2LA,53.7094,-1.9085
KUJA LIMITED,HX6 2QD,53.70834010000000,-1.91221810000000
The Willow Tree Cafe,HX6 3AH,53.70725600000000,-1.91270400000000
Del Taverns and Estates,HX6 3LF,53.70920500000000,-1.89994400000000
New Hobbit,HX6 3QL,53.70028100000000,-1.91306700000000
The Moorcock Inn,HX6 3RP,53.69316700000000,-1.91998700000000
Stanley's Kitchen,HX6 4BG,53.6747,-1.9416
The Lion Pub and Grill,HX6 4BQ,53.67457500000000,-1.94251700000000
Old Bridge Inn Ltd.,HX6 4DF,53.67437600000000,-1.94009500000000
the larder delicatessen,HX6 4EB,53.66997500000000,-1.94771400000000
Cinnamon Lounge ,HX6 4EW,53.66500500000000,-1.94849200000000
Just Scrumptious,HX6 4EW,53.66500500000000,-1.94849200000000
The Alma Inn,HX6 4NS,53.68967300000000,-1.95950100000000
Beehive inn,HX6 4NX,53.6736,-1.9516
Booth Wood Inn,HX6 4QU,53.64869200000000,-1.94904200000000
Shoulder of mutton ,HX7 5DZ,53.72972000000000,-1.98269900000000
Aux Delices,HX7 5LH,53.73084400000000,-1.98266800000000
The Blue Teapot,HX7 5LL,53.73077200000000,-1.98172900000000
Kitchen (West Yorkshire) ,HX7 5LN,53.73021400000000,-1.97906100000000
The hinchliffe arms,HX7 5TA,53.70325100000000,-2.00384100000000
Kitties Restaurant,HX7 6AA,53.74138700000000,-2.01700500000000
Mooch Cafe Bar,HX7 6AA,53.74138700000000,-2.01700500000000
Chapter 17 ,HX7 6EU,53.74123400000000,-2.01595800000000
The Coffee station ,HX7 6JE,53.73772000000000,-2.00874100000000
The Stubbing Wharf,HX7 6LU,53.74084500000000,-2.02758700000000
The Town Hall Cafe Ltd,HX7 7BY,53.74255500000000,-2.01313800000000
La Perla,HX7 7DD,53.74380500000000,-2.01273000000000
Vocation & Co,HX7 8AD,53.74065017700200,-2.01137900352478
Rim Nam Thai Restaurant,HX7 8AF,53.74028200000000,-2.01227400000000
Cinnamon at the bridge Ltd,HX7 8AH,53.74122600000000,-2.01139500000000
Leila's Kitchen,HX7 8AH,53.74122600000000,-2.01139500000000
Lhamo's Taste of the East Ltd,HX7 8AH,53.74149250000000,-2.01154730000000
Squeeze Sandwiches & Smoothies,HX7 8EH,53.74163800000000,-2.01283500000000
Il Mulino Italian Restaurant ,HX7 8ET,53.74213300000000,-2.01227500000000
Little H Cafe,HX7 8ET,53.7421,-2.0123
Mijo,HX7 8ET,53.74213300000000,-2.01227500000000
Square One Coffee Co.,HX7 8ET,53.74213300000000,-2.01227500000000
AyaSophia,HX7 8EX,53.7416,-2.0132
Shoulder of Mutton,HX7 8EX,53.74168400000000,-2.01315400000000
The AP Hotel Company Limited T/A The White Lion Hotel,HX7 8EX,53.74168400000000,-2.01315400000000
Watergate Tea Rooms,HX7 8EX,53.74168400000000,-2.01315400000000
Old Gate Bar & Restaurant,HX7 8JP,53.74159400000000,-2.01453300000000
Robinhoodinn ,HX7 8QR,53.76223100000000,-2.00459000000000
Hare and Hounds Inn,HX7 8TN,53.74665500000000,-1.99721900000000
Olive branch,HX7 8UQ,53.74105400000000,-2.01424500000000
The Black Ladd,OL1 4ST,53.57744400000000,-2.06407300000000
Waterfall Elior LTD at Siddal Moor Sports College,OL10 2NT,53.58225300000000,-2.21707300000000
THE BIRD AT BIRTLE,OL10 4BQ,53.60499100000000,-2.23278500000000
Bella Sera,OL10 4DX,53.59335500000000,-2.21125200000000
Naga naga chilli,OL10 4NN,53.5936,-2.2177
SUBWAY,OL10 4PN,53.59468800000000,-2.22401000000000
Le Latte ,OL11 1DN,53.6116,-2.1542
Chaiiwala Rochdale,OL11 1EB,53.61036400000000,-2.15682000000000
Cuckoos Cafe & Grill,OL11 1EB,53.61036400000000,-2.15682000000000
Istanblue,OL11 1EB,53.61036400000000,-2.15682000000000
NEW YORK CHICKEN LIMITED,OL11 1EB,53.61036400000000,-2.15682000000000
Jungle Grill,OL11 1EF,53.61193300000000,-2.15951600000000
Shish cafe ,OL11 1HH,53.60976800000000,-2.15829900000000
McDonalds  Sandbrook Park,OL11 1RY,53.6024,-2.1634
McDonalds Restaurants,OL11 1RY,53.60266900000000,-2.16363700000000
Pizza Hut Restaurant,OL11 1RY,53.60240900000000,-2.16334800000000
SUBWAY SANDBROOK PARK,OL11 1RY,53.6024,-2.1634
Tenpin Rochdale,OL11 1RY,53.60240936279300,-2.16334891319275
Coco’s Grill House & Desserts,OL11 1TU,53.60108700000000,-2.15720800000000
LA Scala (pvt) Ltd,OL11 2AL,53.59792000000000,-2.14554700000000
Blue Diamond Restaurant,OL11 2ER,53.60285400000000,-2.14644000000000
Blue diamond chinese restaurant,OL11 2ER,53.60285400000000,-2.14644000000000
meraki scents,OL11 2JG,53.59450640000000,-2.15706090000000
Norton Grange Hotel & Spa,OL11 2XZ,53.58052500000000,-2.17424400000000
FLIP OUT ROCHDALE,OL11 3EX,53.59787368774410,-2.17369699478149
The Royal Toby Hotel,OL11 3HF,53.59836700000000,-2.18019500000000
THE PLOUGH,OL11 3LW,53.60247200000000,-2.18761800000000
Rochdale Starbucks,OL11 3PT,53.60418701171880,-2.17065501213074
The Hare and Hounds,OL11 4AA,53.60731000000000,-2.20793700000000
The Elephant & Castle,OL11 4AU,53.61060000000000,-2.19710100000000
Platos Y Bebidas,OL11 4DQ,53.61267210000000,-2.18790290000000
Suburb cafe,OL11 4DQ,53.61267300000000,-2.18825200000000
Sweet coffee ,OL11 5AQ,53.62229730000000,-2.18867140000000
The Cemetery Pub Limited,OL11 5EU,53.61358400000000,-2.18014000000000
The Grapes,OL11 5PN,53.61256500000000,-2.20938300000000
La Dolce Vita,OL11 5QY,53.6147,-2.2072
True Taste Of India Norden Ltd,OL11 5XE,53.62659500000000,-2.21007300000000
Spicy kitchen,OL12 0JJ,53.62431500000000,-2.15558600000000
TREE & TOAD LTD,OL12 0NU,53.6207,-2.1606
Ruchi Indian Restaurant ,OL12 0RD,53.62465600000000,-2.15607100000000
THE OXFORD(ROCHDALE)LTD,OL12 0TB,53.63679000000000,-2.16897200000000
Pepe's Piri Piri Rochdale,OL12 0UW,53.62231930000000,-2.15463950000000
The Healey ,OL12 6LW,53.63115800000000,-2.17318300000000
Eastern Restaurant & Takeaway,OL12 6PE,53.61910900000000,-2.16348900000000
alis chippy ,OL12 6PJ,53.62032600000000,-2.16748500000000
Subway Aldi Rochdale,OL12 6XD,53.61470031738280,-2.16740202903748
NUTTERS RESTAURANT,OL12 7TT,53.63191900000000,-2.23270700000000
Owd Betts,OL12 7TY,53.64064700000000,-2.25901300000000
Basils Restaurant Whitworth,OL12 8PW,53.6549,-2.1768
Samson Beer Company Limited,OL12 8PY,53.65547000000000,-2.17302500000000
Nibbles Café,OL12 8QS,53.66123100000000,-2.17397200000000
Ashoka Restaurant,OL12 8QW,53.66036700000000,-2.17440700000000
Nok ThaiCuisine ,OL12 8RU,53.6449,-2.1810
Marios of Bacup Ltd,OL13 0AT,53.70032300000000,-2.20085300000000
Lucy Lous Cafe,OL13 0DH,53.69338620000000,-2.20893540000000
Rose 'n' Bowl,OL13 0UG,53.69215900000000,-2.22236300000000
Dolce & Gelato,OL13 8AB,53.7042,-2.2023
The street food kitchen,OL13 8EX,53.70276700000000,-2.20141000000000
Anna's Cafe-Bar,OL13 8QE,53.72388500000000,-2.19817600000000
Zee Desserts,OL13 9NH,53.70321530000000,-2.20060760000000
1832 Barista,OL13 9NJ,53.70270600000000,-2.19998500000000
The Old Boot Cafe & Wine Bar,OL13 9NJ,53.70310810000000,-2.20021330000000
The Boardroom,OL14 5AA,53.71285220000000,-2.09850650000000
The Honest John Bar & Coffee Tavern,OL14 5AA,53.71313090000000,-2.09846170000000
The Cafe,OL14 5AB,53.71300800000000,-2.09765800000000
Exchange Coffee Company Todmorden,OL14 5AJ,53.7140,-2.0967
Mandys breakfast bar,OL14 5AQ,53.7142,-2.0971
The little bird cafe,OL14 5BB,53.71417100000000,-2.09358500000000
The Copper Tree,OL14 5EY,53.71736700000000,-2.09909200000000
The Top Brink Inn Ltd,OL14 6JB,53.70846300000000,-2.06771200000000
The Shepherds Rest Inn,OL14 6JJ,53.70505500000000,-2.08462700000000
Site Restaurant Ltd,OL14 6LD,53.71174000000000,-2.09927600000000
THE THREE LADY CHEFS LTD,OL14 6LZ,53.71219900000000,-2.09870100000000
The White Rabbit,OL14 7BD,53.71415000000000,-2.09810000000000
Bombay lounge lydgate limited,OL14 7DH,53.72592400000000,-2.11813300000000
Glen view inn,OL14 7EW,53.73138800000000,-2.15043400000000
The Vedas,OL14 7LD,53.71226100000000,-2.09924700000000
Tea Rooms at Gordon Rigg Nurseries,OL14 7TJ,53.68957300000000,-2.10187400000000
Border Rose Inn,OL14 7UA,53.68811800000000,-2.10070400000000
Hare and Hounds ,OL14 8EA,53.72198700000000,-2.10924100000000
staff of life inn,OL14 8JF,53.72738700000000,-2.12847400000000
Zaika Cuisine,OL14 8LF,53.73220200000000,-2.13899300000000
The waterside restaurant,OL15 0AY,53.64179700000000,-2.09548100000000
The Wine Press,OL15 0AZ,53.63462400000000,-2.09650800000000
Lake lounge,OL15 0DQ,53.6315,-2.1028
Riva Italian Limited,OL15 0DQ,53.63153600000000,-2.10277700000000
The Olive & Pickle,OL15 0DQ,53.63153600000000,-2.10277700000000
The Moorcock Inn,OL15 0LD,53.65135800000000,-2.07338400000000
The White House,OL15 0LG,53.6564,-2.0495
Back2Work Kitchen Downstairs,OL15 8AU,53.6437,-2.0978
Back2Work Kitchen,OL15 8AU,53.6437,-2.0978
Toppo’s Bar & Kitchen ,OL15 8DA,53.64377500000000,-2.09444100000000
Autumn Holdings Limited ,OL15 8NL,53.6391,-2.1168
Rebecca's coffee shop,OL15 9AB,53.64416000000000,-2.09651500000000
The Cherry tree cafe ,OL15 9AE,53.6442,-2.0953
Bay of bengal(Rochdale LTD),OL15 9DQ,53.64507100000000,-2.09314400000000
The Hairy Bear Beer Co Limited,OL15 9HL,53.64844400000000,-2.10048800000000
LITTLEBOROUGH CRICKET CLUB,OL15 9LD,53.64920900000000,-2.09931000000000
Waterfall Tea Rooms,OL15 9LZ,53.66952500000000,-2.08363200000000
The Summit Inn,OL15 9QX,53.66455600000000,-2.08265400000000
Cuppaccino Littleborough Ltd,OL15 9RP,53.6474,-2.0993
The Medicine Tap,OL16 1AE,53.61656951904300,-2.15933704376221
Clock Tower Dining Room,OL16 1AZ,53.6156,-2.1593
Bean,OL16 1BE,53.6177,-2.1544
Heavenly Desserts Rochdale,OL16 1BE,53.6177,-2.1544
Pudding Paradise,OL16 1DR,53.61958620000000,-2.15515860000000
La Mancha ,OL16 1ES,53.61734600000000,-2.15767700000000
Mecca Social Club,OL16 1HE,53.61788200000000,-2.15291700000000
Subway,OL16 1JG,53.61751700000000,-2.15766300000000
Vicolos Ltd,OL16 1JG,53.61751700000000,-2.15766200000000
Knockout Kitchen Ltd,OL16 1JJ,53.61769600000000,-2.15790500000000
Russells of Rochdale,OL16 1JZ,53.61849000000000,-2.15565600000000
Gumboo Hotels Limited,OL16 1NJ,53.61581802368160,-2.15739893913269
Rajas chicken grill rochdale limited ,OL16 1PN,53.61386300000000,-2.15433900000000
Funkie Fusion Limited,OL16 1RE,53.61663818359380,-2.15596604347229
the castle cafe,OL16 1SR,53.61563800000000,-2.15092900000000
PLAYERS ROCHDALE,OL16 1UA,53.61463800000000,-2.15301100000000
Caffe Grande Abaco Rochdale Interchange,OL16 1YG,53.61771800000000,-2.15463900000000
Sahara Rochdale,OL16 2DR,53.62180800000000,-2.14818400000000
indialicious caterers limited,OL16 2US,53.62163700000000,-2.13288400000000
Bellavista,OL16 3JW,53.6147,-2.1089
Haydens Kitchen at The Gallows,OL16 3JW,53.6147,-2.1089
River Beal Indian Takeaway ,OL16 3NJ,53.60997600000000,-2.10975200000000
The Waggon inn,OL16 3PE,53.60714000000000,-2.10427400000000
Char,OL16 3QF,53.60038700000000,-2.09718500000000
the cedar tree,OL16 3RF,53.60124800000000,-2.08796900000000
The Milnrow Balti Restaurant ,OL16 4HS,53.61043200000000,-2.11179400000000
Bank chambers ,OL16 4LU,53.59993590000000,-2.09766580000000
The Fair View Inn,OL16 4QQ,53.59041100000000,-2.12502000000000
Bistro at Gordon Rigg Nurseries,OL16 4UX,53.60547900000000,-2.13850000000000
Costa Coffee,OL16 5AF,53.61478424072270,-2.12828207015991
KFC,OL16 5AF,53.61478400000000,-2.12828200000000
McDonalds  Kingsway Retail Park,OL16 5AF,53.6153,-2.1283
McDonalds Restaurant,OL16 5AF,53.61478300000000,-2.12828200000000
Subway,OL16 5AF,53.61478424072270,-2.12828207015991
Khans original ,OL16 5DN,53.61369100000000,-2.14127800000000
Mr cod ,OL16 5DN,53.6137,-2.1413
Asda CDC,OL16 5EB,53.6097,-2.1399
the halfway house ( nw ) ltd,OL2 5RY,53.57645400000000,-2.13171500000000
Turks Head (2014) Ltd,OL2 6UP,53.58359100000000,-2.13167700000000
THE PUCKERSLEY INN ,OL2 6YD,53.58168500000000,-2.12399800000000
THE NORTH  STAR,OL2 7PR,53.58497900000000,-2.10997400000000
Bengal brasserie,OL2 8AP,53.57842200000000,-2.09313200000000
The Morning Star,OL2 8HZ,53.57791700000000,-2.08499100000000
Naughty but nice,OL2 8NH,53.57703800000000,-2.09396000000000
Donnelly's,OL2 8NR,53.57693100000000,-2.09358200000000
Elior UK,OL2 8PJ,53.57528100000000,-2.08808200000000
Junction Inn,OL3 5SE,53.59313000000000,-2.04117800000000
The Printers Arms,OL3 5SN,53.58960600000000,-2.04264000000000
THE RAMS HEAD INN,OL3 5UN,53.59935200000000,-2.03656000000000
