name,id,postcode,lat,lon
Rabbit and Solitaire,623245,OL16 4JQ,53.608025194140100,-2.108991278018330
Black jay and Greenbul,1031902,HX7 5HN,53.727643502721600,-1.984639513064210
carpet snake and Guillemot,624955,OL14 6PD,53.703437170608400,-2.106223848041050
Stilt and boa,1036567,HX1 3LB,53.716964159218800,-1.874559771568280
White ibis and slowworm,626674,OL12 8AE,53.659139206000400,-2.177988477113680
python and Parakeet,1078749,HD3 3FU,53.655481303206400,-1.879387052835260
Solitaire and skink,623256,OL16 4LF,53.597756247373000,-2.103797194610840
gaboon viper and Siskin,1073658,HD9 5JD,53.592651840171000,-1.853579747232520
Gila monster and Gull,1034964,HX2 9JB,53.762620926930800,-1.890351506725910
Flameback and Moluccan boobook,626509,OL12 7LX,53.628032301103700,-2.188880377453310
Quetzal and Darwin's finches,1032114,HX6 4JN,53.672557064060600,-1.935404559134810
Mamo and Philippine hawk-owl,625426,OL13 9UU,53.715304834035300,-2.178816764875070
harlequin snake and Flameback,2616695,OL16 9PY,53.611550000000000,-2.148781000000000
snake and indigo snake,1034984,HX2 9LP,53.755400556502300,-1.897134491971030
Kite and cobra,1631279,BB4 9UE,53.697091460000000,-2.242108134000000
Fulmarine petrel and bull snake,628605,OL10 4JP,53.596877729653000,-2.216165142194420
Grackle and krait,1624020,BD13 2BQ,53.764006870000000,-1.857627000000000
flying dragon and deaf adder,627253,OL11 5LF,53.615365856142300,-2.190153986228010
Flameback and Ground sloth,629191,OL10 1EH,53.591562711085600,-2.222664517558150
bull snake and king snake,626462,OL12 8XA,53.688256606228200,-2.168496069187190
Tit-tyrant and galliwasp,625102,OL14 7DW,53.726003031969800,-2.119178476589180
coral snake and Jay,1782530,HX2 0SW,53.737604000000000,-1.906289000000000
mud turtle and boomslang,627987,OL11 2YE,53.579924108521200,-2.173063591834690
carpet snake and Grackle,628034,OL11 1JY,53.608401125830800,-2.151628018699980
kabaragoya and Rat,1631572,BB4 7TY,53.696621720000000,-2.256190585000000
hoop snake and Dorcopsis,1075663,HD7 5HH,53.620385334593700,-1.882374439016870
turtle and moloch,1636411,BB11 9SP,53.787596100000000,-2.244648146000000
Partridge and fer-de-lance,628796,OL10 3HL,53.592094258071800,-2.231475227919020
Egret and Armadillo,1031650,HX7 5TL,53.698039000000000,-1.996372937650350
bearded lizard and Shearwater,1075497,HD7 6DH,53.602580906275400,-1.930010304854410
Bunting and python,623542,OL16 2TF,53.626562933241000,-2.139687786504960
hawksbill and Egret,1031682,HX7 6AW,53.741853448981500,-2.016079449706950
Magpie and agamid,1623695,BD13 2JU,53.766950340000000,-1.853930840000000
New World blackbird and sea snake,622041,OL2 7RQ,53.583226790510700,-2.108746064222150
frilled lizard and Francolin,625994,OL13 0EU,53.692331544525000,-2.216684682273920
indigo snake and Perching duck,624565,OL14 8NH,53.733079031857500,-2.141708745963360
Magpie and thorny devil,624709,OL15 0BS,53.629706779689700,-2.106809320165260
Pheasant and frilled lizard,624265,OL15 9BS,53.644797478110800,-2.096848781956170
Asiatic leopard and Dolphin,1800014,OL11 5LR,53.624876375400000,-2.218561448900000
whip snake and Condor,1782546,HX2 8BN,53.744896516537400,-1.886000601023130
Maya and Kestrel,1032316,HX6 3LW,53.698012000000000,-1.933897000000000
Moluccan boobook and Booted eagles,1035057,HX2 8HH,53.748599821065700,-1.890585061241310
Schneider python and box turtle,1036443,HX1 2RZ,53.721357319364200,-1.864438890623450
B and boa constrictor,623908,OL16 2JW,53.618987873521900,-2.145528317343520
dukite and Mouse,624293,OL15 9ED,53.647946239977300,-2.093210206951540
gecko and thorn lizard,1800007,OL11 2WD,53.586889025700000,-2.176838647500000
Kite and Kangaroo,627066,OL12 0AZ,53.634622000000000,-2.157560627405020
Buzzard and River dolphin,626922,OL12 7JQ,53.634056700368600,-2.187425277978040
Solitaire and monitor,626724,OL12 8EP,53.679625405651300,-2.163889527754500
tree snake and diamond python,627461,OL11 4HT,53.611478178661700,-2.169414080889090
Linsang and horned viper,1031686,HX7 6BB,53.742257550727200,-2.018535799194400
Parrotbill and Old World vulture,623939,OL15 9PB,53.660749019291400,-2.088456684910750
Rabbit and Kite,625437,OL14 5AA,53.713142372501900,-2.097975789528770
New World blackbird and dukite,628622,OL10 4LW,53.594118953617300,-2.215818653923280
Armadillo and whip snake,623452,OL16 3QZ,53.601962191129000,-2.093607333527570
constrictor and Dolphin,627519,OL11 5XP,53.624384698723700,-2.209486975463160
rat snake and iguana,625911,OL13 8NN,53.711684094256300,-2.225798912404580
wall lizard and deaf adder,626547,OL12 7PW,53.626133966577200,-2.195600314497360
dukite and Parakeet,623909,OL16 2JX,53.619665452374000,-2.142658282593590
jew lizard and soft-shelled turtle,624242,OL15 8YF,53.634281280014500,-2.116938157301610
caiman and python,1075646,HD7 5EQ,53.624986550301300,-1.881726000000000
Pheasant and mud turtle,1032358,HX6 2EQ,53.709033175411800,-1.910912399617660
harlequin snake and Macaw,624185,OL16 1PJ,53.612192055211800,-2.160136290734020
Scimitar babbler and Pitohui,1035994,HX2 0ED,53.730000480031900,-1.887268325928540
Tattler and black snake,625792,OL13 8BP,53.707365234042700,-2.203279246986920
Bunting and Asiatic leopard,1075473,HD7 6AS,53.607512175586800,-1.924591591456050
Parakeet and crocodile,1036719,HX1 2EF,53.720656337214100,-1.864516910070040
soft-shelled turtle and Bunting,1637164,BB10 4TQ,53.765854110000000,-2.195764527000000
diamondback and perentie,1031133,HX7 8DT,53.741575457366200,-2.010424125563300
Fish eagle and sidewinder,624644,OL14 8RG,53.723425000000000,-2.074161000000000
swift and diamond python,629021,OL10 2LY,53.581363613144900,-2.206177612647100
Ibex and Buzzard,626115,OL13 0SH,53.692261929402700,-2.225179967157020
slowworm and carpet snake,1033443,HX4 0BD,53.676333251438000,-1.922198465837910
Badger and cobra de capello,1032372,HX6 2HE,53.713502555073500,-1.914069616598810
boa constrictor and Cloud rat,1035684,HX2 0QR,53.732190689395700,-1.904709416636840
Stint and Rat,1031348,HX7 8RT,53.749864000000000,-1.998037000000000
moloch and Triller,623318,OL16 4QZ,53.595742000000000,-2.133225000000000
Grouse and New World blackbird,622046,OL2 7RW,53.587377901472300,-2.100161316796460
slowworm and harlequin snake,627080,OL12 6ND,53.630888917003800,-2.172108005970780
Tree warbler and Bronzewing pigeon,626092,OL13 0RB,53.693380220618100,-2.223171769620550
bandy-bandy and tree snake,2298959,OL12 7TS,53.632204000000000,-2.229820000000000
bearded lizard and Jay,625181,OL14 5QW,53.712825000000000,-2.091248757509980
frilled lizard and New World blackbird,1631472,BB4 9AA,53.692780170000000,-2.253668487000000
sidewinder and sand viper,1073664,HD9 5JL,53.590685816781500,-1.855565599237220
mud turtle and Macaw,1035737,HX2 0SA,53.732522485965100,-1.903753702627310
swift and Schneider python,1034988,HX2 9LT,53.753772971152700,-1.896258839692330
adder and thorn lizard,1034493,HX3 6ET,53.732108070898400,-1.865344172591180
Elephant and pit viper,1800079,OL15 0WY,53.611534000000000,-2.148783000000000
Macaw and cobra,1034234,HX3 5NH,53.736287721371700,-1.882673360677140
Greenbul and Eagle,1636467,BB11 4HP,53.782731980000000,-2.254059488000000
Fulmarine petrel and dukite,625976,OL13 0DP,53.692863988428400,-2.210448107236950
Vole and Maya,1636279,BB11 5NL,53.772678010000000,-2.256578069000000
python and Linsang,628154,OL11 2BA,53.590141000000000,-2.141939000000000
dugite and pit viper,1032812,HX6 2AY,53.710332651800000,-1.894911000000000
Stilt and worm lizard,1636848,BB11 1PB,53.789843000000000,-2.245253000000000
Chickadee and Moluccan boobook,1561396,BL9 6TY,53.608515810000000,-2.249369150000000
Scimitar babbler and Condor,1034409,HX3 6AH,53.726921865579400,-1.850098437870290
Cloud rat and Schneider python,1075450,HD7 5WZ,53.625875928828100,-1.872395160061780
Ice seal and snapping turtle,1636508,BB11 4LU,53.786076530000000,-2.253578855000000
Wallaby and diamond python,625553,OL13 8QW,53.724459935006900,-2.198315071336790
flying dragon and Herring gull,1032015,HX7 5QH,53.734472000000000,-1.967689000000000
flying lizard and terrapin,623423,OL16 5AB,53.618205678540700,-2.130136301435570
Parakeet and Scimitar babbler,1031730,HX6 4QX,53.648672637936900,-1.948027493190820
Tree warbler and Linsang,626559,OL12 7QN,53.623008598207000,-2.194043713078180
Pratincole and wall lizard,1032414,HX6 3QJ,53.700200104792400,-1.913975459071100
slowworm and Solitaire,623938,OL15 9PA,53.655243982095200,-2.104846536056130
anole and rock python,1031768,HX7 6JB,53.738150841500000,-2.012197000824200
Grouse and Chicken,627712,OL11 5FB,53.623322077117500,-2.210630755334320
Skunk and Diving bird,1035072,HX2 8JB,53.750995269307300,-1.895795555860770
Ground sloth and blue racer,1035289,HX2 8UE,53.748124445423500,-1.902156274821130
Kite and diamond snake,625916,OL13 8NZ,53.725963509630700,-2.196761103056310
gecko and smooth snake,1631483,BB4 9AQ,53.693679710000000,-2.253325582000000
milk snake and Solitaire,1031981,HX7 5NA,53.733268680468500,-1.976270033849540
tokay and flying dragon,623957,OL15 9QB,53.659788453472100,-2.086865799644440
Hawaiian honeycreeper and Diving bird,626811,OL12 7DH,53.624354598620900,-2.178159385955630
Flameback and jew lizard,628519,OL10 4AQ,53.602184240219900,-2.224065363792200
Parrotbill and Rabbit,627192,OL12 0LY,53.624229722835000,-2.158322245850130
Jackal and Jay,1031645,HX7 5TE,53.705767469219000,-1.999250559607040
perentie and Wader,1035442,HX2 6JB,53.729856000000000,-1.960404000000000
blindworm and green turtle,1637276,BB10 3LP,53.790399460000000,-2.196303954000000
sea snake and alligator,1032568,HX6 1BH,53.705581000000000,-1.921418000000000
hognose snake and glass snake,621944,OL2 8PN,53.576925319597100,-2.087737413871790
massasauga and mud turtle,1637396,BB10 4BX,53.788469370000000,-2.230324841000000
Parrotbill and diamond python,1035739,HX2 0SD,53.731704000000000,-1.901846000000000
black snake and Ibex,626773,OL12 6XY,53.630702647469900,-2.176568143976950
hognose snake and amethystine python,626352,OL12 8NQ,53.673716551442500,-2.172857984610610
Zebra and Dolphin,1075668,HD7 5HQ,53.620941964139100,-1.881874000000000
giant tortoise and Puffleg,1636558,BB11 4RL,53.781013000000000,-2.255126568000000
puff adder and indigo snake,625116,OL14 7EW,53.731378641366100,-2.150418742539880
loggerhead and Ground sloth,1034194,HX3 6RZ,53.745682083063800,-1.875581327056730
Tit-tyrant and anole,625476,OL14 5DU,53.717369403185800,-2.094712647280570
Vulture and Coati,623332,OL16 3NL,53.608244394296100,-2.105107636187970
massasauga and harlequin snake,628474,OL10 3QG,53.586676865725700,-2.243756968379280
Gila monster and Parakeet,627887,OL11 2RT,53.593068366112800,-2.157631429907350
diamondback and flying dragon,627794,OL11 3ST,53.609065331821600,-2.159247832921070
grass snake and Crow,1637031,BB10 4HS,53.785106980000000,-2.205962000000000
bandy-bandy and Hawaiian honeycreeper,1032405,HX6 3PY,53.702348604770400,-1.914455806023970
tuatara and Gila monster,1035622,HX2 6XD,53.730294206660400,-1.949064194004470
Duck and hognose snake,2653545,HX1 9WD,53.724349000000000,-1.857460000000000
Black jay and Mink,627875,OL11 2QY,53.593035146995900,-2.175035988554030
gecko and Mole,1034746,HX3 0BG,53.709141000000000,-1.862584000000000
Solitaire and flying dragon,1031685,HX7 6AZ,53.742095398397500,-2.020749324089470
Nukupuʻu and viper,1032719,HX6 1PA,53.702488586829700,-1.958155738997740
ringhals and swift,1031711,HX7 6DS,53.742993484140900,-2.024509935308810
Hawk and Maya,1637249,BB10 3JD,53.792351110000000,-2.221359702000000
Kestrel and slowworm,622316,OL2 8EX,53.580061000000000,-2.091051977754460
Linsang and Jerboa,1034958,HX2 9HT,53.761298214039300,-1.888747077870220
Armadillo and coral snake,625607,OL13 9DE,53.705342877147400,-2.197937237290300
Ground sloth and blindworm,1031317,HX7 8QT,53.762203322596000,-2.005317454062220
Tahr and habu,623049,OL16 5DB,53.614117257490900,-2.129005138311820
Capuchin and Fulmarine petrel,627365,OL11 5RE,53.615467122852600,-2.199707909187720
Towhee and brown snake,624965,OL14 6PR,53.703941560896200,-2.105028436068970
dugite and garter snake,1637559,BB10 2TP,53.799565000000000,-2.219028199000000
cobra de capello and diamond python,1036781,HX1 2LS,53.719714390486900,-1.858291806941870
thorn lizard and smooth snake,622064,OL2 7ST,53.581959335870800,-2.098517212435280
ringhals and Masked owl,623039,OL16 5BN,53.613555376318400,-2.133205544613020
glass snake and Greenbul,1033489,HX4 0EP,53.662846682093900,-1.915761357311450
Recurvebill and Schneider python,626570,OL12 7RA,53.627778974737700,-2.211348525579230
Coati and Lemming,626053,OL13 0NG,53.692303103348100,-2.231858587657420
bull snake and Maya,628781,OL10 3EQ,53.593480546449800,-2.225681184908020
Condor and snapping turtle,625726,OL13 0TG,53.695478792992500,-2.239524235824040
dugite and puff adder,1036541,HX1 3EB,53.713465263347000,-1.872161095784760
hawksbill and Ice seal,628179,OL11 2ED,53.592155673953500,-2.147369753433120
mountain devil and Ice seal,1035510,HX2 8AQ,53.740130816021200,-1.888120614834340
taipan and Cloud rat,1075882,HD7 4LF,53.637366083352500,-1.859202627657970
Condor and Francolin,1780316,HD7 5WD,53.634463411108200,-1.900543709487430
leathery turtle and moloch,622008,OL2 8TP,53.583924190294900,-2.079187433484270
ringhals and thorny devil,1034823,HX3 0JR,53.711127265324800,-1.879804020464180
Peafowl and blindworm,624451,OL15 8BN,53.643573612792000,-2.098645997204730
Myna and Pheasant,624298,OL15 9EJ,53.651652450603100,-2.089466000000000
gavial and bandy-bandy,1031756,HX7 6HJ,53.740505075709500,-2.017261488708240
Schneider python and crocodile,625540,OL13 8QE,53.723875965167600,-2.198160769165890
Grouse and Komodo dragon,627140,OL12 0DY,53.623684638717800,-2.148840481748910
Elephant and Magpie,625350,OL13 9QT,53.696963728408100,-2.199276107589920
water snake and bushmaster,1031745,HX6 4RR,53.660115579863200,-1.950389243069980
diamondback and monitor,622171,OL2 7YS,53.584433987340000,-2.094973271533990
Pitohui and alligator,1636970,BB11 2LA,53.782981340000000,-2.250889127000000
New World blackbird and cerastes,624907,OL14 8DU,53.723655006890900,-2.102061828500850
snapping turtle and cycling lizard,1073660,HD9 5JF,53.591908762608800,-1.856014671244730
carpet snake and king cobra,627974,OL11 2XN,53.583913505228400,-2.174031525926830
pit viper and Civet,628914,OL10 2BW,53.586067696757300,-2.214569124793880
deaf adder and Bronzewing pigeon,628737,OL10 1JY,53.593436484817400,-2.220393013529530
boomslang and Wader,2629526,OL16 3FS,53.599614000000000,-2.095942000000000
Quetzal and gecko,1032933,HX4 9EB,53.672221549679200,-1.883728946665260
king snake and snake,625996,OL13 0EX,53.691557336042800,-2.217362159374190
swift and Bunting,1636280,BB11 5NP,53.770749410000000,-2.258978644000000
Marmoset and king snake,1036218,HX1 5SP,53.724179479735600,-1.864354055907830
Petrel and Condor,1035426,HX2 6HG,53.721575632950600,-1.948710973223940
agama and wall lizard,1636133,BB12 0LY,53.793471380000000,-2.258845487000000
agama and Francolin,1036008,HX2 0EW,53.729031744069800,-1.889392881909530
perentie and puff adder,1036452,HX1 2SY,53.720129000000000,-1.866610000000000
rock snake and diamondback,626845,OL12 0TL,53.638781218934400,-2.171656192304010
python and giant tortoise,1031540,HX7 5RU,53.719473971576300,-1.989810000000000
Jerboa and diamondback turtle,626100,OL13 0RP,53.692623441512400,-2.224121826958380
Shearwater and lizard,1637151,BB10 4SY,53.751597000000000,-2.186356000000000
Tahr and puff adder,1032609,HX6 2SL,53.714570673466600,-1.900643000000000
iguana and green turtle,1032352,HX6 2EG,53.708933878372000,-1.910336919927000
bushmaster and Nukupuʻu,1034185,HX3 6RL,53.745111000000000,-1.878418000000000
Crow and diamondback terrapin,1031427,HX7 7AJ,53.757726294633300,-2.016176614307970
constrictor and black snake,1034635,HX2 9UG,53.752988358487600,-1.883552032642440
leguaan and Wallaby,624051,OL16 1AF,53.614365409469800,-2.161339000000000
Gila monster and Ice seal,1035455,HX2 6JU,53.714008316869000,-1.950114000000000
tiger snake and Duck,624258,OL15 9BE,53.645660661149600,-2.096457462404130
Pitohui and Jerboa,1035173,HX2 8QB,53.750331000000000,-1.906246000000000
dugite and River dolphin,1033188,HX4 8HU,53.689028215944900,-1.865420821436070
bandy-bandy and gavial,2299882,OL13 9BE,53.704171000000000,-2.195372000000000
Viscacha and deaf adder,625904,OL13 8ND,53.702796000000000,-2.225630000000000
anole and Guillemot,1636455,BB11 4ES,53.777852400000000,-2.261648000000000
Polecat and box turtle,626489,OL12 9BA,53.626370354688100,-2.142922857062920
Old World quail and Boto,1636627,BB11 2RF,53.776192830000000,-2.238952220000000
Viscacha and Hawaiian honeycreeper,626474,OL12 9AD,53.634706000000000,-2.132909000000000
Eagle and Argus,1623932,BD13 1LW,53.775575130000000,-1.858346845000000
Marsh harrier and Night heron,1034865,HX2 9DQ,53.759136138889000,-1.893196935033900
Mamo and Minke whale,1036801,HX1 2NT,53.713575000000000,-1.864494602165390
lizard and Hawk,1635927,BB12 0AS,53.796334730000000,-2.247902291000000
Pitohui and gopher snake,1031433,HX7 7AT,53.780322000000000,-2.069072000000000
blue tongue and rock python,626109,OL13 0RZ,53.695301339301500,-2.224423819347010
Towhee and Bunting,623537,OL16 2SZ,53.627955091481900,-2.140433000000000
python and glass snake,1636928,BB11 2EF,53.788070950000000,-2.240962600000000
Condor and Ground sloth,1036248,HX1 3TD,53.717669865199300,-1.888361921838150
cobra de capello and flying dragon,1075609,HD7 9AA,53.625877000000000,-1.872395099999949
Chipmunk and sidewinder,626871,OL12 7EJ,53.625300645674700,-2.176621161083880
Condor and Moluccan boobook,627771,OL11 3RB,53.606143243570600,-2.166506131151800
Skunk and Chicken,1031434,HX7 7AU,53.777687661934000,-2.083240316239550
River dolphin and Tit-tyrant,1034616,HX3 5DD,53.733420903690600,-1.874162241017110
American sparrow and grass snake,627465,OL11 4HY,53.613796109135300,-2.163709661369920
Night heron and tuatara,1753016,BD13 3GH,53.791172611156300,-1.865595877300360
Greenbul and Kākāriki,1033052,HX4 9PU,53.675382591111000,-1.900644175536510
grass snake and Peafowl,625493,OL14 5EU,53.715884487738900,-2.097057894009540
Fish eagle and soft-shelled turtle,1032361,HX6 2ET,53.712703166433900,-1.914843944678940
Argus and Masked owl,1036392,HX1 4NB,53.723998829624800,-1.880889000000000
cerastes and Jerboa,628619,OL10 4LL,53.595241467735400,-2.216383415462830
Chickadee and Songlark,1031383,HX7 8TP,53.754789000000000,-2.005756000000000
boomslang and Old World quail,628526,OL10 2NG,53.581619666925300,-2.213912196122770
Warbler and moloch,1636789,BB11 3QY,53.759542380000000,-2.217819651000000
Argus and Stint,1636877,BB11 1RY,53.790627640000000,-2.252073234000000
Fish eagle and Gila monster,628996,OL10 2JE,53.582267275677100,-2.202980000000000
Buzzard and mamba,1623723,BD13 3ST,53.781547090000000,-1.861726162000000
asp and Komodo dragon,1032227,HX6 3BJ,53.704563381902300,-1.919828916277100
blindworm and racer,1074105,HD9 4ER,53.591146830857100,-1.850367031645190
deaf adder and taipan,623567,OL16 4AY,53.614079438543200,-2.122233173552010
carpet snake and Scimitar babbler,624914,OL14 8EE,53.722210956345000,-2.108817220994680
Duck and Bronzewing pigeon,1752447,BB11 9GL,53.790933870641400,-2.240888219424130
Myna and skink,1035181,HX2 8RA,53.751968090171600,-1.909502482589430
Lemming and racer,1033417,HX4 9BZ,53.672295818311600,-1.860630344384100
Asiatic leopard and Shearwater,1032072,HX6 4EB,53.669965461900200,-1.947698712290190
tree snake and Old World vulture,1032470,HX6 2LX,53.711478346800700,-1.911467822215350
pit viper and Old World quail,1031256,HX7 8HX,53.746923635323800,-2.006316211272200
snapping turtle and Hawaiian honeycreeper,622366,OL2 7JF,53.579394631274600,-2.102136039012300
Buzzard and Fulmarine petrel,1033245,HX4 8LT,53.688574000000000,-1.853036250958850
kabaragoya and Philippine hawk-owl,1078745,HD3 3FP,53.656217277712700,-1.878340931213550
Civet and sand lizard,1034658,HX2 9XL,53.754506312365600,-1.882501382716450
glass snake and Jerboa,1034521,HX3 6JN,53.733567370479700,-1.860306873248830
mud turtle and king cobra,625113,OL14 7ER,53.730119553862800,-2.151020533685440
chameleon and anaconda,1035464,HX2 6LF,53.720248225362600,-1.955850004587840
Booted eagles and Fox,626723,OL12 8EN,53.679087670441400,-2.162615000000000
Fulmarine petrel and Rat,625570,OL13 8RS,53.709458821725000,-2.192805609308470
Hawaiian honeycreeper and Piping shrike,1782520,HX1 9RE,53.724319196752300,-1.857382414204710
perentie and Macaw,1032130,HX6 2TP,53.713343830609300,-1.918463813074240
Duck and Stint,1035441,HX2 6JA,53.727313560820200,-1.957661000000000
diamondback turtle and Moluccan boobook,1036967,HX1 1BE,53.721470791072000,-1.861483453788840
Booted eagles and sidewinder,625149,OL14 5NP,53.720797936300500,-2.100721343881440
hawksbill and Triller,1032588,HX6 2RJ,53.712764196022600,-1.925540484975640
deaf adder and boa constrictor,1075544,HD7 6HB,53.597608642980300,-1.927056962269040
milk snake and Chicken,1036331,HX1 4DJ,53.721086625852200,-1.880366696287260
Old World vulture and amphisbaena,628783,OL10 3ES,53.593171079350800,-2.227719153908970
Stint and water snake,1032428,HX6 2HP,53.712243691584600,-1.913329780228220
Guillemot and elapid,1623673,BD13 2HR,53.767047870000000,-1.852838217000000
Siskin and Mink,1031470,HX7 7ES,53.755460558392500,-2.020983490343130
tortoise and turtle,623464,OL16 3RR,53.599844300376000,-2.089250771757580
Puffleg and rock snake,625397,OL13 9TP,53.693416878613600,-2.191656969228220
bandy-bandy and Gull,624595,OL15 8LQ,53.641807626143100,-2.113601127401910
Pheasant and glass snake,1800105,OL16 4FW,53.607251000000000,-2.129090000000000
Masked owl and Diving bird,1032941,HX4 9EN,53.675619285601200,-1.875000265070190
terrapin and worm lizard,623775,OL16 3ER,53.613169821011300,-2.105255937449620
krait and Stilt,628242,OL10 4PF,53.595090771867800,-2.224979653571990
Fulmarine petrel and jew lizard,1034481,HX3 6ED,53.729768057376700,-1.862593024473300
whip snake and Kite,1032791,HX6 1PL,53.700134495541000,-1.938967390292730
bearded dragon and frilled lizard,1031817,HX7 6PG,53.736887718669000,-2.035860998688430
Marsh harrier and chameleon,1034504,HX3 6HP,53.733666837263600,-1.860821936677490
Ground sloth and Wader,1631834,BB4 7DR,53.686756880000000,-2.249983079000000
iguana and Dorcopsis,624674,OL14 8WS,53.713276218808400,-2.099157900209420
rattlesnake and Booted eagles,1631266,BB4 9TG,53.699766010000000,-2.244031952000000
Peafowl and Solitaire,1800059,OL13 9AU,53.690699277500000,-2.185133306600000
massasauga and horned viper,1561413,BL9 6UU,53.613452000000000,-2.244546000000000
Nukupuʻu and terrapin,627744,OL11 3PH,53.597645121276600,-2.187550942178170
Jackal and Chickadee,624766,OL14 7PT,53.700686113897900,-2.107004534527770
python and hognose snake,1032190,HX6 4ND,53.682153856468400,-1.948804055552800
smooth snake and rat snake,1035685,HX2 0QS,53.736523000000000,-1.902926240951510
Minke whale and Treepie,1035239,HX2 7HH,53.711946282428200,-1.890346642185410
Thicketbird and Parakeet,1036495,HX1 2YG,53.712930775265900,-1.868284018976400
Hawk and Pheasant,624980,OL14 6QJ,53.696510672565200,-2.102404909103190
green turtle and cayman,625240,OL14 5TF,53.717915034958400,-2.072848194806380
Kite and Solitaire,1033599,HX3 9BE,53.707597639783300,-1.850227605570290
sand lizard and gecko,1032483,HX6 2NP,53.712608999445800,-1.908995838162570
Zebra and Fish eagle,1035247,HX2 7HT,53.713011030841900,-1.894995290199800
American sparrow and River dolphin,626445,OL12 8TZ,53.653704527061600,-2.181853940969710
puff adder and crocodile,1031492,HX7 7HU,53.749913607773100,-2.053842034417890
Goose and boa,626511,OL12 7NA,53.623517866577500,-2.184626839881350
Mouse and Parakeet,1032433,HX6 2HU,53.713553963889900,-1.910615000788540
copperhead and Night heron,1631509,BB4 9DD,53.697094660000000,-2.249302260000000
crocodile and blind snake,628497,OL10 3SA,53.587222858307200,-2.240451860200140
Goose and Thicketbird,623280,OL16 4NU,53.599675566156700,-2.108486194094850
Lemming and king snake,623402,OL16 4XB,53.604447883382100,-2.135337888834970
hawksbill and chameleon,624042,OL15 9RH,53.661118843130300,-2.086671820115520
hognose snake and lizard,1782563,HX3 6US,53.739956297856700,-1.863272638246380
Vulture and Kestrel,1035532,HX2 6PW,53.730459397557300,-1.937241192013480
Warbler and Songlark,628889,OL10 2AJ,53.589289550162500,-2.212304321710920
water snake and king snake,626134,OL12 9EB,53.634303271725100,-2.138412825854650
Triller and Elephant,1561243,BL9 7SL,53.599734120000000,-2.262040539000000
soft-shelled turtle and boomslang,1032124,HX6 4LA,53.666922000000000,-1.954952000000000
king snake and Quetzal,625276,OL14 6DA,53.719197359029500,-2.062091000000000
Tit-tyrant and Herring gull,622415,OL2 7PF,53.583565313406800,-2.112024686286850
Partridge and hawksbill,1623893,BD13 1JE,53.773940670000000,-1.859505494000000
Puffleg and Badger,627656,OL11 3HT,53.597839603136400,-2.183864976941600
Tree warbler and cobra de capello,627417,OL11 5TY,53.629705146471900,-2.219826112414030
indigo snake and diamond snake,627853,OL11 2PJ,53.591902586459100,-2.175061516730500
Piping shrike and amphisbaena,1800114,OL16 4NW,53.600142342400000,-2.122963752900000
chameleon and Greenbul,628069,OL11 1PG,53.605959223667300,-2.156349576184520
coral snake and sea snake,626471,OL12 8XQ,53.668941330213300,-2.161804725235920
sidewinder and iguana,624638,OL14 8QT,53.739168472835300,-2.166137813627870
sand viper and Mink,627248,OL11 5JZ,53.614044232299700,-2.190374775715010
cycling lizard and goanna,1035538,HX2 6QD,53.729676967259700,-1.936348079967470
blindworm and Peafowl,628153,OL11 2AZ,53.589764114631200,-2.140472598635750
horned viper and Treepie,625810,OL13 8DR,53.708211650105400,-2.202374363743960
python and giant tortoise,624052,OL16 1AG,53.615929539396500,-2.161344652598420
Masked owl and Darwin's finches,624452,OL15 8BP,53.643600000489200,-2.099341868013750
Mouse and blue tongue,1032011,HX7 5PS,53.731669004222900,-1.977301660123010
Booted eagles and Polecat,1035015,HX2 9PU,53.757963550237000,-1.879321779128490
Shearwater and hawksbill,628643,OL10 2PN,53.583971334606500,-2.210691611815400
snapping turtle and elapid,1035710,HX2 7DN,53.712895499723100,-1.886556396671550
Puffleg and Tattler,1561027,BL9 7HZ,53.592187230000000,-2.256388747000000
alligator and slowworm,1032071,HX6 4EA,53.671816453645900,-1.946409838833890
soft-shelled turtle and constrictor,2638279,BB11 4EJ,53.785339000000000,-2.248172000000000
puff adder and rock snake,621763,OL3 5LR,53.575240482305500,-1.989511354492370
Kangaroo and diamondback turtle,1036036,HX1 4RD,53.725756084146500,-1.885416000000000
Grosbeak and Philippine hawk-owl,623910,OL16 2JY,53.619987868300800,-2.143626913985790
blue racer and cayman,1636738,BB11 3LB,53.783195230000000,-2.238233000000000
B and smooth snake,624501,OL15 8HR,53.633714683354700,-2.117284410324380
Tree warbler and Fish eagle,1623588,BD13 3QN,53.794535380000000,-1.855034000000000
Buzzard and Prion,1036179,HX1 5PE,53.725469161796900,-1.876762394674310
garter snake and Marmoset,1035478,HX2 6NZ,53.725599114407300,-1.941734483966790
Parrotbill and Nukupuʻu,1034419,HX3 6AW,53.729180865009400,-1.852515535660540
American sparrow and Grackle,625667,OL13 9HW,53.705632008110300,-2.191485317579870
Grouse and giant tortoise,628064,OL11 1PA,53.605513205739700,-2.153733432219290
Piping shrike and Fulmarine petrel,1036533,HX1 3BN,53.713650846815100,-1.877751403075990
Old World warbler and Maya,1035378,HX2 7RW,53.721196492495100,-1.914266139170400
Mole and Parrotbill,1033059,HX4 9QD,53.667636998303200,-1.892746800006800
Stilt and Dolphin,1031269,HX7 8LA,53.746042474852200,-2.010638000000000
turtle and box turtle,1032307,HX6 3LH,53.686413659869500,-1.947481594606900
milk snake and puff adder,623118,OL16 5NY,53.609393210226600,-2.141550497189870
loggerhead and black snake,1636799,BB11 3RR,53.770753000000000,-2.240378000000000
diamondback terrapin and Condor,623093,OL16 5LG,53.605245308461700,-2.145148509479340
bandy-bandy and glass snake,1636753,BB11 3LW,53.782119060000000,-2.237377258000000
Stint and Piping shrike,625405,OL13 9UB,53.711324497822400,-2.183829854692750
rock python and B,625674,OL13 9JF,53.702458290752200,-2.197575293519090
hawksbill and Jackal,1036230,HX1 3RU,53.715203817429700,-1.884853180770500
Marsh harrier and kabaragoya,1031504,HX7 7JJ,53.744840163338200,-2.062447882316540
tortoise and gopher snake,1032822,HX6 2BL,53.713251041952200,-1.902494567004020
Thrasher and milk snake,624970,OL14 6PX,53.699862015453000,-2.103821684582430
Greenbul and diamondback turtle,627939,OL11 2TN,53.587857684471500,-2.175180732751300
Mole and boomslang,1623730,BD13 2NE,53.763105030000000,-1.855218374000000
Elephant and Jay,1800098,OL16 3AS,53.617338883900000,-2.111736617700000
Magpie and Black jay,624517,OL15 8JS,53.641807545027600,-2.103814835378190
Armadillo and Chickadee,1032412,HX6 3QG,53.703844987477200,-1.908181559163220
black snake and Fox,1036026,HX1 4QQ,53.727942118613500,-1.887167723295280
Kākāriki and chameleon,1034882,HX3 0LP,53.704193155723300,-1.867205445829510
blindworm and Macaw,626268,OL12 9QZ,53.636961592183500,-2.123570000000000
puff adder and diamond snake,628116,OL11 3BZ,53.589455794851900,-2.182393370564400
brown snake and Maya,628574,OL10 4FF,53.595274557948300,-2.236856342513760
Eagle and Logrunners,1035203,HX2 8SJ,53.752804146464500,-1.909728173182190
Thicketbird and Ice seal,1623907,BD13 1LA,53.774707360000000,-1.862128000000000
Stint and Kākāriki,1033582,HX3 9AH,53.711382912585600,-1.851259576617360
wall lizard and king snake,625335,OL13 9PX,53.696613218131200,-2.188157798106480
milk snake and Ice seal,1033225,HX4 8JQ,53.687766075193300,-1.878719612959050
Elephant and brown snake,622146,OL2 7XH,53.584897318391600,-2.099943962284050
Skunk and Fox,1033047,HX4 9PP,53.672041426969300,-1.893008098305930
python and Solitaire,628070,OL11 1PH,53.606187068804700,-2.153932351542360
Grosbeak and Darwin's finches,1034787,HX3 0EN,53.711357648199700,-1.868091965246480
White ibis and wall lizard,625057,OL14 6UG,53.684374828240900,-2.093745081631060
diamond snake and Fish eagle,628565,OL10 4EE,53.595127000000000,-2.210791421771430
Marmoset and Kangaroo,625925,OL12 9US,53.639894735080800,-2.129688935332420
puff adder and mud turtle,1032104,HX6 4HS,53.673359429525700,-1.940080650557420
Minke whale and flying lizard,627602,OL11 5AW,53.622781768914800,-2.184018868724200
lizard and Kākāriki,1036116,HX2 0JG,53.731263245959100,-1.892100273260200
Hawaiian honeycreeper and gecko,625979,OL13 0DU,53.695541000000000,-2.201556000000000
Piping shrike and New World blackbird,1032987,HX4 9JT,53.660327965623400,-1.881431236552760
cerastes and Egret,627551,OL11 4PE,53.603145802647900,-2.175818329296880
Stilt and Diving bird,624489,OL15 8EU,53.649055223270400,-2.110277310572020
saltwater crocodile and amphisbaena,1631504,BB4 9BX,53.695705270000000,-2.243099741000000
box turtle and galliwasp,626933,OL12 6BN,53.637892175326500,-2.194611201889180
diamond snake and tree snake,1031833,HX7 5AF,53.731166986033400,-1.986002443031990
Pitohui and Dolphin,1035130,HX2 8JT,53.743720207000200,-1.891568088949720
Kangaroo and frilled lizard,624877,OL14 8AW,53.717404000000000,-2.085530000000000
Bunting and loggerhead,1637285,BB10 3LZ,53.793684060000000,-2.193860110000000
pit viper and River dolphin,1035974,HX2 0BU,53.724952419032200,-1.890767553659140
Warbler and Crow,1036089,HX1 5BH,53.724193000000000,-1.867537000000000
boa constrictor and Fulmarine petrel,2626842,HX2 0QX,53.730672000000000,-1.896317000000000
amphisbaena and Black jay,622584,OL2 6SR,53.578554848845300,-2.125090658102340
coral snake and Grackle,1032990,HX4 9JX,53.658690163584000,-1.879468702956960
Kite and mud turtle,1623471,BD13 3ES,53.791779460000000,-1.850110581000000
krait and slowworm,1636655,BB11 3AG,53.786237000000000,-2.237188000000000
Jay and cobra de capello,1032177,HX6 4LN,53.667933521266800,-1.974036000000000
Badger and constrictor,626779,OL12 7AJ,53.621609878462200,-2.174307728238410
diamondback and carpet snake,1782548,HX2 8NN,53.750031765913500,-1.899498293840470
black snake and chuckwalla,626372,OL12 8PU,53.654199759407300,-2.175244224500810
lizard and Triller,1032584,HX6 2RB,53.710788426456200,-1.914453889592120
dugite and gavial,627932,OL11 2TB,53.589674257628300,-2.174538654214660
Perching duck and tree snake,624872,OL14 8AQ,53.718116959532000,-2.080334129090440
Macaw and hawksbill,1782620,HX7 7EQ,53.747304344789900,-2.016748998635360
Jerboa and snake,626406,OL12 8RW,53.640283000000000,-2.178257000000000
mud turtle and tokay,626168,OL12 9JW,53.648377211840800,-2.131863189217250
Wader and worm lizard,1034701,HX3 5JH,53.734735382547500,-1.885360814147980
box turtle and Old World warbler,2642314,HX1 9UJ,53.724349000000000,-1.857460000000000
blindworm and Crow,627376,OL11 5RT,53.622229890523700,-2.208130731155740
cobra de capello and terrapin,1036144,HX1 5HW,53.721556317286300,-1.865559666344170
Myna and Shearwater,1032991,HX4 9JY,53.658464987888000,-1.879000264050000
Parrotbill and tuatara,1631846,BB4 7EG,53.682291350000000,-2.244869506000000
Grosbeak and Triller,621833,OL2 8HQ,53.582051757324400,-2.083398022151950
tuatara and Dorcopsis,621910,OL3 5SD,53.591655976010400,-2.039272224111470
tree snake and frilled lizard,628127,OL11 1TN,53.602065618806800,-2.157634758224830
pit viper and leguaan,628360,OL10 4XE,53.594579842445300,-2.233619169373210
Pratincole and Mink,626702,OL12 8DA,53.663291000000000,-2.173012000000000
boomslang and racer,1631267,BB4 9TH,53.702143650000000,-2.246090607000000
lizard and adder,1032617,HX6 2SW,53.713971343959100,-1.902644000000000
Elephant and grass snake,1073773,HD9 5PN,53.597197027267900,-1.858671142658750
Tree warbler and Duck,1036555,HX1 3EW,53.712794141791700,-1.874996381625130
leathery turtle and Masked owl,1631773,BB4 7AU,53.693356000000000,-2.249507000000000
Grouse and Asiatic leopard,1034266,HX3 6YR,53.724315209783800,-1.857382208773310
Polecat and thorny devil,1631198,BB4 9QA,53.718281160000000,-2.248579086000000
Francolin and milk snake,622849,OL16 9SE,53.615690099222600,-2.158925127492100
coral snake and thorn lizard,1032479,HX6 2NH,53.712008810461900,-1.911693973992270
chameleon and Mole,626824,OL12 7EE,53.630324444090400,-2.183008343622580
Moluccan boobook and smooth snake,1075665,HD7 5HL,53.619062305954300,-1.880594242108600
Cloud rat and agamid,624695,OL15 0AW,53.626451962990200,-2.085874792126440
carpet snake and flying lizard,1075674,HD7 5HX,53.617775302841500,-1.888171509594120
Thrasher and tiger snake,1035616,HX2 6UY,53.743460869018100,-1.947137928231260
River dolphin and Diving bird,623704,OL16 3BE,53.614633019512000,-2.125787020012990
Condor and puff adder,628707,OL10 3AN,53.589619143511100,-2.223787315751360
Rabbit and Hawk,1035904,HX2 6DE,53.722833000000000,-1.943481000000000
tuatara and Thicketbird,1034220,HX3 6TY,53.740926878636500,-1.866710870535000
perentie and Pitohui,623069,OL16 5HE,53.613604000000000,-2.138753000000000
Bunting and Treepie,628880,OL10 1SD,53.600115590636000,-2.193410000000000
Stint and Cuscus,1036560,HX1 3HF,53.713120643593600,-1.877843844201980
slowworm and coral snake,1036980,HX1 1DS,53.722395295824800,-1.860389293891450
Grouse and krait,1036284,HX1 3XQ,53.718288066830200,-1.877131862986450
chuckwalla and box turtle,1035047,HX2 8EF,53.748512905533400,-1.893891026130180
Wallaby and Cuscus,627760,OL11 3QF,53.603328603529900,-2.167447093885620
boa and whip snake,625573,OL13 8RW,53.726994830278800,-2.198160296429630
diamondback turtle and diamondback turtle,627733,OL11 3NR,53.601984304434100,-2.183142541201620
Piping shrike and Asiatic leopard,2616720,OL11 2BB,53.590157000000000,-2.141937000000000
Eagle and Fish eagle,1637397,BB10 4BY,53.788185300000000,-2.228471534000000
horned viper and Grouse,628485,OL10 3RG,53.590945365953700,-2.239778069744670
skink and goanna,623911,OL16 2JZ,53.621254639559900,-2.144099889450380
bearded lizard and Chipmunk,626837,OL12 0TA,53.635661285961600,-2.166017581853500
blue racer and tokay,623150,OL16 5QY,53.610794731900900,-2.149460110741330
Vulture and constrictor,628152,OL11 2AX,53.592601223747700,-2.143156154372420
hawksbill and Herring gull,625741,OL13 0UJ,53.691636059103700,-2.223419974745230
Macaw and Perching duck,1032040,HX6 4BB,53.675769698684700,-1.943059392212150
garter snake and Snipe,1636068,BB12 0GH,53.790929280000000,-2.240887922000000
garter snake and Fish eagle,623644,OL16 2UX,53.621790996853200,-2.138991668996300
Jay and Thicketbird,1036685,HX1 2AD,53.720752688709100,-1.862304122786640
Egret and Mink,627592,OL11 5AE,53.622356915102300,-2.179693068835420
Goose and Logrunners,1636519,BB11 4NT,53.785516120000000,-2.259251790000000
skink and Badger,1561251,BL9 7SW,53.601266140000000,-2.260206464000000
monitor and agama,626752,OL12 6UQ,53.617822156466900,-2.164209008712870
hognose snake and sand lizard,622420,OL2 7PS,53.586137503854200,-2.110369870178440
Prion and sand lizard,624746,OL14 7NF,53.707807098554300,-2.104280621009010
deaf adder and Marsh harrier,623421,OL16 4YE,53.605994487162200,-2.108290846186000
perentie and massasauga,1031378,HX7 8TG,53.751372545092100,-1.990636332551430
Fox and Prion,1800047,OL12 9RJ,53.642251142500000,-2.123978878300000
tiger snake and box turtle,1034654,HX2 9XF,53.773449344001100,-1.878776756456270
hognose snake and hoop snake,1031306,HX7 8PQ,53.742025185364800,-1.993731318562190
Tree warbler and Argus,625973,OL13 0DH,53.693216514943700,-2.209435000000000
Mockingbird and Elephant,628263,OL10 4QJ,53.594206336833600,-2.231728000000000
constrictor and Petrel,623109,OL16 5NH,53.611529003826900,-2.144399240836680
harlequin snake and Kestrel,627686,OL11 3LJ,53.601287142321600,-2.186418647379830
bicycle lizard and crocodile,1036136,HX1 5EW,53.721778534782000,-1.871499455689110
king snake and bearded dragon,1035782,HX2 0UT,53.739554249496200,-1.920278022321010
Mole and thorn lizard,2653257,HD7 4FD,53.636747000000000,-1.854396000000000
kabaragoya and alligator,621837,OL2 8HU,53.581217758836700,-2.080617238882100
Petrel and gaboon viper,1636853,BB11 1PP,53.789849140000000,-2.246088083000000
amethystine python and Triller,627016,OL12 6LG,53.628252267475700,-2.167969280537230
anole and diamondback turtle,1637172,BB10 4TZ,53.767709440000000,-2.209457303000000
Ground sloth and Philippine hawk-owl,1073977,HD9 4AE,53.592017933982600,-1.850017000000000
Recurvebill and Parrotbill,623876,OL16 2EH,53.620484000000000,-2.150160000000000
chuckwalla and sidewinder,626398,OL12 8RG,53.659736290172400,-2.175373147161710
elapid and hognose snake,1033254,HX4 8NH,53.682612353405700,-1.876266000000000
Tattler and Fish eagle,625168,OL14 5PQ,53.722590623740300,-2.106408619469610
Darwin's finches and puff adder,1036749,HX1 2HA,53.715450132214000,-1.870761101269260
hoop snake and racer,1032425,HX6 2HJ,53.712881174827400,-1.912404255383800
Duck and Wallaby,625212,OL14 7HX,53.710854746865000,-2.138952293401100
Perching duck and dugite,1561032,BL9 7JF,53.588547280000000,-2.256245839000000
diamondback and diamond python,1032579,HX6 1BY,53.705538299900600,-1.926401511750780
Capuchin and Tit-tyrant,2299182,OL10 2PX,53.578394000000000,-2.213715000000000
carpet snake and chuckwalla,1035736,HX2 0RZ,53.732251485366600,-1.902071772042770
Booted eagles and flying dragon,1035975,HX2 0BX,53.725257473797900,-1.890175697535700
gavial and frill-necked lizard,628417,OL11 1HP,53.610911706885700,-2.156383015350780
tiger snake and Chicken,1035003,HX2 9NS,53.778181000000000,-1.891510495639810
viper and Logrunners,1032403,HX6 3PW,53.705123134587600,-1.910617667136250
Darwin's finches and Old World quail,622028,OL2 7QY,53.584875500598400,-2.104430187634380
pit viper and elapid,1035381,HX2 7RZ,53.720000896125700,-1.914010950624110
garter snake and puff adder,623140,OL16 5QE,53.611517814152800,-2.138670684696790
loggerhead and flying dragon,623719,OL16 3DB,53.615483701217100,-2.120166314033280
Capuchin and black snake,627528,OL11 4LQ,53.610993420693900,-2.162504746707870
glass snake and Pratincole,1078656,HD3 3YR,53.657585335483700,-1.871497655735770
Kākāriki and thorny devil,1782587,HX4 0FP,53.679149480407400,-1.920437395079090
Thrasher and Scimitar babbler,1031570,HX7 7NY,53.749861088801800,-2.020586390157600
Siskin and box turtle,622285,OL2 7BJ,53.576041771968500,-2.102399776455540
Ibex and ringhals,625530,OL13 8PS,53.715584311389800,-2.200940039729660
Civet and Mole,1623567,BD13 3PH,53.792154470000000,-1.855422137000000
Petrel and giant tortoise,1895231,BB11 1LN,53.787992000000000,-2.249113000000000
Tit-tyrant and Eagle,1034390,HX3 5TE,53.741806058007400,-1.882339633018240
Fox and Coati,1637175,BB10 4UD,53.767525230000000,-2.206847005000000
Argus and Kākāriki,626085,OL13 0QT,53.692824568633700,-2.222305622320090
Tit-tyrant and Vole,1034170,HX3 6QR,53.743213450614200,-1.878590687242050
saltwater crocodile and Black cockatoo,623797,OL16 3HY,53.612913240046600,-2.100524204188760
Rat and Elephant,623525,OL16 2SH,53.628329000000000,-2.136896000000000
Scimitar babbler and Gila monster,626008,OL13 0HR,53.689743149764300,-2.216580519225760
Flameback and Skunk,2580331,OL16 4FU,53.593580000000000,-2.135226000000000
ringhals and tree snake,625977,OL13 0DS,53.697913904361400,-2.200810324243180
anaconda and Fox,1035937,HX1 9SJ,53.724426998141100,-1.860731148595220
Philippine hawk-owl and python,1631617,BB4 9EY,53.698591230000000,-2.255672446000000
Thicketbird and boa,626598,OL12 7SP,53.628191836012400,-2.216703353571080
Gull and Chicken,624847,OL14 7TP,53.691324279705800,-2.102695158761790
Meadowlark and Vole,628264,OL10 4QL,53.595040831281700,-2.232292126312830
Jay and Minke whale,1631776,BB4 7AY,53.692078240000000,-2.249802622000000
diamondback terrapin and Eagle,627315,OL12 0RW,53.625228470129600,-2.157524644492050
Warbler and Grosbeak,1033451,HX4 0BQ,53.685136105126100,-1.902332231311710
New World blackbird and Polecat,1033307,HX4 9AR,53.674098596332400,-1.865135295150750
Pitohui and kabaragoya,626059,OL13 0NS,53.691279581738400,-2.235881102180500
boa constrictor and elapid,1631238,BB4 9RL,53.713636390000000,-2.251884989000000
Jerboa and Rabbit,1636740,BB11 3LE,53.782477710000000,-2.237819395000000
worm lizard and bearded dragon,1637331,BB10 3PX,53.788757980000000,-2.188646331000000
Treepie and leathery turtle,623241,OL16 4JJ,53.611903421302500,-2.123073313136530
frill-necked lizard and Masked owl,626463,OL12 8XD,53.689195699839800,-2.165395584371050
Ice seal and Mockingbird,1035549,HX2 6QS,53.730146320570300,-1.940197335264120
amphisbaena and Scimitar babbler,622149,OL2 7XN,53.583998047991200,-2.100470510200770
moloch and Grosbeak,1035699,HX2 7AW,53.723658498672300,-1.926279000000000
Pitohui and copperhead,622003,OL2 8TB,53.575482000000000,-2.095195026866650
Songlark and flying lizard,1035040,HX2 8DX,53.745051143046900,-1.892353131029940
Old World quail and gopher snake,624024,OL16 2SG,53.636307464833700,-2.122085823714280
Macaw and Hawaiian honeycreeper,624099,OL16 1HR,53.618414616335700,-2.151165090532850
perentie and horned viper,1636471,BB11 4HT,53.784957620000000,-2.251401774000000
Schneider python and goanna,627463,OL11 4HW,53.611581022459100,-2.166588016031310
Night heron and Rat,1075519,HD7 6EU,53.599865000000000,-1.925300000000000
skink and Kangaroo,627863,OL11 2QD,53.590871341804200,-2.173410534837570
snapping turtle and Dorcopsis,1637051,BB10 4JZ,53.788522430000000,-2.216330653000000
Gila monster and dukite,621826,OL2 8HF,53.580881000000000,-2.087459000000000
indigo snake and monitor,627074,OL12 0BN,53.634632638138900,-2.155623976103430
Civet and king snake,624670,OL14 8SR,53.719157225823700,-2.069774213359140
crocodile and Perching duck,623338,OL16 3NU,53.608046119519200,-2.105711685716360
gaboon viper and garter snake,1033316,HX4 9BB,53.674701394474400,-1.865663183672350
Chickadee and rock snake,1631517,BB4 9DR,53.699315080000000,-2.249133640000000
galliwasp and Flameback,1032474,HX6 2NB,53.711569081299700,-1.912846000000000
Wader and bearded lizard,1035063,HX2 8HR,53.748070243627200,-1.891374950614630
swift and Philippine hawk-owl,1073734,HD9 5LN,53.591379000000000,-1.871320000000000
Wallaby and Solitaire,1033490,HX4 0EQ,53.654096189347100,-1.921649202199680
Chipmunk and Tahr,1034253,HX3 6UW,53.737064300096700,-1.868784803352730
Armadillo and sand lizard,1035707,HX2 7DH,53.712860785299500,-1.887874637289910
gecko and harlequin snake,1034460,HX3 6BP,53.727656530363600,-1.855370000000000
hoop snake and tuatara,1076005,HD7 5AH,53.620930051312400,-1.888042245687720
hognose snake and cobra,625738,OL13 0UF,53.690968235696400,-2.229594895592670
sand viper and cerastes,1636726,BB11 3HQ,53.782175260000000,-2.231625831000000
Egret and ringhals,625006,OL14 8HA,53.726463340095700,-2.117239811730310
Chickadee and bearded lizard,628018,OL11 3BH,53.590599870257100,-2.180706279112990
Grouse and box turtle,623672,OL16 2YJ,53.618377352323000,-2.137362886332480
viper and soft-shelled turtle,625310,OL14 6HQ,53.715083963371900,-2.055857991188920
copperhead and dukite,626324,OL12 9UE,53.638324198174600,-2.157603758530960
Logrunners and New World blackbird,627625,OL11 3DS,53.594878377772000,-2.180649016836470
milk snake and Nukupuʻu,1036568,HX1 3LD,53.716693644012200,-1.873727187254190
Asiatic leopard and tree snake,1637217,BB11 1ED,53.788602130000000,-2.244957574000000
bearded dragon and Cloud rat,626131,OL12 9DW,53.633317603090400,-2.143460546480160
Snipe and water snake,627789,OL11 3SL,53.609382501665900,-2.157299313923640
black snake and Polecat,1623517,BD13 3JW,53.790374080000000,-1.854775548000000
horned toad and terrapin,625307,OL14 6HL,53.714661000000000,-2.059070000000000
Petrel and Crow,625731,OL13 0TX,53.692293502470800,-2.217835412343300
Tahr and copperhead,1073670,HD9 5JT,53.592330245420800,-1.855212518336850
Grackle and Wader,1036681,HX1 1YW,53.725147998280800,-1.862426191333940
cobra de capello and boa constrictor,2588943,HX7 8FB,53.748890000000000,-1.999934000000000
blue tongue and water snake,623776,OL16 3ES,53.612418824173000,-2.100598602488840
Gull and amphisbaena,2585093,HX1 9ZZ,53.724316000000000,-1.857382000000000
glass snake and tree snake,623871,OL16 2EB,53.620281000000000,-2.147679000000000
rock snake and Siskin,627811,OL11 3TZ,53.609143509344500,-2.161273400705240
habu and water snake,627375,OL11 5RS,53.622105763051700,-2.207147409382240
milk snake and carpet snake,624219,OL16 1SS,53.614413582392100,-2.152163536379140
anaconda and Magpie,1035444,HX2 6JE,53.729076456189700,-1.961539821482790
Jerboa and smooth snake,623805,OL16 3JT,53.611449112389500,-2.109650052191460
Quetzal and Fulmarine petrel,626367,OL12 8PP,53.654754348566500,-2.177198000000000
Francolin and Capuchin,623377,OL16 4TL,53.599413341698000,-2.143980082957580
rattlesnake and green turtle,1637255,BB10 3JL,53.790681120000000,-2.199902733000000
Myna and Komodo dragon,1031473,HX7 7EW,53.745592426644200,-2.016414483911860
Solitaire and Night heron,626924,OL12 7JS,53.633920880578800,-2.188059834438730
carpet snake and Siskin,1032035,HX6 4AW,53.675849173734000,-1.940137684353240
cycling lizard and American sparrow,1036091,HX1 5BT,53.723897127411000,-1.869098506050900
American sparrow and Kite,622393,OL2 7LW,53.582247963868900,-2.117292621828810
bandy-bandy and Shearwater,626252,OL12 9QE,53.638195783432800,-2.121304821178310
monitor and Tattler,1031243,HX7 8HB,53.745495000000000,-2.009636677148180
Zebra and Fish eagle,625655,OL13 9HE,53.704103203093800,-2.197522416465910
diamond python and thorny devil,627919,OL11 4BZ,53.611584302355800,-2.182791152277230
amethystine python and Cuscus,2644967,OL11 2WJ,53.586902000000000,-2.176821000000000
racer and Scimitar babbler,627017,OL12 6LJ,53.628783333461300,-2.167427036845780
Masked owl and adder,1636402,BB11 9SB,53.787596100000000,-2.244648146000000
skink and Dolphin,1075632,HD7 5DX,53.624783391088300,-1.885280312597140
Shearwater and thorn lizard,1075677,HD7 5JA,53.617858426744600,-1.890590023599040
Night heron and dukite,1034470,HX3 6DN,53.729855102612100,-1.860289000000000
crocodile and boa constrictor,625598,OL13 9BS,53.705499153387700,-2.201240343404740
goanna and death adder,1036814,HX1 2PQ,53.713338946669000,-1.863555542342440
Black jay and Vole,1036208,HX1 5RP,53.726457815524800,-1.876729197985700
crocodile and White ibis,1036798,HX1 2NQ,53.713899055333900,-1.866084033371600
leguaan and Armadillo,626685,OL12 8AX,53.660676916983200,-2.177495595250560
Snipe and Fulmarine petrel,623684,OL16 3AB,53.618135654199800,-2.128397609426000
Puffleg and monitor,1032032,HX6 4AS,53.675831779192000,-1.941318459160560
diamondback terrapin and New World blackbird,625877,OL13 8JN,53.727008576389700,-2.195265522419420
crocodile and alligator,1036057,HX1 4SG,53.725799433093800,-1.883475438006590
amethystine python and python,624580,OL14 8PF,53.734153377244000,-2.145229203138970
swift and Zebra,1623625,BD13 2DQ,53.761791580000000,-1.861836451000000
horned toad and tokay,2579689,OL10 3FT,53.587330352400000,-2.251616239400000
smooth snake and mountain devil,1631248,BB4 9SB,53.708136890000000,-2.233551567000000
Ice seal and Vulture,1034476,HX3 6DU,53.730782293732800,-1.861361960712360
Kākāriki and boa constrictor,1631173,BB4 9NL,53.729240860000000,-2.223953000000000
bull snake and mountain devil,627189,OL12 0LT,53.623853576715100,-2.157292727974030
Scimitar babbler and flying lizard,628048,OL11 1LZ,53.606639551303400,-2.151531019462370
asp and flying lizard,626793,OL12 7BH,53.622416310919300,-2.176019471500300
Thrasher and Piping shrike,1031770,HX7 6JE,53.737710737846700,-2.008543000000000
brown snake and boa constrictor,1623551,BD13 3NP,53.790885730000000,-1.854227332000000
krait and constrictor,1034550,HX3 0TG,53.700692735117100,-1.863596368897220
gopher snake and harlequin snake,627628,OL11 3DY,53.593853697992100,-2.180659748275740
Diving bird and Mink,624279,OL15 9DJ,53.645645421207300,-2.093008468001200
perentie and Jackal,1035081,HX2 9QS,53.757212203813100,-1.883009528213760
massasauga and Goose,628745,OL10 3BT,53.590578023918400,-2.230031732032740
turtle and Siskin,1035768,HX2 0TZ,53.732161476492500,-1.891461340376720
ringhals and frilled lizard,1035761,HX2 0TQ,53.736296460424700,-1.902502022335570
Maya and Boto,1035932,HX1 9SD,53.724426998141100,-1.860731148595220
Hawk and Partridge,1036544,HX1 3EF,53.713538244371000,-1.873176016490080
asp and Dorcopsis,1561398,BL9 6UA,53.615782640000000,-2.255836475000000
Guillemot and Stilt,627746,OL11 3PN,53.605218130996400,-2.166018884278300
Lemming and glass snake,1034549,HX3 0TF,53.702534000000000,-1.869498000000000
Towhee and monitor,1032971,HX4 9HX,53.666439135777500,-1.880642263115690
snake and thorn lizard,625701,OL13 9LT,53.704495831821900,-2.193767520542160
cobra and bearded dragon,623643,OL16 2UW,53.619678220554500,-2.131531671255960
cayman and bearded lizard,1031307,HX7 8PR,53.740119839149700,-1.996976025761950
asp and Gila monster,623376,OL16 4TJ,53.600257083780300,-2.144934937864440
Old World warbler and box turtle,1782499,HX1 5QE,53.725399008511000,-1.866259968197830
Parakeet and Nukupuʻu,1636418,BB11 9SX,53.787596100000000,-2.244648146000000
Parrotbill and Old World vulture,623108,OL16 5NG,53.611933655811000,-2.144249474204250
blue tongue and death adder,1075661,HD7 5HF,53.621552474323300,-1.881025663567930
Triller and Snipe,628209,OL11 2JA,53.595839139157600,-2.155813543552090
pit viper and Guillemot,625459,OL14 5BU,53.714667167477200,-2.090615583515970
agama and milk snake,1075427,HD7 5UB,53.613730901889500,-1.888499599358690
Nukupuʻu and amethystine python,1631858,BB4 7HB,53.692470350000000,-2.255650465000000
Scimitar babbler and indigo snake,1637416,BB10 4DX,53.786666350000000,-2.228463272000000
Chicken and Lemming,622128,OL2 7UN,53.583195188572100,-2.092961560579940
Mockingbird and Tree warbler,625774,OL13 8AN,53.704049521611800,-2.202748215744620
cobra and Parrotbill,1623622,BD13 3SG,53.796802450000000,-1.872348580000000
tortoise and kabaragoya,628286,OL10 4RR,53.595087158814800,-2.240677866026190
saltwater crocodile and Chipmunk,626118,OL13 0SP,53.692566739659600,-2.230315364027700
Ground sloth and Parrotlet,1032128,HX6 2TJ,53.713871357858700,-1.914477957258710
Old World vulture and rat snake,1075603,HD7 6NP,53.576182251346700,-1.915857670636140
deaf adder and Black jay,626091,OL13 0RA,53.693380305346700,-2.223126337618300
Hawaiian honeycreeper and Masked owl,628382,OL11 1AU,53.604980338862300,-2.148653696993280
American sparrow and cayman,625879,OL13 8JQ,53.694740000000000,-2.207338000000000
Parakeet and boomslang,628439,OL10 3LY,53.588421363377700,-2.247755162089940
diamond python and Peafowl,1078565,HD3 3UG,53.661751218674100,-1.851888049261820
Peafowl and Snipe,1033046,HX4 9PN,53.670196428796900,-1.890318586798590
Treepie and Viscacha,1032275,HX6 3GB,53.706241652973900,-1.916159742115190
wall lizard and Civet,1033256,HX4 8NN,53.686553838288000,-1.879873856069660
Myna and constrictor,1073652,HD9 5AA,53.594138207199700,-1.864014673770940
Ice seal and rattlesnake,1078735,HD3 3FA,53.656789255808400,-1.875161776080570
brown snake and sidewinder,628270,OL10 4QT,53.593329627018200,-2.234050407593730
Chickadee and Fox,628623,OL10 4LY,53.593828046497800,-2.222510247599880
viper and Grouse,627443,OL11 4EG,53.613961965688300,-2.173565741418850
mountain devil and Logrunners,624236,OL15 8SA,53.639163254908900,-2.105819911057410
agama and Treepie,1036588,HX1 3PE,53.715748727161200,-1.881397003909910
indigo snake and diamondback terrapin,623281,OL16 4NX,53.596764086993500,-2.097222102445890
sidewinder and dukite,624731,OL14 7JY,53.710679849218700,-2.108151078108570
rattlesnake and whip snake,1631161,BB4 9LT,53.709361000000000,-2.250724678000000
wall lizard and Maya,624608,OL15 8NF,53.640080156630900,-2.115411478398430
Partridge and Mockingbird,1035045,HX2 8ED,53.748242390672100,-1.892906056079320
Parrotbill and Myna,1782623,HX7 8NG,53.734380649063100,-1.995748772145120
Nukupuʻu and Minke whale,1782355,HX1 1AF,53.721551150538100,-1.857619075872280
Snipe and Duck,1076006,HD7 5AL,53.623017115621900,-1.880583104987650
Ibex and hawksbill,628076,OL11 1PR,53.607353618968700,-2.155417707984530
bushmaster and bushmaster,1636246,BB11 5JJ,53.773214750000000,-2.261907028000000
monitor and Polecat,1032800,HX6 2AG,53.709746901029000,-1.904002497065640
deaf adder and leguaan,1032708,HX6 1NJ,53.710153112247900,-1.951785000000000
Tree warbler and Capuchin,625512,OL14 5HU,53.717995679915500,-2.098290157411030
Black jay and Herring gull,621955,OL2 8QB,53.575455148091900,-2.082252353424820
frill-necked lizard and taipan,623404,OL16 4XE,53.603127144297200,-2.134865192066950
Snipe and ringhals,1637413,BB10 4DT,53.787735040000000,-2.228924428000000
hoop snake and hoop snake,624511,OL15 8JJ,53.641888806031400,-2.103391516593390
Thicketbird and White ibis,1636683,BB11 3DB,53.789961950000000,-2.234659018000000
Herring gull and hognose snake,628424,OL11 1JJ,53.609018394212500,-2.153912437524490
rock snake and Snipe,1036556,HX1 3EX,53.712859619275100,-1.877480971836560
Coati and puff adder,625938,OL13 0AH,53.701913662282200,-2.200783947095630
Francolin and rock snake,622135,OL2 7UW,53.584050000000000,-2.092616261181370
Thrasher and indigo snake,623089,OL16 5LB,53.607551001842600,-2.141226943942210
fer-de-lance and Parakeet,628922,OL10 2DF,53.588362797207900,-2.212843507936230
Goose and fer-de-lance,2629519,OL16 2BJ,53.619164000000000,-2.148173000000000
Capuchin and coral snake,626704,OL12 8DF,53.664951344956600,-2.174063043043340
Crow and jew lizard,1035018,HX2 9PZ,53.759053331557500,-1.881563487606900
soft-shelled turtle and sand lizard,623231,OL16 4HU,53.608618541159600,-2.108856785441460
wall lizard and Black jay,1035274,HX2 7LP,53.718038317076400,-1.898422527014150
terrapin and dukite,1035035,HX2 8DR,53.744410070746300,-1.889140322649770
horned viper and Logrunners,626361,OL12 8PE,53.660027064281200,-2.173210454360930
python and Tattler,1034240,HX3 5NR,53.739008156260500,-1.889033220698610
taipan and bushmaster,1031455,HX7 7DQ,53.743894128967300,-2.012865839715880
Pitohui and mamba,627971,OL11 2XH,53.584222105651400,-2.178096064859220
grass snake and cerastes,625091,OL14 7DE,53.720190529091700,-2.106720775036760
Dorcopsis and Fulmarine petrel,1035255,HX2 7JJ,53.715776121365200,-1.891351901239130
cobra and bearded dragon,1636969,BB11 2JZ,53.783355640000000,-2.252409016000000
Marmoset and thorn lizard,1623304,BD13 4EP,53.792885000000000,-1.890818496000000
Viscacha and blue tongue,1036563,HX1 3JL,53.714939951165500,-1.881550792547870
horned toad and boa,626068,OL13 0PD,53.690427743230600,-2.234846605216330
Grouse and alligator,629012,OL10 2LH,53.577963264139200,-2.207777054052630
Bunting and boa constrictor,624123,OL16 1LW,53.616536432241400,-2.157689000000000
Old World quail and Hawaiian honeycreeper,1033593,HX3 9AX,53.708596970743600,-1.851557227244730
slowworm and Zebra,1624115,BD13 2DB,53.762141840000000,-1.861592602000000
mountain devil and Ibex,1032613,HX6 2SR,53.714564617040300,-1.904127924437640
tuatara and Hawaiian honeycreeper,1561247,BL9 7SR,53.600432080000000,-2.259355123000000
glass snake and Crow,1035262,HX2 7JT,53.715086355978700,-1.893944652465480
Parrotbill and Argus,1036364,HX1 4HU,53.719318399483900,-1.892313000000000
Argus and tree snake,1034142,HX3 6NH,53.734642473853900,-1.865139022393070
black snake and flying dragon,1036466,HX1 2UA,53.724315209783800,-1.857382208773310
sea snake and flying lizard,1636327,BB11 4BP,53.786588630000000,-2.262035930000000
gaboon viper and Skunk,1032946,HX4 9ET,53.673660848941700,-1.875944547452490
Night heron and Armadillo,624020,OL16 2SB,53.635856344175400,-2.123748105425400
Thicketbird and Tahr,1637745,BB10 2AH,53.799891490000000,-2.226455230000000
Ibex and Vole,1623545,BD13 3NE,53.792070390000000,-1.852796345000000
Francolin and Pheasant,627645,OL11 3HD,53.598808547987300,-2.179124557684340
Marmoset and skink,623695,OL16 3AR,53.618776455988400,-2.125920302137550
Treepie and Coati,1032150,HX6 2US,53.713194068968100,-1.923070077275910
Partridge and Booted eagles,1036376,HX1 4JX,53.722491211929100,-1.882848070210620
Dolphin and Egret,626104,OL13 0RT,53.693530865172400,-2.224323526825190
brown snake and tuatara,1034941,HX2 9EN,53.754802304353200,-1.891403123270540
Shearwater and puff adder,1075886,HD7 4LZ,53.641507556423200,-1.857434298629620
Tree warbler and Black jay,1031312,HX7 8QL,53.759326940980600,-2.008866345084700
Komodo dragon and taipan,622266,OL2 7AF,53.575425901211600,-2.097445000000000
Zebra and Herring gull,626556,OL12 7QH,53.622892260502800,-2.199198723341680
moloch and Quetzal,1034197,HX3 6SE,53.744950520410100,-1.880966228861260
Pitohui and Herring gull,625885,OL13 8JY,53.694159722308000,-2.214695017053120
wall lizard and smooth snake,1636283,BB11 5NT,53.754684710000000,-2.260396338000000
B and copperhead,624292,OL15 9EB,53.647174323996500,-2.091831891776860
Quetzal and Philippine hawk-owl,1034700,HX3 5JG,53.735201845054900,-1.884207000000000
chuckwalla and copperhead,1752664,BB4 9DG,53.693057378764000,-2.252277175926830
Jay and garter snake,1035284,HX2 8TX,53.741189798919500,-1.896517000000000
tortoise and brown snake,1034415,HX3 6AR,53.731695660006100,-1.851006117813110
leguaan and rock snake,1782554,HX3 0NL,53.703168145199400,-1.863315941924180
Vulture and Philippine hawk-owl,623526,OL16 2SJ,53.637243954560200,-2.120394643853090
Solitaire and puff adder,623265,OL16 4LS,53.597631974893600,-2.101983706062670
Partridge and viper,625676,OL13 9JH,53.701812324822000,-2.196860347062870
Ibex and diamondback,2626846,HX2 9WA,53.761954000000000,-1.881467000000000
Hawaiian honeycreeper and blue tongue,626531,OL12 7PA,53.623776494810300,-2.191628165717320
brown snake and terrapin,1032452,HX6 2JW,53.714587287161100,-1.910203719806200
River dolphin and Tattler,625980,OL13 0DW,53.693088929429700,-2.210312934074820
Tit-tyrant and Kestrel,628712,OL10 3AT,53.587911780682300,-2.223566795437090
iguana and Mole,1036752,HX1 2HH,53.719431000000000,-1.871508000000000
cobra de capello and Peafowl,1078661,HD3 3YX,53.657149847701900,-1.876189630356390
elapid and sand viper,622591,OL2 6SZ,53.576057024861600,-2.124207343888510
constrictor and puff adder,1036067,HX1 4TN,53.724035430941300,-1.890542597292220
loggerhead and amethystine python,1636634,BB11 2RS,53.793037000000000,-2.239032045000000
blind snake and puff adder,1623691,BD13 2JP,53.769889850000000,-1.854284774000000
leguaan and snapping turtle,1031442,HX7 7BS,53.742590724412400,-2.014078377721380
milk snake and Scimitar babbler,622156,OL2 7XX,53.582386044008100,-2.093216555399690
Meadowlark and sidewinder,2616632,OL10 4AU,53.606589000000000,-2.213674000000000
elapid and bearded lizard,1623770,BD13 2QF,53.769839960000000,-1.850264463000000
taipan and alligator,625444,OL14 5AQ,53.714005956832500,-2.097083861275900
Magpie and Hawk,2591607,BB11 1EL,53.791916000000000,-2.240651000000000
Night heron and Grouse,624937,OL14 6LY,53.711856692243700,-2.098442467815160
gopher snake and puff adder,1636739,BB11 3LD,53.783042680000000,-2.238460003000000
dukite and bicycle lizard,1637026,BB10 4HL,53.787127290000000,-2.207292624000000
deaf adder and Masked owl,1036780,HX1 2LR,53.719714390486900,-1.858291806941870
Perching duck and Marmoset,625627,OL13 9DW,53.707779736903400,-2.197812000000000
pit viper and rattlesnake,621949,OL2 8PT,53.577018313738400,-2.095394578254870
Fox and gaboon viper,2626844,HX2 8TG,53.757222000000000,-1.906536000000000
Vulture and worm lizard,2299297,OL10 4TX,53.598951000000000,-2.228128000000000
rat snake and Kite,628343,OL10 4UH,53.599944365652300,-2.225020582417710
tokay and Chicken,1075769,HD7 5PX,53.618272331472100,-1.856862409712720
Viscacha and moloch,1034696,HX3 5JB,53.737416600745900,-1.888461000000000
python and Night heron,1037015,HX1 1PS,53.721889031649900,-1.857890496460010
harlequin snake and adder,1623478,BD13 3GD,53.791472460000000,-1.866354000000000
Black jay and Siskin,1032466,HX6 2LS,53.710894566746700,-1.912075060566920
Fox and Dolphin,1034482,HX3 6EE,53.731099994007900,-1.864089300106980
soft-shelled turtle and Mouse,1638017,BB10 1LL,53.799348760000000,-2.237520203000000
Rabbit and Greenbul,1800124,OL16 9JS,53.611534000000000,-2.148783000000000
Thicketbird and snake,626532,OL12 7PB,53.624621794367300,-2.191374968194210
Philippine hawk-owl and death adder,1036097,HX1 5DF,53.724749563611300,-1.868080000000000
Old World vulture and Viscacha,1032402,HX6 3PU,53.704360551795300,-1.912527934300140
bearded lizard and Kestrel,621832,OL2 8HP,53.580373399410400,-2.079815130985400
Jerboa and Dorcopsis,623580,OL16 4BQ,53.613207581796400,-2.122230650048010
Bronzewing pigeon and Songlark,1034911,HX3 0PF,53.706851531460000,-1.857532052587290
blind snake and dugite,1032391,HX6 3PF,53.701628396740500,-1.926271985299870
Scimitar babbler and tuatara,625290,OL14 6DW,53.725384615037100,-2.055174547398050
