name,postcode,lat,lon
Samosa chaat ,BB10 1QX,53.799757780000000,-2.239739156000000
The Thornton,BB10 3JS,53.787666100000000,-2.207568489000000
Burnley Football CLub,BB10 4BX,53.788469370000000,-2.230324841000000
Kettledrum Inn,BB10 4RG,53.771602460000000,-2.192680989000000
Towneley Garden Centre,BB10 4SD,53.783695000000000,-2.207016882000000
Ellis’s ,BB11 1AP,53.791445980000000,-2.243167804000000
Siam Thai Cafe,BB11 1BB,53.790319960000000,-2.244405967000000
Astoria (Burnley) Ltd,BB11 1DR,53.788971840000000,-2.244367766000000
Mr Greens Diner Ltd,BB11 1DW,53.788640620000000,-2.243713166000000
Brambles tearooms,BB11 1EP,53.788534000000000,-2.243758000000000
Illuminati,BB11 1NA,53.788835000000000,-2.245687000000000
Lancashire coffee ltd,BB11 1NH,53.789036480000000,-2.243382000000000
Quick Crepes Burnley,BB11 1NH,53.789036480000000,-2.243382000000000
RHODE ISLAND COFFEE LTD,BB11 1NH,53.789036480000000,-2.243382000000000
St James coffee House,BB11 1NL,53.789570230000000,-2.246223058000000
Starvin Marvin,BB11 1PP,53.789849140000000,-2.246088083000000
Costa Coffee,BB11 1QE,53.789424040000000,-2.242989132000000
McDonald's,BB11 1QL,53.789131000000000,-2.241819000000000
Salva Fast Food ,BB11 1QL,53.789131000000000,-2.241819000000000
Whats 4 Dessert,BB11 1RA,53.789769000000000,-2.254694000000000
Bannys Drive Thru,BB11 1TQ,53.786598650000000,-2.249377000000000
KFC BURNLEY 02032,BB11 1TQ,53.786598650000000,-2.249377000000000
Subway,BB11 1TQ,53.786598650000000,-2.249377000000000
The Bridge Bier Huis Ltd,BB11 1UH,53.790029730000000,-2.241262237000000
The Palazzo,BB11 2AS,53.787805980000000,-2.243101198000000
Ivy Joans Diner,BB11 2DB,53.789124240000000,-2.239967000000000
Aroma Asian Restaurant ,BB11 2DL,53.791337660000000,-2.239130000000000
Shimla spice,BB11 2DW,53.790819000000000,-2.238125000000000
star cafe ltd,BB11 2EQ,53.787910750000000,-2.240172415000000
Rosehill House Hotel Limited,BB11 2PW,53.780082670000000,-2.253041896000000
The Boathouse ,BB11 2RU,53.793121990000000,-2.236559002000000
Lahori Kebabish,BB11 3AB,53.787856250000000,-2.236332000000000
Towneley Golf Club,BB11 3ED,53.777104440000000,-2.232447638000000
Dine Experience Limited,BB11 3RF,53.768874030000000,-2.221584979000000
Cramptons Catering,BB11 3RW,53.771708700000000,-2.251686660000000
Chocstop dessert cafe ,BB11 4HU,53.785252000000000,-2.248732000000000
zil mil,BB11 4HU,53.785252000000000,-2.248732000000000
BALLERO,BB11 4SB,53.788893000000000,-2.260699000000000
New Waggonners ltd,BB11 5NS,53.762090000000000,-2.261275806000000
Holiday Inn Express Burnley M65 J10,BB12 0TJ,53.793899060000000,-2.256404087000000
The Old Library Waterfoot ,BB4 7AW,53.691951710000000,-2.250135032000000
The Hargreaves Arms Pub & Restaurant ,BB4 9PQ,53.719271160000000,-2.247948484000000
THE QUEENS HEAD,BD13 1NA,53.778123000000000,-1.868960000000000
Ring O Bells Inn Thornton,BD13 3QL,53.794663860000000,-1.864628141000000
WHITE HORSE INN,BD13 3SJ,53.792969200000000,-1.876899000000000
Emilys Eatery ,BD13 4EN,53.795449000000000,-1.893135000000000
The Church Inn,BL9 6UH,53.605986300000000,-2.260009000000000
IL CASTELLO LIMITED,BL9 7TB,53.601633700000000,-2.256491339000000
PINNACLE LIVING THE PAVILION LTD,BL9 7UJ,53.607593428063600,-2.249953407359530
The white swan,HD3 3YJ,53.658877000000000,-1.868346000000000
The Weavers Shed Restuarant,HD7 4AN,53.637993266281900,-1.850141095859620
The Golcar Lily Pub and Restaurant,HD7 4JR,53.635678139981200,-1.868751138157080
Bolster Moor Coffee Shop,HD7 4JU,53.635905386223400,-1.871094582378420
Scape house inn,HD7 4NJ,53.644216089234500,-1.867983485725690
The Haveli Restaurant LTD,HD7 4QA,53.639295439787700,-1.856579633030950
Destination ,HD7 5AB,53.623599146332300,-1.878389191121320
Om Is Where The Heart Is ,HD7 5AG,53.624183715986100,-1.878720139912990
Vanilla Bean ,HD7 5AN,53.622846249472800,-1.880599000000000
The Cookhouse Cafe,HD7 5AW,53.622947000000000,-1.881687636312220
ASHBY'S DELI CAFE LIMITED,HD7 5HF,53.621552474323300,-1.881025663567930
The Little Bridge,HD7 5HF,53.621552474323300,-1.881025663567930
Monsoon Tandoori,HD7 5HG,53.621543095645800,-1.880632611479400
Rose and crown ,HD7 5XA,53.618811883346200,-1.913475339818700
The New Inn,HD7 6EZ,53.600115958938700,-1.926237000000000
Pink Elephant ,HD9 4ES,53.591362774726800,-1.850547561680990
H Lounge,HD9 5NX,53.593071666402300,-1.851448036586260
Wills O Nats,HD9 5PS,53.605223000000000,-1.865097000000000
Blue Mountain Diner,HX1 1DD,53.721236000000000,-1.859393000000000
Cinnamon,HX1 1DJ,53.721468075848900,-1.859149713095680
Delicious Coffee Shop,HX1 1DJ,53.721468075848900,-1.859149713095680
La Luna cafebar diner ,HX1 1DJ,53.721468075848900,-1.859149713095680
THE GATE CAFE BAR,HX1 1DJ,53.721468075848900,-1.859149713095680
BROWNS CAFE,HX1 1DL,53.722116048521300,-1.859859811224420
Merrie England Coffee Shops Ltd,HX1 1DL,53.722116048521300,-1.859859811224420
Adams cafe halifax,HX1 1DZ,53.722447985824600,-1.859328299771450
Borough Kitchen,HX1 1DZ,53.722447985824600,-1.859328299771450
My Crepe,HX1 1DZ,53.722447985824600,-1.859328299771450
Top Door Espresso,HX1 1DZ,53.722447985824600,-1.859328299771450
KFC HALIFAX 02011,HX1 1HA,53.722083110541300,-1.862466484050560
Thai Corner 2 Ltd,HX1 1HX,53.723530515071700,-1.862749714642210
E.T. Harvey Ltd.,HX1 1LJ,53.721794901775700,-1.861952175184880
Alibi Halifax,HX1 1NH,53.721895000000000,-1.862467684077930
Deli indulge ,HX1 1NH,53.721895000000000,-1.862467684077930
Meandering Bear,HX1 1PR,53.721459000000000,-1.858150263163510
Romeo & Juliet,HX1 1PU,53.720865431782100,-1.858772872878860
Pride & Provenance,HX1 1QE,53.721223000000000,-1.856362000000000
Blondins Ice Cream Parlour,HX1 1RE,53.721881000000000,-1.857451000000000
The Deli,HX1 1RE,53.721881000000000,-1.857451000000000
The Trading Rooms,HX1 1RE,53.721881000000000,-1.857451000000000
COFFEE AT NO1,HX1 1RU,53.723417034686200,-1.857915664329500
Wool Merchant Hotel,HX1 1SP,53.725299702491200,-1.853893096447470
Little Lotus Halifax,HX1 1TH,53.723060446246900,-1.860023000000000
McDonald's Restaurant,HX1 1TN,53.723339000000000,-1.859689000000000
Subway,HX1 1TN,53.723339000000000,-1.859689000000000
Julio's Italian Restaurant Limited ,HX1 1TS,53.723734813469900,-1.860264000000000
Cafe Sol Diner Ltd,HX1 1TT,53.723204835308900,-1.860917037150900
Franganos (Halifax) ltd,HX1 1TT,53.723204835308900,-1.860917037150900
RICCI'S PLACE,HX1 1UG,53.723887873819300,-1.860869322347450
Jamocha Coffee Lounge ,HX1 1UR,53.724003502013900,-1.859823237450250
Kashmiri Aroma (Halifax) LLP,HX1 1YA,53.723916497682400,-1.862188000000000
Café Passion,HX1 2JF,53.719734092603000,-1.860080000000000
Sagra restaurant,HX1 2SB,53.721134000000000,-1.864818000000000
Whats 4 Dessert,HX1 3JL,53.714939951165500,-1.881550792547870
SHEESH MAHAL HFX LTD,HX1 3JP,53.715299294165300,-1.881367961333860
Pollino,HX1 3SU,53.715693000000000,-1.887383144893920
McDonald's Restaurant,HX1 4JT,53.723105633864600,-1.886210732575890
SPICY WAVES,HX1 4NJ,53.724817898057200,-1.881598873533220
La Tradizione Italian Pizzeria,HX1 5AB,53.721923103593800,-1.864027906368830
delhi wala food,HX1 5AB,53.721923103593800,-1.864027906368830
PAX,HX1 5AE,53.722085709988600,-1.864754795963040
Thai Style Restaurant,HX1 5DT,53.723234928430100,-1.863644811584290
Long Can Hall Halifax Ltd,HX2 0TQ,53.736296460424700,-1.902502022335570
The Secret Cafe,HX2 6EQ,53.713069000000000,-1.938161000000000
Wainhouse Tavern,HX2 7DR,53.712707000000000,-1.885738237604470
Maypole Inn,HX2 7RZ,53.720000896125700,-1.914010950624110
The Winterburn ,HX2 7SQ,53.719025490697400,-1.920240953300560
The Crossroads Inn,HX2 7TB,53.747658822060300,-1.930513346482230
Airtime Halifax,HX2 8DB,53.742385000000000,-1.885537000000000
Mags Cafe,HX2 8DB,53.742385000000000,-1.885537000000000
MUNCHIES,HX2 8EF,53.748512905533400,-1.893891026130180
The Moorlands Inn,HX2 8XD,53.769451074393800,-1.899800760647590
Ivy House Inn,HX2 9BB,53.751857347056500,-1.876048404416960
HOLDSWORTH HOUSE HOTEL,HX2 9TG,53.757745000000000,-1.875317212476140
Gower Furniture Staff Canteen ,HX2 9TN,53.758272000000000,-1.872177000000000
McDonald's Restaurant,HX3 0QE,53.703153000000000,-1.853197000000000
The Murgatroyd Arms,HX3 0RX,53.702526474674300,-1.863741924974660
B K RESTAURANT (YORKSHIRE) LTD,HX3 5AX,53.728243000000000,-1.863977000000000
Next Level Bar Ltd,HX3 5AX,53.728243000000000,-1.863977000000000
Stod Fold Tap,HX3 5AX,53.728243000000000,-1.863977000000000
TRUE NORTH RESTAURANT,HX3 5AX,53.728243000000000,-1.863977000000000
Thai Corner Dean Clough,HX3 5AX,53.728243000000000,-1.863977000000000
the mill bar and kitchen,HX3 5AX,53.728243000000000,-1.863977000000000
KFC HALEY HILL 02030,HX3 6AD,53.727766327589200,-1.857128048156690
The Prospect Pub & Dining,HX3 6JR,53.732136501063500,-1.858795802447670
Five Food ,HX3 6SN,53.752602000000000,-1.873619376626770
Shears inn,HX3 9EZ,53.713256163232200,-1.854298385543930
The Griffin Inn,HX4 0AQ,53.675851461039100,-1.914236850401760
The Fleece Countryside Inn,HX4 0DJ,53.677839308839300,-1.930415929901960
Taquitos,HX4 8AB,53.687040000000000,-1.855206000000000
Cafe Thai,HX4 8AD,53.686931537607800,-1.855585313756020
Catch West Vale Limited,HX4 8AD,53.686931537607800,-1.855585313756020
Cinnamon At The Mill ,HX4 8AD,53.686931537607800,-1.855585313756020
Cafe Italia,HX4 8BD,53.685740000000000,-1.857633000000000
Viaduct,HX4 8BD,53.685740000000000,-1.857633000000000
The Sportsmans Inn,HX4 8PL,53.689107912730300,-1.890799553744730
The Spring Rock Inn,HX4 8PT,53.687560685788000,-1.899646495840660
1885 the Pub,HX4 9HF,53.672120802856000,-1.881806887853310
The New Inn,HX4 9LB,53.658965000000000,-1.883629000000000
Syhiba Restaurant ,HX6 2AF,53.709793173262600,-1.905684043732580
Village restaurant ,HX6 2AF,53.709793173262600,-1.905684043732580
the larder delicatessen,HX6 2AF,53.709793173262600,-1.905684043732580
F S Halifax trading as Temujin Restaurant,HX6 2AG,53.709746901029000,-1.904002497065640
Gabriels Coffee Lounge,HX6 2AG,53.709746901029000,-1.904002497065640
THE MOORINGS,HX6 2AG,53.709746901029000,-1.904002497065640
Kipplings Indian Restaurent ,HX6 2EA,53.708467184183200,-1.911262031054950
The Olive Branch ,HX6 2EA,53.708467184183200,-1.911262031054950
Wharf Cafe Bar at Sowerby Bridge LTD,HX6 2LA,53.709417829749800,-1.908472458787960
KUJA LIMITED,HX6 2QD,53.708342040956500,-1.912201562165860
The Willow Tree Cafe,HX6 3AH,53.707245848178400,-1.912688608480600
Del Taverns and Estates,HX6 3LF,53.709195302856400,-1.899928452747950
New Hobbit,HX6 3QL,53.700235457924500,-1.913006000000000
The Moorcock Inn,HX6 3RP,53.693157567677900,-1.919971668794300
Stanley's Kitchen,HX6 4BG,53.674708475423300,-1.941608000000000
The Lion Pub and Grill,HX6 4BQ,53.674889000000000,-1.941395000000000
Old Bridge Inn Ltd.,HX6 4DF,53.674366101041000,-1.940079228389980
the larder delicatessen,HX6 4EB,53.669965461900200,-1.947698712290190
Cinnamon Lounge ,HX6 4EW,53.665266000000000,-1.949021000000000
Just Scrumptious,HX6 4EW,53.665266000000000,-1.949021000000000
The Alma Inn,HX6 4NS,53.689663007374400,-1.959485798728560
Beehive inn,HX6 4NX,53.673644000000000,-1.951554000000000
Booth Wood Inn,HX6 4QU,53.648682053146500,-1.949025936131480
Shoulder of mutton ,HX7 5DZ,53.729604000000000,-1.982683497774560
Aux Delices,HX7 5LH,53.730833997212200,-1.982652727956650
The Blue Teapot,HX7 5LL,53.730761955103100,-1.981712989248890
Kitchen (West Yorkshire) ,HX7 5LN,53.730204264642600,-1.979045534803390
The hinchliffe arms,HX7 5TA,53.703241745174400,-2.003825180899950
Kitties Restaurant,HX7 6AA,53.741358966132500,-2.017079907622680
Mooch Cafe Bar,HX7 6AA,53.741358966132500,-2.017079907622680
Chapter 17 ,HX7 6EU,53.741224304650400,-2.015942753821900
The Coffee station ,HX7 6JE,53.737710737846700,-2.008543000000000
The Stubbing Wharf,HX7 6LU,53.740772716752900,-2.027783437523690
The Town Hall Cafe Ltd,HX7 7BY,53.742511000000000,-2.013199000000000
La Perla,HX7 7DD,53.743750333591500,-2.012744497130330
Rim Nam Thai Restaurant,HX7 8AF,53.740272013680200,-2.012258272088430
Cinnamon at the bridge Ltd,HX7 8AH,53.741260782527400,-2.011424693145170
Leila's Kitchen,HX7 8AH,53.741260782527400,-2.011424693145170
Lhamo's Taste of the East Ltd,HX7 8AH,53.741260782527400,-2.011424693145170
Squeeze Sandwiches & Smoothies,HX7 8EH,53.741629148085200,-2.012819649403280
Il Mulino Italian Restaurant ,HX7 8ET,53.742123550227200,-2.012258822457960
Little H Cafe,HX7 8ET,53.742123550227200,-2.012258822457960
Mijo,HX7 8ET,53.742123550227200,-2.012258822457960
Square One Coffee Co.,HX7 8ET,53.742123550227200,-2.012258822457960
AyaSophia,HX7 8EX,53.741638095857500,-2.013183527229980
Shoulder of Mutton,HX7 8EX,53.741638095857500,-2.013183527229980
The AP Hotel Company Limited T/A The White Lion Hotel,HX7 8EX,53.741638095857500,-2.013183527229980
Watergate Tea Rooms,HX7 8EX,53.741638095857500,-2.013183527229980
Old Gate Bar & Restaurant,HX7 8JP,53.741584010510400,-2.014517716761930
Robinhoodinn ,HX7 8QR,53.762221330907900,-2.004574181652970
Hare and Hounds Inn,HX7 8TN,53.745496000000000,-1.997597000000000
Olive branch,HX7 8UQ,53.741044744785300,-2.014229000000000
The Black Ladd,OL1 4ST,53.577434749447400,-2.064057510106850
THE BIRD AT BIRTLE,OL10 4BQ,53.604980936225800,-2.232769876772870
Bella Sera,OL10 4DX,53.593345158770500,-2.211236874746620
Naga naga chilli,OL10 4NN,53.593621232559600,-2.217674454316130
SUBWAY,OL10 4PN,53.594679159442900,-2.223995390234310
Possabilities Social Lounge,OL10 4SY,53.596063748932500,-2.233189194056790
Le Latte ,OL11 1DN,53.611660498201500,-2.154254589065730
Chaiiwala Rochdale,OL11 1EB,53.610353883521700,-2.156804154380030
Cuckoos Cafe & Grill,OL11 1EB,53.610353883521700,-2.156804154380030
Jungle Grill,OL11 1EF,53.611923258233500,-2.159682000000000
Shish cafe ,OL11 1HH,53.610001000000000,-2.158252000000000
McDonalds Sandbrook Park,OL11 1RY,53.602382000000000,-2.163393000000000
SUBWAY SANDBROOK PARK,OL11 1RY,53.602382000000000,-2.163393000000000
Coco’s Grill House & Desserts,OL11 1TU,53.601077492139000,-2.157192851396890
LA Scala (pvt) Ltd,OL11 2AL,53.597910421570100,-2.145531289987130
Blue diamond chinese restaurant,OL11 2ER,53.602843886209700,-2.146424758371760
meraki scents,OL11 2JG,53.593986991658100,-2.156244866346230
Norton Grange Hotel & Spa,OL11 2XZ,53.580515642181500,-2.174229001702000
FLIP OUT ROCHDALE,OL11 3EX,53.597910000000000,-2.173636000000000
The Royal Toby Hotel,OL11 3HF,53.598357547159800,-2.180180356421450
THE PLOUGH,OL11 3LW,53.602462752606800,-2.187602535729230
The Hare and Hounds,OL11 4AA,53.607300771399300,-2.207921208620570
The Elephant & Castle,OL11 4AU,53.610636717308800,-2.196919000000000
Suburb cafe,OL11 4DQ,53.612645308053000,-2.188327917460780
Sweet coffee ,OL11 5AQ,53.622280160058400,-2.188673236551470
The Grapes,OL11 5PN,53.613079000000000,-2.209038000000000
La Dolce Vita,OL11 5QY,53.614744033950500,-2.207217000000000
TREE & TOAD LTD,OL12 0NU,53.619535269328200,-2.160269950326210
Ruchi Indian Restaurant ,OL12 0RD,53.624646162373900,-2.156055879494500
THE OXFORD(ROCHDALE)LTD,OL12 0TB,53.636780695138000,-2.168956012004200
Pepe's Piri Piri Rochdale,OL12 0UW,53.622295496744900,-2.152615000000000
The Healey ,OL12 6LW,53.631148045039000,-2.173167591138970
Eastern Restaurant & Takeaway,OL12 6PE,53.619099495045600,-2.163473214500380
Subway Aldi Rochdale,OL12 6XD,53.614689840256900,-2.167386302710920
NUTTERS RESTAURANT,OL12 7TT,53.631909883440200,-2.232691396975820
Owd Betts,OL12 7TY,53.640637302873400,-2.258996930761450
Basils Restaurant Whitworth,OL12 8PW,53.654925570755800,-2.176760274246640
Samson Beer Company Limited,OL12 8PY,53.655398595157300,-2.173010000000000
Nibbles Café,OL12 8QS,53.661221408081700,-2.173956856168540
Ashoka Restaurant,OL12 8QW,53.660321912550700,-2.173953000000000
Nok ThaiCuisine ,OL12 8RU,53.644852453350400,-2.180998958474570
Marios of Bacup Ltd,OL13 0AT,53.700313688255400,-2.200836908669640
Lucy Lous Cafe,OL13 0DH,53.693216514943700,-2.209435000000000
Rose 'n' Bowl,OL13 0UG,53.692150380662700,-2.222347497626980
Dolce & Gelato,OL13 8AB,53.704176097740800,-2.202309532358460
The street food kitchen,OL13 8EX,53.702956000000000,-2.201393869352350
Anna's Cafe-Bar,OL13 8QE,53.723875965167600,-2.198160769165890
Zee Desserts,OL13 9NH,53.703190371096600,-2.200547669355680
1832 Barista,OL13 9NJ,53.702741932264400,-2.199969929413970
The Old Boot Cafe & Wine Bar,OL13 9NJ,53.702741932264400,-2.199969929413970
The Boardroom,OL14 5AA,53.713142372501900,-2.097975789528770
The Honest John Bar & Coffee Tavern,OL14 5AA,53.713142372501900,-2.097975789528770
The Cafe,OL14 5AB,53.712998836187100,-2.097778000000000
Exchange Coffee Company Todmorden,OL14 5AJ,53.713988336860500,-2.096644426430810
The little bird cafe,OL14 5BB,53.714161558259700,-2.093569052783420
The Copper Tree,OL14 5EY,53.716837000000000,-2.098242000000000
The Top Brink Inn Ltd,OL14 6JB,53.708453613212500,-2.067696100897350
The Shepherds Rest Inn,OL14 6JJ,53.705045324411500,-2.084611269322230
Site Restaurant Ltd,OL14 6LD,53.711756970317100,-2.099472483460040
THE THREE LADY CHEFS LTD,OL14 6LZ,53.712189050981400,-2.098685659802340
The White Rabbit,OL14 7BD,53.714139961278600,-2.097842000000000
Bombay lounge lydgate limited,OL14 7DH,53.725914204208400,-2.118117317941340
Glen view inn,OL14 7EW,53.731378641366100,-2.150418742539880
The Vedas,OL14 7LD,53.712251515822600,-2.099231238747430
Tea Rooms at Gordon Rigg Nurseries,OL14 7TJ,53.689690000000000,-2.101858011326430
Border Rose Inn,OL14 7UA,53.687903000000000,-2.100415000000000
Hare and Hounds ,OL14 8EA,53.721976893786500,-2.109225784003580
staff of life inn,OL14 8JF,53.727377586715700,-2.128458052340170
The waterside restaurant,OL15 0AY,53.641787547357600,-2.095465435207810
The Wine Press,OL15 0AZ,53.634614137121600,-2.096492687926250
Lake lounge,OL15 0DQ,53.631525950970300,-2.102761238626940
Riva Italian Limited,OL15 0DQ,53.631525950970300,-2.102761238626940
The Olive & Pickle,OL15 0DQ,53.631525950970300,-2.102761238626940
The Moorcock Inn,OL15 0LD,53.651348630404900,-2.073368411221410
The White House,OL15 0LG,53.656367335522600,-2.049515805693680
Back2Work Kitchen Downstairs,OL15 8AU,53.643655178363600,-2.097829367636400
Back2Work Kitchen,OL15 8AU,53.643655178363600,-2.097829367636400
Autumn Holdings Limited ,OL15 8NL,53.639135075173900,-2.116770114866340
Rebecca's coffee shop,OL15 9AB,53.644150611191100,-2.096499386910310
The Cherry tree cafe ,OL15 9AE,53.644151631324900,-2.095228764832090
The Hairy Bear Beer Co Limited,OL15 9HL,53.648434700380300,-2.100472733889190
LITTLEBOROUGH CRICKET CLUB,OL15 9LD,53.649199681555600,-2.098901000000000
Waterfall Tea Rooms,OL15 9LZ,53.669515962792000,-2.083616584350170
The Summit Inn,OL15 9QX,53.664582156566100,-2.082623090472660
Cuppaccino Littleborough Ltd,OL15 9RP,53.647415446300000,-2.099260343900000
The Medicine Tap,OL16 1AE,53.616561430861800,-2.158898000000000
Bean,OL16 1BE,53.617700000000000,-2.154411000000000
Heavenly Desserts Rochdale,OL16 1BE,53.617700000000000,-2.154411000000000
Pudding Paradise,OL16 1DR,53.619568977788000,-2.155009000000000
La Mancha ,OL16 1ES,53.617336621093100,-2.157661501530110
Subway,OL16 1JG,53.617507416733900,-2.157647021988880
Vicolos Ltd,OL16 1JG,53.617507416733900,-2.157647021988880
Knockout Kitchen Ltd,OL16 1JJ,53.617687100831300,-2.157890000000000
Russells of Rochdale,OL16 1JZ,53.618480777307600,-2.155640051787230
Gumboo Hotels Limited,OL16 1NJ,53.615808986479900,-2.157383706095720
Funkie Fusion Limited,OL16 1RE,53.616673657259300,-2.156011310586490
the castle cafe,OL16 1SR,53.615628580701300,-2.150913260333660
PLAYERS ROCHDALE,OL16 1UA,53.614628237581900,-2.152995686001900
Sahara Rochdale,OL16 2DR,53.621797945492600,-2.148168618756020
indialicious caterers limited,OL16 2US,53.621663073186800,-2.132777000000000
Bellavista,OL16 3JW,53.614730545291100,-2.108857428445290
Haydens Kitchen at The Gallows,OL16 3JW,53.614730545291100,-2.108857428445290
The Waggon inn,OL16 3PE,53.607130596119300,-2.104258521710570
Char,OL16 3QF,53.600377410392300,-2.097169977958680
the cedar tree,OL16 3RF,53.601239000000000,-2.087954000000000
The Milnrow Balti Restaurant ,OL16 4HS,53.610422479049400,-2.111778520346370
Bank chambers ,OL16 4LU,53.599846931700300,-2.097380306384790
The Fair View Inn,OL16 4QQ,53.590401498172100,-2.125004856445890
Bistro at Gordon Rigg Nurseries,OL16 4UX,53.605468937767400,-2.138484593131820
McDonalds Kingsway Retail Park,OL16 5AF,53.615054000000000,-2.128266461768980
Khans original ,OL16 5DN,53.613680944274000,-2.141262552574530
Asda CDC,OL16 5EB,53.609720000000000,-2.139994380115200
the halfway house ( nw ) ltd,OL2 5RY,53.576444481128000,-2.131699226825790
Turks Head (2014) Ltd,OL2 6UP,53.583536336016500,-2.131615580703220
THE PUCKERSLEY INN ,OL2 6YD,53.581674942185800,-2.123982179928290
THE NORTH  STAR,OL2 7PR,53.584969406426700,-2.109958975525440
Bengal brasserie,OL2 8AP,53.578413298214900,-2.093117173450060
The Morning Star,OL2 8HZ,53.577907042930100,-2.084975635813170
Naughty but nice,OL2 8NH,53.577028452416800,-2.093944760040990
Donnelly's,OL2 8NR,53.576965902203100,-2.093476443830400
Junction Inn,OL3 5SE,53.593120424246800,-2.041162121607730
The Printers Arms,OL3 5SN,53.589596507826000,-2.042624053039450
THE RAMS HEAD INN,OL3 5UN,53.599341810534500,-2.036544405918330
