name,id,postcode,lat,lon
frilled lizard and Flameback,623600,OL16 4DR,53.612619479136700,-2.117120006097300
Flameback and gavial,626156,OL12 9HR,53.637774968431900,-2.136458064664720
garter snake and sea snake,1036364,HX1 4HU,53.719318399483900,-1.892313000000000
Mamo and Zebra,623811,OL16 3LB,53.610990699209100,-2.109663976384640
Philippine hawk-owl and chameleon,1035100,HX2 9RZ,53.760765751336100,-1.886427723144150
brown snake and pit viper,1752426,BB11 3LA,53.781965936659100,-2.235312722769690
Coati and deaf adder,1623479,BD13 3GF,53.791656000000000,-1.866581000000000
Linsang and snake,623107,OL16 5NE,53.611708603506900,-2.144535888723250
agamid and Kite,1623292,BD13 4DW,53.799237660000000,-1.900306881000000
green turtle and worm lizard,623251,OL16 4JZ,53.600132835846600,-2.099466249400360
Warbler and perentie,1032082,HX6 4ET,53.666938414639000,-1.952424448031980
Warbler and gavial,626446,OL12 8UB,53.652556018300400,-2.180547854148900
Egret and Darwin's finches,1034673,HX3 5EJ,53.733507237535200,-1.879467474394580
horned toad and Linsang,1035270,HX2 7LD,53.717200667117900,-1.896363775722700
Booted eagles and asp,1075753,HD7 5PA,53.621869476714100,-1.858422588699870
Vulture and grass snake,621871,OL2 8LP,53.584517506327600,-2.079052599519110
green turtle and tokay,1078739,HD3 3FF,53.655955821142200,-1.877554885423170
Prion and chameleon,1036209,HX1 5RR,53.726764045208900,-1.877349705113380
thorn lizard and soft-shelled turtle,1073773,HD9 5PN,53.597197027267900,-1.858671142658750
Goose and Asiatic leopard,1636499,BB11 4LG,53.785351000000000,-2.257232000000000
B and Marmoset,623809,OL16 3JY,53.610642137746100,-2.107486582452220
Old World warbler and Eagle,622008,OL2 8TP,53.583924190294900,-2.079187433484270
constrictor and habu,629160,OL10 1BH,53.590448259646800,-2.217733664901240
soft-shelled turtle and coral snake,1637228,BB10 3FB,53.793169260000000,-2.226039477000000
lizard and Old World quail,622080,OL2 7TQ,53.580749013132800,-2.094693119905120
mountain devil and Bunting,1075792,HD7 5RG,53.628927000000000,-1.851776000000000
brown snake and diamond python,1075863,HD7 4JG,53.638083208483800,-1.857566817926870
goanna and galliwasp,624975,OL14 6QD,53.698002773954300,-2.102317665295760
Pratincole and Darwin's finches,1034609,HX3 5BU,53.730731336269800,-1.872139144671070
constrictor and water snake,1800026,OL12 8AB,53.662090872600000,-2.172507942900000
tiger snake and Booted eagles,1637143,BB10 4SN,53.765309550000000,-2.204302709000000
Cloud rat and Quetzal,1623940,BD13 1NF,53.773377260000000,-1.861950210000000
whip snake and snapping turtle,1034470,HX3 6DN,53.729855102612100,-1.860289000000000
Mole and tree snake,1033408,HX4 0AB,53.678434605109100,-1.895974273967580
Scimitar babbler and Moluccan boobook,1636548,BB11 4QY,53.775943590000000,-2.259389997000000
Old World warbler and king cobra,1031561,HX7 7NN,53.750184626013000,-2.020768524794300
blue tongue and Pratincole,622028,OL2 7QY,53.584875500598400,-2.104430187634380
carpet snake and flying dragon,627942,OL11 2TR,53.587227754088800,-2.175691733389170
cycling lizard and Grosbeak,627316,OL12 0RX,53.624051475922300,-2.157172510572660
Solitaire and rock python,1075686,HD7 5JP,53.623788281315900,-1.854515423975830
Stint and flying dragon,1032023,HX7 5QT,53.735561000000000,-1.974828530821950
smooth snake and racer,627667,OL11 3JJ,53.595315352670600,-2.182917240791240
Greenbul and cobra de capello,1032505,HX6 2PU,53.712283249679500,-1.906163319033630
adder and tree snake,1033620,HX4 8AP,53.689747558598500,-1.857877404989330
Pitohui and Prion,1780309,HD7 4DW,53.643889561884800,-1.869830143795800
Kākāriki and bull snake,1631490,BB4 9BB,53.694567700000000,-2.249923387000000
Tattler and cobra de capello,1075668,HD7 5HQ,53.620941964139100,-1.881874000000000
Wader and Minke whale,1035906,HX2 6DH,53.730055102855500,-1.958371060050660
Tattler and Towhee,1637329,BB10 3PU,53.789071600000000,-2.189254884000000
copperhead and Tattler,1034486,HX3 6EJ,53.730475000000000,-1.866865000000000
Peafowl and Cloud rat,1636979,BB11 2LN,53.781445800000000,-2.245871928000000
Fish eagle and Old World vulture,627365,OL11 5RE,53.615467122852600,-2.199707909187720
Ibex and Grouse,623429,OL16 3PH,53.606805717224700,-2.105738806710880
boa constrictor and rock snake,1032442,HX6 2JF,53.713942141836700,-1.912917209123130
Mole and Buzzard,1636563,BB11 4SD,53.787258080000000,-2.251628032000000
frilled lizard and pit viper,1032229,HX6 3BN,53.707102510353200,-1.913340313375500
Chickadee and python,626400,OL12 8RL,53.647526112720900,-2.178226926173750
amethystine python and Warbler,1036413,HX1 4PQ,53.727854444233600,-1.880165649685820
Tattler and Hawk,1032563,HX6 1BA,53.706527276048700,-1.926869406217000
loggerhead and Kite,1075839,HD7 4ER,53.629506610731300,-1.856023037694020
Puffleg and rock snake,623693,OL16 3AP,53.603567183591300,-2.086886062693790
sidewinder and Peafowl,628419,OL11 1HW,53.610927595671400,-2.157970108766470
puff adder and whip snake,626275,OL12 9RH,53.631223030542900,-2.143725622170080
cerastes and Petrel,2653543,HX1 9WA,53.724349000000000,-1.857460000000000
blind snake and boa constrictor,1637260,BB10 3JS,53.787666100000000,-2.207568489000000
massasauga and habu,627434,OL11 4DT,53.611196753448100,-2.189243460813620
Meadowlark and crocodile,1034220,HX3 6TY,53.740926878636500,-1.866710870535000
Solitaire and lizard,1036351,HX1 4HB,53.719343638707900,-1.890524443245640
Tit-tyrant and Chicken,628485,OL10 3RG,53.590945365953700,-2.239778069744670
Stilt and frill-necked lizard,1636455,BB11 4ES,53.777852400000000,-2.261648000000000
Thrasher and leguaan,624582,OL14 8PJ,53.731747569210100,-2.150086587604490
garter snake and Coati,1636705,BB11 3EL,53.783086750000000,-2.229703449000000
amethystine python and hoop snake,1034887,HX3 0LU,53.704226504805200,-1.864872545650870
puff adder and Dolphin,626181,OL12 9LP,53.646626394798900,-2.130148323475480
Minke whale and agama,627877,OL11 2RB,53.594746072340900,-2.159964446141050
diamond snake and loggerhead,622069,OL2 7SZ,53.581116000000000,-2.097488506621630
Booted eagles and White ibis,628799,OL10 3HR,53.592896474864600,-2.234924286860380
coral snake and diamondback,626100,OL13 0RP,53.692623441512400,-2.224121826958380
Mamo and tree snake,624592,OL15 8LL,53.643083759554700,-2.113801203795510
loggerhead and bearded dragon,625811,OL13 8DS,53.708040903053000,-2.202358393948800
Francolin and Fish eagle,2626570,HD7 5ZB,53.620850000000000,-1.856839000000000
wall lizard and Tit-tyrant,623489,OL16 3TG,53.602733060721900,-2.070563734384840
swift and Skunk,1782530,HX2 0SW,53.737604000000000,-1.906289000000000
Parakeet and Moluccan boobook,1035196,HX2 8RW,53.751456341707500,-1.910261829277540
Vole and jew lizard,1624124,BD13 2DP,53.761833660000000,-1.859363808000000
tuatara and sea snake,1032569,HX6 1BJ,53.705687893610600,-1.921341639775000
anole and anaconda,626336,OL12 8LH,53.668344534580300,-2.170838123864130
cerastes and bull snake,623297,OL16 4PW,53.600207642506300,-2.141187293506870
goanna and dukite,628276,OL10 4RD,53.593448576978900,-2.237541105562650
Solitaire and tuatara,625093,OL14 7DG,53.720861429015800,-2.110253358478640
constrictor and Dolphin,1035991,HX2 0DT,53.726331413996700,-1.895053125351960
flying dragon and amethystine python,1636799,BB11 3RR,53.770753000000000,-2.240378000000000
Vulture and Parrotlet,1780314,HD7 5NB,53.624106977522400,-1.862210283552470
agamid and tree snake,1800031,OL12 8ES,53.656782000000000,-2.180233000000000
skink and diamondback,1032588,HX6 2RJ,53.712764196022600,-1.925540484975640
blindworm and Tahr,623352,OL16 4RU,53.592657651677500,-2.141056320720590
Masked owl and tree snake,627890,OL11 2RX,53.592675000000000,-2.156767665010350
Macaw and tokay,1035099,HX2 9RY,53.761279307030600,-1.887746003918650
ringhals and American sparrow,622316,OL2 8EX,53.580061000000000,-2.091051977754460
bicycle lizard and loggerhead,1623965,BD13 1PN,53.771506170000000,-1.853035064000000
hoop snake and sea snake,1035113,HX2 9SR,53.755012264736600,-1.885214738930350
glass snake and mountain devil,627024,OL12 6LX,53.629475214100800,-2.173871430468430
Darwin's finches and fer-de-lance,626406,OL12 8RW,53.640283000000000,-2.178257000000000
Pratincole and Partridge,1035625,HX2 0LB,53.725951626494500,-1.903026031975190
Rat and krait,1036281,HX1 3XL,53.718478540462400,-1.879162000000000
chameleon and Badger,1034374,HX3 5SG,53.739523869555800,-1.883134349971180
iguana and gaboon viper,624927,OL14 6LL,53.711470329817500,-2.098290057282680
blindworm and jew lizard,1033161,HX4 8DW,53.685261239320600,-1.856832597834450
turtle and leguaan,623664,OL16 2XZ,53.618118663558600,-2.135638686465580
snake and Condor,627094,OL12 6NW,53.631570786491200,-2.166636622989070
rock snake and boomslang,1031653,HX7 5TQ,53.702603658983200,-1.999280890961250
Macaw and Thicketbird,1035392,HX2 7SP,53.724746686172900,-1.927807856875020
Parrotbill and thorny devil,1034903,HX3 0NS,53.708731540602600,-1.858798283404250
diamondback and dugite,624696,OL15 0AX,53.624799605604200,-2.083800048012960
Lemming and flying lizard,627845,OL11 2NW,53.597687179356300,-2.165143156830600
perentie and puff adder,628853,OL10 1PB,53.591104200763300,-2.212857300515780
boa and Darwin's finches,1033031,HX4 9LP,53.663853000000000,-1.881951000000000
Hawaiian honeycreeper and Jackal,623659,OL16 2XT,53.620674808042100,-2.132532569638340
harlequin snake and lizard,622152,OL2 7XR,53.582845673027900,-2.102673039918440
flying lizard and Marmoset,1036984,HX1 1EB,53.718625340877900,-1.873024366659190
mud turtle and cobra de capello,1561026,BL9 7HY,53.590908000000000,-2.262379000000000
Guillemot and bushmaster,623347,OL16 4RP,53.599665000000000,-2.137589000000000
kabaragoya and Goose,629018,OL10 2LU,53.580768000000000,-2.208183000000000
anole and Dorcopsis,625702,OL13 9LW,53.704259035207400,-2.190100603931930
Recurvebill and king snake,626022,OL13 0LE,53.690721911442500,-2.232122000000000
Old World quail and mountain devil,625828,OL12 9UJ,53.639607425155200,-2.129400679926120
Wader and Tree warbler,627060,OL12 0AR,53.631498892092400,-2.153192910939340
adder and Prion,1800079,OL15 0WY,53.611534000000000,-2.148783000000000
Goose and Hawaiian honeycreeper,1032655,HX6 1HB,53.703990000000000,-1.936069000000000
Vole and Dolphin,624020,OL16 2SB,53.635856344175400,-2.123748105425400
amethystine python and Civet,1032198,HX6 4NP,53.686527000000000,-1.960140000000000
Siskin and Elephant,624977,OL14 6QF,53.697085494272100,-2.102890962339000
Magpie and Linsang,1636739,BB11 3LD,53.783042680000000,-2.238460003000000
rock python and viper,622299,OL2 7DH,53.580502544563200,-2.109615073241920
Old World vulture and Francolin,1034513,HX3 6JB,53.736158059003900,-1.862147758902250
boa and Parrotbill,622162,OL2 7YF,53.585587586143400,-2.102105690547120
adder and turtle,1076002,HD7 5AB,53.623599146332300,-1.878389191121320
Chipmunk and puff adder,623457,OL16 3RG,53.601671299811600,-2.086005704967910
dugite and skink,622144,OL2 7XF,53.584251356490400,-2.098507451204460
Duck and Marsh harrier,624869,OL14 8AJ,53.718719109050100,-2.080411046356140
Parakeet and skink,1636404,BB11 9SE,53.787596100000000,-2.244648146000000
River dolphin and sand viper,1895186,BB11 1EU,53.790297000000000,-2.245666000000000
gaboon viper and dukite,625090,OL14 7DD,53.720404934842600,-2.108176086896020
Mole and mamba,1031674,HX7 6AL,53.741718699551400,-2.015548745300240
Wallaby and green turtle,624407,OL15 9LN,53.651617420568900,-2.109663716699890
Elephant and smooth snake,624031,OL15 9QT,53.662945829586300,-2.083316007488570
Egret and skink,626279,OL12 9RQ,53.634234780230800,-2.135433382025930
Buzzard and Skunk,1036457,HX1 2TL,53.720813913156300,-1.868820135453250
Kite and smooth snake,1631486,BB4 9AU,53.695601010000000,-2.250080964000000
Solitaire and River dolphin,628965,OL10 2EP,53.587090696091600,-2.205284047467110
puff adder and Songlark,628487,OL10 3RL,53.590080222002500,-2.236404262008650
slowworm and Prion,1637011,BB11 2PQ,53.777493510000000,-2.253329794000000
turtle and snake,1075539,HD7 5DF,53.627220666939500,-1.877668142001770
Fish eagle and Logrunners,1034643,HX2 9UU,53.763919339922400,-1.885160165297490
Night heron and tree snake,1034710,HX3 5JU,53.736513086504900,-1.893011598375860
smooth snake and Diving bird,1032152,HX6 2ZR,53.708726322258700,-1.909231436803550
alligator and Parakeet,1035089,HX2 9RL,53.756775979666200,-1.887393977707370
American sparrow and Civet,1631476,BB4 9AF,53.693131730000000,-2.253185993000000
krait and Rabbit,1031265,HX7 8JR,53.746365733856200,-2.013791563061470
Parakeet and asp,1033231,HX4 8JX,53.690833828915200,-1.872744390231100
Asiatic leopard and Grackle,1034234,HX3 5NH,53.736287721371700,-1.882673360677140
gavial and bushmaster,627924,OL11 4DF,53.612265619167400,-2.183957961692700
Piping shrike and bandy-bandy,1800061,OL13 9AZ,53.703432633100000,-2.198125447200000
Marsh harrier and White ibis,1033290,HX4 8QL,53.688601000000000,-1.867951000000000
tuatara and Peafowl,1631866,BB4 7JB,53.692506000000000,-2.260209000000000
caiman and Jerboa,627861,OL11 2PX,53.598130000000000,-2.170675000000000
box turtle and Egret,2588693,HX1 9TF,53.724349000000000,-1.857460000000000
adder and Guillemot,628268,OL10 4QR,53.593787462248700,-2.234340002418520
Thrasher and harlequin snake,1034488,HX3 6EN,53.729953437629700,-1.867594319776640
mamba and Wader,1782547,HX2 8BQ,53.744052846661900,-1.887276515817460
horned viper and Fox,1034156,HX3 6PD,53.737242260510100,-1.867146982056840
Prion and gecko,1799977,OL10 3FG,53.587160675000000,-2.233336777600000
boa and Parrotlet,1031228,HX7 8EF,53.741161698750600,-2.013456278359060
Jerboa and moloch,1034969,HX2 9JH,53.762218000000000,-1.891035550419370
worm lizard and White ibis,624724,OL15 0DL,53.633297427932600,-2.101827952886790
Prion and terrapin,1033688,HX3 9LL,53.701965196203600,-1.852731711680920
jew lizard and Rabbit,624255,OL15 9BA,53.644509733738500,-2.096999387034920
copperhead and krait,628026,OL11 1JN,53.608829641823300,-2.153911750024260
Fulmarine petrel and amethystine python,624922,OL14 8EQ,53.722767523535600,-2.109576395265000
bearded lizard and Herring gull,1637518,BB10 4ES,53.787141120000000,-2.224429000000000
skink and agamid,1032502,HX6 2PQ,53.711986749661400,-1.906300334205550
Viscacha and Chipmunk,1782546,HX2 8BN,53.744896516537400,-1.886000601023130
Grosbeak and Hawaiian honeycreeper,628740,OL10 3BL,53.589980528502400,-2.227566016668310
dukite and milk snake,1036470,HX1 2UZ,53.724315209783800,-1.857382208773310
box turtle and Hawaiian honeycreeper,1752460,BB11 9TL,53.787600699187000,-2.244648443995920
Triller and Scimitar babbler,1623560,BD13 3NZ,53.792162930000000,-1.854557000000000
River dolphin and galliwasp,1036100,HX1 5DJ,53.725953000000000,-1.865985000000000
New World blackbird and Dolphin,1031272,HX7 8LF,53.747066926753200,-2.012669704374240
Parrotbill and death adder,622365,OL2 7JE,53.579432000000000,-2.102257000000000
copperhead and Treepie,628538,OL10 4BQ,53.604980936225800,-2.232769876772870
Philippine hawk-owl and racer,626785,OL12 7AS,53.623538839494200,-2.182676564187110
bearded dragon and mud turtle,626812,OL12 7DJ,53.624470247807400,-2.178961205009100
rock snake and Prion,1033041,HX4 9PF,53.670479135416000,-1.885065693116570
Herring gull and blindworm,624887,OL14 8BP,53.720416536510200,-2.094492204713690
Cuscus and Zebra,628385,OL11 1AY,53.605500693909900,-2.149426273899540
frilled lizard and blind snake,1031296,HX7 8PA,53.734196700577500,-1.996385221425930
hognose snake and Pratincole,626165,OL12 9JS,53.648288841438800,-2.130486267963860
Duck and Scimitar babbler,1035206,HX2 8SP,53.751666063206400,-1.914371119222000
B and soft-shelled turtle,629008,OL10 2LD,53.579960986803700,-2.211577860774950
Fulmarine petrel and coral snake,1035274,HX2 7LP,53.718038317076400,-1.898422527014150
blindworm and Fulmarine petrel,1034936,HX2 9EF,53.756870445636700,-1.892398820340320
Wader and wall lizard,1782610,HX6 4BS,53.656866642421900,-1.987691254828230
loggerhead and gecko,623481,OL16 3SS,53.598161071278100,-2.092435433443730
Tattler and Dorcopsis,625810,OL13 8DR,53.708211650105400,-2.202374363743960
Bunting and Cuscus,1036101,HX1 5DL,53.722872000000000,-1.867980000000000
Asiatic leopard and Pratincole,628957,OL10 2EB,53.587837570054100,-2.209970651744090
hoop snake and Thicketbird,626969,OL12 6EJ,53.630567806818200,-2.157272373565090
Vulture and Francolin,1032289,HX6 3HU,53.684970475898100,-1.936899751749270
Old World warbler and lizard,1035382,HX2 7SA,53.720118900594100,-1.915647312930450
Wader and Quetzal,627739,OL11 3PB,53.599747459540700,-2.188679000000000
Songlark and puff adder,1036978,HX1 1DL,53.722116048521300,-1.859859811224420
Tit-tyrant and diamondback turtle,623380,OL16 4TQ,53.602935133863100,-2.145306804309900
flying lizard and Philippine hawk-owl,1073632,HD9 4HZ,53.587861018772300,-1.861073935806810
Pratincole and Tattler,1036128,HX1 5EG,53.720759998523100,-1.877336829134440
Schneider python and anaconda,624866,OL14 8AF,53.717869000000000,-2.076788000000000
Warbler and carpet snake,627949,OL11 2UE,53.587288000000000,-2.165873000000000
water snake and viper,1034345,HX3 5QF,53.737035952454400,-1.875940324225700
Quetzal and agama,621915,OL3 5SJ,53.592887423055600,-2.039107183833440
slowworm and bearded lizard,1636719,BB11 3HB,53.781482230000000,-2.232122814000000
Old World quail and constrictor,622072,OL2 7TD,53.580642472661400,-2.093016359412510
Marsh harrier and alligator,627938,OL11 2TL,53.587640300370400,-2.176312805638790
harlequin snake and racer,629153,OL10 1AX,53.588677528068100,-2.217754765465230
Wader and black snake,1800017,OL12 0AL,53.633963925000000,-2.154910996100000
Kestrel and ringhals,1623949,BD13 1NS,53.773396560000000,-1.863103288000000
Macaw and blind snake,2300365,OL16 2BN,53.626005000000000,-2.139231000000000
krait and sand lizard,624464,OL15 8DL,53.642499595162800,-2.103861916754060
Grackle and Pheasant,625874,OL13 8JG,53.694216960257500,-2.207728863015020
cobra and coral snake,624586,OL15 8LD,53.642196225680400,-2.111363558000090
hoop snake and Cuscus,626853,OL12 0UP,53.623855950973500,-2.155478428764270
Mamo and hognose snake,627593,OL11 5AF,53.621894280610500,-2.182322000000000
blind snake and sea snake,1036278,HX1 3XG,53.717317418735400,-1.877195296592470
Egret and ringhals,1034986,HX2 9LR,53.752568669542100,-1.896367957182570
soft-shelled turtle and Scimitar babbler,1631184,BB4 9PF,53.713618790000000,-2.251703067000000
python and Bunting,624510,OL15 8JH,53.642213551226500,-2.102030991825570
New World blackbird and cobra de capello,1032473,HX6 2NA,53.711094000000000,-1.912635000000000
mountain devil and alligator,1031495,HX7 7HY,53.749353769433600,-2.059285277366360
Polecat and bearded lizard,1035697,HX2 7AE,53.714452756535800,-1.888840000000000
lizard and Wallaby,1636849,BB11 1PD,53.789864550000000,-2.247332842000000
Marmoset and Elephant,1623696,BD13 2JW,53.769792900000000,-1.855878129000000
Bunting and leathery turtle,1033433,HX4 0AR,53.676434000000000,-1.922758000000000
cayman and tuatara,624460,OL15 8DE,53.643495771417600,-2.094879379690910
fer-de-lance and green turtle,1031606,HX7 8BG,53.741961883213500,-2.011076171406290
diamond python and Grosbeak,627034,OL11 5YG,53.622427506285600,-2.202976215768040
Stint and Ice seal,1782506,HX1 9PQ,53.724319196752300,-1.857382414204710
green turtle and Diving bird,1036340,HX1 4DY,53.720114793810500,-1.879248072273000
boomslang and Towhee,625442,OL14 5AJ,53.713988336860500,-2.096644426430810
horned toad and Minke whale,1035999,HX2 0EJ,53.729128654187700,-1.887285809624640
diamond python and Solitaire,1036227,HX1 3RR,53.714934971630200,-1.885687265899390
Scimitar babbler and Komodo dragon,1032195,HX6 4NJ,53.678375045155500,-1.962993608514120
kabaragoya and perentie,1636175,BB12 0TR,53.797107510000000,-2.256529947000000
Ground sloth and massasauga,623472,OL16 3SA,53.600491758839100,-2.100192417014390
leathery turtle and flying dragon,1782542,HX2 7QT,53.720855504664900,-1.898264440627860
alligator and Thrasher,1623312,BD13 4EZ,53.785861000000000,-1.895967000000000
death adder and sidewinder,623728,OL16 1TL,53.616183176755100,-2.153016433886060
brown snake and carpet snake,1034530,HX3 0SD,53.700610000000000,-1.861338479025680
horned toad and crocodile,625624,OL14 5JR,53.718964397610200,-2.100686645209390
Ground sloth and moloch,1035630,HX2 0LH,53.724029215708400,-1.904318629095300
amethystine python and slowworm,627309,OL12 0RP,53.625130475173000,-2.156859012644540
Jackal and hawksbill,2629514,OL15 0EZ,53.645234000000000,-2.089149000000000
rock python and boomslang,1034528,HX3 0SA,53.701851593378400,-1.863062478039920
Mouse and bicycle lizard,2597516,BB11 4DB,53.780880000000000,-2.261105000000000
swift and diamondback turtle,627144,OL12 0ED,53.626604476268800,-2.149909188443240
monitor and Tahr,625401,OL13 9TX,53.708585897705500,-2.187832544148260
Jerboa and Meadowlark,624514,OL15 8JP,53.641608893338400,-2.104858010849050
Chickadee and monitor,624473,OL15 8DZ,53.646257241630400,-2.103190447073340
Kite and diamondback turtle,624279,OL15 9DJ,53.645645421207300,-2.093008468001200
Old World warbler and Dolphin,628922,OL10 2DF,53.588362797207900,-2.212843507936230
milk snake and viper,1035260,HX2 7JR,53.715537377085500,-1.895792074650900
amphisbaena and sea snake,624940,OL14 6NB,53.712766788020000,-2.095611345411850
tuatara and tiger snake,1031244,HX7 8HF,53.745251574408300,-2.010318918989910
slowworm and Ground sloth,2656286,OL16 9QT,53.611550000000000,-2.148781000000000
brown snake and Hawaiian honeycreeper,1036532,HX1 3BL,53.713776355346300,-1.877432859520630
tokay and box turtle,1032086,HX6 4EY,53.664718917697700,-1.953910050325320
Minke whale and loggerhead,623760,OL16 3DX,53.610779405969400,-2.104736083203720
rattlesnake and Black cockatoo,626887,OL12 7GG,53.628761153528200,-2.188369522836490
jew lizard and Mouse,627431,OL11 4DQ,53.612645308053000,-2.188327917460780
krait and Ground sloth,625600,OL13 9BU,53.704735322763000,-2.201145805077630
Thrasher and snake,1799972,OL10 1PT,53.591996748800000,-2.213663000000000
Condor and Old World quail,625728,OL13 0TJ,53.693452112670400,-2.237195659369400
Petrel and tree snake,1782540,HX2 7AB,53.711593771384800,-1.883954198388230
Jay and king snake,1636794,BB11 3RG,53.771143790000000,-2.218987340000000
king cobra and Tahr,1631782,BB4 7BG,53.693877110000000,-2.249207509000000
Kestrel and boa,624073,OL16 1DW,53.619325529586600,-2.155748987619120
Puffleg and rock snake,1782524,HX1 9RP,53.724265448700300,-1.857534147994940
black snake and Kite,1035053,HX2 8HD,53.747987217678100,-1.889039946106270
Chipmunk and mountain devil,1031483,HX7 7HH,53.755354777206500,-2.045659169997580
Mouse and racer,1034198,HX3 6SF,53.746411378042700,-1.876565000000000
Recurvebill and Snipe,1623712,BD13 2LS,53.760138130000000,-1.854515658000000
flying lizard and Darwin's finches,1636433,BB11 4DF,53.778893000000000,-2.259393000000000
diamondback terrapin and boa,1031746,HX6 4RS,53.659694773084100,-1.954535913687340
Cloud rat and Philippine hawk-owl,1623306,BD13 4ER,53.791815600000000,-1.892203372000000
Triller and Partridge,1637061,BB10 4LN,53.784651930000000,-2.224293819000000
galliwasp and bearded dragon,1032420,HX6 3QS,53.702657616053100,-1.906957192649920
coral snake and adder,1035072,HX2 8JB,53.750995269307300,-1.895795555860770
Greenbul and rat snake,625142,OL14 5LT,53.718198178874500,-2.092320334711670
Philippine hawk-owl and Philippine hawk-owl,628880,OL10 1SD,53.600115590636000,-2.193410000000000
galliwasp and gopher snake,628061,OL11 1NX,53.606979505855800,-2.152635000000000
smooth snake and glass snake,1032031,HX6 4AR,53.675903846250900,-1.941651392145000
Kestrel and flying lizard,626771,OL12 6XW,53.633235545838900,-2.171618524841140
Prion and blue tongue,627397,OL11 5SU,53.626804115522400,-2.213672175218500
whip snake and cayman,627602,OL11 5AW,53.622781768914800,-2.184018868724200
River dolphin and Macaw,2663813,OL16 9QY,53.611550000000000,-2.148781000000000
racer and Stilt,1075758,HD7 5PG,53.617876471332600,-1.856546287348510
Chicken and tree snake,1036210,HX1 5RS,53.727559859749600,-1.873376415776860
Thicketbird and slowworm,1032453,HX6 2LA,53.709417829749800,-1.908472458787960
boomslang and Myna,1031945,HX6 3RZ,53.698365185227000,-1.925414350819220
Linsang and leguaan,624083,OL16 1EN,53.617317885416000,-2.158235873729860
Chickadee and indigo snake,1031466,HX7 7EL,53.744434850295600,-2.064054500635160
bull snake and deaf adder,1637280,BB10 3LT,53.789032920000000,-2.190969888000000
constrictor and flying dragon,627609,OL11 5BE,53.621325086802000,-2.178479213322240
Mamo and Boto,623742,OL16 1UT,53.612651544536100,-2.159473000000000
Argus and Hawk,626083,OL13 0QR,53.693074542317000,-2.223215583200970
Vole and goanna,1032856,HX5 0TB,53.679250073106400,-1.851009267436970
Treepie and Old World warbler,1035708,HX2 7DJ,53.712680769035600,-1.887602395841860
leathery turtle and Tree warbler,1075328,HD7 5TL,53.619414563905500,-1.850100965699460
pit viper and Rat,1032598,HX6 2RX,53.711021900413800,-1.914150408313950
Boto and diamondback,625462,OL14 5BY,53.714822000000000,-2.089237423676280
box turtle and galliwasp,628171,OL11 2DR,53.593014550141400,-2.150575689931180
chuckwalla and leguaan,1031763,HX7 6HW,53.737890079965300,-2.013197491057890
constrictor and Booted eagles,2644965,OL11 2AS,53.590981000000000,-2.151337000000000
king cobra and thorn lizard,1034475,HX3 6DT,53.730990000000000,-1.861149000000000
green turtle and loggerhead,625946,OL13 0AU,53.699417000000000,-2.200121000000000
Greenbul and Grouse,1032573,HX6 1BQ,53.706309613804000,-1.923733988585700
Kite and horned toad,625152,OL14 5NT,53.720906644326500,-2.099706285629930
snake and Booted eagles,2653546,HX2 7UR,53.753534000000000,-1.929565000000000
tiger snake and Macaw,626965,OL12 6EE,53.637414801805200,-2.171801877545660
Civet and Grouse,1036398,HX1 4NJ,53.724817898057200,-1.881598873533220
Kite and king snake,626745,OL12 6UE,53.617796703163500,-2.163105363649540
Tahr and python,1636742,BB11 3LG,53.781300530000000,-2.237691325000000
Badger and Puffleg,1035190,HX2 8RP,53.750755299112000,-1.910293648394670
Argus and copperhead,1637930,BB10 1AD,53.797117050000000,-2.243337277000000
rattlesnake and Towhee,1075873,HD7 4JU,53.635905386223400,-1.871094582378420
adder and anole,627871,OL11 2QS,53.595746019429800,-2.158275999369730
amphisbaena and diamondback turtle,1032073,HX6 4EE,53.668770590491500,-1.948986684336940
gecko and Linsang,627328,OL11 5PE,53.608537095993000,-2.210239696626410
sidewinder and Solitaire,1561032,BL9 7JF,53.588547280000000,-2.256245839000000
sand viper and Eagle,1035752,HX2 0TB,53.732382096890300,-1.887034597171510
Mouse and Jay,624941,OL14 6ND,53.712507479676700,-2.093913844894880
mud turtle and Darwin's finches,621903,OL3 5RT,53.589805000000000,-2.039829000000000
Peafowl and Jackal,2629518,OL13 8BX,53.724627000000000,-2.198922000000000
Condor and kabaragoya,622151,OL2 7XQ,53.584457322435600,-2.099429346142240
whip snake and alligator,628145,OL11 2AH,53.597136325904500,-2.146435206282090
frilled lizard and sea snake,625614,OL13 9DP,53.708167120515000,-2.196618000000000
Minke whale and Prion,624532,OL14 8JJ,53.731625649994000,-2.131487444550400
turtle and Shearwater,625621,OL14 5JN,53.719872076761000,-2.100825201488620
tortoise and Black cockatoo,1035412,HX2 7TP,53.753179868996800,-1.934796140003340
blind snake and bandy-bandy,625789,OL13 8BJ,53.705845302281500,-2.203832411028820
gecko and River dolphin,623085,OL16 5JT,53.607242228335300,-2.144384000000000
Moluccan boobook and tree snake,628962,OL10 2EJ,53.586620000000000,-2.207895000000000
puff adder and Meadowlark,1035717,HX2 7DW,53.711163000000000,-1.888076000000000
king cobra and White ibis,626192,OL12 9NB,53.649800494372500,-2.128978093480880
habu and whip snake,627279,OL11 5NU,53.621231809339400,-2.227372000000000
cycling lizard and Macaw,1035915,HX2 6EU,53.718635490704900,-1.946320328085560
Fulmarine petrel and Komodo dragon,622360,OL2 7HY,53.579165839288000,-2.106802397966760
Shearwater and whip snake,1036607,HX1 3QE,53.716621937666200,-1.882788580443430
Gila monster and rat snake,1034690,HX3 5HS,53.734028725861600,-1.879512000000000
Warbler and Wader,626922,OL12 7JQ,53.634056700368600,-2.187425277978040
Coati and habu,623134,OL16 4HH,53.611995005240400,-2.121410931134310
soft-shelled turtle and Hawaiian honeycreeper,625175,OL14 5QF,53.713468256626100,-2.095112946246700
Mockingbird and Minke whale,623106,OL16 5ND,53.612346565020100,-2.144704337659220
Crow and Skunk,1075703,HD7 5LQ,53.620115551052300,-1.873410278258720
Black jay and Dorcopsis,1033466,HX4 0DJ,53.677839308839300,-1.930415929901960
B and Nukupuʻu,622074,OL2 7TF,53.580381906894900,-2.092894956153560
Gila monster and Old World warbler,624413,OL15 9LU,53.650584722033000,-2.108632273283150
milk snake and Scimitar babbler,625303,OL14 6HF,53.715875112037900,-2.055889000000000
Piping shrike and gecko,1800088,OL16 1UQ,53.611716207500000,-2.163067037500000
krait and agama,626621,OL12 7UD,53.628625568165100,-2.225188434268580
Gull and chuckwalla,624228,OL15 8RQ,53.638812090641700,-2.116164237923430
Argus and milk snake,1075722,HD7 5NU,53.622201000000000,-1.856411000000000
horned viper and Piping shrike,1035561,HX2 6RH,53.733275001159900,-1.941905819609620
Mouse and Zebra,627509,OL11 5XA,53.623592865502300,-2.209981981620690
gavial and Peafowl,1631193,BB4 9PT,53.724924330000000,-2.243738237000000
Fish eagle and goanna,1032287,HX6 3HS,53.686803956884600,-1.936715321062020
American sparrow and Pheasant,1035281,HX2 8TS,53.739587813030400,-1.893928613326770
giant tortoise and bearded dragon,622355,OL2 7HR,53.581389812718200,-2.112381418588850
Asiatic leopard and Armadillo,1799998,OL11 1ER,53.611931480000000,-2.156674233200000
racer and slowworm,627079,OL12 6NB,53.629864439920000,-2.171982859768640
Cloud rat and cerastes,1034534,HX3 0SH,53.702257780994400,-1.856835615035600
Crow and Maya,627624,OL11 5DR,53.619120670096800,-2.180011890830320
racer and bushmaster,626199,OL12 9NL,53.647215570085800,-2.133811016354980
gaboon viper and hognose snake,625243,OL14 5TQ,53.718292367139200,-2.073121604366180
Vulture and rattlesnake,1031995,HX7 5NT,53.731696666981600,-1.981409431773710
constrictor and Ibex,1035349,HX2 7PU,53.719727841668400,-1.898145702113460
Jackal and Ground sloth,627676,OL11 3JX,53.600950081116100,-2.183515837776340
Cloud rat and dugite,623589,OL16 4DB,53.610948644682300,-2.116117807645630
worm lizard and milk snake,624494,OL15 8HA,53.648009117171000,-2.113980901404450
fer-de-lance and box turtle,624864,OL14 8AD,53.718954859704500,-2.077289916515370
Hawaiian honeycreeper and massasauga,1031338,HX7 7AD,53.751246392793000,-2.012367689560390
grass snake and diamond python,1035981,HX2 0DE,53.726977085543800,-1.893384340344070
gecko and Gull,624657,OL14 8RY,53.734247652906900,-2.084518494133240
Argus and boa,1036768,HX1 2JY,53.718465212759100,-1.858432376293070
saltwater crocodile and bearded dragon,627864,OL11 2QE,53.591318528810000,-2.174938238152130
carpet snake and Marmoset,1031971,HX7 5LH,53.730833997212200,-1.982652727956650
Triller and Gull,623559,OL16 4AN,53.610400783124400,-2.132953766202120
coral snake and Boto,626940,OL12 6BY,53.629860980443200,-2.161579334480380
Tattler and Fox,1031569,HX7 7NX,53.749743844739600,-2.022770002652580
boa and Mouse,1036530,HX1 3BD,53.714425672622600,-1.879582515205340
Peafowl and amphisbaena,1624021,BD13 2BS,53.763317560000000,-1.860117323000000
asp and New World blackbird,627055,OL12 0AG,53.630026202563500,-2.152113945607560
Thrasher and skink,1800015,OL11 5NW,53.606772930600000,-2.214205948400000
American sparrow and Schneider python,1034939,HX2 9EJ,53.755555902615500,-1.889869369666620
hawksbill and cycling lizard,1031696,HX7 6BX,53.743738762533400,-2.027815736909860
Stint and deaf adder,2588640,HX1 3AF,53.716324000000000,-1.874442000000000
Gila monster and smooth snake,623126,OL16 4EZ,53.605071384379600,-2.115028661346470
Puffleg and Chickadee,622076,OL2 7TH,53.579464263268100,-2.093965278687270
tortoise and gopher snake,626223,OL12 9PX,53.636318781288500,-2.128437803513340
Argus and Crow,1032128,HX6 2TJ,53.713871357858700,-1.914477957258710
bicycle lizard and agama,627037,OL11 5YL,53.620479096052000,-2.201772531420170
king cobra and Chipmunk,627631,OL11 3ED,53.593306510807500,-2.179932210884430
Bunting and Myna,628997,OL10 2JF,53.587805524435900,-2.207734748922210
Macaw and milk snake,1073658,HD9 5JD,53.592651840171000,-1.853579747232520
Thrasher and bull snake,625017,OL14 8HQ,53.726936115322400,-2.120848300826490
Jackal and Scimitar babbler,1035147,HX2 8LZ,53.746868832012500,-1.894729142473110
Chicken and Mink,624685,OL15 0AH,53.629822000000000,-2.085230000000000
goanna and iguana,1033618,HX4 8AL,53.688289000000000,-1.855231791294960
bandy-bandy and copperhead,1032687,HX6 1JW,53.707139106389500,-1.944941176136630
chuckwalla and copperhead,623788,OL16 3HH,53.613674497494300,-2.103730521463000
turtle and Tree warbler,625864,OL13 8HU,53.701188333785900,-2.204491492377330
kabaragoya and thorn lizard,1075600,HD7 6NJ,53.606242000000000,-1.950996000000000
Pitohui and ringhals,623586,OL16 4BY,53.608253012632800,-2.115248917974200
swift and whip snake,1637117,BB10 4RB,53.784962390000000,-2.201059000000000
pit viper and crocodile,628808,OL10 3JD,53.591548361961300,-2.239388686344840
Chicken and racer,622509,OL2 7PZ,53.587712152605200,-2.108515904918190
Recurvebill and Vole,624759,OL14 7PG,53.704663863539900,-2.111362176216950
goanna and Cuscus,1033069,HX4 9QW,53.671235219891300,-1.886198853848630
jew lizard and viper,1076013,HD7 5AU,53.622410071390300,-1.884833172062810
diamondback terrapin and thorny devil,1034365,HX3 5RP,53.738070558191200,-1.876892375768960
tiger snake and green turtle,628970,OL10 2EY,53.585908564277400,-2.207982232109290
Asiatic leopard and monitor,1623546,BD13 3NG,53.792269650000000,-1.854040386000000
saltwater crocodile and Piping shrike,2588892,HX6 2FD,53.706259000000000,-1.885303000000000
cerastes and Hawaiian honeycreeper,629423,OL1 4ST,53.577434749447400,-2.064057510106850
habu and Thicketbird,1036345,HX1 4ER,53.720732716030400,-1.886141353313100
bandy-bandy and cycling lizard,1631764,BB4 7AD,53.682146000000000,-2.241705246000000
massasauga and sand viper,1032351,HX6 2EF,53.709041190529000,-1.909609504703360
Wallaby and green turtle,1032837,HX5 0QX,53.684187209744600,-1.853157011718580
Elephant and Recurvebill,625613,OL13 9DN,53.708321730417600,-2.195633361589730
cerastes and Pitohui,624459,OL15 8DB,53.640956000000000,-2.112298000000000
Stilt and soft-shelled turtle,624896,OL14 8DB,53.721962482765300,-2.094495679743960
Cloud rat and sand lizard,1033128,HX4 8AY,53.689082887471600,-1.858258203823960
king snake and Boto,1637100,BB10 4PY,53.791226530000000,-2.221945770000000
Towhee and Vulture,1638120,BB10 1NW,53.798059200000000,-2.239668730000000
Dolphin and harlequin snake,1631834,BB4 7DR,53.686756880000000,-2.249983079000000
giant tortoise and tortoise,1032163,HX6 3AS,53.706567000000000,-1.916795000000000
Goose and hognose snake,628166,OL11 2DJ,53.594665506788500,-2.152847891471300
Linsang and whip snake,1623606,BD13 3RJ,53.798244270000000,-1.859591430000000
indigo snake and leathery turtle,627116,OL12 6QA,53.620645317920700,-2.170025329013950
Kākāriki and Tit-tyrant,1034978,HX2 9JZ,53.760531831431000,-1.896105710801170
agamid and Komodo dragon,626026,OL12 9BL,53.624876460868800,-2.144459999413770
black snake and Night heron,1036626,HX1 1RD,53.723293000000000,-1.851339722830100
cycling lizard and Parrotlet,622370,OL2 7JL,53.577569960088000,-2.102192040711840
Armadillo and bull snake,1034382,HX3 5ST,53.740342103854900,-1.883465627163390
puff adder and Armadillo,1036033,HX1 4QZ,53.725739247134800,-1.886324884936970
Towhee and Polecat,1033275,HX4 8PN,53.688856726609900,-1.891330189629860
smooth snake and Jerboa,627562,OL11 4PX,53.603550560873100,-2.175623556887960
habu and bushmaster,1034386,HX3 5SY,53.741278551536400,-1.885221757787580
snapping turtle and thorny devil,627548,OL11 4PA,53.602621647506200,-2.177735329489510
racer and Zebra,624392,OL15 9JS,53.651238394938000,-2.101205609356860
blind snake and Ground sloth,626768,OL12 6XR,53.630386718044300,-2.164923213108730
Kākāriki and Mole,1636949,BB11 2HW,53.783152800000000,-2.241814626000000
Cuscus and snapping turtle,2642324,HX2 9WB,53.757672000000000,-1.877641000000000
Partridge and White ibis,628238,OL10 4NY,53.594554544173600,-2.218480022818950
agamid and blind snake,621930,OL2 8NS,53.575815118002000,-2.093836348313500
amphisbaena and Dolphin,1035826,HX1 9AW,53.724315209783800,-1.857382208773310
smooth snake and amphisbaena,625367,OL13 9RS,53.691732548108600,-2.193860267408050
Mamo and rock snake,624328,OL15 0HL,53.645216931545900,-2.089150172829980
Mink and bearded dragon,1031663,HX7 5YJ,53.740649309415600,-2.014062555663030
Hawaiian honeycreeper and smooth snake,1035365,HX2 7RE,53.723748175771500,-1.912972787564980
sand lizard and Mink,1636562,BB11 4SB,53.788893000000000,-2.260699000000000
rat snake and cobra de capello,625236,OL14 5SY,53.717797753409500,-2.073560177216800
ringhals and Marmoset,628373,OL11 1AD,53.607023000000000,-2.147618000000000
Thrasher and Stilt,1032491,HX6 2NY,53.708951820610600,-1.910291432755390
Kākāriki and anaconda,627630,OL11 3EB,53.593325713007100,-2.179116442327320
goanna and leguaan,1631621,BB4 9HF,53.698103870000000,-2.256608532000000
racer and puff adder,627138,OL12 0DU,53.622039536113300,-2.149046344151490
flying dragon and Diving bird,627045,OL11 5YW,53.621691304398000,-2.197106712564440
Triller and glass snake,2642321,HX2 0WE,53.729663000000000,-1.916661000000000
galliwasp and Greenbul,625668,OL13 9HX,53.708024520137100,-2.190435737018780
habu and Greenbul,624875,OL14 8AT,53.720067074344400,-2.066427000000000
turtle and Logrunners,629000,OL10 2JL,53.583574037782600,-2.206581109509930
Tattler and elapid,627527,OL11 4LP,53.610493534494300,-2.166523271238340
Stilt and Hawaiian honeycreeper,628721,OL10 3BE,53.590471492349600,-2.224607620213470
hawksbill and amphisbaena,628058,OL11 1NT,53.608415247475800,-2.154635699132990
gecko and Towhee,1032630,HX6 1DJ,53.705298955360300,-1.932067428868550
Perching duck and Puffleg,623883,OL16 2ET,53.620398041699000,-2.146334430132350
snapping turtle and Magpie,1032202,HX6 4NT,53.688443845927100,-1.970616585351980
Philippine hawk-owl and agama,626683,OL12 8AT,53.659894455868400,-2.177825210054660
boomslang and Coati,624192,OL16 1QA,53.612467751319000,-2.155557440434930
Stilt and Mouse,1035601,HX2 6UE,53.734115736310300,-1.953016033210360
sand viper and Magpie,1032440,HX6 2JD,53.713744074027900,-1.912463073927100
cerastes and cayman,627461,OL11 4HT,53.611478178661700,-2.169414080889090
tuatara and Bronzewing pigeon,623320,OL16 4RB,53.595747178665600,-2.143106371457590
black snake and Jackal,1034665,HX3 5DY,53.733503453104700,-1.875753642091220
jew lizard and diamond snake,1623599,BD13 3RA,53.796884990000000,-1.857804557000000
black snake and Prion,625651,OL13 9FL,53.703917003284300,-2.201384264542500
smooth snake and Siskin,622081,OL2 7TR,53.581937917026600,-2.091554098008220
grass snake and Diving bird,1035733,HX2 0RW,53.733578000000000,-1.907177000000000
Greenbul and Zebra,623902,OL16 2JP,53.618870750547500,-2.145754675545350
Mamo and Tahr,1034378,HX3 5SP,53.741013647553300,-1.880856039422790
amethystine python and Magpie,623099,OL16 5LQ,53.605820297138500,-2.145362063557120
soft-shelled turtle and Maya,1800149,OL2 8FN,53.585411646800000,-2.079145154800000
death adder and deaf adder,625707,OL13 9NE,53.703114618163700,-2.197457190614130
Masked owl and anole,1031967,HX7 5JZ,53.727264708259700,-1.976531034009550
Ground sloth and Masked owl,1036552,HX1 3ES,53.713532074579500,-1.875872977677340
Pheasant and Logrunners,1031517,HX7 7LB,53.747991568113100,-2.020646119588550
anole and River dolphin,628566,OL10 4EF,53.594819357518300,-2.211168692499840
Greenbul and mamba,1035403,HX2 7TB,53.747658822060300,-1.930513346482230
Guillemot and Darwin's finches,628768,OL10 3DY,53.587638359277100,-2.230287664309020
Songlark and Scimitar babbler,1075508,HD7 6DY,53.598212863583600,-1.930440579354150
Fox and Fish eagle,1036299,HX1 3YQ,53.717634849872600,-1.880012801640540
Mole and Coati,1035930,HX1 9SA,53.724426998141100,-1.860731148595220
Tahr and Chicken,1623911,BD13 1LG,53.774912570000000,-1.860534050000000
boa constrictor and lizard,624226,OL15 8RN,53.644597203822300,-2.110144639844840
ringhals and American sparrow,1036795,HX1 2NL,53.713478000000000,-1.866281883996410
Goose and Armadillo,1035491,HX2 7UH,53.756430314338600,-1.929103579942880
adder and Kangaroo,625141,OL14 5LS,53.720929000000000,-2.106526000000000
Fish eagle and Pratincole,1636914,BB11 2DE,53.789763350000000,-2.239636570000000
green turtle and Kangaroo,625754,OL13 3SF,53.693461963723800,-2.207725141610840
amethystine python and moloch,1035456,HX2 6JW,53.711939966855900,-1.947677229528380
deaf adder and Solitaire,626896,OL12 7HE,53.631603089516900,-2.175468002203520
caiman and agamid,624872,OL14 8AQ,53.718116959532000,-2.080334129090440
amethystine python and White ibis,1561027,BL9 7HZ,53.592187230000000,-2.256388747000000
water snake and Eagle,1033158,HX4 8DS,53.684920700128800,-1.857681652032160
Parrotbill and bicycle lizard,1034164,HX3 6PY,53.733783554292700,-1.868688889324920
boa constrictor and Mouse,1036391,HX1 4LY,53.723182000000000,-1.880391000000000
gaboon viper and Fulmarine petrel,1032071,HX6 4EA,53.671816453645900,-1.946409838833890
Egret and Prion,627224,OL12 0PU,53.621629294124600,-2.160444198423120
thorny devil and Jackal,1752424,BB11 3FD,53.781878760522300,-2.233931218297360
Shearwater and fer-de-lance,625100,OL14 7DT,53.716360038856500,-2.098059048469980
Recurvebill and Old World vulture,627375,OL11 5RS,53.622105763051700,-2.207147409382240
box turtle and Armadillo,1636776,BB11 3QE,53.772738790000000,-2.253361826000000
dugite and anole,1637087,BB10 4NY,53.783937080000000,-2.217141759000000
cerastes and Jerboa,628241,OL10 4PE,53.594352000000000,-2.221395000000000
Macaw and Philippine hawk-owl,627643,OL11 3HA,53.598199402720600,-2.177746960169700
amethystine python and Herring gull,1035956,HX2 0AJ,53.724142492962100,-1.899938527704930
Magpie and Civet,627377,OL11 5RU,53.621667927102800,-2.205648535011420
indigo snake and caiman,625959,OL13 0BL,53.695715051752500,-2.204207466577900
elapid and hawksbill,1032517,HX6 2QR,53.709905243302500,-1.911213563937890
Perching duck and copperhead,622415,OL2 7PF,53.583565313406800,-2.112024686286850
Puffleg and soft-shelled turtle,628239,OL10 4NZ,53.593061687032100,-2.213713000000000
diamondback and leguaan,1037018,HX1 1QD,53.724315209783800,-1.857382208773310
habu and Meadowlark,1035778,HX2 0UN,53.743212569477000,-1.920559199774040
flying lizard and giant tortoise,626845,OL12 0TL,53.638781218934400,-2.171656192304010
Stilt and cobra,1035704,HX2 7DE,53.713939409848700,-1.887932381838540
bandy-bandy and gavial,623744,OL16 1UX,53.612512857921600,-2.162193171335370
Old World vulture and Elephant,628299,OL10 4SG,53.595965178857100,-2.237600564948870
pit viper and Fulmarine petrel,626713,OL12 8DT,53.664505526271000,-2.171579262850120
Songlark and Scimitar babbler,2663805,OL11 1RA,53.606470000000000,-2.149957000000000
Parakeet and viper,1032330,HX6 2BX,53.711943583809400,-1.897467520238820
Gila monster and Condor,1031698,HX7 6BZ,53.744448845751600,-2.027694910505010
elapid and Eagle,1033152,HX4 8DJ,53.685925325789200,-1.855967286551080
Goose and soft-shelled turtle,1037015,HX1 1PS,53.721889031649900,-1.857890496460010
fer-de-lance and Dorcopsis,1075698,HD7 5LH,53.620324353445000,-1.875390108351380
Tattler and snapping turtle,1036269,HX1 3UQ,53.718082934983400,-1.887951699702350
bearded lizard and terrapin,1035184,HX2 8RF,53.755839044478900,-1.905748041055460
Herring gull and Old World warbler,628348,OL10 4UQ,53.601190811798000,-2.226568552440240
horned viper and Skunk,1636503,BB11 4LN,53.786499400000000,-2.257588314000000
Eagle and Herring gull,1075864,HD7 4JH,53.637696159498300,-1.857099269741990
Old World warbler and soft-shelled turtle,628416,OL11 1HN,53.610308067909200,-2.157469017705700
garter snake and Zebra,1033658,HX3 9HG,53.717536000000000,-1.854814000000000
python and crocodile,1036473,HX1 2WN,53.724315209783800,-1.857382208773310
Grosbeak and Wallaby,1035427,HX2 6HH,53.722879216538000,-1.949451976193040
pit viper and sidewinder,1031249,HX7 8HP,53.748307386450000,-2.011593451153790
death adder and perentie,2629529,OL16 5ED,53.609736000000000,-2.139948000000000
amphisbaena and Cloud rat,628102,OL11 1RH,53.605958252330300,-2.157090101796860
horned toad and gaboon viper,628208,OL11 2HZ,53.596555259862000,-2.158052386658040
fer-de-lance and Duck,627220,OL12 0PQ,53.621072573831800,-2.160033891318320
blindworm and Kangaroo,621436,OL3 5TW,53.579609238063900,-2.046087732340070
snake and racer,622156,OL2 7XX,53.582386044008100,-2.093216555399690
Kākāriki and harlequin snake,1636104,BB12 0JT,53.796980990000000,-2.261007705000000
loggerhead and Kite,625919,OL13 8PD,53.712038237888900,-2.203756327528250
bearded lizard and Siskin,627412,OL11 5TS,53.626033236265100,-2.212488914557140
massasauga and cerastes,625903,OL13 8NB,53.695258757500400,-2.232601798726590
Schneider python and Capuchin,1636475,BB11 4HY,53.785941620000000,-2.249343526000000
horned toad and Warbler,624290,OL15 9DZ,53.647083387344200,-2.093193171331210
Marmoset and flying lizard,1033049,HX4 9PR,53.672752040681700,-1.893626908076830
Vulture and blindworm,1031799,HX7 6NG,53.739864085737800,-2.031163695957930
Grouse and Rabbit,1636904,BB11 2BA,53.784045900000000,-2.248983209000000
Magpie and Tahr,1032137,HX6 2TX,53.717435581527500,-1.908970297547580
cerastes and Dorcopsis,1636964,BB11 2JT,53.781485290000000,-2.252807529000000
Triller and cobra,1035555,HX2 6QZ,53.731262000000000,-1.941135000000000
pit viper and Herring gull,1035498,HX2 7YU,53.724315209783800,-1.857382208773310
Fox and Bronzewing pigeon,1033424,HX4 9DN,53.675264390067500,-1.870883878362300
Civet and amphisbaena,1032279,HX6 3HB,53.688427929965600,-1.949659597779840
rock snake and goanna,628802,OL10 3HW,53.592640955111100,-2.232762000000000
Grackle and anaconda,625573,OL13 8RW,53.726994830278800,-2.198160296429630
Crow and Zebra,1033407,HX4 0AA,53.680986109356900,-1.894681130305630
Jerboa and soft-shelled turtle,628707,OL10 3AN,53.589619143511100,-2.223787315751360
Parakeet and Nukupuʻu,1036522,HX1 3BB,53.713851178774300,-1.880326574643570
B and diamond snake,1075545,HD7 6HD,53.597473855899100,-1.927117632805950
box turtle and Chicken,1035107,HX2 9SH,53.759039941384600,-1.886311026646990
Kestrel and Thrasher,623799,OL16 3JG,53.613271475572800,-2.112073255976990
dugite and blindworm,1073752,HD9 5NL,53.592585212586200,-1.850573471874890
anole and Snipe,1031441,HX7 7BN,53.742833591019000,-2.012395490549620
tokay and Fox,624260,OL15 9BH,53.645085929564600,-2.095820821153660
Piping shrike and box turtle,624012,OL16 2RQ,53.634392337192900,-2.131169202738000
asp and Prion,622090,OL2 7UD,53.582836500207500,-2.091873241499850
elapid and Logrunners,623979,OL16 2PF,53.631557293448500,-2.134547716326050
hawksbill and anole,1636946,BB11 2HS,53.781406000000000,-2.238890813000000
Puffleg and Grouse,628917,OL10 2BZ,53.584555119106600,-2.215981345358280
snake and River dolphin,624845,OL14 7TJ,53.689690000000000,-2.101858011326430
Masked owl and asp,623532,OL16 2ST,53.636041578680800,-2.118349529298840
Wallaby and pit viper,1035564,HX2 6RN,53.730010652094000,-1.938515068967850
tiger snake and anaconda,1034911,HX3 0PF,53.706851531460000,-1.857532052587290
Mole and alligator,1032812,HX6 2AY,53.710332651800000,-1.894911000000000
Herring gull and Parrotbill,624043,OL15 9RJ,53.664393342574500,-2.082713522353720
saltwater crocodile and Lemming,1637007,BB11 2PJ,53.778575680000000,-2.251621563000000
blue tongue and Grouse,628329,OL10 4TN,53.597117556912000,-2.227392876797740
Coati and Tit-tyrant,1031319,HX7 8QW,53.760603385297300,-2.006682388096130
Kite and Prion,628062,OL11 1NY,53.606287625932400,-2.152361000000000
Grouse and water snake,627062,OL12 0AT,53.634750290109300,-2.155004361540490
anole and sand viper,1561270,BL9 7TY,53.604089130000000,-2.247182003000000
carpet snake and thorn lizard,625823,OL13 8EG,53.706201212645000,-2.200652896332870
horned toad and Minke whale,1032353,HX6 2EH,53.709193748134900,-1.909291032886530
River dolphin and Cuscus,1623713,BD13 2LT,53.760613670000000,-1.853831444000000
Flameback and dukite,623037,OL16 5BJ,53.614651262082400,-2.133813638429150
Tree warbler and Thrasher,624579,OL14 8PE,53.733722374841100,-2.144879066487460
Wader and Macaw,1895184,BB11 1ER,53.787667000000000,-2.245848000000000
diamondback and Magpie,628274,OL10 4QZ,53.595197035135500,-2.235148589017540
boomslang and bearded dragon,625134,OL14 5LF,53.716259878823200,-2.074921000000000
Badger and viper,1032366,HX6 2EZ,53.713143796396400,-1.915146081939040
iguana and Parrotbill,624842,OL14 7TF,53.692143000000000,-2.102651175360080
Kākāriki and tortoise,1035210,HX2 8ST,53.750464812149000,-1.918907782681490
Chipmunk and thorn lizard,1035668,HX2 0PW,53.729200837109300,-1.897637843402130
Pitohui and cobra,625467,OL14 5DE,53.714088914384500,-2.094508287770510
agama and smooth snake,622077,OL2 7TJ,53.581883124464000,-2.092671693141210
Songlark and hognose snake,1035094,HX2 9RS,53.760535017839200,-1.889598513578270
Goose and tokay,625645,OL13 9EU,53.706284410914500,-2.188170702071580
Goose and Stint,624200,OL16 1QP,53.614724104462600,-2.155097000000000
leguaan and king cobra,628114,OL11 3BX,53.590203020684900,-2.187427298878110
Viscacha and wall lizard,1073737,HD9 5LR,53.590024947121000,-1.859148243756640
Puffleg and Tattler,627103,OL12 6PG,53.630369598273600,-2.170714705500640
Hawaiian honeycreeper and puff adder,623422,OL16 5AA,53.619374621793400,-2.129701492691590
Grosbeak and flying lizard,624343,OL15 0JH,53.647153533382800,-2.083420926279010
Asiatic leopard and terrapin,1036815,HX1 2PR,53.712895576766200,-1.860981280969360
boa constrictor and gaboon viper,1032221,HX6 4QL,53.661518735712400,-1.952884498584480
moloch and Quetzal,627092,OL12 6NT,53.632431617902500,-2.168091761087210
tortoise and Wader,1636134,BB12 0LZ,53.791513890000000,-2.257968193000000
bull snake and carpet snake,628400,OL11 1ED,53.611658000000000,-2.156975000000000
Minke whale and diamond python,1035098,HX2 9RX,53.758987566240900,-1.887964448909870
constrictor and horned toad,1031453,HX7 7DL,53.743813173870400,-2.013426817482940
habu and Vole,623270,OL16 4LY,53.598060255389800,-2.094747000000000
Triller and sea snake,1637938,BB10 1AP,53.797967890000000,-2.240381754000000
Booted eagles and copperhead,626741,OL12 6TZ,53.618239116951800,-2.161640700616400
chameleon and B,627342,OL11 5PX,53.614290661875300,-2.204433604129200
sea snake and dukite,628955,OL10 2DY,53.589330366963900,-2.204358286319550
Tahr and Vole,625196,OL14 5RT,53.715138321910800,-2.085495244953170
rat snake and Marsh harrier,625906,OL13 8NF,53.696547454886600,-2.226141872690690
Dolphin and Minke whale,1075659,HD7 5HB,53.621321989624600,-1.884306985881750
Fox and B,622027,OL2 7QX,53.584982962391000,-2.104883613638950
Kangaroo and Thrasher,1031968,HX7 5LE,53.730177323944700,-1.979181964062980
diamondback terrapin and Komodo dragon,1631250,BB4 9SJ,53.695857900000000,-2.247568410000000
Polecat and Black jay,2594656,OL10 2AE,53.587785000000000,-2.208730000000000
blind snake and harlequin snake,628318,OL11 2LF,53.601360454780000,-2.153869439790110
mud turtle and Greenbul,622043,OL2 7RS,53.588103923498700,-2.102549858742490
king cobra and coral snake,1636476,BB11 4HZ,53.775239140000000,-2.256790962000000
Thrasher and gaboon viper,1637374,BB10 4AB,53.786801530000000,-2.232941451000000
king cobra and Eagle,1034915,HX3 0PL,53.705956807078700,-1.853460083559660
Boto and New World blackbird,1031599,HX7 8AU,53.739930751228900,-2.009165358114160
giant tortoise and Wallaby,1032624,HX6 2TE,53.716617425987000,-1.908653857097660
Armadillo and grass snake,1031985,HX7 5NF,53.733889752141200,-1.981408477844440
Wader and mountain devil,625652,OL13 9HA,53.707237381854400,-2.188023468547170
thorny devil and boa constrictor,623869,OL16 2DW,53.620724026742000,-2.151611781055990
Capuchin and dugite,623366,OL16 4SP,53.600175399635700,-2.145584421058840
Moluccan boobook and anole,626528,OL12 7NX,53.625524100822100,-2.189186679246140
River dolphin and Gull,627179,OL12 0JP,53.624807674135300,-2.162996361037510
fer-de-lance and Coati,1631171,BB4 9NH,53.738570170000000,-2.238314042000000
Tree warbler and White ibis,628234,OL10 4NR,53.593534720588500,-2.215952000000000
black snake and Buzzard,1034663,HX3 5DU,53.733098031514200,-1.874830172758050
blue racer and New World blackbird,624770,OL14 7PY,53.701108445422200,-2.107126783588000
Pheasant and amphisbaena,627233,OL11 5JA,53.609467790077000,-2.207433101209340
frill-necked lizard and puff adder,1631141,BB4 9JS,53.705711200000000,-2.250777208000000
python and Macaw,2656279,OL16 1AY,53.619504000000000,-2.156156000000000
adder and Petrel,628202,OL11 2HS,53.598556751079500,-2.153375707914010
Old World vulture and blindworm,1637165,BB10 4TR,53.766438890000000,-2.206143819000000
alligator and Night heron,623309,OL16 4QP,53.595268606998500,-2.137317995641600
frill-necked lizard and Snipe,625426,OL13 9UU,53.715304834035300,-2.178816764875070
asp and turtle,1031262,HX7 8JE,53.745224560870400,-2.010864771250030
horned viper and Chipmunk,1631825,BB4 7DE,53.688849100000000,-2.250949464000000
giant tortoise and diamond python,627853,OL11 2PJ,53.591902586459100,-2.175061516730500
Tit-tyrant and carpet snake,1031886,HX7 5ET,53.725783519512400,-1.989884071075090
Solitaire and flying dragon,623987,OL16 2PU,53.631656000000000,-2.135622000000000
puff adder and boa,626948,OL12 6DH,53.636036339317200,-2.167773393176870
Towhee and flying lizard,628386,OL11 1AZ,53.604604238674000,-2.147518947353780
slowworm and Vulture,626955,OL12 6DS,53.635470935035500,-2.173472664245180
Marmoset and water snake,623502,OL16 3UA,53.613513759466100,-2.112497133942590
diamondback turtle and Maya,625033,OL14 6SJ,53.694633933268700,-2.100310391626980
Fox and Prion,623793,OL16 3HT,53.613460741556000,-2.101447554154010
leathery turtle and Songlark,627579,OL11 4QX,53.602665432628100,-2.184429983877040
Meadowlark and Chipmunk,625371,OL13 9RY,53.690359793184100,-2.180830924534510
boomslang and Mink,623501,OL16 3TZ,53.607703000000000,-2.097837000000000
tokay and Parrotbill,622203,OL2 8BU,53.591144493241600,-2.088129534275080
hawksbill and Fulmarine petrel,1035127,HX2 8JG,53.750545539353200,-1.895417549102870
deaf adder and constrictor,628878,OL10 1RL,53.600177451551000,-2.194649132963160
Chickadee and black snake,2642328,HX6 2FJ,53.708617000000000,-1.888872000000000
sidewinder and crocodile,628861,OL10 1PN,53.591883000000000,-2.210355591789690
carpet snake and Grackle,1631243,BB4 9RW,53.705768030000000,-2.245036224000000
Booted eagles and snapping turtle,1031930,HX6 3RE,53.698667551683200,-1.896757549802590
galliwasp and Maya,1035671,HX2 0PZ,53.729866915540000,-1.898773022039710
gopher snake and sand viper,623818,OL16 3LN,53.612395689112900,-2.116182247229210
indigo snake and goanna,1032516,HX6 2QQ,53.708891000000000,-1.911791120762720
Meadowlark and anaconda,1637127,BB10 4RG,53.771602460000000,-2.192680989000000
Jackal and indigo snake,624596,OL15 8LR,53.644532513923200,-2.112050424955410
Pratincole and Peafowl,622056,OL2 7SH,53.580646585787800,-2.099072992742450
hognose snake and Philippine hawk-owl,628405,OL11 1EN,53.611844971138400,-2.157535205105100
Pratincole and Marmoset,1032242,HX6 3DJ,53.691386230270200,-1.933619223933390
gecko and tuatara,624534,OL14 8JN,53.731300134984000,-2.133244726102910
Hawaiian honeycreeper and Logrunners,1035436,HX2 6HU,53.730237000000000,-1.960751000000000
Jay and snake,625337,OL13 9PZ,53.696882000000000,-2.195020565715700
cayman and Crow,628018,OL11 3BH,53.590599870257100,-2.180706279112990
Zebra and River dolphin,624725,OL14 7JP,53.707741254889800,-2.107583000815730
swift and soft-shelled turtle,1033157,HX4 8DR,53.684794579197600,-1.857439819686810
Mockingbird and copperhead,1623567,BD13 3PH,53.792154470000000,-1.855422137000000
rock snake and Pratincole,1034194,HX3 6RZ,53.745682083063800,-1.875581327056730
Komodo dragon and rock python,628638,OL10 2PF,53.584523621910100,-2.223337421771740
Black jay and diamondback turtle,1034499,HX3 6HG,53.733590414291500,-1.864733101558890
Flameback and Chickadee,1032799,HX6 2AF,53.709793173262600,-1.905684043732580
snapping turtle and Chipmunk,1637092,BB10 4PE,53.786151470000000,-2.220234246000000
Tit-tyrant and Marmoset,625970,OL13 0DD,53.689785431544900,-2.202709880133670
Old World warbler and Grackle,627869,OL11 2QQ,53.594018271016500,-2.172698227319040
black snake and hoop snake,1631496,BB4 9BL,53.694655100000000,-2.246788970000000
Pitohui and cerastes,628839,OL10 1NE,53.591117000000000,-2.206059000000000
leathery turtle and Towhee,1637932,BB10 1AF,53.797629330000000,-2.243355427000000
Grouse and agama,1636106,BB12 0JW,53.795830280000000,-2.261122002000000
Warbler and sidewinder,1033238,HX4 8LF,53.690558934306500,-1.867884277521870
Mink and Recurvebill,1036213,HX1 5RX,53.728373829986000,-1.878254432131750
Tattler and anaconda,1035823,HX2 6BZ,53.721352583548800,-1.933693465076840
Towhee and whip snake,1623737,BD13 2NP,53.758607070000000,-1.859465572000000
Marmoset and Solitaire,1075845,HD7 4EY,53.630947117296100,-1.858029337815060
Grouse and viper,2629516,OL12 9ET,53.640316000000000,-2.121416000000000
Viscacha and Grosbeak,1033426,HX4 0AG,53.675865961221900,-1.909498677451120
Vulture and viper,1631191,BB4 9PR,53.722602830000000,-2.244997789000000
diamondback turtle and horned viper,1800012,OL11 5BL,53.619951353800000,-2.174452325300000
cobra de capello and Polecat,627028,OL11 5XZ,53.623777299005700,-2.207306796492050
Schneider python and Mole,625038,OL14 6SX,53.692620941499500,-2.099896710013280
Schneider python and Mockingbird,1032576,HX6 1BU,53.705054000000000,-1.926039000000000
gecko and Herring gull,623661,OL16 2XW,53.621015973351800,-2.132881359359130
hognose snake and rat snake,1032444,HX6 2JH,53.715052923792000,-1.907899641542550
Stint and Dolphin,625870,OL13 8JB,53.695737672405000,-2.206736789722640
adder and habu,1032623,HX6 2TD,53.717417121632300,-1.908333921606010
Booted eagles and leguaan,628378,OL11 1AL,53.604371122566500,-2.147049653164940
leguaan and Masked owl,1033036,HX4 9NB,53.661427346580000,-1.904792996408400
Fulmarine petrel and Recurvebill,625267,OL14 6BA,53.712811836283400,-2.083475417289620
king snake and Guillemot,628751,OL10 3DB,53.591370230867000,-2.234024460339760
harlequin snake and Towhee,1031449,HX7 7DF,53.743759169409400,-2.014078775555320
Masked owl and White ibis,624185,OL16 1PJ,53.612192055211800,-2.160136290734020
Grouse and Tahr,624008,OL16 2RE,53.634590574363100,-2.130716126859610
bearded lizard and puff adder,626266,OL12 9QX,53.637186688599200,-2.123661263008030
Parakeet and swift,624876,OL14 8AU,53.717942054736700,-2.086258595108800
tuatara and Recurvebill,1036598,HX1 3PT,53.716693130085400,-1.882061063067770
Grouse and Piping shrike,1034557,HX3 0TR,53.698944151978200,-1.867252227740330
blind snake and Herring gull,1782486,HX1 1UB,53.725245000000000,-1.860001000000000
rat snake and Solitaire,628992,OL10 2HZ,53.582878823944800,-2.208375165242020
Chicken and gopher snake,1561404,BL9 6UH,53.605986300000000,-2.260009000000000
snake and Wader,1637183,BB11 1AE,53.790314330000000,-2.242751418000000
Dolphin and Old World warbler,626286,OL12 9RY,53.633918574278500,-2.136853913148110
asp and Skunk,1637370,BB10 3WA,53.790929280000000,-2.240887922000000
blindworm and soft-shelled turtle,628821,OL10 3JU,53.593166953875600,-2.243492194033190
mamba and Kite,624554,OL14 8LR,53.732589137005500,-2.137902382732590
Petrel and green turtle,1636519,BB11 4NT,53.785516120000000,-2.259251790000000
python and White ibis,1036110,HX2 0HZ,53.728865778117200,-1.894743692562740
Chickadee and wall lizard,628025,OL11 1JL,53.608714017877400,-2.152959157966440
habu and Egret,1034159,HX3 6PJ,53.736694158656200,-1.867300303936650
gavial and Petrel,625915,OL13 8NW,53.715484917884200,-2.231107369824700
Mamo and Skunk,1035816,HX2 6BP,53.714692255762900,-1.933400862326140
Stilt and blind snake,1075965,HD7 4QH,53.642524787930000,-1.851320008174700
garter snake and mamba,1631151,BB4 9LE,53.707954800000000,-2.248109120000000
diamondback turtle and blind snake,1035550,HX2 6QT,53.730488009326600,-1.940484844057730
Partridge and king cobra,625220,OL14 7JG,53.712043565673600,-2.120154038897120
copperhead and Shearwater,1036368,HX1 4JL,53.724335711350800,-1.884858602721600
Ground sloth and saltwater crocodile,1034983,HX2 9LN,53.753699081803200,-1.893984149714180
Duck and Jay,626184,OL12 9LS,53.646844980925300,-2.127486566659320
amphisbaena and boa,1035187,HX2 8RJ,53.750089879661900,-1.909885620051150
Triller and Songlark,1032288,HX6 3HT,53.686257319894600,-1.937685000000000
Magpie and rattlesnake,1636042,BB12 0DF,53.796680050000000,-2.246067387000000
bull snake and Grouse,1075781,HD7 5QQ,53.625436336743900,-1.857065000000000
bearded lizard and smooth snake,1034860,HX2 9DH,53.757966573523000,-1.891941005070970
harlequin snake and Old World warbler,1636491,BB11 4JX,53.784779510000000,-2.254876253000000
Chipmunk and Armadillo,1036425,HX1 2QF,53.720240422155700,-1.862351254161650
