name,postcode,lat,lon
Samosa chaat ,BB10 1QX,53.7998,-2.2397
The Thornton,BB10 3JS,53.7877,-2.2076
Burnley Football CLub,BB10 4BX,53.7885,-2.2303
Kettledrum Inn,BB10 4RG,53.7716,-2.1927
Towneley Garden Centre,BB10 4SD,53.7837,-2.2070
Ellis’s ,BB11 1AP,53.7914,-2.2432
Siam Thai Cafe,BB11 1BB,53.7903,-2.2444
Astoria (Burnley) Ltd,BB11 1DR,53.7890,-2.2444
Mr Greens Diner Ltd,BB11 1DW,53.7886,-2.2437
Brambles tearooms,BB11 1EP,53.7885,-2.2438
Illuminati,BB11 1NA,53.7888,-2.2457
Lancashire coffee ltd,BB11 1NH,53.7890,-2.2434
Quick Crepes Burnley,BB11 1NH,53.7890,-2.2434
RHODE ISLAND COFFEE LTD,BB11 1NH,53.7890,-2.2434
St James coffee House,BB11 1NL,53.7896,-2.2462
Starvin Marvin,BB11 1PP,53.7898,-2.2461
Costa Coffee,BB11 1QE,53.7894,-2.2430
McDonald's,BB11 1QL,53.7891,-2.2418
Salva Fast Food ,BB11 1QL,53.7891,-2.2418
Whats 4 Dessert,BB11 1RA,53.7898,-2.2547
Bannys Drive Thru,BB11 1TQ,53.7866,-2.2494
KFC BURNLEY 02032,BB11 1TQ,53.7866,-2.2494
Subway,BB11 1TQ,53.7866,-2.2494
The Bridge Bier Huis Ltd,BB11 1UH,53.7900,-2.2413
The Palazzo,BB11 2AS,53.7878,-2.2431
Ivy Joans Diner,BB11 2DB,53.7891,-2.2400
Aroma Asian Restaurant ,BB11 2DL,53.7913,-2.2391
Shimla spice,BB11 2DW,53.7908,-2.2381
star cafe ltd,BB11 2EQ,53.7879,-2.2402
Rosehill House Hotel Limited,BB11 2PW,53.7801,-2.2530
The Boathouse ,BB11 2RU,53.7931,-2.2366
Lahori Kebabish,BB11 3AB,53.7879,-2.2363
Towneley Golf Club,BB11 3ED,53.7771,-2.2324
Dine Experience Limited,BB11 3RF,53.7689,-2.2216
Cramptons Catering,BB11 3RW,53.7717,-2.2517
Chocstop dessert cafe ,BB11 4HU,53.7853,-2.2487
zil mil,BB11 4HU,53.7853,-2.2487
BALLERO,BB11 4SB,53.7889,-2.2607
New Waggonners ltd,BB11 5NS,53.7621,-2.2613
Holiday Inn Express Burnley M65 J10,BB12 0TJ,53.7939,-2.2564
The Old Library Waterfoot ,BB4 7AW,53.6920,-2.2501
The Hargreaves Arms Pub & Restaurant ,BB4 9PQ,53.7193,-2.2479
THE QUEENS HEAD,BD13 1NA,53.7781,-1.8690
Ring O Bells Inn Thornton,BD13 3QL,53.7947,-1.8646
WHITE HORSE INN,BD13 3SJ,53.7930,-1.8769
Emilys Eatery ,BD13 4EN,53.7954,-1.8931
The Church Inn,BL9 6UH,53.6060,-2.2600
IL CASTELLO LIMITED,BL9 7TB,53.6016,-2.2565
PINNACLE LIVING THE PAVILION LTD,BL9 7UJ,53.6076,-2.2500
The white swan,HD3 3YJ,53.6589,-1.8683
The Weavers Shed Restuarant,HD7 4AN,53.6380,-1.8501
The Golcar Lily Pub and Restaurant,HD7 4JR,53.6357,-1.8688
Bolster Moor Coffee Shop,HD7 4JU,53.6359,-1.8711
Scape house inn,HD7 4NJ,53.6442,-1.8680
The Haveli Restaurant LTD,HD7 4QA,53.6393,-1.8566
Destination ,HD7 5AB,53.6236,-1.8784
Om Is Where The Heart Is ,HD7 5AG,53.6242,-1.8787
Vanilla Bean ,HD7 5AN,53.6228,-1.8806
The Cookhouse Cafe,HD7 5AW,53.6229,-1.8817
ASHBY'S DELI CAFE LIMITED,HD7 5HF,53.6216,-1.8810
The Little Bridge,HD7 5HF,53.6216,-1.8810
Monsoon Tandoori,HD7 5HG,53.6215,-1.8806
Rose and crown ,HD7 5XA,53.6188,-1.9135
The New Inn,HD7 6EZ,53.6001,-1.9262
Pink Elephant ,HD9 4ES,53.5914,-1.8505
H Lounge,HD9 5NX,53.5931,-1.8514
Wills O Nats,HD9 5PS,53.6052,-1.8651
Blue Mountain Diner,HX1 1DD,53.7212,-1.8594
Cinnamon,HX1 1DJ,53.7215,-1.8591
Delicious Coffee Shop,HX1 1DJ,53.7215,-1.8591
La Luna cafebar diner ,HX1 1DJ,53.7215,-1.8591
THE GATE CAFE BAR,HX1 1DJ,53.7215,-1.8591
BROWNS CAFE,HX1 1DL,53.7221,-1.8599
Merrie England Coffee Shops Ltd,HX1 1DL,53.7221,-1.8599
Adams cafe halifax,HX1 1DZ,53.7224,-1.8593
Borough Kitchen,HX1 1DZ,53.7224,-1.8593
My Crepe,HX1 1DZ,53.7224,-1.8593
Top Door Espresso,HX1 1DZ,53.7224,-1.8593
KFC HALIFAX 02011,HX1 1HA,53.7221,-1.8625
Thai Corner 2 Ltd,HX1 1HX,53.7235,-1.8627
E.T. Harvey Ltd.,HX1 1LJ,53.7218,-1.8620
Alibi Halifax,HX1 1NH,53.7219,-1.8625
Deli indulge ,HX1 1NH,53.7219,-1.8625
Meandering Bear,HX1 1PR,53.7215,-1.8582
Romeo & Juliet,HX1 1PU,53.7209,-1.8588
Pride & Provenance,HX1 1QE,53.7212,-1.8564
Blondins Ice Cream Parlour,HX1 1RE,53.7219,-1.8575
The Deli,HX1 1RE,53.7219,-1.8575
The Trading Rooms,HX1 1RE,53.7219,-1.8575
COFFEE AT NO1,HX1 1RU,53.7234,-1.8579
Wool Merchant Hotel,HX1 1SP,53.7253,-1.8539
Little Lotus Halifax,HX1 1TH,53.7231,-1.8600
McDonald's Restaurant,HX1 1TN,53.7233,-1.8597
Subway,HX1 1TN,53.7233,-1.8597
Julio's Italian Restaurant Limited ,HX1 1TS,53.7237,-1.8603
Cafe Sol Diner Ltd,HX1 1TT,53.7232,-1.8609
Franganos (Halifax) ltd,HX1 1TT,53.7232,-1.8609
RICCI'S PLACE,HX1 1UG,53.7239,-1.8609
Jamocha Coffee Lounge ,HX1 1UR,53.7240,-1.8598
Kashmiri Aroma (Halifax) LLP,HX1 1YA,53.7239,-1.8622
Café Passion,HX1 2JF,53.7197,-1.8601
Sagra restaurant,HX1 2SB,53.7211,-1.8648
Whats 4 Dessert,HX1 3JL,53.7149,-1.8816
SHEESH MAHAL HFX LTD,HX1 3JP,53.7153,-1.8814
Pollino,HX1 3SU,53.7157,-1.8874
McDonald's Restaurant,HX1 4JT,53.7231,-1.8862
SPICY WAVES,HX1 4NJ,53.7248,-1.8816
La Tradizione Italian Pizzeria,HX1 5AB,53.7219,-1.8640
delhi wala food,HX1 5AB,53.7219,-1.8640
PAX,HX1 5AE,53.7221,-1.8648
Thai Style Restaurant,HX1 5DT,53.7232,-1.8636
Long Can Hall Halifax Ltd,HX2 0TQ,53.7363,-1.9025
The Secret Cafe,HX2 6EQ,53.7131,-1.9382
Wainhouse Tavern,HX2 7DR,53.7127,-1.8857
Maypole Inn,HX2 7RZ,53.7200,-1.9140
The Winterburn ,HX2 7SQ,53.7190,-1.9202
The Crossroads Inn,HX2 7TB,53.7477,-1.9305
Airtime Halifax,HX2 8DB,53.7424,-1.8855
Mags Cafe,HX2 8DB,53.7424,-1.8855
MUNCHIES,HX2 8EF,53.7485,-1.8939
The Moorlands Inn,HX2 8XD,53.7695,-1.8998
Ivy House Inn,HX2 9BB,53.7519,-1.8760
HOLDSWORTH HOUSE HOTEL,HX2 9TG,53.7577,-1.8753
Gower Furniture Staff Canteen ,HX2 9TN,53.7583,-1.8722
McDonald's Restaurant,HX3 0QE,53.7032,-1.8532
The Murgatroyd Arms,HX3 0RX,53.7025,-1.8637
B K RESTAURANT (YORKSHIRE) LTD,HX3 5AX,53.7282,-1.8640
Next Level Bar Ltd,HX3 5AX,53.7282,-1.8640
Stod Fold Tap,HX3 5AX,53.7282,-1.8640
TRUE NORTH RESTAURANT,HX3 5AX,53.7282,-1.8640
Thai Corner Dean Clough,HX3 5AX,53.7282,-1.8640
the mill bar and kitchen,HX3 5AX,53.7282,-1.8640
KFC HALEY HILL 02030,HX3 6AD,53.7278,-1.8571
The Prospect Pub & Dining,HX3 6JR,53.7321,-1.8588
Five Food ,HX3 6SN,53.7526,-1.8736
Shears inn,HX3 9EZ,53.7133,-1.8543
The Griffin Inn,HX4 0AQ,53.6759,-1.9142
The Fleece Countryside Inn,HX4 0DJ,53.6778,-1.9304
Taquitos,HX4 8AB,53.6870,-1.8552
Cafe Thai,HX4 8AD,53.6869,-1.8556
Catch West Vale Limited,HX4 8AD,53.6869,-1.8556
Cinnamon At The Mill ,HX4 8AD,53.6869,-1.8556
Cafe Italia,HX4 8BD,53.6857,-1.8576
Viaduct,HX4 8BD,53.6857,-1.8576
The Sportsmans Inn,HX4 8PL,53.6891,-1.8908
The Spring Rock Inn,HX4 8PT,53.6876,-1.8996
1885 the Pub,HX4 9HF,53.6721,-1.8818
The New Inn,HX4 9LB,53.6590,-1.8836
Syhiba Restaurant ,HX6 2AF,53.7098,-1.9057
Village restaurant ,HX6 2AF,53.7098,-1.9057
the larder delicatessen,HX6 2AF,53.7098,-1.9057
F S Halifax trading as Temujin Restaurant,HX6 2AG,53.7097,-1.9040
Gabriels Coffee Lounge,HX6 2AG,53.7097,-1.9040
THE MOORINGS,HX6 2AG,53.7097,-1.9040
Kipplings Indian Restaurent ,HX6 2EA,53.7085,-1.9113
The Olive Branch ,HX6 2EA,53.7085,-1.9113
Wharf Cafe Bar at Sowerby Bridge LTD,HX6 2LA,53.7094,-1.9085
KUJA LIMITED,HX6 2QD,53.7083,-1.9122
The Willow Tree Cafe,HX6 3AH,53.7072,-1.9127
Del Taverns and Estates,HX6 3LF,53.7092,-1.8999
New Hobbit,HX6 3QL,53.7002,-1.9130
The Moorcock Inn,HX6 3RP,53.6932,-1.9200
Stanley's Kitchen,HX6 4BG,53.6747,-1.9416
The Lion Pub and Grill,HX6 4BQ,53.6749,-1.9414
Old Bridge Inn Ltd.,HX6 4DF,53.6744,-1.9401
the larder delicatessen,HX6 4EB,53.6700,-1.9477
Cinnamon Lounge ,HX6 4EW,53.6653,-1.9490
Just Scrumptious,HX6 4EW,53.6653,-1.9490
The Alma Inn,HX6 4NS,53.6897,-1.9595
Beehive inn,HX6 4NX,53.6736,-1.9516
Booth Wood Inn,HX6 4QU,53.6487,-1.9490
Shoulder of mutton ,HX7 5DZ,53.7296,-1.9827
Aux Delices,HX7 5LH,53.7308,-1.9827
The Blue Teapot,HX7 5LL,53.7308,-1.9817
Kitchen (West Yorkshire) ,HX7 5LN,53.7302,-1.9790
The hinchliffe arms,HX7 5TA,53.7032,-2.0038
Kitties Restaurant,HX7 6AA,53.7414,-2.0171
Mooch Cafe Bar,HX7 6AA,53.7414,-2.0171
Chapter 17 ,HX7 6EU,53.7412,-2.0159
The Coffee station ,HX7 6JE,53.7377,-2.0085
The Stubbing Wharf,HX7 6LU,53.7408,-2.0278
The Town Hall Cafe Ltd,HX7 7BY,53.7425,-2.0132
La Perla,HX7 7DD,53.7438,-2.0127
Rim Nam Thai Restaurant,HX7 8AF,53.7403,-2.0123
Cinnamon at the bridge Ltd,HX7 8AH,53.7413,-2.0114
Leila's Kitchen,HX7 8AH,53.7413,-2.0114
Lhamo's Taste of the East Ltd,HX7 8AH,53.7413,-2.0114
Squeeze Sandwiches & Smoothies,HX7 8EH,53.7416,-2.0128
Il Mulino Italian Restaurant ,HX7 8ET,53.7421,-2.0123
Little H Cafe,HX7 8ET,53.7421,-2.0123
Mijo,HX7 8ET,53.7421,-2.0123
Square One Coffee Co.,HX7 8ET,53.7421,-2.0123
AyaSophia,HX7 8EX,53.7416,-2.0132
Shoulder of Mutton,HX7 8EX,53.7416,-2.0132
The AP Hotel Company Limited T/A The White Lion Hotel,HX7 8EX,53.7416,-2.0132
Watergate Tea Rooms,HX7 8EX,53.7416,-2.0132
Old Gate Bar & Restaurant,HX7 8JP,53.7416,-2.0145
Robinhoodinn ,HX7 8QR,53.7622,-2.0046
Hare and Hounds Inn,HX7 8TN,53.7455,-1.9976
Olive branch,HX7 8UQ,53.7410,-2.0142
The Black Ladd,OL1 4ST,53.5774,-2.0641
THE BIRD AT BIRTLE,OL10 4BQ,53.6050,-2.2328
Bella Sera,OL10 4DX,53.5933,-2.2112
Naga naga chilli,OL10 4NN,53.5936,-2.2177
SUBWAY,OL10 4PN,53.5947,-2.2240
Possabilities Social Lounge,OL10 4SY,53.5961,-2.2332
Le Latte ,OL11 1DN,53.6117,-2.1543
Chaiiwala Rochdale,OL11 1EB,53.6104,-2.1568
Cuckoos Cafe & Grill,OL11 1EB,53.6104,-2.1568
Jungle Grill,OL11 1EF,53.6119,-2.1597
Shish cafe ,OL11 1HH,53.6100,-2.1583
McDonalds Sandbrook Park,OL11 1RY,53.6024,-2.1634
SUBWAY SANDBROOK PARK,OL11 1RY,53.6024,-2.1634
Coco’s Grill House & Desserts,OL11 1TU,53.6011,-2.1572
LA Scala (pvt) Ltd,OL11 2AL,53.5979,-2.1455
Blue diamond chinese restaurant,OL11 2ER,53.6028,-2.1464
meraki scents,OL11 2JG,53.5940,-2.1562
Norton Grange Hotel & Spa,OL11 2XZ,53.5805,-2.1742
FLIP OUT ROCHDALE,OL11 3EX,53.5979,-2.1736
The Royal Toby Hotel,OL11 3HF,53.5984,-2.1802
THE PLOUGH,OL11 3LW,53.6025,-2.1876
The Hare and Hounds,OL11 4AA,53.6073,-2.2079
The Elephant & Castle,OL11 4AU,53.6106,-2.1969
Suburb cafe,OL11 4DQ,53.6126,-2.1883
Sweet coffee ,OL11 5AQ,53.6223,-2.1887
The Grapes,OL11 5PN,53.6131,-2.2090
La Dolce Vita,OL11 5QY,53.6147,-2.2072
TREE & TOAD LTD,OL12 0NU,53.6195,-2.1603
Ruchi Indian Restaurant ,OL12 0RD,53.6246,-2.1561
THE OXFORD(ROCHDALE)LTD,OL12 0TB,53.6368,-2.1690
Pepe's Piri Piri Rochdale,OL12 0UW,53.6223,-2.1526
The Healey ,OL12 6LW,53.6311,-2.1732
Eastern Restaurant & Takeaway,OL12 6PE,53.6191,-2.1635
Subway Aldi Rochdale,OL12 6XD,53.6147,-2.1674
NUTTERS RESTAURANT,OL12 7TT,53.6319,-2.2327
Owd Betts,OL12 7TY,53.6406,-2.2590
Basils Restaurant Whitworth,OL12 8PW,53.6549,-2.1768
Samson Beer Company Limited,OL12 8PY,53.6554,-2.1730
Nibbles Café,OL12 8QS,53.6612,-2.1740
Ashoka Restaurant,OL12 8QW,53.6603,-2.1740
Nok ThaiCuisine ,OL12 8RU,53.6449,-2.1810
Marios of Bacup Ltd,OL13 0AT,53.7003,-2.2008
Lucy Lous Cafe,OL13 0DH,53.6932,-2.2094
Rose 'n' Bowl,OL13 0UG,53.6922,-2.2223
Dolce & Gelato,OL13 8AB,53.7042,-2.2023
The street food kitchen,OL13 8EX,53.7030,-2.2014
Anna's Cafe-Bar,OL13 8QE,53.7239,-2.1982
Zee Desserts,OL13 9NH,53.7032,-2.2005
1832 Barista,OL13 9NJ,53.7027,-2.2000
The Old Boot Cafe & Wine Bar,OL13 9NJ,53.7027,-2.2000
The Boardroom,OL14 5AA,53.7131,-2.0980
The Honest John Bar & Coffee Tavern,OL14 5AA,53.7131,-2.0980
The Cafe,OL14 5AB,53.7130,-2.0978
Exchange Coffee Company Todmorden,OL14 5AJ,53.7140,-2.0966
The little bird cafe,OL14 5BB,53.7142,-2.0936
The Copper Tree,OL14 5EY,53.7168,-2.0982
The Top Brink Inn Ltd,OL14 6JB,53.7085,-2.0677
The Shepherds Rest Inn,OL14 6JJ,53.7050,-2.0846
Site Restaurant Ltd,OL14 6LD,53.7118,-2.0995
THE THREE LADY CHEFS LTD,OL14 6LZ,53.7122,-2.0987
The White Rabbit,OL14 7BD,53.7141,-2.0978
Bombay lounge lydgate limited,OL14 7DH,53.7259,-2.1181
Glen view inn,OL14 7EW,53.7314,-2.1504
The Vedas,OL14 7LD,53.7123,-2.0992
Tea Rooms at Gordon Rigg Nurseries,OL14 7TJ,53.6897,-2.1019
Border Rose Inn,OL14 7UA,53.6879,-2.1004
Hare and Hounds ,OL14 8EA,53.7220,-2.1092
staff of life inn,OL14 8JF,53.7274,-2.1285
The waterside restaurant,OL15 0AY,53.6418,-2.0955
The Wine Press,OL15 0AZ,53.6346,-2.0965
Lake lounge,OL15 0DQ,53.6315,-2.1028
Riva Italian Limited,OL15 0DQ,53.6315,-2.1028
The Olive & Pickle,OL15 0DQ,53.6315,-2.1028
The Moorcock Inn,OL15 0LD,53.6513,-2.0734
The White House,OL15 0LG,53.6564,-2.0495
Back2Work Kitchen Downstairs,OL15 8AU,53.6437,-2.0978
Back2Work Kitchen,OL15 8AU,53.6437,-2.0978
Autumn Holdings Limited ,OL15 8NL,53.6391,-2.1168
Rebecca's coffee shop,OL15 9AB,53.6442,-2.0965
The Cherry tree cafe ,OL15 9AE,53.6442,-2.0952
The Hairy Bear Beer Co Limited,OL15 9HL,53.6484,-2.1005
LITTLEBOROUGH CRICKET CLUB,OL15 9LD,53.6492,-2.0989
Waterfall Tea Rooms,OL15 9LZ,53.6695,-2.0836
The Summit Inn,OL15 9QX,53.6646,-2.0826
Cuppaccino Littleborough Ltd,OL15 9RP,53.6474,-2.0993
The Medicine Tap,OL16 1AE,53.6166,-2.1589
Bean,OL16 1BE,53.6177,-2.1544
Heavenly Desserts Rochdale,OL16 1BE,53.6177,-2.1544
Pudding Paradise,OL16 1DR,53.6196,-2.1550
La Mancha ,OL16 1ES,53.6173,-2.1577
Subway,OL16 1JG,53.6175,-2.1576
Vicolos Ltd,OL16 1JG,53.6175,-2.1576
Knockout Kitchen Ltd,OL16 1JJ,53.6177,-2.1579
Russells of Rochdale,OL16 1JZ,53.6185,-2.1556
Gumboo Hotels Limited,OL16 1NJ,53.6158,-2.1574
Funkie Fusion Limited,OL16 1RE,53.6167,-2.1560
the castle cafe,OL16 1SR,53.6156,-2.1509
PLAYERS ROCHDALE,OL16 1UA,53.6146,-2.1530
Sahara Rochdale,OL16 2DR,53.6218,-2.1482
indialicious caterers limited,OL16 2US,53.6217,-2.1328
Bellavista,OL16 3JW,53.6147,-2.1089
Haydens Kitchen at The Gallows,OL16 3JW,53.6147,-2.1089
The Waggon inn,OL16 3PE,53.6071,-2.1043
Char,OL16 3QF,53.6004,-2.0972
the cedar tree,OL16 3RF,53.6012,-2.0880
The Milnrow Balti Restaurant ,OL16 4HS,53.6104,-2.1118
Bank chambers ,OL16 4LU,53.5998,-2.0974
The Fair View Inn,OL16 4QQ,53.5904,-2.1250
Bistro at Gordon Rigg Nurseries,OL16 4UX,53.6055,-2.1385
McDonalds Kingsway Retail Park,OL16 5AF,53.6151,-2.1283
Khans original ,OL16 5DN,53.6137,-2.1413
Asda CDC,OL16 5EB,53.6097,-2.1400
the halfway house ( nw ) ltd,OL2 5RY,53.5764,-2.1317
Turks Head (2014) Ltd,OL2 6UP,53.5835,-2.1316
THE PUCKERSLEY INN ,OL2 6YD,53.5817,-2.1240
THE NORTH  STAR,OL2 7PR,53.5850,-2.1100
Bengal brasserie,OL2 8AP,53.5784,-2.0931
The Morning Star,OL2 8HZ,53.5779,-2.0850
Naughty but nice,OL2 8NH,53.5770,-2.0939
Donnelly's,OL2 8NR,53.5770,-2.0935
Junction Inn,OL3 5SE,53.5931,-2.0412
The Printers Arms,OL3 5SN,53.5896,-2.0426
THE RAMS HEAD INN,OL3 5UN,53.5993,-2.0365
