name,postcode,lat,lon
Gila monster and Shearwater,DG6 4AH,54.833977076880600,-4.052680187614610
Bunting and Prion,DG6 4HD,54.831627737535900,-4.055534890277480
Kākāriki and Perching duck,DG6 4NP,54.869396444769900,-4.071030000000000
Treepie and New World blackbird,DG6 4RT,54.839981000000000,-4.053810000000000
mountain devil and Nukupuʻu,DG6 4SD,54.845531384828500,-4.091910725484290
green turtle and frilled lizard,DG7 2AR,54.892863000000000,-4.075760000000000
Francolin and boa,DG7 2EU,54.845015491680800,-4.279279753337360
blind snake and Puffleg,DG7 2EY,54.844868471193000,-4.301358780577540
Black jay and sidewinder,DG7 2LA,54.882403299153300,-4.191697578744220
frilled lizard and whip snake,DG7 2NR,54.884029000000000,-4.183335000000000
sand viper and cobra,DG8 6AZ,54.934598751769500,-4.461191967589890
blue racer and Thicketbird,DG8 7AB,54.982419077837200,-4.455037251640230
leathery turtle and Flameback,DG8 7EP,54.917581038658200,-4.368114573831460
habu and Guillemot,DG8 7EX,54.909837698145300,-4.354445027713960
python and rattlesnake,DG8 7JL,54.898120000000000,-4.379674276906110
Parrotbill and Piping shrike,DG8 8BP,54.787786390036200,-4.370567268790670
Coati and cobra de capello,DG8 8BQ,54.788497141951200,-4.368695609684050
gopher snake and River dolphin,DG8 8EN,54.794903954516200,-4.430600569437860
gopher snake and Eagle,DG8 8HF,54.781274424778200,-4.368926445965110
Triller and Francolin,DG8 9JF,54.869125333686300,-4.445462682450830
asp and Tit-tyrant,DG8 9TL,54.880495135208300,-4.451327699324010
