name,postcode,lat,lon
Pizza Hut,CH46 0PD,53.4006,-3.1108
M & Ems ltd t/a Subway,CH46 0RL,53.3997,-3.1149
Cafe Blu ,CH46 0SJ,53.4010,-3.1121
Mockbeggar Hall  Wetherspoons,CH46 0SL,53.4003,-3.1141
Leasowe Castle Hotel,CH46 3RF,53.4186,-3.1080
saughall hotel ,CH46 5ND,53.3896,-3.1235
Asma Turkish Restaurant,CH46 6DQ,53.3961,-3.1254
Fullhouse Chinese Restaurant,CH47 2AB,53.3906,-3.1785
Nine Leaves Tea Lounge,CH47 2AB,53.3907,-3.1787
Monte Carlo restaurant bar and grill,CH47 2AE,53.3913,-3.1784
The Potting Shed,CH47 2AE,53.3913,-3.1785
Khao Soi Thai Restaurant,CH47 2AF,53.3920,-3.1776
The Artizan Hoylake,CH47 2AF,53.3920,-3.1776
Flavours,CH47 2BG,53.3932,-3.1767
The Quadrant Restaurant,CH47 2EE,53.3904,-3.1799
ground ,CH47 2EE,53.3904,-3.1799
Popsy's Licensed Coffee Shop And Bistro,CH47 3AG,53.3977,-3.1744
Bank Coffee Shop,CH47 3BB,53.3929,-3.1762
Subway,CH47 3BB,53.3929,-3.1762
Mother India Kitchen,CH47 3BD,53.3941,-3.1751
Julian's Restaurant,CH47 3BW,53.3970,-3.1719
Heima Coffee,CH47 8XA,53.3998,-3.1556
Maple Gardens Cafe ,CH47 8XT,53.4075,-3.1490
ATRIUM RESTAURANT,CH47 9RE,53.3943,-3.1418
Lattetude,CH48 0QA,53.3728,-3.1855
Royal Bengal Restaurant,CH48 0QB,53.3683,-3.1833
Pebbles(Hoylake)Ltd,CH48 0QG,53.3725,-3.1884
Subway,CH48 0QX,53.3718,-3.1842
The Tapas Kitchen,CH48 0RB,53.3680,-3.1826
Love Brownies West Kirby,CH48 0RD,53.3719,-3.1848
PICKLED WALNUT,CH48 0RD,53.3717,-3.1847
Rubens Coffee Ltd,CH48 0RD,53.3720,-3.1848
Green Onions Cafe,CH48 0RE,53.3703,-3.1842
The Nook Cafe,CH48 0RE,53.3705,-3.1842
shuhel balti house,CH48 0RE,53.3697,-3.1839
Andres Restaurant,CH48 0RF,53.3689,-3.1836
CALDY GOLF CLUB,CH48 1NB,53.3540,-3.1539
The Caldy Golf Club Limited,CH48 1NB,53.3540,-3.1539
Annabel's Cafe,CH48 1PL,53.3744,-3.1470
JJ Jacobs Estates Ltd,CH48 1PP,53.3729,-3.1354
Hickory's Smokehouse,CH48 3JN,53.3673,-3.1750
Aubergine Café,CH48 4DA,53.3722,-3.1838
Hannah's West Kirby,CH48 4DD,53.3724,-3.1833
The Sweet Pea Cafe,CH48 4DD,53.3726,-3.1829
Forza ,CH48 4DY,53.3735,-3.1845
Grand Ave,CH48 4DY,53.3736,-3.1844
Karma indian food ,CH48 4DY,53.3736,-3.1844
The Wro,CH48 4DY,53.3736,-3.1844
West Kirby Tap,CH48 4DY,53.3736,-3.1844
toast,CH48 4DZ,53.3730,-3.1835
Costa Coffee,CH48 4EF,53.3728,-3.1825
Dee Hotel - Wetherspoons,CH48 4EF,53.3728,-3.1825
Figo's Mediterranean Kitchen ,CH48 4EG,53.3729,-3.1814
Blind Pig West Kirby,CH48 4HD,53.3727,-3.1846
Leaf Tea Shop & Bar West Kirby Venue Ltd,CH48 6DS,53.3742,-3.1685
The Ridger,CH48 9XW,53.3729,-3.1524
THE VILLAGE CAFE,CH49 0TH,53.3847,-3.0980
Noya Mediterranean Restaurant,CH49 0TQ,53.3850,-3.0978
Kerala Kitchen,CH49 0UB,53.3837,-3.0985
Re-Fuel Cafe,CH49 1AB,53.3762,-3.1025
Oak Bar and Bistro,CH49 3NQ,53.3770,-3.1206
IRBY MILL LTD,CH49 3NT,53.3677,-3.1228
McDonalds,CH49 6QG,53.3796,-3.1023
107 ltd,CH60 0AF,53.3277,-3.0984
AJS TEA ROOM & BAR,CH60 0AF,53.3280,-3.0986
Barton Rouge,CH60 0AH,53.3272,-3.0954
Blind Pig Heswall,CH60 0AH,53.3273,-3.0958
Gusto Italian,CH60 0AH,53.3272,-3.0955
Pizza Express,CH60 0AH,53.3272,-3.0954
Silk Rd Heswall,CH60 0AH,53.3272,-3.0954
Paolos Neapolitan Pizza Ltd,CH60 0AJ,53.3278,-3.0968
Rubens Coffee Ltd,CH60 0AJ,53.3278,-3.0968
The Coffee Shop,CH60 0AJ,53.3278,-3.0968
Burnt Truffle Limited,CH60 0AQ,53.3262,-3.0932
Stones,CH60 0AQ,53.3262,-3.0932
WYLDE COFFEE,CH60 0AQ,53.3262,-3.0932
Black Horse Hotel,CH60 0DP,53.3240,-3.1021
The Jug & Bottle,CH60 4RH,53.3266,-3.0997
Tel Island Food Bar ,CH60 5RT,53.3279,-3.0948
Barcode Cafe and Bar,CH60 7RE,53.3295,-3.0979
Nova Restaurant ,CH60 7RE,53.3295,-3.0979
Brunch Cafe,CH60 7RJ,53.3352,-3.0968
M & Ems ltd t/a Subway,CH60 7SE,53.3286,-3.1002
Costa Coffee,CH60 7SG,53.3292,-3.1000
Sheldrakes Restaurant ,CH60 9JS,53.3257,-3.1194
Shippons,CH61 3UA,53.3523,-3.1188
Zeera Restaurant,CH61 3UA,53.3523,-3.1190
Aroma ,CH61 3UE,53.3526,-3.1172
Dine India ,CH61 9ND,53.3437,-3.0945
Penymaes stores ,CH8 7BX,53.2762,-3.2096
The Ship Inn ,CH8 7EY,53.2859,-3.2023
Doris’s Bunker,CH8 9BD,53.3119,-3.3246
Cafe at Abakhan,CH8 9DX,53.3008,-3.2330
THE POINT,CH8 9RD,53.3491,-3.3222
Talacre Beach Caravan Resort,CH8 9RD,53.3495,-3.3206
KFC,LL18 1BA,53.3194,-3.4915
SC2,LL18 1BF,53.3209,-3.4963
KFC,LL18 1BG,53.3203,-3.4903
Tilly's Rhyl,LL18 1BG,53.3203,-3.4903
Les & Rita’s Fish Bar,LL18 1BN,53.3191,-3.4926
McDonald's,LL18 1ES,53.3216,-3.4915
McDonalds,LL18 1ES,53.3216,-3.4915
Piazza Reastaurant,LL18 1ES,53.3217,-3.4915
Subway,LL18 1ES,53.3216,-3.4915
Costa Coffee,LL18 1ET,53.3210,-3.4908
Sayers Cafe,LL18 1EW,53.3218,-3.4903
Geronimos Cafe at the Palace,LL18 1HG,53.3200,-3.4960
Jays cafe ltd,LL18 1RL,53.3203,-3.4907
Costa Coffee,LL18 2PH,53.3160,-3.4775
Pizza Hut,LL18 2TJ,53.3042,-3.4693
The kingshead pub,LL18 2TU,53.2913,-3.4657
The New Inn Rhuddlan,LL18 2TY,53.2909,-3.4669
Porter's Coffee Shop,LL18 3AA,53.3217,-3.4890
SeaQuarium ,LL18 3AF,53.3243,-3.4885
Apollo Bingo Rhyl,LL18 3HD,53.3200,-3.4874
The laughing Buddha ,LL18 3PP,53.3274,-3.4700
Lyons Robin Hood Holiday Park,LL18 3UU,53.3290,-3.4519
Rhyl Rugby Services Ltd,LL18 4AQ,53.3199,-3.4786
New Pines holiday Home park,LL18 4DY,53.3206,-3.4531
KFC,LL18 5AQ,53.2878,-3.4723
The Old Crown at The Castle,LL18 5AW,53.2906,-3.4648
HARVEYS RHUDDLAN,LL18 5UA,53.2892,-3.4699
The village massala,LL18 5UA,53.2892,-3.4699
KFC,LL18 5UB,53.2897,-3.4730
WHISTLESTOP CAFE,LL18 5UZ,53.2886,-3.4778
craig fawr cafe,LL18 6DD,53.3117,-3.4166
The Potting Shed Cafe,LL18 6EB,53.3052,-3.3541
Eagle & Child Inn,LL18 6EJ,53.3188,-3.3908
Prestatyn Sands Holiday Park,LL19 7LA,53.3414,-3.4042
BEACHES HOTEL LTD,LL19 7LG,53.3445,-3.4032
Jolly Sailor,LL19 8BP,53.3273,-3.4201
Red Lion,LL19 8LA,53.3175,-3.4088
The Yew Tree Catering Company,LL19 8NB,53.3212,-3.4049
Caffi y shed,LL19 8PY,53.3154,-3.4101
M & Ems ltd t/a Subway,LL19 9AH,53.3351,-3.4045
The Hideaway 131 Limited,LL19 9AS,53.3333,-3.4022
Tudor House Cafe Bar,LL19 9AS,53.3333,-3.4022
CookHouse Pub & Carvery,LL19 9BB,53.3354,-3.4058
Patagonia Welsh Roots Limited,LL19 9BE,53.3345,-3.4046
Chynna garden,LL19 9BH,53.3341,-3.4039
Lets Paint Pottery & Ice Cream Bar ,LL19 9BN,53.3335,-3.4031
La Ricetta,LL19 9BP,53.3323,-3.4015
Lyons Nant Hall Hotel,LL19 9LD,53.3386,-3.3902
Presthaven Sands Burger King,LL19 9TT,53.3496,-3.3508
