name,postcode,lat,lon
M & Ems ltd t/a Subway,CH46 0RL,53.399557000000000,-3.115257000000000
Cafe Blu ,CH46 0SJ,53.401014468393700,-3.112121966291440
Leasowe Castle Hotel,CH46 3RF,53.418368000000000,-3.107835000000000
saughall hotel ,CH46 5ND,53.389599890218900,-3.123477939169010
Asma Turkish Restaurant,CH46 6DQ,53.396025888335900,-3.125512085433030
Fullhouse Chinese Restaurant,CH47 2AB,53.390730366497800,-3.178694822040040
Nine Leaves Tea Lounge,CH47 2AB,53.390730366497800,-3.178694822040040
Monte Carlo restaurant bar and grill,CH47 2AE,53.391254561990700,-3.178515000000000
The Potting Shed,CH47 2AE,53.391254561990700,-3.178515000000000
Khao Soi Thai Restaurant,CH47 2AF,53.391946154148900,-3.177555470615520
The Artizan Hoylake,CH47 2AF,53.391946154148900,-3.177555470615520
Flavours,CH47 2BG,53.393195358486500,-3.176672627198790
The Quadrant Restaurant,CH47 2EE,53.390439600144400,-3.179919845401260
ground ,CH47 2EE,53.390439600144400,-3.179919845401260
Popsy's Licensed Coffee Shop And Bistro,CH47 3AG,53.397739048622800,-3.174421704842570
Bank Coffee Shop,CH47 3BB,53.392921957711800,-3.176274000000000
Subway,CH47 3BB,53.392921957711800,-3.176274000000000
Mother India Kitchen,CH47 3BD,53.394201000000000,-3.175087492192850
Julian's Restaurant,CH47 3BW,53.396999416212100,-3.171934839767290
Heima Coffee,CH47 8XA,53.399846954243200,-3.155543655162920
Maple Gardens Cafe ,CH47 8XT,53.408012358175400,-3.148679532139290
ATRIUM RESTAURANT,CH47 9RE,53.394546000000000,-3.142256000000000
Lattetude,CH48 0QA,53.372792665910700,-3.185489461417650
Royal Bengal Restaurant,CH48 0QB,53.368274973280300,-3.183289924920960
Pebbles(Hoylake)Ltd,CH48 0QG,53.372475947619600,-3.188411705873310
Subway,CH48 0QX,53.371753757269200,-3.184198024916970
The Tapas Kitchen,CH48 0RB,53.368003684250800,-3.182666000000000
Love Brownies West Kirby,CH48 0RD,53.371685779599100,-3.184707182707530
PICKLED WALNUT,CH48 0RD,53.371685779599100,-3.184707182707530
Rubens Coffee Ltd,CH48 0RD,53.371685779599100,-3.184707182707530
Green Onions Cafe,CH48 0RE,53.370225872623900,-3.184170666619960
The Nook Cafe,CH48 0RE,53.370225872623900,-3.184170666619960
shuhel balti house,CH48 0RE,53.370225872623900,-3.184170666619960
Andres Restaurant,CH48 0RF,53.368873653862300,-3.183652203762570
CALDY GOLF CLUB,CH48 1NB,53.354009682301300,-3.153867419038520
The Caldy Golf Club Limited,CH48 1NB,53.354009682301300,-3.153867419038520
Annabel's Cafe,CH48 1PL,53.374325000000000,-3.146540000000000
JJ Jacobs Estates Ltd,CH48 1PP,53.372928787405200,-3.135439677091650
Hickory's Smokehouse,CH48 3JN,53.367287657719800,-3.174951441535550
Aubergine Café,CH48 4DA,53.372198726160000,-3.183744413258260
Hannah's West Kirby,CH48 4DD,53.372400903980500,-3.182923000000000
The Sweet Pea Cafe,CH48 4DD,53.372400903980500,-3.182923000000000
Forza ,CH48 4DY,53.373478901011400,-3.184457000000000
Grand Ave,CH48 4DY,53.373478901011400,-3.184457000000000
Karma indian food ,CH48 4DY,53.373478901011400,-3.184457000000000
The Wro,CH48 4DY,53.373478901011400,-3.184457000000000
West Kirby Tap,CH48 4DY,53.373478901011400,-3.184457000000000
toast,CH48 4DZ,53.372963339121700,-3.183690464039300
Figo's Mediterranean Kitchen ,CH48 4EG,53.372913782062000,-3.181434420233880
Blind Pig West Kirby,CH48 4HD,53.372666819019300,-3.184584103155750
Leaf Tea Shop & Bar West Kirby Venue Ltd,CH48 6DS,53.374156406551200,-3.168436460223530
The Ridger,CH48 9XW,53.374312031098800,-3.152432080044420
Noya Mediterranean Restaurant,CH49 0TQ,53.384949098646300,-3.097765445786220
Kerala Kitchen,CH49 0UB,53.383720238005600,-3.098577000000000
Re-Fuel Cafe,CH49 1AB,53.376212740891500,-3.102531381622480
Oak Bar and Bistro,CH49 3NQ,53.376943597989100,-3.120574161145210
IRBY MILL LTD,CH49 3NT,53.367736271557700,-3.122752157989090
107 ltd,CH60 0AF,53.327700711910800,-3.098396980178280
AJS TEA ROOM & BAR,CH60 0AF,53.327700711910800,-3.098396980178280
Barton Rouge,CH60 0AH,53.327225047785900,-3.095545000000000
Blind Pig Heswall,CH60 0AH,53.327225047785900,-3.095545000000000
Gusto Italian,CH60 0AH,53.327225047785900,-3.095545000000000
Silk Rd Heswall,CH60 0AH,53.327225047785900,-3.095545000000000
Paolos Neapolitan Pizza Ltd,CH60 0AJ,53.327796513405200,-3.096897000000000
Rubens Coffee Ltd,CH60 0AJ,53.327796513405200,-3.096897000000000
The Coffee Shop,CH60 0AJ,53.327796513405200,-3.096897000000000
Burnt Truffle Limited,CH60 0AQ,53.326202658844700,-3.093163450328560
Stones,CH60 0AQ,53.326202658844700,-3.093163450328560
WYLDE COFFEE,CH60 0AQ,53.326202658844700,-3.093163450328560
Black Horse Hotel,CH60 0DP,53.323892000000000,-3.102086292071710
The Jug & Bottle,CH60 4RH,53.326727000000000,-3.099768000000000
Barcode Cafe and Bar,CH60 7RE,53.329512353252600,-3.097993000000000
Nova Restaurant ,CH60 7RE,53.329512353252600,-3.097993000000000
Brunch Cafe,CH60 7RJ,53.335321000000000,-3.096757633553410
M & Ems ltd t/a Subway,CH60 7SE,53.328484923041600,-3.099921000000000
Costa Coffee,CH60 7SG,53.329142220553600,-3.099995641698400
Isabelles,CH60 7SG,53.329142220553600,-3.099995641698400
Sheldrakes Restaurant ,CH60 9JS,53.325734480850100,-3.119411707464670
Shippons,CH61 3UA,53.352247653319000,-3.118755000000000
Zeera Restaurant,CH61 3UA,53.352247653319000,-3.118755000000000
Aroma ,CH61 3UE,53.352560830736300,-3.117200022694530
Dine India ,CH61 9ND,53.343683269950400,-3.094496868288690
Doris’s Bunker,CH8 9BD,53.311883756886200,-3.324547565887400
Cafe at Abakhan,CH8 9DX,53.300775276078700,-3.232952614950850
Talacre Beach Caravan Resort,CH8 9RD,53.349220000000000,-3.321904000000000
SC2,LL18 1BF,53.320865000000000,-3.496338000000000
KFC,LL18 1BG,53.320172217591500,-3.490577476453130
Tilly's Rhyl,LL18 1BG,53.320172217591500,-3.490577476453130
Les & Rita’s Fish Bar,LL18 1BN,53.319058868963200,-3.492625438521240
McDonald's,LL18 1ES,53.321598661703300,-3.491528019371970
Piazza Reastaurant,LL18 1ES,53.321598661703300,-3.491528019371970
Subway,LL18 1ES,53.321598661703300,-3.491528019371970
Sayers Cafe,LL18 1EW,53.321776348601300,-3.490258054096660
Jays cafe ltd,LL18 1RL,53.320333396327400,-3.490628134421130
Costa Coffee,LL18 2PH,53.315930755664500,-3.477444592909960
The kingshead pub,LL18 2TU,53.291254431119300,-3.465790645744510
The New Inn Rhuddlan,LL18 2TY,53.290792232218800,-3.466974000000000
Porter's Coffee Shop,LL18 3AA,53.321738741450800,-3.488950553950480
SeaQuarium ,LL18 3AF,53.324245000000000,-3.488482000000000
Apollo Bingo Rhyl,LL18 3HD,53.320023000000000,-3.487465000000000
The laughing Buddha ,LL18 3PP,53.327412249512300,-3.470018219710110
Lyons Robin Hood Holiday Park,LL18 3UU,53.329036295473100,-3.451919506402900
Rhyl Rugby Services Ltd,LL18 4AQ,53.319882000000000,-3.478588000000000
New Pines holiday Home park,LL18 4DY,53.320598524801500,-3.453119297406500
The Old Crown at The Castle,LL18 5AW,53.290637037651000,-3.464824334277880
HARVEYS RHUDDLAN,LL18 5UA,53.289155000000000,-3.469889000000000
The village massala,LL18 5UA,53.289155000000000,-3.469889000000000
KFC,LL18 5UB,53.289623684987300,-3.474106129084050
WHISTLESTOP CAFE,LL18 5UZ,53.288625716008900,-3.477524000000000
craig fawr cafe,LL18 6DD,53.311734000000000,-3.416637334480880
The Potting Shed Cafe,LL18 6EB,53.305187020530800,-3.354130297074770
Eagle & Child Inn,LL18 6EJ,53.318744102691900,-3.390754443004570
New Inn,LL18 6ET,53.301901162682400,-3.417954069229010
Prestatyn Sands Holiday Park,LL19 7LA,53.341375506073000,-3.404138124995560
BEACHES HOTEL LTD,LL19 7LG,53.344488023671200,-3.403188912075490
Jolly Sailor,LL19 8BP,53.327261709864000,-3.420116450335680
Red Lion,LL19 8LA,53.317507289392900,-3.408818713156360
The Yew Tree Catering Company,LL19 8NB,53.321193870921900,-3.404931614509980
Caffi y shed,LL19 8PY,53.315434253220600,-3.410041398652020
M & Ems ltd t/a Subway,LL19 9AH,53.335107000000000,-3.404581716170190
Tudor House Cafe Bar,LL19 9AS,53.333325897971700,-3.402191696033140
CookHouse Pub & Carvery,LL19 9BB,53.335515545602200,-3.405567572236040
Patagonia Welsh Roots Limited,LL19 9BE,53.334529599023900,-3.404558976938190
Chynna garden,LL19 9BH,53.334096886329400,-3.403898989135480
Lets Paint Pottery & Ice Cream Bar ,LL19 9BN,53.333512997839600,-3.403098892740940
La Ricetta,LL19 9BP,53.332381324414800,-3.401484932772240
Kims Kitchen,LL19 9BW,53.333008389089200,-3.402436576678510
Lyons Nant Hall Hotel,LL19 9LD,53.338608735111600,-3.390154244804000
