name,postcode,lat,lon
Diving bird and Fulmarine petrel,CH46 0PQ,53.399458340299300,-3.112231782410190
Capuchin and rattlesnake,CH46 0QX,53.397354383542400,-3.119019941256710
coral snake and Thrasher,CH46 0RU,53.396796000000000,-3.114463000000000
Chickadee and Mole,CH46 0TX,53.395234664810300,-3.116919029243750
asp and puff adder,CH46 0UA,53.393996502575100,-3.109923798130810
Solitaire and mamba,CH46 1PH,53.414617653244700,-3.089396812266580
Polecat and goanna,CH46 1PX,53.411734343168300,-3.107722766501460
Hawk and Kestrel,CH46 2PN,53.415393546591300,-3.089085635915880
Civet and Tree warbler,CH46 2QL,53.417233941200300,-3.089343325803360
Peafowl and kabaragoya,CH46 2QT,53.416982094641200,-3.090345004959210
Eagle and Herring gull,CH46 2RN,53.418125000000000,-3.092330000000000
Armadillo and Flameback,CH46 3RR,53.414707617466800,-3.100171857215640
Rabbit and Chicken,CH46 3SB,53.413394957545700,-3.107976563222670
Tree warbler and Asiatic leopard,CH46 5NH,53.388735239092500,-3.124612985003810
green turtle and Quetzal,CH46 6AA,53.400577000000000,-3.111956359204840
Petrel and tokay,CH46 6AW,53.400194281252400,-3.121004634528200
Scimitar babbler and Ibex,CH46 6BJ,53.402246754500300,-3.125465723622800
Booted eagles and elapid,CH46 6BL,53.402696855913500,-3.126350014845170
bicycle lizard and blue tongue,CH46 6ET,53.400367505055300,-3.128529000000000
bicycle lizard and Bunting,CH46 6FB,53.403745166934000,-3.134424000000000
cerastes and pit viper,CH46 6HB,53.395312792398100,-3.128681520002140
Peafowl and krait,CH46 7SE,53.404368151787200,-3.124513904872650
Macaw and wall lizard,CH46 7TH,53.401980264507600,-3.111695920530790
Thrasher and Shearwater,CH46 7UJ,53.405333618552700,-3.121260114607440
Kangaroo and amethystine python,CH46 8SH,53.405674317789900,-3.108843908898470
Francolin and swift,CH46 8SZ,53.406493408136300,-3.106789301210540
cerastes and Mink,CH46 8UJ,53.406912081650000,-3.101369650293510
Meadowlark and sand lizard,CH46 9PE,53.402400000000000,-3.100411000000000
Eagle and Dolphin,CH46 9QD,53.400761936814900,-3.107377516629000
Bronzewing pigeon and goanna,CH46 9QH,53.401172553252400,-3.105748715156910
water snake and agamid,CH46 9QQ,53.398355061520000,-3.100336460243040
Piping shrike and tree snake,CH46 9RH,53.398778849070100,-3.099219387104600
fer-de-lance and mud turtle,CH46 9RU,53.401537827736400,-3.099290516588030
Wader and Marmoset,CH47 1HB,53.391851722843200,-3.186184561318880
Viscacha and wall lizard,CH47 1HL,53.390250133148700,-3.185433270446200
bushmaster and Snipe,CH47 2AX,53.393276116533700,-3.178509527503140
Lemming and American sparrow,CH47 2BE,53.393432451804900,-3.178152927060500
saltwater crocodile and leathery turtle,CH47 2BF,53.392153673949500,-3.178388284705500
Mink and water snake,CH47 2DF,53.395654092174900,-3.179838530305380
black snake and Vole,CH47 2DS,53.394766632554900,-3.177768697934730
cycling lizard and Parrotbill,CH47 2DY,53.394138000000000,-3.176924000000000
sea snake and swift,CH47 2EE,53.390439600144400,-3.179919845401260
Magpie and Mamo,CH47 2EH,53.392978000000000,-3.177823000000000
Black jay and Pheasant,CH47 2HD,53.394555121546700,-3.179161460310070
perentie and Partridge,CH47 3AF,53.398176797005900,-3.173007000000000
puff adder and Stint,CH47 3BW,53.396999416212100,-3.171934839767290
Wader and Francolin,CH47 3DG,53.395944595764400,-3.171334360850550
perentie and bicycle lizard,CH47 4AL,53.387360313118100,-3.184962021000140
blue racer and B,CH47 4AY,53.390075591796200,-3.178077000000000
gavial and Pheasant,CH47 4BD,53.389264978268800,-3.171406552685160
wall lizard and hognose snake,CH47 6AL,53.401628986204400,-3.165323000000000
Fulmarine petrel and Lemming,CH47 7AP,53.405044919520500,-3.155308486707520
thorn lizard and Buzzard,CH47 7AU,53.407199000000000,-3.152930000000000
anaconda and bicycle lizard,CH47 9RA,53.399265873155300,-3.155212059706470
fer-de-lance and Guillemot,CH47 9SJ,53.396627000000000,-3.152103000000000
goanna and horned toad,CH47 9SL,53.396728349084900,-3.148962092649520
diamondback turtle and Ice seal,CH48 0QL,53.371196799057000,-3.185971205544230
Logrunners and thorny devil,CH48 0RQ,53.369284557991100,-3.182100493187240
ringhals and Tahr,CH48 1LT,53.358571521671800,-3.152488076503420
moloch and tree snake,CH48 1LX,53.354959230984800,-3.157919711179400
horned toad and Eagle,CH48 1LY,53.357401106042100,-3.156393203757110
Quetzal and Wader,CH48 1NY,53.359472000000000,-3.146817000000000
Moluccan boobook and bandy-bandy,CH48 2HE,53.365146000000000,-3.173465000000000
Capuchin and Zebra,CH48 2HG,53.365144713032400,-3.174396527661110
habu and Meadowlark,CH48 2JU,53.355652071446500,-3.166157183033780
blind snake and chuckwalla,CH48 3HF,53.367847668675100,-3.181053737263150
cobra de capello and wall lizard,CH48 3HR,53.365722952763100,-3.179567240283400
Magpie and Parrotlet,CH48 4DF,53.371639270838700,-3.183052516711940
Thrasher and frilled lizard,CH48 4EP,53.374026877934900,-3.180683593815430
Magpie and Komodo dragon,CH48 4EY,53.373554467685200,-3.186966000000000
smooth snake and python,CH48 4HA,53.373402000000000,-3.184860000000000
king snake and Buzzard,CH48 5DA,53.374524853948000,-3.185763052407120
Capuchin and chameleon,CH48 6DU,53.374610259000800,-3.166149035210510
boomslang and River dolphin,CH48 6DY,53.373842296979800,-3.167465848973130
mountain devil and Dorcopsis,CH48 7EQ,53.373610284343800,-3.171083000000000
tuatara and Magpie,CH48 7HL,53.368543000000000,-3.174505000000000
skink and Philippine hawk-owl,CH48 7HR,53.367440673855500,-3.171273502110570
diamond snake and Snipe,CH48 7HW,53.369808743627000,-3.171789380891370
skink and whip snake,CH48 8AA,53.365090953863200,-3.154920000000000
dukite and Ground sloth,CH48 8AF,53.372255994705500,-3.165137765801580
Parrotlet and giant tortoise,CH48 8AT,53.367058669166600,-3.159765804321300
Rabbit and jew lizard,CH48 8AU,53.366302000000000,-3.160936654183010
Partridge and Meadowlark,CH48 8AW,53.368345000000000,-3.165347000000000
Black jay and Gila monster,CH48 8AZ,53.370024034675000,-3.157095869102850
hognose snake and loggerhead,CH48 8BT,53.368004000000000,-3.159731000000000
Rabbit and smooth snake,CH48 8DB,53.368233853814000,-3.155379075906540
puff adder and leathery turtle,CH48 9UE,53.372969131419200,-3.163909650693200
swift and constrictor,CH48 9UQ,53.372615570307500,-3.164215659963700
Maya and Capuchin,CH48 9UY,53.372730934816400,-3.149533494984900
harlequin snake and Ice seal,CH48 9XP,53.373633536849900,-3.151015845005780
Darwin's finches and viper,CH49 0TN,53.383706769132000,-3.094049953258180
Old World vulture and grass snake,CH49 0UA,53.385047809540900,-3.091621000000000
habu and Civet,CH49 0UG,53.377810841942100,-3.096890299238830
Stint and snapping turtle,CH49 1SE,53.377060969231800,-3.113797589766740
Schneider python and moloch,CH49 2PS,53.380274419956200,-3.119098136078330
Jackal and skink,CH49 2QB,53.380091867791100,-3.107953000000000
Stint and frill-necked lizard,CH49 2QF,53.382455888682800,-3.117486536446180
monitor and lizard,CH49 2RP,53.381380896266900,-3.119969061954410
skink and Vole,CH49 2RZ,53.380591189480900,-3.127465205607240
Duck and Puffleg,CH49 2SE,53.383353109535000,-3.119584826773040
Scimitar babbler and Armadillo,CH49 3AG,53.373727116983900,-3.125179481793840
Mouse and tokay,CH49 3AQ,53.374325083668400,-3.127540167026890
harlequin snake and giant tortoise,CH49 3AR,53.369386746199000,-3.123126224777680
asp and Goose,CH49 3AT,53.377610555091400,-3.121343309494380
Greenbul and sea snake,CH49 3NR,53.373345429633100,-3.123711393521340
Macaw and White ibis,CH49 3QJ,53.372578005086500,-3.129778713697690
asp and cerastes,CH49 3QR,53.378585619980700,-3.123759185191350
mud turtle and mud turtle,CH49 4GH,53.385954572963300,-3.118239750162450
chameleon and Chicken,CH49 4GT,53.386706296012800,-3.120514839205920
Warbler and bandy-bandy,CH49 4NE,53.391264753253400,-3.106920399741880
sea snake and anole,CH49 4QY,53.394388116359600,-3.095752612756780
Viscacha and blue tongue,CH49 4RP,53.393218106118800,-3.104236000000000
Coati and diamond python,CH49 5NH,53.370921228269600,-3.093406575723940
dukite and Logrunners,CH49 6JR,53.392087792000600,-3.092716038354580
diamondback and gecko,CH49 6JY,53.386170902541500,-3.096864674561630
sand viper and horned toad,CH49 6PH,53.386024894351100,-3.110708735247400
Goose and sand lizard,CH49 6QJ,53.388582205151200,-3.110234007706190
giant tortoise and Old World vulture,CH49 7NA,53.371943868082000,-3.087631000000000
Kangaroo and goanna,CH49 9AD,53.379370278443600,-3.096419254498780
Minke whale and perentie,CH49 9DA,53.381473222125500,-3.089602750516830
turtle and Grouse,CH49 9DH,53.382327186120400,-3.088617260516870
boomslang and dukite,CH6 6JE,53.277132000000000,-3.185345000000000
brown snake and copperhead,CH6 6JH,53.277984801261600,-3.188052802826340
gaboon viper and Polecat,CH6 6LQ,53.277223047644300,-3.189621411506090
cobra and flying lizard,CH60 0AS,53.326777000000000,-3.096030000000000
Moluccan boobook and rattlesnake,CH60 3RE,53.317219000000000,-3.089751000000000
caiman and bushmaster,CH60 4SE,53.324906000000000,-3.108114000000000
Badger and Snipe,CH60 4TB,53.322018293207700,-3.104376357466770
Guillemot and chuckwalla,CH60 7SB,53.333616542198800,-3.093398109525080
Tree warbler and tortoise,CH60 8NN,53.315810000000000,-3.093393000000000
green turtle and Parrotlet,CH60 8PA,53.312356000000000,-3.103406000000000
Diving bird and krait,CH60 9HD,53.332372414643200,-3.121505000000000
rock snake and Puffleg,CH60 9HE,53.335238400581300,-3.121072286309900
rock snake and frill-necked lizard,CH60 9JE,53.321475000000000,-3.111704000000000
Stint and giant tortoise,CH60 9JX,53.326778202951500,-3.120264850141960
Triller and Bunting,CH61 0HF,53.353704000000000,-3.123841000000000
cycling lizard and Pitohui,CH61 1AJ,53.346554079155200,-3.093158373015590
Linsang and agamid,CH61 1BL,53.352186846143300,-3.090583238460720
sand lizard and fer-de-lance,CH61 2XE,53.347638387334900,-3.116815911967200
Old World vulture and Kite,CH61 3UA,53.352247653319000,-3.118755000000000
Bunting and Black jay,CH61 3XF,53.355979000000000,-3.094782000000000
Wader and bandy-bandy,CH61 3XY,53.355167652301000,-3.110461987926150
python and American sparrow,CH61 4UL,53.356129533920300,-3.110456948425060
Black cockatoo and bearded dragon,CH61 4UT,53.356153000000000,-3.114815000000000
frill-necked lizard and Parrotlet,CH61 4YJ,53.358111661940300,-3.113829195264620
Partridge and Cloud rat,CH61 4YU,53.356095528339700,-3.120823389178620
rock snake and Masked owl,CH61 5UT,53.342414236432000,-3.108298036372110
Argus and coral snake,CH61 5UZ,53.342903587570500,-3.103023529299700
puff adder and dukite,CH61 5XY,53.342988828502800,-3.104497737105840
Macaw and thorn lizard,CH61 6XW,53.343903553131300,-3.111506060044270
taipan and whip snake,CH61 6XZ,53.341128570324300,-3.103473363314810
viper and blue racer,CH61 7UP,53.354033598539300,-3.093318000000000
diamondback turtle and death adder,CH61 7YH,53.355204142770200,-3.090915706618740
rat snake and monitor,CH61 9NH,53.346626151298700,-3.094121608970150
python and grass snake,CH61 9NR,53.344821513961100,-3.092903747051260
elapid and glass snake,CH61 9PP,53.350078496127200,-3.093083312430460
leguaan and brown snake,CH61 9QB,53.352377186550900,-3.100203312085280
Solitaire and bearded dragon,CH61 9QF,53.352426000000000,-3.101779274410050
cobra de capello and jew lizard,CH8 7AH,53.276975103031600,-3.218409000000000
python and Night heron,CH8 7AL,53.277625517351300,-3.218308196164320
death adder and Guillemot,CH8 7AR,53.277329512726700,-3.219124645343150
mamba and Kestrel,CH8 7BG,53.275089788581900,-3.209552906756840
gaboon viper and White ibis,CH8 7DZ,53.279969241185000,-3.236883092586250
king snake and Snipe,CH8 7HZ,53.287035871959700,-3.217570887579570
agamid and Parrotbill,CH8 7JT,53.289766491480300,-3.211724000000000
Ibex and habu,CH8 7PL,53.275080857149400,-3.222764861689290
rock python and pit viper,CH8 7QW,53.284703616934100,-3.221479621254550
tuatara and Kite,CH8 8NW,53.280520482435700,-3.253817639150570
taipan and Dorcopsis,CH8 8SW,53.284506519507900,-3.231899101197820
Cloud rat and diamond python,CH8 9AL,53.292501000000000,-3.284550000000000
Cloud rat and gopher snake,CH8 9BN,53.309194986228300,-3.326250381040580
Maya and tokay,CH8 9BT,53.309490721242900,-3.325524105018910
Jay and blind snake,CH8 9DU,53.294035000000000,-3.237184000000000
jew lizard and bandy-bandy,CH8 9HR,53.328425402502500,-3.307476000000000
perentie and rock snake,CH8 9HX,53.314239744498000,-3.262311181228170
Darwin's finches and Diving bird,CH8 9JW,53.347413084130900,-3.345929166866100
thorny devil and rock snake,CH8 9RB,53.349738393869800,-3.319636679441050
Wader and cayman,CH8 9RT,53.351107649688700,-3.321001065832820
Perching duck and Quetzal,CH8 9SD,53.327483078280700,-3.291261736708510
anole and Schneider python,CH8 9SH,53.328164992128000,-3.292453102983290
fer-de-lance and Flameback,LL18 1ED,53.313212824045600,-3.497870300130940
python and Petrel,LL18 1EG,53.312963361590100,-3.499122455146790
Linsang and Old World warbler,LL18 1HR,53.315733192005400,-3.499039403595970
Treepie and Partridge,LL18 1LY,53.317300312388900,-3.495941787423520
Eagle and Black cockatoo,LL18 1TH,53.320947000000000,-3.489774027875170
Kangaroo and Jackal,LL18 2AQ,53.316929046684000,-3.484460127078090
Jay and Condor,LL18 2BG,53.311542093557900,-3.487709998104140
krait and Thicketbird,LL18 2DU,53.316273040054100,-3.488234846461320
diamond snake and death adder,LL18 2EB,53.313368000000000,-3.484861000000000
Linsang and loggerhead,LL18 2ED,53.314031117497400,-3.487076047039190
Ibex and anaconda,LL18 2HR,53.312337000000000,-3.478851000000000
bearded lizard and ringhals,LL18 2NE,53.309693313302800,-3.476613770573330
Black cockatoo and deaf adder,LL18 2NP,53.308517071627300,-3.474321819606690
diamondback terrapin and amphisbaena,LL18 2PG,53.316639118529600,-3.479962000000000
garter snake and snake,LL18 2PL,53.316886647045800,-3.477927974084570
Stilt and boa constrictor,LL18 2SQ,53.296869691990100,-3.467513456826040
Egret and Vole,LL18 2TP,53.293612041018000,-3.461205213969080
constrictor and boa,LL18 2TS,53.293133688778300,-3.463559450358560
Treepie and Tattler,LL18 3AE,53.327660106628100,-3.478330436628840
frilled lizard and green turtle,LL18 3DH,53.323212381720000,-3.486119147963490
Macaw and horned toad,LL18 3DQ,53.323828454062500,-3.485735172903890
Tit-tyrant and Asiatic leopard,LL18 3EE,53.323337629924300,-3.487609909881740
tortoise and Linsang,LL18 3PA,53.326857458050900,-3.479263669459190
carpet snake and cobra,LL18 3TB,53.324762231958500,-3.467674898467700
Peafowl and kabaragoya,LL18 3TP,53.328632000000000,-3.465255000000000
Kākāriki and Hawk,LL18 3TY,53.327781920284200,-3.468933000000000
Mole and B,LL18 3UP,53.326179615087000,-3.464990792863910
Recurvebill and rat snake,LL18 4BD,53.322654103120400,-3.470965660372630
saltwater crocodile and skink,LL18 4BP,53.321866401483800,-3.469962672897080
fer-de-lance and racer,LL18 4DN,53.319423169806300,-3.468347377832200
Stint and Mink,LL18 4DT,53.318924066806200,-3.461409415252250
Nukupuʻu and Bunting,LL18 4FZ,53.321972902333000,-3.463495425338250
Tit-tyrant and python,LL18 4HH,53.318107373759600,-3.468617458261080
Old World warbler and Kangaroo,LL18 4HS,53.315743019289300,-3.466434654197380
Pitohui and habu,LL18 4HT,53.318029086310000,-3.466212797524440
tiger snake and goanna,LL18 4LU,53.314645200405900,-3.465061022499120
coral snake and tuatara,LL18 4NR,53.315091993390200,-3.463815379008850
racer and Linsang,LL18 4PD,53.319407104489600,-3.484170345949680
Kestrel and amphisbaena,LL18 4SX,53.312282671736800,-3.460944000000000
Mole and hawksbill,LL18 4UF,53.308884004848400,-3.462041997765690
tree snake and boomslang,LL18 4UH,53.309612264945800,-3.460565951717420
Black jay and galliwasp,LL18 5XA,53.291219308804100,-3.487498696424300
Myna and Marmoset,LL18 6BF,53.304267000000000,-3.422385000000000
whip snake and Partridge,LL18 6DG,53.308545045490100,-3.377245092025010
Rat and kabaragoya,LL18 6JB,53.296174000000000,-3.457572000000000
Parrotlet and Cuscus,LL18 9EJ,53.319081192888900,-3.484354199997100
ringhals and Philippine hawk-owl,LL19 0BQ,53.319091000000000,-3.484356000000000
frilled lizard and fer-de-lance,LL19 7AT,53.333182000000000,-3.434820000000000
Gila monster and Philippine hawk-owl,LL19 7EG,53.332017677362900,-3.434345541545090
galliwasp and slowworm,LL19 7EH,53.331181075956900,-3.437380912716990
taipan and Civet,LL19 7LF,53.343363728400600,-3.406804000000000
Komodo dragon and worm lizard,LL19 7LU,53.339925561284900,-3.408175893005990
king snake and Civet,LL19 7ND,53.339094544174700,-3.409274979111470
Warbler and Chicken,LL19 7NT,53.340375461848000,-3.402798517899940
Black cockatoo and Moluccan boobook,LL19 7NW,53.338708375052500,-3.410764191938210
kabaragoya and Pratincole,LL19 7PJ,53.338499339645300,-3.402571716474990
whip snake and dukite,LL19 7RS,53.332383361459100,-3.425587711774240
Recurvebill and cycling lizard,LL19 7TR,53.336690238702800,-3.420086000000000
Perching duck and bicycle lizard,LL19 7TT,53.337229470122200,-3.414950719019960
boa and Marmoset,LL19 7UN,53.336354058072800,-3.427312142357150
Solitaire and rat snake,LL19 8DH,53.327427565880500,-3.419776602519530
Jay and Hawaiian honeycreeper,LL19 8DZ,53.328583536248600,-3.417817874482150
Tahr and Polecat,LL19 8HD,53.324806738880300,-3.415650638699790
hawksbill and green turtle,LL19 8LY,53.318441574848200,-3.407348255799620
puff adder and Kangaroo,LL19 8PN,53.316753098161500,-3.407217633234260
soft-shelled turtle and anaconda,LL19 8QA,53.313817000000000,-3.407766000000000
Rabbit and python,LL19 8RB,53.314402699819000,-3.409091723167630
hawksbill and mud turtle,LL19 8RT,53.325121882707000,-3.409535070433870
constrictor and boa,LL19 8TW,53.332338512177200,-3.406649457132960
anaconda and gaboon viper,LL19 8YH,53.326217074746600,-3.425547252740130
Kākāriki and giant tortoise,LL19 9BH,53.334096886329400,-3.403898989135480
bushmaster and Hawk,LL19 9BW,53.333008389089200,-3.402436576678510
Ice seal and glass snake,LL19 9HT,53.337778634500600,-3.389646629591300
Condor and Coati,LL19 9NF,53.335212402565100,-3.396937134144130
Zebra and Cloud rat,LL19 9NX,53.336746219117600,-3.401057357828760
Komodo dragon and Pratincole,LL19 9PF,53.327280257009100,-3.397233498620300
bearded lizard and Treepie,LL19 9PT,53.328207000000000,-3.400357000000000
loggerhead and Goose,LL19 9RG,53.324552958487400,-3.399831962216580
monitor and lizard,LL19 9SU,53.342564614144700,-3.365198248213670
boomslang and blue racer,LL19 9TF,53.336623181823400,-3.362004710690600
skink and thorn lizard,LL19 9TS,53.335814586573300,-3.357233135292260
Partridge and cobra de capello,LL19 9TW,53.337396170608500,-3.358860351878630
lizard and diamondback turtle,LL19 9YR,53.319081192888900,-3.484354199997100
