name,postcode,lat,lon
water snake and tiger snake,CH45 8NA,53.422128000000000,-3.088954000000000
Old World warbler and frilled lizard,CH46 0PG,53.398894523009600,-3.110998821174790
Badger and Herring gull,CH46 0QA,53.397379000000000,-3.105861000000000
asp and garter snake,CH46 0QU,53.396661000000000,-3.104835000000000
puff adder and soft-shelled turtle,CH46 1QU,53.407201769063900,-3.100173687592730
sand lizard and asp,CH46 1RS,53.412547781271400,-3.089659846814220
turtle and racer,CH46 2RH,53.419699353280500,-3.091046534064080
diamondback terrapin and black snake,CH46 3RG,53.415528170375000,-3.100870112820740
diamond python and Herring gull,CH46 6BA,53.400108458424800,-3.125349118328470
agamid and Rat,CH46 6EH,53.397144681245600,-3.128880402331740
Puffleg and Logrunners,CH46 6HE,53.394607097746300,-3.128211682351830
Old World vulture and chuckwalla,CH46 6HU,53.400233484210700,-3.132090640920460
Skunk and Perching duck,CH46 6JA,53.398951498861800,-3.130778184522700
mountain devil and frilled lizard,CH46 6JG,53.401644956264100,-3.134910737362990
jew lizard and saltwater crocodile,CH46 7TN,53.402116783563200,-3.113444272908260
Herring gull and swift,CH46 7TQ,53.405133840813800,-3.113793835644030
Wallaby and smooth snake,CH46 7TR,53.401230880885700,-3.113977654707360
snapping turtle and anole,CH46 7TZ,53.405004797285000,-3.114136437912160
garter snake and Piping shrike,CH46 9QH,53.401172553252400,-3.105748715156910
bearded dragon and Parakeet,CH46 9RN,53.399803090706400,-3.097320610457270
brown snake and box turtle,CH46 9SF,53.401204019752500,-3.101372605737420
snapping turtle and Pratincole,CH47 0LG,53.398477916098100,-3.165989507657560
diamond python and Solitaire,CH47 0LH,53.398263231462300,-3.164960914740830
amphisbaena and monitor,CH47 1HE,53.391121521828000,-3.181863515312430
perentie and New World blackbird,CH47 1HN,53.386718000000000,-3.195394000000000
skink and harlequin snake,CH47 2AB,53.390730366497800,-3.178694822040040
White ibis and Cloud rat,CH47 2DL,53.394928996132400,-3.179532731066760
Night heron and Bunting,CH47 2DT,53.395333830787100,-3.177679089419720
Solitaire and racer,CH47 3AF,53.398176797005900,-3.173007000000000
Mockingbird and habu,CH47 3AR,53.397414995785700,-3.176292749081180
bearded dragon and Skunk,CH47 3DG,53.395944595764400,-3.171334360850550
deaf adder and Diving bird,CH47 4AF,53.385302482081600,-3.183987696249790
rock snake and agama,CH47 4BB,53.391631214710900,-3.173937724117130
flying lizard and Vole,CH47 4FF,53.390988000000000,-3.172687000000000
taipan and blue tongue,CH47 5AA,53.395193305375800,-3.174501000000000
Zebra and Schneider python,CH47 5BE,53.401797575326900,-3.167554337418510
tokay and copperhead,CH47 7AU,53.407199000000000,-3.152930000000000
thorn lizard and Dorcopsis,CH47 7BE,53.404329116401000,-3.150310134476330
Chicken and Duck,CH47 7BN,53.402101689008400,-3.152912358969030
Shearwater and Greenbul,CH47 9SF,53.393514996346600,-3.153131372160610
sand lizard and Hawaiian honeycreeper,CH48 0QN,53.370703098714300,-3.184995545290070
sidewinder and Crow,CH48 0RL,53.368652159526100,-3.184232217634140
River dolphin and bandy-bandy,CH48 0RQ,53.369284557991100,-3.182100493187240
frill-necked lizard and Jay,CH48 1LB,53.365652109352300,-3.162973757983570
Greenbul and Jerboa,CH48 1NZ,53.357146148738000,-3.143674701965390
tree snake and Skunk,CH48 1PB,53.360221428102700,-3.144508397967590
New World blackbird and Dorcopsis,CH48 1PR,53.369843372475900,-3.144135112534230
puff adder and box turtle,CH48 2JW,53.357175677864400,-3.165010000000000
hawksbill and Greenbul,CH48 2LD,53.357243439703800,-3.160716000000000
Thicketbird and diamondback,CH48 2LG,53.365594000000000,-3.174453000000000
kabaragoya and Thrasher,CH48 3HS,53.366788638951400,-3.181790915645700
amphisbaena and Badger,CH48 3JG,53.366850034420400,-3.176487382145180
flying dragon and River dolphin,CH48 3LB,53.368072558358900,-3.178309575402020
Guillemot and Chicken,CH48 4DA,53.372198726160000,-3.183744413258260
Egret and Zebra,CH48 5DG,53.374336923581900,-3.187262000000000
Asiatic leopard and Gila monster,CH48 5DS,53.381294430924800,-3.183876472827290
constrictor and Flameback,CH48 5EQ,53.378478000000000,-3.183381858763450
Vole and Old World warbler,CH48 5EY,53.376922969662300,-3.178704262067500
hognose snake and Polecat,CH48 5HF,53.377237652178600,-3.178697921355020
green turtle and Philippine hawk-owl,CH48 5JQ,53.378720170259300,-3.187833943313100
gavial and Vole,CH48 5JU,53.375750550201500,-3.183632481435510
Thrasher and python,CH48 6EX,53.375713093112300,-3.157205017029080
Mole and rock snake,CH48 7EH,53.374195456746500,-3.170211000000000
chuckwalla and Civet,CH48 7EU,53.371515187497200,-3.171941442635420
Mouse and Bronzewing pigeon,CH48 7HG,53.367073244141400,-3.168407900808400
flying lizard and Songlark,CH48 7HQ,53.366794811732300,-3.169302017434580
Cloud rat and tree snake,CH48 8AP,53.369956373692200,-3.164052949990340
Perching duck and caiman,CH48 8BU,53.367690302130800,-3.160444251716900
Tahr and fer-de-lance,CH48 8DD,53.368437949492100,-3.164898285348940
fer-de-lance and Dorcopsis,CH48 9YF,53.375300852305500,-3.153360697206360
Chipmunk and Chipmunk,CH49 0UB,53.383720238005600,-3.098577000000000
leguaan and Philippine hawk-owl,CH49 0UJ,53.383293965550200,-3.099842745329140
diamondback terrapin and Badger,CH49 0WJ,53.379024000000000,-3.100799000000000
Fox and B,CH49 1RF,53.374279798171300,-3.117062001894870
Linsang and Perching duck,CH49 1RH,53.376090926913200,-3.121393572270020
boa constrictor and Pitohui,CH49 1RL,53.373168923823100,-3.118146000000000
Badger and Polecat,CH49 1RW,53.374076361940700,-3.120543971775200
Buzzard and brown snake,CH49 1RX,53.374757464754300,-3.118848242825620
king snake and moloch,CH49 2NB,53.383933006594500,-3.109466516508470
Ice seal and amethystine python,CH49 2PY,53.382989229745200,-3.115245319056810
Masked owl and adder,CH49 2QJ,53.379671897596500,-3.123908060629690
Gull and Old World vulture,CH49 2RG,53.384882484516800,-3.117535062557300
Chipmunk and Siskin,CH49 3NH,53.377942904976700,-3.118495809824140
caiman and thorn lizard,CH49 3NJ,53.377216361968100,-3.124068876014790
slowworm and Chickadee,CH49 3NL,53.375039729714200,-3.127062998828890
diamondback and dukite,CH49 3QB,53.376745055680700,-3.126386482219440
milk snake and saltwater crocodile,CH49 3QW,53.378707189609900,-3.124213379167500
tiger snake and diamond python,CH49 4GN,53.394658835453600,-3.091714169404530
diamondback turtle and box turtle,CH49 4LA,53.387642319092600,-3.113667874091530
Kestrel and Jerboa,CH49 4LF,53.387214454947900,-3.113280802338490
flying lizard and hoop snake,CH49 4LG,53.386793487227500,-3.115044054230870
Argus and Marsh harrier,CH49 4NS,53.389044153708900,-3.102096141410740
Philippine hawk-owl and Fox,CH49 4PQ,53.393796502337300,-3.099481964029420
Mink and snake,CH49 4QD,53.389373929372600,-3.121697640790010
Solitaire and indigo snake,CH49 4RU,53.387505492091600,-3.110987864777420
River dolphin and Thicketbird,CH49 4RY,53.390807367621200,-3.112426000000000
Booted eagles and blue racer,CH49 5LL,53.372553000000000,-3.093020969192720
Kangaroo and Elephant,CH49 5NY,53.370001000000000,-3.090918000000000
rock snake and tiger snake,CH49 6PJ,53.386592567867300,-3.109595827677320
rattlesnake and gaboon viper,CH49 7NA,53.371943868082000,-3.087631000000000
Cuscus and thorny devil,CH49 8JQ,53.377654789446200,-3.090377143692120
Old World quail and elapid,CH49 9AS,53.381874866626500,-3.091883163936420
terrapin and Tattler,CH49 9BX,53.379432496099300,-3.089625805589610
deaf adder and Siskin,CH6 6LP,53.277641077816600,-3.189168094414950
River dolphin and Chicken,CH6 6LW,53.278206648241700,-3.189243789445580
black snake and Jerboa,CH60 0BT,53.323008224534500,-3.096459805988840
turtle and Triller,CH60 0EU,53.323318812892300,-3.103719323364220
harlequin snake and diamond snake,CH60 2SB,53.324138958892300,-3.088816728086410
mountain devil and blue tongue,CH60 2TP,53.324375000000000,-3.087682000000000
Asiatic leopard and bushmaster,CH60 4SJ,53.319581648858200,-3.109282489692740
slowworm and bull snake,CH60 5SE,53.330277815108800,-3.093808236754650
Siskin and swift,CH60 5ST,53.330576517135100,-3.095542732385160
Mole and snake,CH60 6SF,53.333273693775200,-3.112010502027040
massasauga and Goose,CH60 6SJ,53.330810305564500,-3.105279220601840
smooth snake and wall lizard,CH60 7RL,53.329223387759200,-3.098811000000000
whip snake and Badger,CH60 7SN,53.331920412356300,-3.101884142142490
caiman and Bunting,CH60 8ND,53.321050644687300,-3.089368625898520
Flameback and Thicketbird,CH60 9HD,53.332372414643200,-3.121505000000000
Ibex and kabaragoya,CH60 9HL,53.331859495011800,-3.122875756433070
Viscacha and diamond python,CH60 9JT,53.325535000938500,-3.121508497070040
agama and hognose snake,CH60 9LA,53.326936865897700,-3.120599334751390
flying lizard and thorny devil,CH61 0HL,53.348985970399900,-3.134052045680810
Scimitar babbler and mud turtle,CH61 2XG,53.348112313193800,-3.116122253647110
Black jay and Black jay,CH61 3UL,53.353966008486300,-3.117852777494730
jew lizard and box turtle,CH61 3UQ,53.355430955948200,-3.104368739852510
Scimitar babbler and hawksbill,CH61 3UZ,53.356553232389300,-3.096719859860920
cycling lizard and Petrel,CH61 3XD,53.355884295695000,-3.095604000000000
Lemming and gopher snake,CH61 3XE,53.355837000000000,-3.096578456327640
Parakeet and flying lizard,CH61 3XF,53.355979000000000,-3.094782000000000
Myna and box turtle,CH61 3XX,53.353786944620400,-3.103289554679360
Condor and Black jay,CH61 4UL,53.356129533920300,-3.110456948425060
alligator and Old World vulture,CH61 4XJ,53.356559068329000,-3.124894000000000
Cuscus and Vulture,CH61 4YH,53.358875550149000,-3.113849120045220
Warbler and anaconda,CH61 5UJ,53.340743342667100,-3.098461858756730
cerastes and gecko,CH61 5XH,53.344314126158400,-3.103105007266390
tokay and racer,CH61 5XS,53.343812416048200,-3.101950475473770
blue tongue and Ice seal,CH61 6UA,53.335109832851900,-3.095238435714520
River dolphin and saltwater crocodile,CH61 6UN,53.335464151368100,-3.093850857831800
Nukupuʻu and amethystine python,CH61 6UX,53.335903913317300,-3.098818047127920
Eagle and Goose,CH61 7UQ,53.353185553683100,-3.094409824138180
snapping turtle and Rabbit,CH61 7UR,53.357006733528400,-3.092359115239630
Diving bird and worm lizard,CH61 7UU,53.355982104729600,-3.090379652737830
caiman and green turtle,CH61 7XL,53.357074730518100,-3.087734000000000
Dolphin and chameleon,CH61 8SJ,53.345009593752000,-3.107599279779750
Eagle and ringhals,CH61 8SU,53.347531127698500,-3.110008099655130
Chickadee and bearded lizard,CH61 8TA,53.348578602782900,-3.106595175300820
American sparrow and Bunting,CH61 9NT,53.346935780682500,-3.096623167215090
New World blackbird and Piping shrike,CH61 9PD,53.344975080750600,-3.095237000000000
Kangaroo and bushmaster,CH61 9PP,53.350078496127200,-3.093083312430460
agamid and Chicken,CH61 9PR,53.351439099750300,-3.098601687300340
fer-de-lance and Scimitar babbler,CH61 9PW,53.350427062257600,-3.093302555289790
Myna and whip snake,CH8 7BQ,53.277068552654600,-3.212098375622450
Schneider python and bearded lizard,CH8 7DY,53.279295275448200,-3.235993723951080
diamondback and rock snake,CH8 7EY,53.285906000000000,-3.202298000000000
tokay and Thrasher,CH8 7HH,53.278296481201200,-3.200014791971890
Towhee and Grackle,CH8 7HJ,53.288061000000000,-3.202599000000000
diamond snake and Kākāriki,CH8 7JG,53.289724873100300,-3.213926878588020
Vole and Skunk,CH8 7PE,53.276026746751700,-3.219057569906100
frilled lizard and Komodo dragon,CH8 7XL,53.284056625056100,-3.218821168382280
Chicken and Herring gull,CH8 9AZ,53.309059709276000,-3.291065347469430
Ibex and Kākāriki,CH8 9BR,53.305317914159500,-3.325679969505440
Zebra and Flameback,CH8 9DX,53.300775276078700,-3.232952614950850
alligator and Recurvebill,CH8 9GA,53.309078046208100,-3.253964057690690
gecko and frilled lizard,CH8 9HD,53.318641000000000,-3.271163000000000
bearded dragon and Crow,CH8 9HG,53.327034399536300,-3.303004626107130
ringhals and sand viper,CH8 9HL,53.327636613210800,-3.303833812741120
Fish eagle and Cloud rat,CH8 9HP,53.328565166981300,-3.308517010505560
box turtle and worm lizard,CH8 9JN,53.343354272228700,-3.341550363144960
Cloud rat and Towhee,CH8 9JS,53.340388302884900,-3.338303054326540
tiger snake and tree snake,CH8 9NH,53.344363684788300,-3.343715090146730
Logrunners and flying dragon,CH8 9PT,53.308379756792200,-3.259661853236470
mamba and Asiatic leopard,CH8 9SW,53.330200464137500,-3.298716372720830
bearded dragon and Greenbul,CH8 9UU,53.333994000000000,-3.312753000000000
Partridge and snapping turtle,LL18 1AN,53.318688477283500,-3.489895228961350
galliwasp and anaconda,LL18 1BN,53.319058868963200,-3.492625438521240
chameleon and B,LL18 1DS,53.314194644317400,-3.498430070771300
tokay and Magpie,LL18 1HZ,53.321625000000000,-3.495267000000000
cycling lizard and Chickadee,LL18 1RF,53.317296687161800,-3.499094207381760
boomslang and caiman,LL18 1SP,53.320183011255300,-3.492589612019380
Coati and Partridge,LL18 2AR,53.313409953586000,-3.490747094108340
wall lizard and cobra,LL18 2AS,53.312543534481700,-3.492458109015730
gopher snake and bushmaster,LL18 2AW,53.313578167896400,-3.493109654374050
python and rock python,LL18 2LR,53.305461234332500,-3.469173852675150
alligator and Dorcopsis,LL18 2LZ,53.311945444857600,-3.477682189497030
Old World quail and Duck,LL18 2NB,53.310521114250200,-3.478728695393870
habu and cerastes,LL18 2TT,53.308068000000000,-3.485218000000000
Warbler and sand viper,LL18 3AY,53.328515157523500,-3.475341784637480
terrapin and Kangaroo,LL18 3DB,53.321366589653500,-3.488398000000000
Tattler and frill-necked lizard,LL18 3DN,53.323683156701600,-3.484408861486450
cayman and crocodile,LL18 3PD,53.324849762069700,-3.477332375313370
Macaw and taipan,LL18 3PN,53.326920368914100,-3.473201000000000
ringhals and amethystine python,LL18 3TU,53.327651718561100,-3.470281721324090
Wallaby and Scimitar babbler,LL18 4BD,53.322654103120400,-3.470965660372630
agamid and Songlark,LL18 4ES,53.314620146053200,-3.472205463084130
Marsh harrier and Black cockatoo,LL18 4EW,53.315539905881600,-3.461744118731450
Siskin and goanna,LL18 4JQ,53.323741785619700,-3.457790473437170
carpet snake and jew lizard,LL18 4JW,53.322130085512700,-3.466068158418460
Chickadee and hawksbill,LL18 4LF,53.310792004271000,-3.466985389121860
habu and asp,LL18 4LP,53.312760853664900,-3.463315306244700
Dolphin and slowworm,LL18 4LR,53.312890888172400,-3.462974513067410
Partridge and saltwater crocodile,LL18 4NE,53.312421267978800,-3.462418078123380
Warbler and Vulture,LL18 4NP,53.313378662682200,-3.466443655264620
kabaragoya and Recurvebill,LL18 4RY,53.318041000000000,-3.472522418783540
Skunk and flying lizard,LL18 4SF,53.313235221122900,-3.470791824659270
Fish eagle and Bunting,LL18 4UR,53.310970014652800,-3.461272744038070
Recurvebill and Capuchin,LL18 5RB,53.290184457441500,-3.458477772467730
Guillemot and gecko,LL18 5RN,53.279206127968600,-3.454969137398570
Ice seal and Thicketbird,LL18 5RP,53.288889946999100,-3.457008471987360
Peafowl and cerastes,LL18 5RR,53.289152739673400,-3.457572496543930
Moluccan boobook and Moluccan boobook,LL18 5SD,53.287348976519400,-3.409461277285100
River dolphin and fer-de-lance,LL18 5SN,53.279627000000000,-3.402668000000000
Perching duck and Capuchin,LL18 5UF,53.282641214144700,-3.468810767711400
green turtle and rock snake,LL18 6AP,53.299793867840700,-3.413727628400110
Peafowl and Piping shrike,LL18 6DN,53.306522000000000,-3.364108000000000
Tattler and krait,LL18 6EE,53.286564953626400,-3.369517417953210
Peafowl and horned viper,LL18 6EN,53.306914726529200,-3.363445055590010
Chickadee and taipan,LL18 6EU,53.300907356094200,-3.418371324910290
Stilt and loggerhead,LL18 6HR,53.292986000000000,-3.411022425173010
monitor and Parrotbill,LL18 6HT,53.292987308133900,-3.385521444526130
Thicketbird and blindworm,LL18 6LN,53.305370309829200,-3.416508229252970
Stilt and mountain devil,LL19 7DD,53.331117387191400,-3.432212970852890
elapid and diamond snake,LL19 7DH,53.330655614253700,-3.436972808814630
grass snake and Crow,LL19 7EQ,53.336969366412100,-3.408063462839440
lizard and Kākāriki,LL19 7JD,53.338742903549800,-3.422240234856060
cycling lizard and Civet,LL19 7JG,53.337391859413400,-3.423967518037860
Crow and wall lizard,LL19 7LS,53.340674719746200,-3.412481331348030
Maya and Towhee,LL19 7LW,53.340381819791900,-3.415956307464720
Parrotbill and sidewinder,LL19 7NS,53.339152553126300,-3.405882454916680
Mole and Chickadee,LL19 7PE,53.339194808593200,-3.400762147526870
Coati and White ibis,LL19 7PG,53.338288971553600,-3.402114232273510
Crow and Badger,LL19 7RE,53.333620226587800,-3.419111277067960
Boto and Bronzewing pigeon,LL19 7RS,53.332383361459100,-3.425587711774240
mountain devil and Fish eagle,LL19 7SE,53.334827000000000,-3.407008699836280
Pheasant and hawksbill,LL19 7YY,53.332517041827800,-3.431689210953990
smooth snake and anaconda,LL19 8DR,53.324570366072300,-3.421918886278730
blue tongue and frilled lizard,LL19 8DY,53.326189424821900,-3.413519234564730
Old World warbler and Recurvebill,LL19 8EP,53.327922255598600,-3.416729827476280
taipan and Ground sloth,LL19 8EX,53.329897000000000,-3.411735000000000
box turtle and River dolphin,LL19 8HB,53.324232092192500,-3.414835848289680
bearded lizard and Old World quail,LL19 8LE,53.317225108838000,-3.413673285516030
Puffleg and Linsang,LL19 8NF,53.314919192180100,-3.414062412133700
gopher snake and Gila monster,LL19 8NT,53.314201200172100,-3.415479719159150
Thicketbird and Jerboa,LL19 8PD,53.315166884027800,-3.414400848268300
sand lizard and smooth snake,LL19 8RH,53.326324003949200,-3.404409500809570
Maya and iguana,LL19 8RP,53.325446341747800,-3.412336000000000
Condor and Moluccan boobook,LL19 8SR,53.330577368819100,-3.404293959235430
Old World vulture and alligator,LL19 9BQ,53.335679378260100,-3.406158678411740
iguana and Buzzard,LL19 9HF,53.331529223741900,-3.390569717074010
saltwater crocodile and chuckwalla,LL19 9LP,53.335582387000100,-3.396048125983270
Viscacha and Darwin's finches,LL19 9PD,53.327550732639600,-3.397933053515120
Perching duck and box turtle,LL19 9PE,53.328725750535200,-3.396620042282580
tuatara and Snipe,LL19 9SB,53.331696634361200,-3.400846785954730
constrictor and grass snake,LL19 9TG,53.336835000000000,-3.360855000000000
rock snake and Maya,LL19 9TN,53.337214054794000,-3.364576750394870
Buzzard and krait,LL19 9TQ,53.337967908556000,-3.363113927420390
