name,postcode,lat,lon
Old World quail and Mink,NP8 1BZ,51.859956000000000,-3.134715000000000
Wader and Rabbit,NP7 7LD,51.872439000000000,-2.998549000000000
Perching duck and Armadillo,CF47 9LD,51.756995096657600,-3.370005869606690
Kite and Mole,NP7 0HF,51.820016489603500,-3.116721958399800
Meadowlark and Goose,NP23 6TN,51.754609455271900,-3.193891595254010
Argus and Coati,NP7 7AP,51.826503163296800,-3.030630979236540
Marsh harrier and Stilt,NP23 5TG,51.800151536593000,-3.217544147501530
Francolin and Grackle,NP7 9DD,51.773194209333000,-2.969253378879390
Egret and Coati,LD3 7EX,51.925520222896200,-3.289954691149350
Boto and Rat,NP22 5JZ,51.753145722722700,-3.276677088092150
Mink and Maya,NP23 5TS,51.801917743933000,-3.216300977580780
Tree warbler and Tree warbler,NP8 1SU,51.876976000000000,-3.069526000000000
Rat and Meadowlark,CF48 3AT,51.763744440602700,-3.357124942192740
New World blackbird and Grosbeak,NP23 5DQ,51.798378309896800,-3.208142707633300
Old World warbler and Minke whale,NP7 9AS,51.788647886960700,-2.965177169744790
Darwin's finches and Buzzard,NP23 4NQ,51.777247990032300,-3.166339877843070
Fish eagle and Songlark,NP7 7AH,51.827772675664700,-3.031458069727580
Petrel and Meadowlark,CF47 9HH,51.759771911960300,-3.362410430948880
Quetzal and Kākāriki,NP22 3LD,51.768035853144700,-3.238011973072610
Partridge and Flameback,NP7 9EQ,51.770897000000000,-3.025529000000000
Booted eagles and Parakeet,NP23 4YG,51.799992000000000,-3.174105000000000
Cuscus and B,NP4 9AU,51.770352190046400,-3.083611583256540
Night heron and Triller,LD3 7PN,51.942917422241800,-3.369626993091310
Fish eagle and Darwin's finches,CF48 2DG,51.772775225784100,-3.359961288582040
Bronzewing pigeon and Mink,NP13 3DQ,51.777160000000000,-3.169084362700000
Piping shrike and Badger,NP23 4DF,51.799412365056500,-3.174423946285670
Solitaire and Stilt,NP22 5EH,51.765313867883500,-3.292076875198470
Puffleg and Stilt,NP23 5EJ,51.805429704204000,-3.211435133544360
American sparrow and Piping shrike,NP22 4JT,51.764769946000000,-3.235401600500000
Armadillo and Goose,NP7 7AL,51.826504774122400,-3.031472632255610
Scimitar babbler and Elephant,LD3 7YJ,51.896096780696500,-3.290288853317820
Scimitar babbler and Lemming,NP7 9HW,51.791257735317600,-3.014022923964630
Polecat and Greenbul,NP23 6BU,51.769070113579300,-3.209071000000000
Tree warbler and Macaw,NP7 9SY,51.801559182841300,-2.974706000000000
Mouse and Gull,NP23 6BP,51.770180000000000,-3.208360000000000
Solitaire and Old World warbler,NP22 3NU,51.768332734519300,-3.249889217553190
Jackal and Petrel,CF48 3NR,51.767067693738700,-3.353543675229250
Crow and Hawk,NP23 4NE,51.792946570819500,-3.173617934083920
Mole and Dorcopsis,NP23 6GD,51.783196000000000,-3.218357378691430
Guillemot and Old World warbler,NP4 8UR,51.751230669455900,-3.061583342514870
Mamo and Linsang,LD3 7NU,51.916668000000000,-3.318039000000000
Songlark and Towhee,NP7 5PR,51.823804369655100,-3.014448000000000
Macaw and Condor,NP22 3HL,51.784834295760100,-3.260638588966760
Kangaroo and Parakeet,NP7 6BW,51.832585555829200,-3.014631884703280
Dolphin and Old World quail,NP23 6GR,51.770499605200000,-3.202253447600000
Mole and Minke whale,NP13 3JG,51.764765414168000,-3.153831168015330
Shearwater and Puffleg,NP7 7NA,51.885554565390000,-3.022755110934930
Marmoset and Mole,NP4 9HB,51.773666713660000,-3.082995290755620
Partridge and Meadowlark,NP23 6QJ,51.779510319927300,-3.225018964547350
Darwin's finches and Tree warbler,NP22 3BQ,51.758785000000000,-3.259116000000000
Rabbit and Rabbit,NP22 5PA,51.759069523976200,-3.281785048614470
Treepie and Stint,NP22 3JZ,51.768296971836700,-3.238830681599650
Moluccan boobook and Mink,NP23 6BD,51.775644924635700,-3.207549830964810
Chicken and Fish eagle,NP7 1DA,51.821706000000000,-3.019573000000000
B and B,NP22 4EE,51.787814334070000,-3.248484981417380
Condor and Tree warbler,NP7 7BA,51.829277665461200,-3.036179679589210
Songlark and Mamo,CF47 9NU,51.759756060059900,-3.382246265291460
Cuscus and Prion,NP23 5BJ,51.795953541739900,-3.223506981885790
Guillemot and Fish eagle,NP7 9EN,51.762485839472400,-2.995033597236000
Bronzewing pigeon and Fox,CF47 8LS,51.749762000000000,-3.380434000000000
Gull and Bunting,NP4 9HW,51.771073725470700,-3.074556318213800
Old World quail and Diving bird,NP23 4TZ,51.799916160218400,-3.186038845473910
Triller and Moluccan boobook,NP22 4DP,51.790774673962100,-3.252251000000000
Thicketbird and Songlark,NP8 1PE,51.852593675866600,-3.148308945581260
Warbler and River dolphin,NP22 4DG,51.785799680852800,-3.244297469526930
Pitohui and Eagle,NP23 4TS,51.800605892210100,-3.187188143218290
Shearwater and Guillemot,NP7 5AR,51.823656000000000,-3.020014983332850
Wader and Bunting,NP22 5ET,51.764841767056600,-3.290034631512590
Asiatic leopard and Chickadee,NP7 6AY,51.832782111228600,-3.011646702869140
Mouse and Dorcopsis,CF47 9UF,51.764998875305700,-3.374523154300820
Skunk and Treepie,NP23 5RP,51.797013664097800,-3.204437382032270
Hawaiian honeycreeper and Prion,NP22 3TB,51.765969669736900,-3.251417994219430
Flameback and Bronzewing pigeon,NP22 5QP,51.768981000000000,-3.294761000000000
Songlark and Viscacha,NP23 4PS,51.797140000000000,-3.175249000000000
Thicketbird and Vole,NP23 5LS,51.791708106731300,-3.209747873638090
Diving bird and Goose,NP22 3BE,51.786691341082000,-3.265213784820130
Treepie and Kangaroo,NP23 4AJ,51.798438778396000,-3.173775067561770
Petrel and Mouse,NP23 5RR,51.796498157242100,-3.202973524298110
Moluccan boobook and Viscacha,NP22 5JD,51.755633765683700,-3.280224434973290
Tahr and Parakeet,CF48 2TY,51.789040476527700,-3.370077912208210
Mamo and White ibis,CF47 9AE,51.754993865328400,-3.375176000000000
Solitaire and New World blackbird,NP13 3DE,51.766991000000000,-3.164794000000000
Asiatic leopard and Treepie,NP7 8SB,51.824470044415100,-2.947384644254770
Hawk and Herring gull,NP22 4FF,51.757154000000000,-3.226347732800000
Fulmarine petrel and Towhee,NP7 6PD,51.830622671776800,-3.007636547842000
Goose and Skunk,NP23 5UA,51.791696081208200,-3.214401942316990
Old World quail and Macaw,NP22 4JG,51.764243596789300,-3.235241882051510
Snipe and Gull,NP23 5UT,51.804210815801700,-3.217145907176790
Chicken and Goose,NP13 3AT,51.766709000000000,-3.161097000000000
Capuchin and Scimitar babbler,HR2 0AS,51.991040928877200,-2.937119801568210
Tattler and Eagle,NP22 4PG,51.784993567286900,-3.238041338928470
Kestrel and Tree warbler,NP13 3AL,51.775722000000000,-3.161697245473560
Kestrel and Capuchin,NP23 6GG,51.783259657497200,-3.219843648887330
Ground sloth and Triller,NP7 8RP,51.859083791533700,-2.939849264285260
Armadillo and Petrel,NP4 9QF,51.775541827327800,-3.085388272120920
Hawaiian honeycreeper and Viscacha,NP22 4AE,51.782798182331800,-3.250071595479560
Piping shrike and Bronzewing pigeon,CF48 3SF,51.764860424248200,-3.358593050564840
Pitohui and Mouse,CF47 9RR,51.759873735040200,-3.378352134515080
Masked owl and Ibex,CF47 8NU,51.752911762351600,-3.386962981048540
Recurvebill and Macaw,LD3 0RF,51.987520000000000,-3.301100000000000
Herring gull and Jay,NP7 0AA,51.826035568577600,-3.084613886283540
River dolphin and Hawk,NP7 9TG,51.804123148138900,-2.961736852401900
Triller and Black jay,NP4 9LJ,51.771366073782000,-3.076882000000000
Towhee and Polecat,NP23 8XA,51.759917000000000,-3.199924030488860
Kākāriki and Hawaiian honeycreeper,NP7 9JA,51.811921202279000,-3.012818572657990
Capuchin and Parrotbill,NP7 8DG,51.881878828302900,-2.978156595582690
Hawk and Dorcopsis,NP23 6LS,51.780091163691200,-3.209741478544080
Eagle and Treepie,NP7 9AD,51.795675971263600,-3.001027919635290
Linsang and Wader,CF47 9AW,51.757162126012300,-3.375719515555300
Linsang and Recurvebill,NP7 5HN,51.817394228685700,-3.011040810349950
Booted eagles and Ice seal,NP23 5ET,51.805045314320100,-3.208596558113490
Vulture and River dolphin,NP23 5NR,51.793351167862500,-3.207355819295720
Duck and Bunting,NP7 8DW,51.892798852513800,-2.968032000000000
Logrunners and Linsang,NP23 4WA,51.780172567459400,-3.162472423044660
Rabbit and River dolphin,CF47 9AT,51.761515857516300,-3.380169960854820
Snipe and Moluccan boobook,NP23 6BE,51.773883965667300,-3.207415852440220
Prion and Grouse,NP22 5JX,51.752275796800300,-3.274812689030170
Scimitar babbler and Diving bird,HR2 0PB,51.932642487640800,-2.982518375668500
New World blackbird and White ibis,NP23 5NU,51.795869926469900,-3.211613894201680
Flameback and Duck,NP22 4ET,51.807518308592900,-3.277444367988910
Marmoset and Recurvebill,NP8 1NP,51.864990658958600,-3.229460775973410
Solitaire and Tattler,NP23 4LQ,51.780322612917600,-3.163664948362730
Grosbeak and Mamo,LD3 7SR,51.955527305144500,-3.383894587648790
Crow and Dorcopsis,NP7 0RF,51.801698000000000,-3.147073000000000
Parakeet and Crow,NP8 1SJ,51.875833416516300,-3.108299158158420
Old World quail and Siskin,NP13 3JB,51.767583981854500,-3.149729398330620
Logrunners and Lemming,NP13 3JL,51.766192350240200,-3.149520136065170
Crow and Fulmarine petrel,LD3 7JW,51.951878497980100,-3.389093527300660
Wallaby and Jerboa,NP13 3BU,51.766229957633000,-3.163969045926960
Pitohui and Kangaroo,HR2 0AU,51.981452000000000,-2.931095000000000
Tit-tyrant and Macaw,NP22 3XN,51.768864773352300,-3.242962065617080
Diving bird and Old World vulture,NP23 4TJ,51.800467331316500,-3.183094814757810
Chicken and Rabbit,NP22 4JR,51.761246292818100,-3.233826986546940
Scimitar babbler and Fulmarine petrel,CF48 3PW,51.763665060029000,-3.341327528786590
Piping shrike and Tit-tyrant,NP23 6DW,51.773145428455800,-3.208410696941800
Ground sloth and Ibex,NP22 3AH,51.766802548932100,-3.237297113335210
Masked owl and Polecat,NP7 5AL,51.825013954178800,-3.022006979151520
Night heron and Perching duck,NP4 9BP,51.772687871876500,-3.091609930593090
Argus and Rat,CF47 9AD,51.754223895999900,-3.374007564282690
Moluccan boobook and Macaw,NP22 4NZ,51.784560000000000,-3.235797000000000
Pratincole and Chicken,NP22 4BE,51.787330265753400,-3.253415536122810
New World blackbird and River dolphin,NP23 4HW,51.796127148863300,-3.183720745734080
Fox and Kākāriki,NP7 6DL,51.834122140965100,-3.014738994398560
Pheasant and Moluccan boobook,NP23 6QE,51.779144166670200,-3.220457412300520
Treepie and Crow,NP7 5HU,51.821753057761600,-3.022702149304360
Coati and Logrunners,NP22 4NX,51.785423691268000,-3.235617507273860
Argus and Vole,CF47 9TX,51.761807593356800,-3.364427910988740
Moluccan boobook and Civet,NP23 8XE,51.763670834031800,-3.202912017227560
Fish eagle and Argus,LD3 0TU,51.978981000000000,-3.324979000000000
Hawaiian honeycreeper and Petrel,NP7 5PU,51.825107646581100,-3.013259472668250
Chicken and Darwin's finches,CF47 9JE,51.762587754979000,-3.369247803571050
Buzzard and Solitaire,NP13 3DR,51.758212027691400,-3.159169842529270
Peafowl and Magpie,NP8 1SN,51.858206985809600,-3.129458489173170
Maya and Thrasher,LD3 0UB,51.989896459398600,-3.325708624799200
Lemming and White ibis,NP7 9NT,51.815987793884900,-3.062452039618170
Mockingbird and Kākāriki,NP7 8DB,51.881075935224400,-2.980638004154380
Magpie and Magpie,NP23 6UA,51.756896086004900,-3.194502477997960
Gull and Puffleg,NP8 1LH,51.838379000000000,-3.137250000000000
Hawaiian honeycreeper and Grouse,NP23 4JW,51.783321677067300,-3.169511905458550
Chipmunk and Puffleg,NP7 6DT,51.834162381647600,-3.019442134381420
Herring gull and Eagle,LD3 8LT,51.928169000000000,-3.394440000000000
Partridge and Peafowl,NP23 4QG,51.778698460026100,-3.168769034168880
Polecat and Thicketbird,NP23 6PX,51.779114019856200,-3.216426812871180
Zebra and Partridge,NP23 4WE,51.777797796573400,-3.159455000000000
Linsang and Ibex,NP13 3HT,51.760111470115800,-3.156204687579780
Recurvebill and Grouse,CF48 2DN,51.771555000000000,-3.362200000000000
Linsang and Diving bird,CF47 8SW,51.752514905755700,-3.382488721359000
Flameback and Badger,NP7 7LS,51.883098115418500,-3.041412496563710
Coati and Philippine hawk-owl,NP7 9PH,51.818196669690300,-3.060792065598610
Vole and River dolphin,NP7 8BT,51.823099568082000,-2.974256421895220
Ice seal and Dorcopsis,NP23 5LA,51.796990985784300,-3.211020391550170
American sparrow and Mink,HR2 0PJ,51.982777000000000,-3.018649000000000
Jay and Viscacha,HR2 0AN,51.991600712687900,-2.908134909698640
Pheasant and Meadowlark,NP22 5BS,51.766407476266600,-3.289108335425930
Argus and Parrotbill,CF48 2AB,51.769948647371700,-3.354789307812360
Booted eagles and Songlark,NP22 4HZ,51.761140263744000,-3.234505120503010
Grouse and Vole,NP22 5DE,51.768991951170000,-3.289573279558430
Greenbul and Rabbit,NP4 9PB,51.777999059062900,-3.080229005275280
Wader and Linsang,NP13 3LH,51.767199828354200,-3.158632053362910
Eagle and Warbler,NP23 4PF,51.785988322154100,-3.167797000000000
Kangaroo and Black cockatoo,CF48 3BS,51.762400400346100,-3.360605812497100
Rabbit and Moluccan boobook,NP23 4DS,51.800297393590800,-3.167717849559970
Petrel and Meadowlark,NP23 4DE,51.800512015829200,-3.171450521713610
Towhee and Egret,NP7 7DW,51.826041870971200,-3.025802971127480
Kangaroo and Ice seal,NP13 3HJ,51.764337829880800,-3.158906542478420
River dolphin and Jerboa,LD3 0TN,51.963681149744000,-3.321412444602930
Thrasher and Bronzewing pigeon,NP23 5BD,51.783453011065200,-3.204583507978440
Stilt and Argus,NP22 5PB,51.758182317099300,-3.281513606460650
Fulmarine petrel and Marsh harrier,NP4 9HU,51.769771847141300,-3.070409532515010
Kangaroo and Vulture,CF47 9JG,51.761948632865500,-3.367764939639950
Wader and Tattler,NP22 4PB,51.783542380758400,-3.238378526357910
Siskin and Old World vulture,NP23 6LG,51.776543583043100,-3.208472502924100
Argus and Asiatic leopard,NP13 3HY,51.763333186267900,-3.157750551298510
Perching duck and Myna,NP7 5BD,51.823039660712600,-3.021570532107990
River dolphin and Piping shrike,NP7 0BP,51.827129133744400,-3.091779517301380
Ice seal and Pitohui,NP22 5NE,51.760499371575100,-3.288345939569790
Siskin and Masked owl,LD3 0EN,51.967039683863300,-3.209733698090550
Meadowlark and Philippine hawk-owl,CF48 2AT,51.772174385960100,-3.352029722741570
Mole and Songlark,NP23 8AR,51.755034137389000,-3.198104286059840
Piping shrike and Kākāriki,NP7 0DL,51.828187154777400,-3.096927572263460
Towhee and Fox,NP7 9UG,51.796307188768900,-2.927363034241550
Bronzewing pigeon and Polecat,NP4 9EB,51.769220188715800,-3.083367000000000
Mouse and Cloud rat,NP7 6AN,51.830918000000000,-3.012171000000000
Black jay and Zebra,NP23 4SF,51.802069618488000,-3.172143536273260
Kangaroo and Mockingbird,NP23 5SY,51.800520231283300,-3.223733000000000
Darwin's finches and Buzzard,NP4 9AB,51.774676701095000,-3.085599415704580
Herring gull and Tit-tyrant,NP23 4JU,51.786635986500000,-3.170511439700000
Fox and Duck,NP4 9DY,51.766847284339000,-3.079513476051130
Peafowl and Towhee,HR2 0DY,51.929661388374400,-2.969029306374060
Greenbul and Civet,NP7 9HY,51.777477924984200,-3.005190938011170
Partridge and Cuscus,NP4 9QA,51.774554000000000,-3.083850000000000
Prion and Buzzard,NP23 4JS,51.790843818780800,-3.172591882414490
Perching duck and Piping shrike,NP7 7NP,51.979903077509200,-3.091355706264700
River dolphin and Armadillo,NP23 6JG,51.780134230081200,-3.208177068345570
Kite and Boto,NP23 6UR,51.762968000000000,-3.204965000000000
Booted eagles and Hawk,NP7 8RN,51.854688634612600,-2.930610323042120
Argus and Tit-tyrant,CF47 8FG,51.750014290387000,-3.380848271308680
Diving bird and Siskin,NP23 4TF,51.801376851933800,-3.184742934666180
Bunting and Chickadee,NP8 1SW,51.862822450239600,-3.131026352609120
Logrunners and Chickadee,NP23 5QF,51.797245823430800,-3.227196335428380
Hawk and Mink,NP22 5LD,51.753910594033300,-3.279103609740490
Old World vulture and Magpie,NP7 9ES,51.767443832330300,-3.014575942066820
Quetzal and Armadillo,NP8 1RT,51.922500016115900,-3.190925580883470
Fox and Crow,CF47 9TT,51.763536643024300,-3.375000403312160
Skunk and Eagle,NP23 6NZ,51.777211353698100,-3.215216033457120
Cloud rat and Black cockatoo,NP22 3BL,51.784951353797200,-3.263135433139710
Chipmunk and Crow,NP4 9XG,51.773096000000000,-3.100954000000000
Nukupuʻu and Cuscus,NP22 4NG,51.763506887314000,-3.231758504049800
Kite and River dolphin,NP7 5SH,51.827032237386500,-3.018410464219180
Skunk and Wallaby,NP7 0BX,51.826838000000000,-3.096669000000000
Black jay and Black jay,LD3 8LU,51.936754910120200,-3.393659395447320
Dorcopsis and Mamo,NP23 5BW,51.796810418560400,-3.227561546292860
Jay and River dolphin,NP7 5UA,51.826432768444000,-3.019107959589560
Quetzal and Treepie,NP7 8BS,51.821114994763400,-2.965232635170330
Skunk and Songlark,NP7 8EH,51.875268000000000,-2.950079000000000
Marsh harrier and Zebra,NP23 5FH,51.783375146121300,-3.203407178117200
Recurvebill and Ice seal,NP8 1TL,51.847988000000000,-3.114090000000000
Fox and Darwin's finches,NP23 6GL,51.773924289500000,-3.202358971100000
Dorcopsis and Partridge,NP23 5NE,51.794532917210000,-3.205226804216380
Boto and Dolphin,NP13 3HG,51.764930260820900,-3.159008663223100
Mockingbird and Snipe,NP15 2BA,51.785211000000000,-2.912682000000000
Pitohui and Solitaire,NP7 9UW,51.787558426656500,-2.946567416051220
Civet and Siskin,NP23 6WH,51.781305770602100,-3.224429766527280
Treepie and Francolin,CF47 9AZ,51.754720955286600,-3.373022980171690
New World blackbird and Ibex,LD3 7AG,51.947315566301100,-3.390218359177820
Zebra and Badger,NP23 6BZ,51.770343577530900,-3.208944545545610
Treepie and Ibex,NP8 1DQ,51.862805919099900,-3.131810148454240
Parrotlet and Jay,NP23 6XQ,51.788479044203400,-3.225479469166960
Thicketbird and Elephant,NP7 6AF,51.828921810223600,-3.008861070005730
Macaw and River dolphin,NP8 1PU,51.858072252393600,-3.153530775232750
Coati and Peafowl,LD3 7YT,51.858146580343900,-3.303912547878770
Linsang and Old World vulture,NP7 9NY,51.816280546816700,-3.058904620728490
Logrunners and Thrasher,NP23 5FD,51.783025175584100,-3.200701446498970
Hawaiian honeycreeper and Kangaroo,CF47 9HL,51.760608601508300,-3.363145626776930
Capuchin and Philippine hawk-owl,NP23 8UW,51.778096000000000,-3.206267000000000
B and Pitohui,NP23 6JB,51.787213091266600,-3.212295257643060
Peafowl and Puffleg,NP7 5SL,51.827689073130800,-3.016277655717560
Thicketbird and Perching duck,NP7 9PZ,51.817137504900000,-3.024788667400000
Marmoset and Moluccan boobook,NP7 0HW,51.820910000000000,-3.100334000000000
Parrotbill and Hawk,NP23 9ZQ,51.784797941185600,-3.209331008713990
Elephant and White ibis,NP22 3AL,51.785478000000000,-3.275787000000000
Shearwater and Piping shrike,NP7 9JN,51.813557679960200,-3.012811750470430
Prion and Lemming,NP7 8RD,51.852188526433600,-2.919248608965920
B and Jerboa,NP23 4AP,51.797345744299000,-3.175182318752430
Bunting and Mouse,NP23 5JR,51.797284606515200,-3.210448201807680
Parrotlet and Black jay,NP22 4BA,51.781783000000000,-3.248405000000000
Hawk and Recurvebill,CF48 3BE,51.761505468161700,-3.359463158719430
Mamo and Warbler,CF47 9SY,51.766013624889500,-3.370786157358640
Mouse and Shearwater,NP23 5FP,51.789924712913900,-3.202160622323380
Stilt and Myna,NP7 5JS,51.822907042674100,-3.015081805002590
Civet and Goose,NP7 7NR,51.909357404550900,-3.023426730820090
Cloud rat and Vulture,NP23 5QQ,51.796877071265800,-3.200506000000000
Cloud rat and Darwin's finches,CF47 8RT,51.750497170820900,-3.380500368321490
Kite and Parakeet,CF48 3HS,51.761101279685500,-3.353973778547760
Chicken and Puffleg,NP13 3LN,51.771187160509200,-3.154560193423870
Mole and Treepie,NP22 4LN,51.767087154484600,-3.235029684284630
Parrotlet and Gull,NP7 9SF,51.819152000000000,-3.077543000000000
Tree warbler and Bunting,NP22 3SL,51.790286871926600,-3.262806045792300
Civet and Siskin,NP13 3EU,51.751355000000000,-3.153475000000000
Maya and Francolin,CF47 9TG,51.764407728253400,-3.370476662214520
Stint and Diving bird,LD3 7HY,51.947912000000000,-3.390819000000000
Mamo and Black jay,CF47 9RJ,51.759922024237800,-3.364197180614320
Night heron and Songlark,NP7 6PT,51.840360000000000,-3.003099000000000
Grouse and Hawaiian honeycreeper,NP4 9LS,51.771423372093400,-3.078593678236110
Wader and Dolphin,NP22 4EL,51.786686555899400,-3.251382452748360
Peafowl and Scimitar babbler,NP7 6JY,51.839286846471500,-3.004883527475570
River dolphin and Parakeet,LD3 0DA,51.990940372688600,-3.229500343276440
Old World vulture and Condor,CF48 3SE,51.765464162670700,-3.358480757105590
Linsang and Parakeet,NP23 4RY,51.802020758659000,-3.178828117946370
Tahr and Solitaire,NP8 1EW,51.839948601906300,-3.104529042717700
Boto and Armadillo,CF47 8TW,51.753163002865800,-3.383957270584050
Goose and Wader,CF47 8RP,51.751486609006300,-3.379704784908170
Rabbit and Perching duck,NP23 4UF,51.778507992207000,-3.162589082526560
Thicketbird and Myna,NP22 5JF,51.754014649899400,-3.276976862975760
Badger and American sparrow,NP7 0LT,51.809498704617600,-3.123105332617760
Marsh harrier and Dorcopsis,LD3 7GA,51.947133000000000,-3.389005000000000
Rat and Mockingbird,CF47 8DT,51.750006631369400,-3.381499931538530
Darwin's finches and Bunting,LD3 0DY,51.991269864907100,-3.219431036195420
Marmoset and Boto,NP23 5NL,51.790835307828500,-3.205432699066590
Tattler and Fish eagle,NP7 9BX,51.781023000000000,-3.005551000000000
Shearwater and Marmoset,NP22 3XA,51.768713277003000,-3.241131869586840
Grouse and Vulture,NP23 5BG,51.797715778921800,-3.228688261672540
River dolphin and Thrasher,NP23 6AA,51.779898250875300,-3.204010449282850
Linsang and Wallaby,NP13 3HF,51.761497244014700,-3.157920925713560
Ground sloth and Warbler,LD3 7JR,51.894134067194900,-3.241839208353860
Ground sloth and Magpie,NP7 6EL,51.829258877309500,-3.018779952249790
Tree warbler and Magpie,NP22 4PW,51.786565014766800,-3.240795507252980
Black cockatoo and Gull,NP7 7BE,51.831025855623200,-3.031648505646570
Snipe and Dolphin,NP8 1DD,51.861575916313600,-3.134422280098180
Wader and Vole,NP7 6NF,51.836930692136100,-3.007037180661500
Bunting and Francolin,LD3 0EU,51.953629552405300,-3.191109000000000
Shearwater and Greenbul,NP13 3XG,51.767004990100000,-3.154410408200000
Pheasant and Grackle,LD3 0DR,51.994002298875400,-3.225578875089470
Bunting and Black cockatoo,NP7 0NG,51.813337974852800,-3.115555876653800
Kangaroo and Minke whale,NP7 7RF,51.825278382883800,-3.031879919139420
Kangaroo and Diving bird,LD3 7TL,51.946887000000000,-3.289753000000000
Cloud rat and Dolphin,NP7 8DE,51.850215326508200,-3.002295925544520
Dorcopsis and Quetzal,CF47 9DW,51.764299215049700,-3.392080000000000
Kestrel and Eagle,LD3 7NE,51.949370000000000,-3.388419000000000
Solitaire and Dolphin,NP7 5UG,51.824793204733900,-3.024642814087660
Quetzal and Jackal,NP7 9HD,51.766148449533600,-2.994664920439690
Thrasher and Kākāriki,NP7 8EF,51.886240064006200,-2.936100402507160
Egret and Chicken,NP4 9NT,51.776274348580100,-3.081028494298980
New World blackbird and Wader,NP7 5RJ,51.824754063239900,-3.012555054922480
Tahr and Dorcopsis,LD3 7HQ,51.897006408171000,-3.249330111993280
Songlark and Grouse,NP23 4EB,51.797909898013100,-3.170005415304620
Armadillo and Parrotbill,NP7 9HP,51.791654536813200,-3.011798915511680
Towhee and Fish eagle,NP7 5SP,51.827388378032900,-3.012570609040030
Songlark and Prion,NP22 5JS,51.754032811046300,-3.279440280164940
Wader and Grosbeak,CF47 9AJ,51.760509725773000,-3.369329822148910
Petrel and Pheasant,NP13 3HD,51.765508713530600,-3.158704675049350
Booted eagles and Guillemot,CF47 9BS,51.763770356832200,-3.381905188588840
Capuchin and Treepie,NP22 5LJ,51.749605038622200,-3.275664597288890
Thicketbird and Grouse,LD3 7ER,51.945553429901700,-3.388679811947910
Pitohui and Peafowl,NP22 4HS,51.767261842767100,-3.239787782745680
Chickadee and Puffleg,NP7 5PE,51.823190240156300,-3.017394000000000
Kākāriki and Marsh harrier,CF47 9LB,51.756631334739500,-3.370357073732340
Francolin and Solitaire,NP7 0PN,51.803962288437000,-3.122981000000000
Francolin and Eagle,NP7 0ET,51.821480205732400,-3.107038000000000
Cuscus and Kite,NP23 6NT,51.778936792911800,-3.214436152246960
Ground sloth and Tree warbler,LD3 7JD,51.894364784096700,-3.287521595828470
Asiatic leopard and Armadillo,NP23 5BH,51.796017833936000,-3.220782523506800
Parrotbill and Pratincole,NP23 5LY,51.790588128850100,-3.211109832581200
Goose and Condor,CF47 8SB,51.751201503537500,-3.380246597386780
Dolphin and Jay,NP7 7LE,51.863029880230400,-3.006269461583000
Night heron and Rat,NP23 6PJ,51.778063055991000,-3.216326066902010
Zebra and Chicken,NP4 9LZ,51.772846604967000,-3.085149674170960
Mockingbird and Ground sloth,NP23 4TG,51.801165706820800,-3.183388650890080
Stilt and Elephant,NP22 4XD,51.789764859658000,-3.247697905398300
Scimitar babbler and Dorcopsis,NP23 5JZ,51.794951715830400,-3.196798570936880
Warbler and Logrunners,CF48 4AR,51.771453360478200,-3.314934236083870
Thicketbird and Duck,NP22 5DS,51.770944901719200,-3.291049279572930
Chickadee and Civet,NP22 3HZ,51.781249576792700,-3.249419935793560
Mouse and Thrasher,HR2 0DX,51.922099000000000,-2.961596000000000
Nukupuʻu and Shearwater,NP23 4NY,51.783564188691100,-3.168633861385610
Old World warbler and Scimitar babbler,NP23 4EF,51.797106179117000,-3.172159808815020
Ice seal and Maya,NP7 6AJ,51.826469396420200,-3.005454317871350
Magpie and Crow,CF48 3NA,51.762638544805900,-3.350092845028170
Fulmarine petrel and Parrotbill,LD3 9BQ,51.957153708489800,-3.387801286899110
Warbler and Puffleg,NP7 7ND,51.889753988828800,-3.001795088958660
Greenbul and Marsh harrier,CF47 9NY,51.758725583590400,-3.382707426648270
Cloud rat and Vole,NP23 4DX,51.798443286553200,-3.169482000000000
Thicketbird and Tattler,NP7 5EH,51.821549370012500,-3.018026000000000
Duck and Parrotbill,NP23 5FB,51.783260623038500,-3.201418049012940
Civet and Bronzewing pigeon,NP23 6WA,51.781085486997900,-3.223133633466550
Night heron and Wader,NP7 9ND,51.809970021950400,-3.033488398461120
Chipmunk and Guillemot,NP8 1AL,51.856561372304600,-3.134150925405720
Parrotlet and Viscacha,LD3 7YN,51.899558786869400,-3.304123145741660
Pratincole and New World blackbird,NP23 5RL,51.794649417006200,-3.199110660194250
Guillemot and Stilt,NP7 9HF,51.798101499558600,-3.021137198205570
Wader and Jerboa,LD3 7AH,51.947420331167400,-3.390483501108440
Tit-tyrant and Rabbit,NP22 5JR,51.753593352762000,-3.274371708927150
Herring gull and Solitaire,LD3 7YE,51.916577000000000,-3.300400000000000
Lemming and Gull,HR2 0PD,51.938018000000000,-2.979552000000000
Kestrel and Solitaire,CF48 3NE,51.766469648896200,-3.352380933660440
Booted eagles and Towhee,NP8 1BN,51.858333400174700,-3.135938012084570
Chickadee and Partridge,NP22 3QN,51.774335607515400,-3.247678059639040
Tit-tyrant and Skunk,NP23 4TY,51.799637617563100,-3.187800800039920
Warbler and Triller,NP7 9JF,51.813260027259100,-3.011876669394320
Shearwater and New World blackbird,NP23 4HY,51.797018391729500,-3.185397241858140
Vulture and Old World warbler,NP23 6EJ,51.782380000000000,-3.207704726546330
Asiatic leopard and Cuscus,CF48 2BN,51.772879208209500,-3.355630763063140
Mockingbird and Tattler,CF47 9UL,51.765139260256000,-3.372513120024050
Siskin and Hawk,NP23 5DD,51.796852716687600,-3.241512986042800
Prion and Vole,NP22 3DD,51.776811000000000,-3.245036000000000
Marmoset and Darwin's finches,CF48 2SH,51.768101857848000,-3.387457629998300
Mole and Wader,CF48 3RD,51.763238445419000,-3.349531116378330
Chipmunk and Meadowlark,HR2 0NY,51.944018168501800,-2.982286888638280
Ibex and Skunk,NP22 5NS,51.759445425884500,-3.283592383292300
Goose and Magpie,NP7 6HN,51.832883733402400,-3.010284791183540
Triller and Wallaby,CF48 2UU,51.786294489019100,-3.365386000000000
Kangaroo and Vole,NP7 0BW,51.825997017348100,-3.091694096110700
Polecat and Myna,NP23 4UT,51.781421098614500,-3.161692727559020
Linsang and Marmoset,NP7 0HY,51.809461971495400,-3.126005470272730
Armadillo and Warbler,NP7 9RS,51.815440972732800,-3.073159929980530
Marsh harrier and Hawaiian honeycreeper,NP23 6HF,51.781910282205100,-3.207717145313880
Elephant and Old World quail,NP23 5BY,51.796403885770900,-3.236454000000000
Songlark and Siskin,NP8 1NU,51.853774000000000,-3.278028000000000
Mole and Towhee,LD3 7HU,51.943458037289700,-3.385661675038850
Nukupuʻu and Goose,CF48 1BN,51.750483820123200,-3.385454406639440
Scimitar babbler and Grackle,NP23 5FN,51.782170376812600,-3.202519814582080
Parrotlet and B,LD3 8LW,51.913745766045000,-3.379163557172690
Grackle and Fulmarine petrel,NP7 8DU,51.881423703100000,-2.979556345300000
American sparrow and Rabbit,NP23 5RF,51.797540000000000,-3.199651000000000
Asiatic leopard and Parakeet,NP22 3SB,51.788754800170800,-3.261458356938900
Kite and New World blackbird,NP8 1LZ,51.848636378161100,-3.152098994194340
Argus and Nukupuʻu,NP7 7NE,51.890528032591800,-3.004863859504570
Francolin and Moluccan boobook,NP7 5RE,51.827270841946800,-3.008461402310670
Dorcopsis and Scimitar babbler,LD3 7DB,51.945545481457700,-3.380182676401400
Mink and Towhee,LD3 7LQ,51.915648580844800,-3.353122982714120
Egret and Bunting,NP23 5QD,51.796126987096000,-3.199020000000000
Jackal and Cloud rat,NP7 8RT,51.886084017145100,-2.968701861507460
Ice seal and White ibis,NP23 9ZS,51.784797941185600,-3.209331008713990
Condor and Diving bird,NP22 5ES,51.765428581637000,-3.289819502039320
Old World quail and Zebra,NP23 5DZ,51.803184592738300,-3.208546784125980
Philippine hawk-owl and Fish eagle,NP7 7DA,51.827740740536800,-3.023795522281820
Dolphin and Recurvebill,NP7 7NY,51.893169000000000,-2.993631000000000
Mockingbird and Vulture,NP7 9LJ,51.814444537174500,-3.030776476226170
Rat and Pheasant,CF47 9AL,51.756086495888500,-3.368500542594540
Warbler and Magpie,NP7 7EA,51.826218582258100,-3.029245981865060
Thicketbird and Peafowl,LD3 7HT,51.919794490184500,-3.345991662974730
Kangaroo and Goose,NP13 3EA,51.757924086733700,-3.159191444831150
Dorcopsis and Macaw,NP7 5JT,51.824245000000000,-3.009163000000000
Goose and Philippine hawk-owl,NP7 6DX,51.833729000000000,-3.016646000000000
Shearwater and Meadowlark,NP15 2AZ,51.787723210446400,-2.910920108815390
Perching duck and Quetzal,NP7 5BQ,51.824480758915400,-3.021283920874700
Marsh harrier and Pitohui,NP7 8DS,51.896457698675500,-2.966774109319250
Marmoset and Nukupuʻu,NP22 3JY,51.769484581755500,-3.238761756545110
Pheasant and Triller,NP7 5UY,51.824398054239700,-3.025620521996980
Dolphin and Eagle,LD3 7FF,51.938949000000000,-3.254475000000000
Black cockatoo and Myna,NP23 5JA,51.796630910111000,-3.209314097594360
Fox and Capuchin,CF47 9JJ,51.764826518377700,-3.368489554426590
Fish eagle and Diving bird,NP23 5QA,51.797101477236200,-3.220333249734610
Duck and Towhee,NP7 5SR,51.826844880821400,-3.013037271953590
Macaw and Badger,NP23 4DA,51.799861067031100,-3.172709842501500
Partridge and Partridge,NP7 5NJ,51.822022934773600,-3.015424657834970
Bronzewing pigeon and Old World vulture,NP22 3BH,51.761336000000000,-3.250928000000000
Solitaire and Warbler,NP23 4BP,51.798651374018200,-3.167776828036210
Marsh harrier and Quetzal,NP23 4JN,51.784294000000000,-3.170421000000000
Dolphin and Recurvebill,NP22 4LL,51.767241490802600,-3.236599017341050
Egret and Elephant,LD3 7YU,51.881642000000000,-3.283593272371080
Piping shrike and Jay,NP8 1HF,51.864404722632600,-3.095906079006850
Capuchin and Perching duck,NP22 4PN,51.786131930202900,-3.239232344719320
Logrunners and Old World vulture,CF47 0HH,51.752060241838300,-3.369870990274600
Ice seal and Polecat,CF48 3LU,51.761525186627400,-3.355420990488460
Civet and Coati,NP22 4JA,51.762901042816700,-3.235509530133490
Egret and Polecat,NP13 3AU,51.769026832895900,-3.162099035678390
Booted eagles and Kākāriki,NP7 9BY,51.783119175282900,-2.993124650735030
Egret and Macaw,NP4 9JH,51.774325763443200,-3.075851068408370
Snipe and Guillemot,NP7 6HF,51.834294826158100,-3.009009000000000
Macaw and Grosbeak,NP22 3LG,51.770262074760700,-3.237507679613120
