name,postcode,lat,lon
caiman and Ground sloth,BT93 4DL,54.389093000000000,-8.054868000000000
Komodo dragon and dugite,BT93 4FL,54.392905000000000,-8.015879000000000
Asiatic leopard and Quetzal,BT93 5BA,54.328030000000000,-7.942787000000000
Hawaiian honeycreeper and Old World quail,BT93 5EH,54.333430000000000,-7.964176000000000
sand lizard and Chickadee,BT93 5EJ,54.337286000000000,-7.974442000000000
