name,id,postcode,lat,lon
jew lizard and agamid,1747928,BT93 5AY,54.319665000000000,-7.921268000000000
Polecat and Pheasant,1747932,BT93 5BD,54.332092000000000,-7.942503000000000
mountain devil and Masked owl,1700677,BT93 5ER,54.354070000000000,-7.988396000000000
Parrotbill and moloch,1938295,BT93 4DQ,54.383626000000000,-8.066742000000000
massasauga and Old World vulture,1938287,BT93 4BX,54.377190000000000,-8.030630000000000
