name,postcode,lat,lon
chameleon and diamondback terrapin,DT3 4AB,50.613648341202100,-2.496056135171330
diamondback terrapin and Viscacha,DT3 4AL,50.619226000000000,-2.491705000000000
Grosbeak and Black cockatoo,DT3 4AY,50.621581740473100,-2.501963747765930
crocodile and Condor,DT3 4BS,50.642138099504100,-2.500076000000000
boomslang and B,DT3 4HT,50.640641365793500,-2.547308000000000
boomslang and gopher snake,DT3 4HU,50.640385762085700,-2.545961443339240
tuatara and Old World quail,DT3 4NJ,50.624408501985700,-2.509557178891050
asp and Crow,DT3 4NT,50.609669941830600,-2.488382658829530
python and thorny devil,DT3 4PA,50.622963265927200,-2.494344691971450
Warbler and frill-necked lizard,DT3 5EJ,50.628575603411900,-2.461277566438360
Meadowlark and constrictor,DT3 5EL,50.629562258979200,-2.461923462440870
Schneider python and Masked owl,DT3 5FB,50.645212629212100,-2.469332780348300
gaboon viper and agama,DT3 5HB,50.627742832772200,-2.467150834825150
python and Fox,DT3 5HY,50.630607012550200,-2.454666317105710
Linsang and loggerhead,DT3 5JN,50.630386736701000,-2.460376275565590
bull snake and Egret,DT3 5RA,50.648414943647000,-2.467766096502750
grass snake and carpet snake,DT3 5RB,50.648401440739100,-2.466648567982700
blindworm and Gull,DT3 5RH,50.635658046773500,-2.471245205621750
boa and Fox,DT3 5SJ,50.649045063153700,-2.458564336777450
Condor and Logrunners,DT3 6AQ,50.647666458758600,-2.452355834537850
Stilt and leathery turtle,DT3 6BB,50.642938378892300,-2.430431839324080
racer and leguaan,DT3 6EB,50.641435868787500,-2.427958000000000
worm lizard and blindworm,DT3 6FF,50.644759534184700,-2.442215000000000
Quetzal and Chickadee,DT3 6FP,50.644890495282000,-2.443673847414300
blindworm and bull snake,DT3 6RB,50.644705615808600,-2.452921400938080
boomslang and bushmaster,DT3 6RG,50.644678532967200,-2.450629956803650
Dolphin and K훮k훮riki,DT3 6SP,50.643528737159700,-2.428853247128440
Hawk and mud turtle,DT3 6ST,50.644192514626500,-2.448404860597560
Pitohui and Tahr,DT4 0AD,50.611756313066400,-2.461932705122580
Myna and Moluccan boobook,DT4 0AQ,50.611460817123700,-2.465803000000000
snapping turtle and boa,DT4 0BE,50.612254479003000,-2.465555734029520
Boto and harlequin snake,DT4 0BU,50.606606008864900,-2.470262344342480
K훮k훮riki and Tit-tyrant,DT4 0DE,50.603959929401300,-2.468568509504520
blue tongue and Mouse,DT4 0EP,50.621397460185700,-2.477350765889670
flying dragon and water snake,DT4 0GX,50.613622000000000,-2.461343000000000
horned toad and Logrunners,DT4 0HW,50.611423081864200,-2.464317940614850
rat snake and Zebra,DT4 0JE,50.610552421472700,-2.470626763376310
rattlesnake and White ibis,DT4 0LA,50.611967902136500,-2.469736362169420
anole and Perching duck,DT4 0LT,50.611893000000000,-2.470739000000000
Quetzal and Darwin's finches,DT4 0LW,50.612947280730400,-2.474381941679170
Condor and Chipmunk,DT4 0NH,50.611610908892700,-2.475711148615580
Old World vulture and Puffleg,DT4 0NR,50.609471483544200,-2.473287026974100
Piping shrike and Fox,DT4 0NZ,50.612910293143100,-2.470198027174300
Greenbul and Kestrel,DT4 0PF,50.616581128964100,-2.469768199483720
Bronzewing pigeon and dukite,DT4 0PJ,50.614699864458800,-2.470201743276870
Guillemot and Jackal,DT4 0QA,50.613192000000000,-2.476349000000000
Bronzewing pigeon and loggerhead,DT4 0RH,50.605383233811200,-2.474630863316620
tree snake and snapping turtle,DT4 4ZE,50.606767000000000,-2.457234000000000
blindworm and flying lizard,DT4 7BA,50.614101556369200,-2.453263313173680
tortoise and horned toad,DT4 7EN,50.623781804767900,-2.446515000000000
diamondback terrapin and gecko,DT4 7EX,50.616344823802100,-2.452224788768950
Herring gull and chuckwalla,DT4 7HD,50.618194377499500,-2.452991698417490
flying lizard and coral snake,DT4 7HQ,50.618517944281600,-2.453037214061480
bearded dragon and horned toad,DT4 7NY,50.618047925779900,-2.451336481727190
diamondback turtle and Siskin,DT4 7PG,50.618381307470500,-2.451170051555720
elapid and tortoise,DT4 7PN,50.619717161774800,-2.454532981819480
Kestrel and horned toad,DT4 7QQ,50.622203407045100,-2.458048644519850
Tahr and blue tongue,DT4 7SG,50.619132283502900,-2.449989863044870
kabaragoya and loggerhead,DT4 7UW,50.621353069451300,-2.452598000000000
Zebra and Treepie,DT4 8AG,50.608711420221300,-2.456433662461040
tuatara and Armadillo,DT4 8AZ,50.608191463493700,-2.453715252602240
Condor and hawksbill,DT4 8BS,50.608400204935600,-2.460105030038610
Songlark and kabaragoya,DT4 8BY,50.607986175698500,-2.453317578152950
rock python and Kite,DT4 8DB,50.610137000000000,-2.453338000000000
Greenbul and slowworm,DT4 8DU,50.607828870083000,-2.452341000000000
Maya and Wallaby,DT4 8EW,50.610590493789400,-2.454247123957910
Flameback and Jay,DT4 8HX,50.606038002587200,-2.461636447806480
caiman and Mink,DT4 8JG,50.606445746474300,-2.460863199097110
constrictor and Macaw,DT4 8LT,50.606275765033300,-2.456070926725060
Triller and iguana,DT4 8PJ,50.609376112226000,-2.454334351341320
brown snake and snake,DT4 8QE,50.596163606461900,-2.461681088779790
sand lizard and Scimitar babbler,DT4 8QL,50.605656804795700,-2.460247837543210
Herring gull and Snipe,DT4 8RH,50.601268077461900,-2.458014841395140
Minke whale and Parrotlet,DT4 8RU,50.601117956076000,-2.455017812776560
python and perentie,DT4 8RZ,50.600971367152000,-2.455708768765000
Schneider python and alligator,DT4 8SW,50.603683679673800,-2.452004443332320
galliwasp and goanna,DT4 8TU,50.606238611770100,-2.451760434552870
racer and Guillemot,DT4 8TW,50.606106784459400,-2.453285378177690
Stilt and Argus,DT4 8YS,50.609144613500100,-2.456042147446720
lizard and alligator,DT4 9AT,50.589708118904000,-2.474741564288960
Fish eagle and Macaw,DT4 9BB,50.588924267481200,-2.475100963892660
Macaw and bandy-bandy,DT4 9BY,50.589153846502800,-2.469495065017410
Egret and Macaw,DT4 9DD,50.590528456323500,-2.469819535400290
Crow and grass snake,DT4 9DX,50.605428946420200,-2.485357018561380
Parrotlet and Parrotlet,DT4 9GJ,50.597693648001500,-2.470357159570270
Meadowlark and flying lizard,DT4 9HS,50.600178360968400,-2.482886791480970
cayman and giant tortoise,DT4 9HZ,50.606359178121300,-2.484405642504410
Goose and green turtle,DT4 9JX,50.595832857695600,-2.463443910350180
viper and New World blackbird,DT4 9LG,50.599569884319000,-2.462194837489930
Cuscus and hoop snake,DT4 9LL,50.598034067565500,-2.463960057882720
elapid and Macaw,DT4 9NQ,50.596471926873900,-2.481040377709610
Recurvebill and box turtle,DT4 9NY,50.596208211709900,-2.479568315047360
Grosbeak and Coati,DT4 9PP,50.598975550570900,-2.469140684188610
soft-shelled turtle and blue tongue,DT4 9QR,50.600812716012000,-2.474897000000000
New World blackbird and White ibis,DT4 9QS,50.599977965168500,-2.474760152057980
rat snake and Vulture,DT4 9QZ,50.602564128883500,-2.466802460408240
Siskin and Siskin,DT4 9TT,50.611892000000000,-2.488490000000000
puff adder and Old World warbler,DT4 9UQ,50.626464534252700,-2.474150436363280
Old World vulture and bearded lizard,DT4 9UY,50.598900874426400,-2.474254781460340
boa and diamond python,DT4 9XJ,50.619635942582200,-2.483864000000000
Thicketbird and rattlesnake,DT5 1BS,50.546667000000000,-2.436146778282930
slowworm and Fulmarine petrel,DT5 1DB,50.551716258494900,-2.427454638266820
Hawk and brown snake,DT5 1DZ,50.549716498151700,-2.423442093821100
sand viper and snake,DT5 1FU,50.568975000000000,-2.455213000000000
asp and sea snake,DT5 1HN,50.543916715524800,-2.433029259039910
Bronzewing pigeon and Polecat,DT5 1JQ,50.558941232644000,-2.443317425837150
Fox and boomslang,DT5 1JR,50.559345525589000,-2.443420043464910
sand viper and anaconda,DT5 1JZ,50.557323683575900,-2.443005788204440
frill-necked lizard and Songlark,DT5 1LX,50.559554452724700,-2.442871418013820
Chicken and Francolin,DT5 1PH,50.562016497235300,-2.426559578798980
milk snake and blind snake,DT5 2AA,50.547498117175800,-2.437253941576100
tuatara and blue tongue,DT5 2AB,50.544968733420100,-2.437879746183160
horned toad and leathery turtle,DT5 2AQ,50.539825533095300,-2.451788589524530
Moluccan boobook and Black jay,DT5 2BD,50.543463128199300,-2.438472000000000
diamond python and Viscacha,DT5 2BZ,50.539733429864700,-2.445352774794220
cobra de capello and Armadillo,DT5 2DF,50.537865797094100,-2.442230727030190
green turtle and Dorcopsis,DT5 2EY,50.543462543906500,-2.443779056471310
python and Parrotbill,DT5 2JQ,50.539657920745700,-2.446283433818620
