name,postcode,lat,lon
Cafe Monet,DT3 4AF,50.61621856689450,-2.49489188194275
Turks Head Inn,DT3 4DS,50.62430191040040,-2.50368595123291
The Lugger Inn,DT3 4DY,50.62452697753910,-2.50699591636658
LFH (Moonfleet Manor) Ltd,DT3 4ED,50.62623596191410,-2.53755211830139
Starbucks,DT3 4FL,50.61518859863280,-2.49557399749756
Abbotsbury Swannery,DT3 4JG,50.64838027954100,-2.57090210914612
The Shed,DT3 6AD,50.64572906494140,-2.43963289260864
The Bridge Inn,DT3 6DB,50.64749526977540,-2.42106389999390
Eweleaze Farm Ltd,DT3 6ED,50.64703369140630,-2.40714311599731
Eweleaze Farm,DT3 6ED,50.64703369140630,-2.40714311599731
Sunset Bar and Restaurant ,DT3 6PW,50.63790893554690,-2.41877293586731
Cafe India,DT4 0AD,50.61176681518550,-2.46194291114807
Ray's chicken,DT4 0AD,50.61182080000000,-2.46139300000000
Weymouth Golf Club clubhouse,DT4 0PF,50.61659240722660,-2.46977901458740
Seabeats,DT4 7AT,50.61392211914060,-2.45337104797363
Seafront Bars Ltd,DT4 7AT,50.6138,-2.4534
KFC,DT4 7BG,50.61715316772460,-2.45740199089050
McDonalds,DT4 7BG,50.61715316772460,-2.45740199089050
McDonald’s Restaurants,DT4 7BG,50.61715316772460,-2.45740199089050
Marria’s ,DT4 7BH,50.61456680297850,-2.45385789871216
The Dorset Burger Company Ltd,DT4 7BH,50.61456680297850,-2.45385789871216
Buzz Bingo,DT4 7BX,50.61554336547850,-2.45324492454529
Shalim's Balti House,DT4 7DW,50.6140,-2.4561
The Leam Hotel Weymouth,DT4 7EB,50.61466979980470,-2.45298290252686
CHILLI'S WEYMOUTH,DT4 7HZ,50.61551284790040,-2.45368289947510
Hotel Rembrandt,DT4 7JU,50.62199870000000,-2.45282730000000
The Three Chimneys Smokehouse and Grill,DT4 7NN,50.6176,-2.4516
Al Molo,DT4 7RN,50.61730575561520,-2.45066189765930
Dunga Catering Limited ,DT4 7TY,50.61437606811520,-2.45671105384827
Palm House Pancakes,DT4 7TZ,50.61530685424800,-2.45989990234375
The Palm House,DT4 7TZ,50.61530685424800,-2.45989990234375
Marlboro Restaurant Limited,DT4 8AW,50.60760879516600,-2.45560002326965
Prezzo Plc,DT4 8AW,50.60760879516600,-2.45560002326965
Spice Tandoori (Weymouth) Ltd,DT4 8AZ,50.60820007324220,-2.45372605323792
THE LOFT WEYMOUTH LIMITED,DT4 8BG,50.60759735107420,-2.45212292671204
Suttons Coffee Shop,DT4 8BZ,50.60891342163090,-2.45340800285339
Fish 'n' Fritz Ltd,DT4 8DD,50.60839080810550,-2.45333194732666
Criterion Restaurant ,DT4 8DE,50.61145019531250,-2.45355892181396
The view,DT4 8DE,50.6114,-2.4535
The Cactus Tea Rooms,DT4 8DJ,50.60905075073240,-2.45261788368225
ROCKFISH WEYMOUTH,DT4 8DQ,50.61006546020510,-2.45319294929504
Weymouth Pavilion CIC,DT4 8ED,50.60887145996090,-2.44798111915588
Stanley's Coffee Shop,DT4 8EH,50.60844039916990,-2.45485901832581
Cafe Nero,DT4 8EJ,50.60934829711910,-2.45455694198608
HARDYS HOP HOUSE ,DT4 8EQ,50.60861660000000,-2.45521400000000
Mountain Bar and Buffet Restaurant,DT4 8EW,50.61056240000000,-2.45437080000000
THYME OUT,DT4 8NN,50.61137771606450,-2.45514202117920
Subway,DT4 8NP,50.61167526245120,-2.45531392097473
Snookes Sports Bar LTD,DT4 8NW,50.61153030395510,-2.45539808273315
the Good Life Cafe,DT4 8NY,50.6110,-2.4540
Nicetta,DT4 8PB,50.61067581176760,-2.45373606681824
The Blackdog Weymouth Ltd,DT4 8PB,50.6106,-2.4537
McDonalds Restaurant Ltd,DT4 8PJ,50.60938644409180,-2.45434498786926
McDonald’s Restaurants,DT4 8PJ,50.60938644409180,-2.45434498786926
The Corner House Cafe,DT4 8PU,50.60809326171880,-2.45427608489990
The Wellington Arms,DT4 8PY,50.60897064208980,-2.45448303222656
The Galley Bistro,DT4 8TR,50.60546875000000,-2.45299291610718
The Red Lion,DT4 8TU,50.60624694824220,-2.45177102088928
Stone pier cafe,DT4 8TX,50.60707855224610,-2.45084595680237
Fort View Cafe,DT4 8UF,50.60626983642580,-2.44818210601807
Wyke Smugglers ltd,DT4 9AB,50.59387969970700,-2.47535896301270
Subway,DT4 9BE,50.59455290000000,-2.47509770000000
Waterfall Elior Ltd At All Saints C of E School,DT4 9BJ,50.59573745727540,-2.47372508049011
Gardeners Retreat Limited,DT4 9DN,50.60693359375000,-2.48962306976318
STARBUCKS,DT4 9DT,50.60362760000000,-2.49227380000000
The Fat Badger,DT4 9HF,50.59558868408200,-2.48642492294312
Billy Winters Bar and Diner,DT4 9JZ,50.58340454101560,-2.47047901153564
BaxterStorey,DT4 9TH,50.61499023437500,-2.48962211608887
The Marquis of Granby,DT4 9TW,50.61080169677730,-2.48679399490356
Taste Cafe at Chesil Beach,DT4 9XE,50.5791,-2.4698
Crab House Cafe,DT4 9YU,50.58574295043950,-2.47475504875183
Cove House Inn LTD,DT5 1AW,50.56118774414060,-2.44830489158630
Aqua Portland LLP,DT5 1BD,50.5680,-2.4429
Dorset Adventure cafe,DT5 1BD,50.5680,-2.4429
Taylor's Messdeck Cafe Gallery,DT5 1DX,50.56984710693360,-2.45143699645996
Jailhouse Cafe Portland,DT5 1EQ,50.56153488159180,-2.43589806556702
Quiddles Cafe ,DT5 1LN,50.55803680419920,-2.44738507270813
Sugarloaf Cafe,DT5 2AL,50.5462,-2.4375
Eight Kings,DT5 2DP,50.52951431274410,-2.44214892387390
THE HEIGHTS HOTEL,DT5 2EN,50.55482864379880,-2.44170808792114
Lobster Pot (Portland Bill) Ltd,DT5 2JT,50.51767349243160,-2.45464801788330
