name,postcode,lat,lon
Solitaire and Parakeet,PE30 1BJ,52.754098564602900,0.395572209822004
Diving bird and Nukupuʻu,PE31 6JS,52.844888072150000,0.506514749320412
Towhee and Mouse,PE31 7ES,52.909779642479200,0.494197709286397
Eagle and Civet,PE30 1NW,52.753348857648400,0.401962752328742
Egret and Pheasant,PE30 5BJ,52.741476649846800,0.398568813965734
Condor and Mink,PE30 2RB,52.761717000000000,0.413036000000000
Marmoset and Armadillo,PE32 1DN,52.770348557713000,0.554445666868421
Armadillo and Jerboa,PE30 3HN,52.776570324933800,0.436099215032924
Viscacha and Scimitar babbler,PE31 7UR,52.899337628418300,0.490043953216662
Boto and Tattler,PE30 4TJ,52.749758000000000,0.438360705712092
Vulture and Night heron,PE30 1AQ,52.755835035243500,0.399520819364501
Old World vulture and Linsang,PE31 6BL,52.799239338160000,0.546926083585912
Guillemot and Scimitar babbler,PE31 8LN,52.897341000000000,0.617560720669984
Kite and Skunk,PE31 7QG,52.873008000000000,0.500497944461664
Songlark and Pratincole,PE31 7LP,52.879414626444700,0.502754183358257
Civet and Ibex,PE32 1AJ,52.774929302789000,0.525296565412167
Coati and Petrel,PE31 7QF,52.874159235256400,0.503659000000000
Bronzewing pigeon and Scimitar babbler,PE31 6NB,52.851907254882400,0.503265308017807
Capuchin and Stilt,PE31 8WQ,52.757433000000000,0.400602000000000
Old World quail and Vole,PE30 2EF,52.766937582652300,0.409381692882171
Polecat and Kangaroo,PE31 7JQ,52.899032675200000,0.500717643700000
Prion and Mole,PE30 3NL,52.773433025390700,0.456547683475432
Booted eagles and Fish eagle,PE31 6BJ,52.799534000000000,0.542878000000000
Kākāriki and Recurvebill,PE30 3UH,52.773379412652600,0.449576197110051
Duck and Puffleg,PE30 1AJ,52.753551299275800,0.399513833589866
Stint and Viscacha,PE30 1EN,52.754653510290800,0.392386000000000
Kite and Mockingbird,PE30 5LA,52.741604687838200,0.393568187664062
Rat and Rat,PE30 5EG,52.750877165479800,0.398923000000000
Ground sloth and Bronzewing pigeon,PE30 2AA,52.758935000000000,0.398787000000000
Rabbit and Prion,PE30 4YP,52.749453663835000,0.442543216154355
Fulmarine petrel and Piping shrike,PE30 4GD,52.750755416126600,0.439148453752038
Rabbit and Parakeet,PE30 3PJ,52.765221000000000,0.422183000000000
Myna and Logrunners,PE30 1EH,52.752440274942700,0.397407000000000
Coati and Maya,PE30 2LN,52.767582429153700,0.416577507414214
Polecat and Rabbit,PE30 2BY,52.758810211459500,0.404012252714880
Greenbul and Recurvebill,PE30 4RF,52.752941134462700,0.430793821668400
Mouse and Polecat,PE30 3WE,52.768931061389800,0.420551164248319
Scimitar babbler and Egret,PE30 3ER,52.769916945940800,0.435638695396429
Badger and Partridge,PE30 3XG,52.789550661360900,0.435400673456919
Grosbeak and Linsang,PE31 8FS,52.907286000000000,0.625288000000000
Marmoset and Towhee,PE31 6EE,52.861908115700000,0.643349192600000
Linsang and Jackal,PE30 4RW,52.751650688023500,0.433211566911739
Maya and Vulture,PE31 8LU,52.904070019597300,0.623132602572296
New World blackbird and Pratincole,PE30 2NU,52.767247833537100,0.411370460348521
Peafowl and Thrasher,PE30 4EH,52.757142084044000,0.429827296772427
Viscacha and Booted eagles,PE30 3EE,52.770557643550800,0.434651508065532
American sparrow and Scimitar babbler,PE31 6AB,52.793571110788000,0.461479904714226
Armadillo and Dolphin,PE30 5NJ,52.750762894587100,0.411971274626318
Cloud rat and Treepie,PE31 7AH,52.911651039500400,0.483417590840524
Eagle and Flameback,PE31 6HY,52.849404397463900,0.512775460980890
Flameback and Pitohui,PE30 3EJ,52.769896721226300,0.437060794127661
Puffleg and Thrasher,PE30 5JR,52.743282549153300,0.396415957474022
Mole and Herring gull,PE30 5NS,52.747525876503400,0.414622606313830
Mouse and Old World warbler,PE30 5AN,52.748416489004900,0.398653710734703
Kestrel and Rat,PE30 1QF,52.756204227000000,0.403512980500000
Old World vulture and Fish eagle,PE30 2DZ,52.765528000000000,0.403122000000000
Songlark and Capuchin,PE31 7RJ,52.877988000000000,0.501282249890598
Maya and Fulmarine petrel,PE30 9SN,52.756682312242800,0.397196090678598
Tit-tyrant and Capuchin,PE31 7SB,52.908672229733800,0.497688684929306
Ground sloth and Myna,PE31 8LP,52.902356000000000,0.625081000000000
Zebra and River dolphin,PE30 4GU,52.746614000000000,0.437687000000000
Diving bird and Marsh harrier,PE30 4HR,52.741809795662800,0.407861708857741
Perching duck and Marsh harrier,PE31 7HA,52.909759674835500,0.488291890371228
White ibis and Viscacha,PE30 4XW,52.754120313312000,0.434489000000000
Gull and Elephant,PE30 3DD,52.773337122740400,0.430655243132308
White ibis and Vulture,PE32 1BT,52.771057489926800,0.524701756260559
Skunk and Pratincole,PE30 4SQ,52.748684556350000,0.433594515835947
Marmoset and Rabbit,PE30 4LE,52.742579295084400,0.419199000000000
Wader and Chickadee,PE30 4QD,52.755088912202300,0.418983154691855
Chipmunk and Skunk,PE30 2NR,52.765610000000000,0.412442520135402
Coati and Eagle,PE30 3HR,52.775603699336100,0.438506544340671
Mamo and Songlark,PE32 1DE,52.757611471576800,0.513000464781666
Mouse and Moluccan boobook,PE30 2LE,52.762685043639800,0.409799078454716
Eagle and Thicketbird,PE30 3WH,52.768709244315100,0.420405433214470
Guillemot and Maya,PE30 3DJ,52.770234245111500,0.424982131991313
Greenbul and Wallaby,PE30 5PZ,52.750089721614300,0.401724154308026
Argus and Chicken,PE31 6QJ,52.849864382248500,0.497800743646374
Philippine hawk-owl and Booted eagles,PE30 3JP,52.776169517357700,0.439412998754522
Puffleg and Jerboa,PE30 5NY,52.747040356408300,0.411528541514806
Darwin's finches and Logrunners,PE31 7LX,52.879479703984800,0.503932100216057
Diving bird and Egret,PE30 5RZ,52.750166000000000,0.404631791600000
Old World quail and Fish eagle,PE30 9TX,52.756682312242800,0.397196090678598
Puffleg and Towhee,PE30 9DS,52.757433000000000,0.400602000000000
Petrel and Elephant,PE30 3WU,52.783457124144000,0.433073095904585
Scimitar babbler and Wallaby,PE30 4BS,52.760001325039100,0.424561680884728
Nukupuʻu and Ice seal,PE31 7BT,52.901763331987800,0.490569713785247
Lemming and Grackle,PE31 6AP,52.809708765554000,0.484887580525415
Goose and Ground sloth,PE31 8LW,52.901628267340600,0.623356825032549
Tattler and Tahr,PE30 1NL,52.753614763835900,0.399932272510320
Asiatic leopard and Fox,PE30 3TB,52.782360270929000,0.437445920346271
Masked owl and Shearwater,PE30 3BQ,52.766594787168800,0.427952203992912
Marmoset and Night heron,PE31 7TB,52.906259446421900,0.482826541538531
Condor and Argus,PE31 6QD,52.852837190519200,0.500788000000000
Pratincole and Ground sloth,PE30 9TP,52.756682312242800,0.397196090678598
Maya and Parakeet,PE31 8LY,52.907835568913800,0.624445915269357
Goose and Bunting,PE31 6DU,52.798473494800000,0.566196956300000
Tahr and Minke whale,PE31 7PL,52.879247174686600,0.500886687165736
Moluccan boobook and Mink,PE32 1LW,52.746274821362200,0.520527140652428
Old World vulture and Nukupuʻu,PE30 4BT,52.761595174587500,0.426206593783317
Magpie and Rat,PE30 1DT,52.753977337534800,0.398577000000000
Coati and Parrotlet,PE30 1LE,52.756736717100000,0.405632026600000
Pheasant and Treepie,PE32 1DQ,52.774087801851100,0.523854105676050
Vole and Night heron,PE30 9TA,52.756682312242800,0.397196090678598
Mink and Shearwater,PE30 4PZ,52.755924334717600,0.419903864979042
Darwin's finches and Masked owl,PE30 4WG,52.765101576200000,0.430196383200000
Grosbeak and Parrotbill,PE30 1PA,52.753453000000000,0.401205819414527
Booted eagles and Grosbeak,PE30 5JW,52.743648116306600,0.397458341634814
Kite and Puffleg,PE30 9SG,52.756682312242800,0.397196090678598
Old World vulture and Pheasant,PE31 7NY,52.879715826463300,0.500408322265200
Ice seal and Masked owl,PE31 6LH,52.839834795590400,0.508213449127847
Treepie and Philippine hawk-owl,PE30 2NY,52.768824521800000,0.410330920874168
River dolphin and Piping shrike,PE32 1AD,52.774158918478000,0.539903000000000
Bronzewing pigeon and Prion,PE30 2QJ,52.753871572351700,0.410764811587680
Booted eagles and Mockingbird,PE30 2NZ,52.768590054984600,0.407708807676139
Diving bird and Partridge,PE30 1QQ,52.755412000000000,0.402261493553887
Mamo and Fulmarine petrel,PE30 3WX,52.782877721119800,0.432256000000000
Hawk and Skunk,PE31 6WA,52.844922434603100,0.511269076703185
Herring gull and Fish eagle,PE32 1LT,52.750092832976200,0.509248204521267
Jay and Black jay,PE30 4BG,52.746020380213900,0.437224396172025
Coati and River dolphin,PE30 3YA,52.767842859854300,0.444669679606711
Badger and Capuchin,PE30 4GX,52.746617000000000,0.438370270738384
Fish eagle and Duck,PE30 1PP,52.756623798722300,0.403639869786590
Dorcopsis and Quetzal,PE31 6YZ,52.792255955805300,0.479724392939928
Mouse and Kangaroo,PE31 8NW,52.897474000000000,0.635998000000000
Treepie and Bunting,PE30 2LY,52.765297873785400,0.416169321996472
Night heron and Flameback,PE30 2RA,52.761459000000000,0.413792000000000
Jackal and Old World vulture,PE30 3PN,52.766079947184500,0.419266363387634
Songlark and Magpie,PE30 5FP,52.743560000000000,0.399839000000000
Meadowlark and Parakeet,PE32 1QS,52.741532715614000,0.558463768214824
Mink and Argus,PE30 3JG,52.784753944947300,0.442162317038454
Siskin and Puffleg,PE32 1QF,52.759526286006200,0.571065000000000
Fulmarine petrel and Eagle,PE31 6QT,52.862321987176000,0.638012000000000
Armadillo and Condor,PE30 4DG,52.762044673850100,0.429285041049612
Cloud rat and Francolin,PE30 3RB,52.791653075608900,0.437668879101337
Old World vulture and Macaw,PE31 8NS,52.898124693890100,0.634579898833984
Bronzewing pigeon and Wallaby,PE30 1PW,52.757462690525800,0.403508219059710
Peafowl and Cloud rat,PE31 7XQ,52.878692312913400,0.503321944177837
Ground sloth and Mouse,PE30 5FD,52.742238000000000,0.400566000000000
Magpie and Darwin's finches,PE30 2QR,52.757768302600000,0.407082069000000
Francolin and Jay,PE30 2DS,52.765010308172100,0.402441613706120
Nukupuʻu and Cloud rat,PE30 2PR,52.757461568795500,0.407109653561626
Elephant and Piping shrike,PE30 2JJ,52.770778251494300,0.407447000000000
Black cockatoo and Tahr,PE30 4YJ,52.750051113895600,0.443658399487343
Francolin and Crow,PE30 5EH,52.751001112759700,0.397712000000000
Partridge and Ice seal,PE30 4EA,52.757307961129500,0.422159264000480
Cloud rat and Nukupuʻu,PE31 6JL,52.842454066115500,0.505958712206391
Parakeet and River dolphin,PE30 2DU,52.764747758637800,0.402086218284883
Linsang and Stint,PE31 7LU,52.879176961163400,0.503364730153364
Macaw and Philippine hawk-owl,PE30 4RH,52.751366771646300,0.430394954396112
B and Old World vulture,PE31 8UA,52.900109233477000,0.630239223947438
Stint and Buzzard,PE30 5QS,52.746649369181500,0.403772312441407
Myna and Parrotlet,PE30 4AN,52.758114612801900,0.434579786596585
Petrel and Fox,PE30 3UB,52.771472119872200,0.446578045818036
American sparrow and Capuchin,PE31 6ED,52.840148578500000,0.507845416200000
Ibex and Vulture,PE30 3SG,52.771629673301800,0.438491941901621
Old World vulture and Peafowl,PE31 6PE,52.864754177121600,0.511032790824758
Warbler and Bronzewing pigeon,PE31 7EX,52.909896829004500,0.491185168254180
Old World quail and Scimitar babbler,PE31 6UX,52.844126955944100,0.494842729159259
Jackal and Tahr,PE30 4UN,52.751779767878700,0.444422031434533
Duck and Fish eagle,PE30 4NQ,52.746354869600000,0.431464289200000
Partridge and Fox,PE30 5PL,52.748098112975700,0.403718716988910
Hawk and Myna,PE32 1FQ,52.776292000000000,0.529571000000000
Darwin's finches and Diving bird,PE30 5RR,52.748728531100000,0.402805035600000
B and Ice seal,PE34 3NF,52.756280569283200,0.383672524460887
Argus and Old World quail,PE30 1QH,52.756692724574900,0.402013388280928
Fish eagle and Eagle,PE30 3JZ,52.774960515943900,0.429099916226867
Mouse and River dolphin,PE31 6JA,52.845576714311200,0.512643465583948
Wallaby and Goose,PE32 1DF,52.756120584687700,0.510795238960083
Mouse and Warbler,PE31 7JE,52.908082000000000,0.504407000000000
Dolphin and Thrasher,PE30 1QE,52.754935922799800,0.401738866189590
Tahr and Skunk,PE30 5NH,52.751245241091300,0.411686729018110
Rabbit and Buzzard,PE36 5NG,52.901490112577300,0.541410000000000
Siskin and Tahr,PE30 1HN,52.755315488602000,0.392749058619533
Asiatic leopard and Snipe,PE30 5NP,52.748806141094200,0.414268000000000
Bunting and Black cockatoo,PE30 4UA,52.754568265679500,0.433003707045543
Civet and Petrel,PE30 4XU,52.758837833704400,0.442697870505570
Quetzal and Bronzewing pigeon,PE34 3LW,52.744242000000000,0.386779000000000
Solitaire and Kite,PE30 2AY,52.759790255033500,0.399575248869038
Argus and Treepie,PE31 6DL,52.801810054027700,0.583559426700077
Tit-tyrant and Skunk,PE30 9TY,52.756682312242800,0.397196090678598
Argus and Pheasant,PE34 3LA,52.750797319359700,0.387166687558547
Viscacha and Zebra,PE31 7FF,52.878554000000000,0.495731000000000
Tree warbler and River dolphin,PE31 8FT,52.907198000000000,0.625223000000000
Greenbul and Booted eagles,PE30 5RU,52.749214514863900,0.404091366352105
Viscacha and Wallaby,PE31 7PN,52.878652967181400,0.500495783100801
Fulmarine petrel and Condor,PE30 4DA,52.762830000000000,0.430070000000000
Buzzard and Booted eagles,PE31 6LZ,52.859927345710500,0.501156909594368
Masked owl and Maya,PE30 4DD,52.762841410202500,0.429018117447067
Black jay and River dolphin,PE30 1QZ,52.751598000000000,0.393894000000000
Peafowl and Civet,PE30 4RD,52.752943135624900,0.431134781878801
Chipmunk and Ice seal,PE31 8PA,52.898667911369700,0.636666000000000
Quetzal and Asiatic leopard,PE30 4XA,52.753509026290700,0.445156120644357
Cuscus and Vulture,PE30 5NA,52.743105277105200,0.394954254237068
Darwin's finches and Parrotlet,PE32 1BX,52.771629739335600,0.522318217597965
Thrasher and Elephant,PE31 6WH,52.844757724368600,0.493067082443906
Elephant and Moluccan boobook,PE30 1NY,52.753311000000000,0.399916000000000
Crow and Grosbeak,PE31 7JH,52.903491911327100,0.480334000000000
Mouse and Capuchin,PE30 3BS,52.772766529885100,0.432610164779501
Crow and Old World quail,PE36 5LR,52.901472060882400,0.551298905881118
Guillemot and Kākāriki,PE30 3TL,52.784290175467800,0.435418261301335
Grosbeak and Parrotbill,PE30 3SS,52.771816434416200,0.440340800546266
Fox and Jay,PE30 1JJ,52.755660146648000,0.394383368476001
Wallaby and Kite,PE30 4DX,52.745606000000000,0.421955000000000
Viscacha and Guillemot,PE30 3JF,52.784053000000000,0.439587000000000
Cuscus and Bronzewing pigeon,PE30 3DF,52.771954000000000,0.428450162149454
Songlark and Condor,PE30 3AZ,52.773377676731500,0.436128469181405
Condor and Fox,PE30 3DT,52.768906000000000,0.427132000000000
Night heron and Hawk,PE30 4ET,52.756779956753700,0.446999307318277
Pitohui and Chicken,PE30 5GH,52.751364000000000,0.394808557300000
Recurvebill and Vulture,PE31 7BY,52.905125809795400,0.485438591212182
Perching duck and Gull,PE31 6JT,52.844289979900300,0.509287103334386
Chickadee and Partridge,PE30 1PY,52.755110938688300,0.404638429183547
Pheasant and River dolphin,PE30 2BL,52.760334243901300,0.406452898069712
Masked owl and Prion,PE30 4PA,52.751613713379000,0.427118873210913
Chipmunk and Mamo,PE31 6QR,52.873117000000000,0.626930917341880
Parrotbill and Condor,PE30 4PG,52.751250132634100,0.425112922437853
White ibis and Wader,PE31 7NX,52.874378737372500,0.507041377737471
Grosbeak and Bunting,PE30 3AN,52.766475827704700,0.427174730594361
Armadillo and Jackal,PE30 1NR,52.755578986500700,0.402396705246822
Tattler and Argus,PE30 4PD,52.749770693051600,0.427105315803732
Asiatic leopard and Shearwater,PE31 7BF,52.909203601265400,0.489940662001580
Lemming and Bronzewing pigeon,PE30 5BH,52.742122729901100,0.397744988114667
Coati and Kestrel,PE30 5HS,52.749956843293800,0.399269000000000
Triller and Tattler,PE30 4UP,52.752456071412300,0.445200873271135
Grosbeak and Chicken,PE34 3PB,52.755845626000000,0.385204869400000
Wallaby and Lemming,PE35 6EZ,52.812521000000000,0.493611000000000
Snipe and Piping shrike,PE30 3HU,52.773721090664300,0.440417709777695
Diving bird and Booted eagles,PE31 6SA,52.863573198454800,0.544111702968971
Kite and Recurvebill,PE30 5BQ,52.743393638604100,0.398037016582561
Armadillo and River dolphin,PE31 7LA,52.899664935291200,0.490300641180908
Songlark and Prion,PE31 7QB,52.875699808893200,0.501960620386048
Francolin and Scimitar babbler,PE30 2AE,52.758570725200000,0.398989409200000
River dolphin and Pratincole,PE30 3WL,52.784302757965600,0.433491039748733
Herring gull and Songlark,PE30 4EZ,52.758715211955700,0.421496295364030
Fish eagle and Towhee,PE30 4AB,52.758389593398400,0.426428556463579
Siskin and Buzzard,PE30 1HB,52.754888587248200,0.393407379105642
Myna and Scimitar babbler,PE30 5JH,52.744847000000000,0.400997549089697
Herring gull and Fulmarine petrel,PE30 2BE,52.759394016415200,0.404044412320899
Vulture and Grosbeak,PE31 6XD,52.845509000000000,0.503565000000000
Ice seal and Fish eagle,PE31 7RB,52.866195000000000,0.446408000000000
Tree warbler and Pratincole,PE30 5PJ,52.749171278069900,0.406222799714235
Fox and Mink,PE32 1XD,52.773653026913500,0.545876495576144
Ibex and Rat,PE30 4EP,52.756008763838000,0.437293047216871
American sparrow and Pheasant,PE31 6LN,52.841461769463400,0.512064268397401
Marsh harrier and Jackal,PE30 9FP,52.757455000000000,0.400617000000000
Logrunners and Mink,PE31 6YB,52.849447062087600,0.494984490845926
Old World vulture and Treepie,PE30 1PX,52.757433000000000,0.400602000000000
Chipmunk and Parrotlet,PE30 5ND,52.750347230888100,0.396243000000000
Parrotbill and Partridge,PE30 3LA,52.775499000000000,0.431814000000000
Fox and Parrotbill,PE30 2ET,52.760310000000000,0.394357000000000
Prion and Rabbit,PE30 5AY,52.746331000000000,0.400895000000000
