name,postcode,lat,lon
Northern Monkey Brew Co. ltd,BL1 1AQ,53.57803640000000,-2.42674110000000
Costa Coffee,BL1 1BG,53.57999900000000,-2.42907100000000
Alisons cafe ltd,BL1 1BU,53.57920837402340,-2.42921400070190
SIZZLING PALATE,BL1 1DG,53.57916100000000,-2.42720500000000
Grill Rush,BL1 1DR,53.57824700000000,-2.42630400000000
Subway Crompton Place,BL1 1EA,53.57846400000000,-2.42825400000000
Tapaz Restaurant,BL1 1EL,53.5791,-2.4265
Bambu Oriental Cafe,BL1 1HA,53.57897200000000,-2.43229200000000
HEAVENLY DESSERTS BOLTON,BL1 1HH,53.5795,-2.4274
Caffe Nero,BL1 1HQ,53.57950400000000,-2.42924700000000
Definitely Maybe Bar Ltd,BL1 1LD,53.57785400000000,-2.42805200000000
ciao napoli,BL1 1LE,53.5775,-2.4283
THE COURTHOUSE RESTAURANT & BAR,BL1 1LF,53.57788790000000,-2.42855280000000
Subway Newport Street,BL1 1NB,53.57703000000000,-2.42978100000000
Odessa cafe,BL1 1RS,53.57824000000000,-2.42838800000000
THE FOOD CORNER LTD,BL1 1SN,53.57640100000000,-2.42972900000000
OLYMPUS FISH AND CHIP RESTAURANT LIMITED,BL1 1SW,53.57607900000000,-2.42933300000000
Istanbul’s kitchen,BL1 1TJ,53.57650756835940,-2.43255209922791
cosy cafe,BL1 1TQ,53.57649800000000,-2.43256900000000
Cadar Chimney Cakes,BL1 2AL,53.58130645751950,-2.42965602874756
California Steak House,BL1 2AL,53.5813,-2.4302
Costa Coffee,BL1 2AL,53.58167600000000,-2.43005400000000
Great Ale at the Vaults,BL1 2AL,53.5813,-2.4302
Nando's Chickenland Ltd,BL1 2AL,53.58167648315430,-2.43005394935608
Prezzo,BL1 2AL,53.58167600000000,-2.43005400000000
Amico Cafe,BL1 2AN,53.58009719848630,-2.42926788330078
McDonald's Bolton 1,BL1 2AQ,53.57981400000000,-2.43065500000000
McDonalds,BL1 2AQ,53.57981400000000,-2.43065500000000
Basic kneads ,BL1 2AR,53.58167648315430,-2.43005394935608
Klübb & Co.,BL1 2AR,53.58072280883790,-2.42975497245789
Nam ploy,BL1 2BS,53.5816,-2.4322
The Coffee Shop at St. Georges House,BL1 2DD,53.5820,-2.4313
Grill Cottage ,BL1 2EA,53.58050340000000,-2.42833330000000
Nadiis Diner,BL1 2EG,53.58140300000000,-2.42848100000000
The Chinese Buffet,BL1 2EH,53.58076600000000,-2.42832300000000
Pizza Hut (Zarr Enterprise Ltd),BL1 2PF,53.58083724975590,-2.43580102920532
Pizza Hut,BL1 2SL,53.58607200000000,-2.42494800000000
Little Dough Ltd,BL1 3AJ,53.58326830000000,-2.44412300000000
Subway,BL1 3AJ,53.58334900000000,-2.44452700000000
The Dessert Corner ,BL1 3AT,53.58433151245120,-2.44606304168701
Nicks Restaurant,BL1 3BA,53.58489300000000,-2.44744300000000
IQBAL'S,BL1 3NF,53.59048100000000,-2.43372400000000
DESI HOUSE LIMITED,BL1 3QD,53.59245300000000,-2.43746100000000
Tribez,BL1 3QD,53.59245300000000,-2.43746100000000
Cube Desserts Ltd,BL1 3QJ,53.59193800000000,-2.43577900000000
MAMA'S GRILL (NORTH-WEST) LTD,BL1 3QN,53.59118000000000,-2.43418500000000
Khanz Spicy Grill,BL1 4AZ,53.5813,-2.4409
burgerum,BL1 4JE,53.58634530000000,-2.45047730000000
Prime eatery,BL1 4QR,53.5819,-2.4417
Queen's Park Café Bolton ,BL1 4RU,53.57746887207030,-2.44488811492920
Victoria Inn,BL1 5AG,53.58296300000000,-2.47719400000000
Retreat Grill Bar Restaurant,BL1 5BP,53.57939700000000,-2.46508600000000
The Coffee Shop at  Heaton,BL1 5LW,53.58583000000000,-2.46562500000000
Cafe Italia,BL1 5SN,53.59135600000000,-2.47759100000000
McDonald's Delph Hill,BL1 5SX,53.59145100000000,-2.48081000000000
McDonalds,BL1 6AH,53.58818817138670,-2.45746397972107
FLAVOURS N SPICES,BL1 6PU,53.59929100000000,-2.43565800000000
Wilton Arms,BL1 7BT,53.61670800000000,-2.45564100000000
The Brew House,BL1 7LG,53.61345200000000,-2.43445900000000
Refil Starbucks,BL1 7LR,53.61057500000000,-2.43213100000000
Poppins at Smithills,BL1 7NP,53.60171127319340,-2.45898509025574
Bobs Smithy Inn,BL1 7PX,53.59517400000000,-2.49368000000000
OAKS SPICE & GRILL,BL1 8AN,53.59448800000000,-2.44399400000000
SU FOODS LTD,BL1 8AN,53.5945,-2.4440
Heavenly doughnuts ,BL1 8DB,53.59477470000000,-2.44612500000000
D Foods Kompany Ltd,BL1 8DR,53.59081400000000,-2.43055270000000
D food company ,BL1 8DR,53.59081400000000,-2.43055270000000
FUSION FOODS (BOLTON) LTD,BL1 8DU,53.5948,-2.4314
Shahi Sweets and Bakers Ltd,BL1 8DU,53.59484670000000,-2.43140960000000
SALOTTO CAFE BAR RESTAURANT ,BL1 8DY,53.5951,-2.4320
Cinnamon Bean Cafe,BL1 8EY,53.59398651123050,-2.43519306182861
Chesters,BL1 8HE,53.59119100000000,-2.43111800000000
Elior at Warburtons Ltd,BL1 8JB,53.59153100000000,-2.42658900000000
80/20 Health Bar & Kitchen,BL1 8NE,53.59631100000000,-2.43192500000000
Four Seasons Cafe ,BL1 8PE,53.59890700000000,-2.43263200000000
Sai spice restaurant ,BL1 8TS,53.59719400000000,-2.42397200000000
KFC BOLTON TV 02034,BL1 8TT,53.59600600000000,-2.42927800000000
KFC,BL1 8TT,53.59600600000000,-2.42927800000000
McDonald's Astley Bridge,BL1 8TT,53.59600600000000,-2.42927800000000
McDonalds,BL1 8TT,53.59600600000000,-2.42927800000000
Haute Dolci,BL2 1BJ,53.57649690000000,-2.42515140000000
Subway-Bridgeman,BL2 1DE,53.57535000000000,-2.42195600000000
Starbucks Coffee Co,BL2 1EH,53.57476043701170,-2.42377710342407
Starbucks Bolton Manchester Road DT,BL2 1HE,53.5700,-2.4205
Burger King,BL2 1HY,53.57217100000000,-2.41855700000000
Jump Xtreme,BL2 1HY,53.57217100000000,-2.41855600000000
Grillicious Bolton Ltd ,BL2 2DL,53.58735000000000,-2.41417500000000
MARMARIS FOOD (BOLTON) LTD,BL2 3BN,53.59808500000000,-2.41068400000000
Grapper restaurant ,BL2 3EW,53.60664000000000,-2.40068600000000
subway,BL3 2NE,53.56933200000000,-2.41573500000000
Compass Group UK & Ireland Ltd (Asda Cafe),BL3 2QS,53.56793975830080,-2.41768503189087
HAMZAH SWEETS & BAKERS,BL3 3NH,53.56577800000000,-2.44654700000000
Mohammed Bilal Patel t/a Desi Brunch ,BL3 3PY,53.56217700000000,-2.45283400000000
Lagan Restaurant,BL3 4PZ,53.57039900000000,-2.47652400000000
Trufflez,BL3 4QH,53.56649017333980,-2.46745109558105
Bolton Garden Centre,BL3 4RD,53.56161499023440,-2.47899198532104
Tavern Fayre,BL3 4RJ,53.5588,-2.4844
Britannia Bolton Hotel,BL3 4TA,53.56476600000000,-2.47816700000000
A&A Desserts t/a Kaspas Bolton,BL3 5AH,53.57270812988280,-2.44199895858765
Arizona Joe's,BL3 5AH,53.57270700000000,-2.44199800000000
CHAIIWALA BOLTON,BL3 5AH,53.57270812988280,-2.44199895858765
Chilli Flames,BL3 5AH,53.57308120000000,-2.44150570000000
Somalian cafe,BL3 5BP,53.5712,-2.4429
Mecca Bingo,BL3 5DJ,53.57514572143550,-2.43379402160645
Aroma restaurant ,BL3 5HJ,53.57151500000000,-2.45076000000000
Afghan Chopan,BL3 5HP,53.57273600000000,-2.44636300000000
Hotbite,BL3 5QU,53.5675,-2.4635
Yo'desi,BL3 5QU,53.5675,-2.4635
Dixy chicken bolton,BL3 6AB,53.57477100000000,-2.42823200000000
Achari Restaurant Ltd,BL3 6AS,53.57331200000000,-2.42637500000000
Costa Coffee,BL3 6DH,53.57244000000000,-2.43159200000000
BEST PERSIAN RESTAURANT LTD,BL3 6DS,53.57534100000000,-2.43205900000000
KFC - BOLTON,BL3 6HE,53.57288600000000,-2.43481300000000
KFC,BL3 6HE,53.57288600000000,-2.43481300000000
Taj Mahal ,BL3 6HE,53.57288600000000,-2.43481300000000
Doner's Empire,BL3 6HG,53.57181800000000,-2.43696100000000
Jojos Chicken Restaurant,BL3 6HG,53.57181800000000,-2.43696100000000
STEAKHOUSE GRILL DERBY STREET,BL3 6HG,53.57181800000000,-2.43696100000000
McDonald's China Gardens,BL3 6HH,53.57172200000000,-2.43629600000000
McDonalds,BL3 6HH,53.57172200000000,-2.43629600000000
Camel one original limited ,BL3 6JT,53.56975100000000,-2.43923500000000
Kohinoor Bolton ltd,BL3 6JT,53.5698,-2.4391
The Fig And The Olive ,BL3 6JT,53.56981277465820,-2.43911194801331
Chunky Chicken Bolton,BL3 6LH,53.56744700000000,-2.44250300000000
chunky chicken ,BL3 6LH,53.56744700000000,-2.44250300000000
grillaz original limited,BL3 6LS,53.56667500000000,-2.44462400000000
grillaz orignal,BL3 6LS,53.56667500000000,-2.44462400000000
Cafe Pierre,BL3 6NF,53.5721,-2.4349
Taste Bakery Limited t/a Taste,BL3 6SZ,53.56717200000000,-2.43910300000000
Elior Uk,BL4 0JR,53.55396600000000,-2.42990900000000
unity catering ltd,BL4 0LQ,53.5513,-2.4419
AK GRILL & CURRIES,BL4 7LE,53.55440400000000,-2.40197300000000
PERI HUT 3,BL4 7LE,53.55440400000000,-2.40197300000000
Farnworth & Kearsley Events Team ,BL4 7ST,53.5518,-2.4063
Krave Dessert (Bolton) Ltd,BL4 9RJ,53.54437400000000,-2.41214000000000
McDonald's Westhoughton,BL5 3AJ,53.54824600000000,-2.52309200000000
McDonalds,BL5 3AJ,53.54824600000000,-2.52309200000000
The China room,BL5 3AJ,53.54824600000000,-2.52309200000000
Rosa ,BL5 3JD,53.55034500000000,-2.49681000000000
Subway Westhugton ,BL5 3JP,53.55154500000000,-2.50200200000000
Amore coffee &Desserts ltd,BL5 3JT,53.55381100000000,-2.50829300000000
India gate,BL5 3NB,53.56731600000000,-2.54404300000000
Royal Oak Carvery,BL5 3ND,53.57037734985350,-2.54914093017578
La Scala Westhoughton,BL5 3PD,53.56058600000000,-2.52549400000000
Casa Nostra,BL5 3RS,53.55004400000000,-2.52503100000000
Camerons Catering Ltd,BL5 3RZ,53.55144900000000,-2.52442900000000
Airvault Trampoline Park,BL5 3XU,53.55597400000000,-2.53367800000000
Bolton Golf Club Services Limited,BL6 4AJ,53.58240500000000,-2.51197400000000
Medirest Healthcare Compass Group at Beaumont Hospital,BL6 4LA,53.58149700000000,-2.49932100000000
Sagar Indian restaurant ,BL6 5EE,53.59436700000000,-2.58483800000000
The Hawthorn Willows ,BL6 5HX,53.6007,-2.5869
Rivington Pub & Grill,BL6 5JF,53.59000100000000,-2.56957900000000
Cherry Tree,BL6 5LA,53.60168500000000,-2.59361300000000
Goose and Gander,BL6 5LW,53.59252000000000,-2.59488900000000
The Goose and Gander,BL6 5LW,53.59252000000000,-2.59488900000000
Namma Ooru Dosa,BL6 5NP,53.59448900000000,-2.54573700000000
CHESTERS HORWICH LTD,BL6 5NY,53.59324100000000,-2.54357600000000
Asg steaks ,BL6 5QF,53.59907600000000,-2.55108500000000
Burger King (Rivington North),BL6 5UZ,53.60096900000000,-2.57279500000000
Burger King (Rivington South),BL6 5UZ,53.60096900000000,-2.57279500000000
Starbucks (Rivington North),BL6 5UZ,53.60096900000000,-2.57279500000000
Starbucks (Rivington South),BL6 5UZ,53.60096900000000,-2.57279500000000
Il Toro,BL6 6AA,53.59903800000000,-2.53972200000000
Avocado health bar ,BL6 6EX,53.58846500000000,-2.53220000000000
Empire bar and restaurant ,BL6 6EX,53.58846500000000,-2.53220000000000
Abacus Restaurant,BL6 6JA,53.58312600000000,-2.53627100000000
Ask Italian,BL6 6JA,53.58312600000000,-2.53627100000000
Costa Coffee,BL6 6JA,53.58312600000000,-2.53627100000000
Hollywood Bowl,BL6 6JA,53.58312600000000,-2.53627100000000
KFC,BL6 6JA,53.58312600000000,-2.53627100000000
Lucianos at Middlebrook,BL6 6JA,53.58355200000000,-2.53532500000000
McDonald's Middlebrook ,BL6 6JA,53.58312600000000,-2.53627100000000
McDonalds,BL6 6JA,53.58312600000000,-2.53627100000000
Nando's Chickenland,BL6 6JA,53.58312600000000,-2.53627100000000
Pizza Hut,BL6 6JA,53.58312600000000,-2.53627100000000
Starbucks Middlebrook,BL6 6JA,53.58312600000000,-2.53627100000000
Starbucks,BL6 6JA,53.58312600000000,-2.53627100000000
Subway,BL6 6JA,53.58184270000000,-2.53546890000000
TGI Fridays,BL6 6JA,53.58247070000000,-2.53372470000000
Wagamama Bolton,BL6 6JA,53.58355331420900,-2.53532505035400
subway,BL6 6JZ,53.58959900000000,-2.53390600000000
Curley’s dining room ltd,BL6 6PP,53.59987300000000,-2.51960500000000
Ye Jolly Crofters ,BL6 6RE,53.59777832031250,-2.51738691329956
Boltom Whites Hotel,BL6 6SF,53.57987100000000,-2.53446300000000
THYME DELI,BL6 7AA,53.59922100000000,-2.54681100000000
Home bakery /cafe latte,BL6 7AD,53.59940000000000,-2.54707000000000
Max Italia,BL6 7AE,53.60034300000000,-2.54708200000000
Pizza Paradise Limited,BL6 7AU,53.6008,-2.5470
SPICE VALLEY BAR & RESTAURANT,BL6 7JD,53.6019,-2.5514
bowling green,BL6 7JD,53.60194100000000,-2.55143900000000
CHILL AT THE COWSHED LTD,BL6 7NX,53.59871300000000,-2.54777100000000
Sokrates Greek Taverna (Horwich),BL6 7NZ,53.59815200000000,-2.54864000000000
Rocco's Italian Restaurant,BL6 7QJ,53.60158000000000,-2.55376200000000
Cafe at Spring Cottage,BL6 7SB,53.62468700000000,-2.56176000000000
Great House Barn,BL6 7SB,53.62468800000000,-2.56176100000000
Rivington Hall Barn,BL6 7SB,53.62468800000000,-2.56176100000000
Village green tearooms limited,BL6 7SD,53.63147500000000,-2.56147300000000
The Rivington,BL6 7SE,53.62494100000000,-2.56903700000000
Chetham Arms,BL7 0EW,53.63765130000000,-2.40510230000000
The King William ,BL7 9AN,53.62553700000000,-2.41013300000000
Spread Eagle ,BL7 9DE,53.61501600000000,-2.42440700000000
Retreat Bromley Cross,BL7 9JG,53.61696624755860,-2.42209911346436
The Railway Bromley Cross ,BL7 9LY,53.61457443237300,-2.41132497787476
Hot Chilli,BL7 9PQ,53.61709976196290,-2.43659496307373
Last Drop Village Hotel and Spa,BL7 9PZ,53.62204800000000,-2.42103100000000
Lotties,BL7 9QT,53.63421200000000,-2.48659000000000
San Marino bar and restaurant ,BL7 9QT,53.63421200000000,-2.48659000000000
San Marino,BL7 9QT,53.63421200000000,-2.48659000000000
AK Cafe,BL7 9SB,53.62590500000000,-2.43823100000000
Baker's,BL7 9SN,53.63018000000000,-2.44170800000000
The Thomas Egerton,BL7 9SR,53.62985000000000,-2.44103900000000
Lavender Cafe,L34 2QT,53.4334,-2.7779
Costa Coffee,L34 5NQ,53.42681600000000,-2.80105300000000
Subway,L34 5NQ,53.42681600000000,-2.80105300000000
Pinion Bistro Limited,L34 5QA,53.42926600000000,-2.80404830000000
The Oven Pizzeria & Bar,L34 5QE,53.42875100000000,-2.80468700000000
CHINA CHINA TRADING LTD t/a BEIJING CHINESE RESTAURANT,L34 5QH,53.42963600000000,-2.80276200000000
Poco Bar and Cafe,L34 5QJ,53.42919100000000,-2.80343100000000
Ho’s restaurant ,L34 5RB,53.42987200000000,-2.80102100000000
Tastebuds at the Wharf,L40 1TB,53.63452100000000,-2.80823600000000
The Red Lion,L40 2QP,53.62680000000000,-2.76869900000000
Owd Barn at Bispham Tearoom,L40 3SA,53.62169400000000,-2.79213100000000
The Eagle & Child,L40 3SG,53.61466500000000,-2.77293800000000
Pine Pubs Ltd - Farmers Arms Parbold,L40 3SL,53.60949900000000,-2.76140200000000
CEDAR FARM CAFE,L40 3SY,53.62052900000000,-2.76538000000000
The Cafe,M28 0AU,53.53007100000000,-2.42324000000000
The Haven Store,M28 0JJ,53.52315400000000,-2.42464900000000
Lugana Restaurant,M28 1AN,53.5086,-2.4322
Queens Subway,M28 1BT,53.50601700000000,-2.42600100000000
The Tea Set,M28 1DN,53.50485700000000,-2.43369300000000
Buffalo Bar and Grill Limited,M28 1FB,53.5030,-2.4161
Shahbaaz Indian Restaurant Limited,M28 1FB,53.50301400000000,-2.41611100000000
Vesuvio Restaurant ,M28 1FB,53.50295100000000,-2.41612500000000
Coal and Cotton,M28 1LR,53.50207100000000,-2.41837800000000
Hug in a Mug,M28 3JH,53.52378700000000,-2.40020500000000
Bulls Head (Wetherspoons),M28 3NJ,53.52420000000000,-2.40017900000000
Club 3000 Bingo Walkden,M28 3TZ,53.52555200000000,-2.40160900000000
Nandos Chickenland Ltd,M28 3UD,53.52729797363280,-2.40037202835083
Purple Lounge,M28 3UD,53.52702331542970,-2.40026593208313
KFC,M28 3ZD,53.52555300000000,-2.40161000000000
Subway,M28 3ZD,53.52506300000000,-2.40018700000000
Costa Coffee - Walkden,M28 3ZH,53.5250,-2.4004
Costa Coffee,M28 3ZH,53.52474000000000,-2.40004800000000
Lowrys restaurant llp,M28 3ZH,53.52490100000000,-2.40017000000000
McDonald's Walkden,M28 3ZH,53.5250,-2.4004
The Archer,M29 7EJ,53.49361330000000,-2.47339990000000
Zest ,M29 7HX,53.49994800000000,-2.44627600000000
Old Boathouse,M29 7JB,53.49389670000000,-2.44896960000000
The Point Astley Ltd,M29 7SG,53.4981,-2.4498
The Tea Room at Damhouse Limited,M29 7TX,53.50446900000000,-2.45579200000000
Cafe Elliott ,M29 8DR,53.51411900000000,-2.46603000000000
TURKHAN,M29 8DS,53.51390800000000,-2.46498700000000
Enzo’s Italian bar and restaurant ,M29 8EQ,53.51484200000000,-2.47196400000000
REMA TANDOORI,M29 8FJ,53.51384353637700,-2.46960091590881
Waterfall Elior - Fred Longworth High School,M29 8JN,53.51392745971680,-2.47797107696533
THE GATEHOUSE,M29 8WE,53.51534900000000,-2.44998200000000
Spice 'N' Spirits Indian Kitchen Ltd,M38 9EG,53.53194500000000,-2.42718100000000
THE MOTHI,M44 5AF,53.43082600000000,-2.43405200000000
Cafe Vibe,M44 5BE,53.4374,-2.4286
The Station,M44 5BG,53.4285,-2.4349
The Black Swan,M44 5BT,53.4259,-2.4370
The Boat House,M44 6DN,53.44759750366210,-2.41400289535522
Subway,M44 6EH,53.45025500000000,-2.41508200000000
D’ Grand Haveli ,M44 6FF,53.45140075683590,-2.41369199752808
Fortune Palace,M46 0DA,53.52389400000000,-2.49401200000000
roma cafe-bistro ,M46 0DA,53.5239,-2.4941
Jigsaw Sandwich Bar & Coffee Shop,M46 0DF,53.52357600000000,-2.49696500000000
Curiosity gin emporium,M46 0DP,53.52358600000000,-2.49452100000000
BEFRESH LIMITED,M46 0DR,53.5241,-2.4915
Curry Atherton limited T/a Tamarind Table,M46 0DR,53.52406700000000,-2.49146500000000
RANI MA LTD,M46 0DT,53.52466300000000,-2.49074800000000
The Lamp,M46 0DW,53.5237,-2.4911
The royal ,M46 0LW,53.52509300000000,-2.50399600000000
The Gardeners,M46 0PG,53.51712200000000,-2.50984400000000
McDonald's Tyldesley,M46 9AT,53.51625600000000,-2.47581100000000
McDonalds Restaurants Ltd,M46 9AT,53.51625600000000,-2.47581100000000
The Cabinet,M46 9DE,53.52373200000000,-2.48958920000000
RAMA SPICE ,M46 9LF,53.52868700000000,-2.47812200000000
GLEN BARS LTD T/A THE SPINNERS AT COWLING,PR6 9EA,53.64532800000000,-2.60882400000000
The Black Horse Limbrick,PR6 9EE,53.6415,-2.6036
The bay horse ,PR6 9ER,53.62567900000000,-2.58933800000000
The Yew Tree Inn ,PR6 9HA,53.63221500000000,-2.58168600000000
Lucianos At The Millstone,PR6 9HJ,53.61126000000000,-2.57675800000000
CHORLEY GOLF CLUB LTD,PR6 9HX,53.62961800000000,-2.60144500000000
CARDWELL LEISURE LTD t/a THE CARDWELL,PR6 9LH,53.62048300000000,-2.60191900000000
Elephant and Castle,PR6 9NH,53.61735153198240,-2.59694504737854
Diets2go Limited,PR7 2BE,53.6500,-2.6306
KFC -CHORLEY,PR7 2BE,53.6500,-2.6306
KFC,PR7 2BN,53.64985656738280,-2.62861704826355
SUBWAY,PR7 2BN,53.64963760000000,-2.62706690000000
Big Lamp Chippy & Cafe,PR7 2LA,53.64996400000000,-2.63191600000000
Texas steakhouse ,PR7 3DL,53.64880600000000,-2.62985700000000
Piccolo Italian Restaurant,PR7 3DX,53.64768890000000,-2.62844490000000
Birkacre Nurseries Ltd,PR7 3QL,53.63638000000000,-2.65238700000000
Duxbury Park Golf Course ,PR7 4AT,53.63412500000000,-2.61843200000000
Retreat Adlington,PR7 4EX,53.61376100000000,-2.60527000000000
Bistecca,PR7 4HE,53.61121000000000,-2.60484000000000
Corner house cafe,PR7 4HF,53.60986100000000,-2.60518400000000
Oh My Cod,PR7 5BY,53.62180328369140,-2.66149091720581
The Dog and Partridge ,PR7 5ES,53.63482850000000,-2.66467130000000
THE HINDS HEAD,PR7 5HL,53.62461800000000,-2.67921000000000
Burger King,PR7 5LR,53.62996100000000,-2.69264900000000
KFC,PR7 5LR,53.62996100000000,-2.69264900000000
Starbucks (Charnock Richard Northbound),PR7 5LR,53.62996100000000,-2.69264900000000
Starbucks (Charnock Richard Southbound),PR7 5LR,53.62996100000000,-2.69264900000000
The Farmers Arms,PR7 5NP,53.63040900000000,-2.70972800000000
TWO BIRDS TEA ROOM LTD,PR7 5PA,53.63617706298830,-2.71440792083740
The Original Farmers Arms,PR7 5QS,53.64992900000000,-2.73104000000000
Caffe Manna,PR7 5SZ,53.64612200000000,-2.72456000000000
Costa Coffee,WA10 1AD,53.45146300000000,-2.73386000000000
The Cafe,WA10 1AD,53.4515,-2.7337
Cafe Cassandra's Ltd,WA10 1AR,53.45131700000000,-2.73423400000000
McDonald's,WA10 1AX,53.45233660000000,-2.73586320000000
McDonalds Restaurants Ltd,WA10 1AX,53.45233660000000,-2.73586320000000
McDonald's,WA10 1BF,53.45033264160160,-2.73945689201355
McDonalds,WA10 1BF,53.45033264160160,-2.73945689201355
Nando's,WA10 1BF,53.45137900000000,-2.74024400000000
Pizza Hut Restaurant,WA10 1BF,53.45137900000000,-2.74024400000000
The Secret Garden,WA10 1BJ,53.45328910000000,-2.73781030000000
cork and dough,WA10 1BJ,53.45328910000000,-2.73781030000000
Jaguarcafe Ltd t/a Cafezinho,WA10 1BN,53.45200200000000,-2.73674500000000
Caffe Nero,WA10 1BQ,53.45344700000000,-2.73868300000000
Thai Jaa Restaurant,WA10 1DL,53.45255800000000,-2.73255400000000
Cafe Country Kitchen Ltd,WA10 1EB,53.45280838012700,-2.73391199111938
Jaguarcafe Ltd t/a Cafezinho,WA10 1EB,53.45267500000000,-2.73415200000000
Opera Bingo,WA10 1EQ,53.45373000000000,-2.73058600000000
Mercure St. Helens Hotel  Bar & Restaurant ,WA10 1NG,53.44995300000000,-2.73680100000000
The Chinese Buffet,WA10 1NU,53.45152400000000,-2.73860500000000
The Nelson ,WA10 1NU,53.45152300000000,-2.73860400000000
Kaspa's,WA10 1NW,53.45197296142580,-2.73888301849365
Subway,WA10 1NW,53.45201700000000,-2.73882400000000
Superbowl UK St Helens Ltd ,WA10 1QT,53.45189666748050,-2.74371600151062
Mecca Bingo Hall,WA10 2EG,53.45526900000000,-2.74636500000000
MILLON RESTAURANT (SH) LTD,WA10 2JE,53.45552900000000,-2.74064700000000
AKESG,WA10 2JF,53.4557,-2.7422
Atlantic Bar & Grill,WA10 2JF,53.45573220000000,-2.74219670000000
BALTISPICE,WA10 2JG,53.4562,-2.7434
C&L (NW) Limited T/A Yang Xing Restaurant ,WA10 2JG,53.4562,-2.7434
The sheesh restaurant,WA10 2JG,53.45582050000000,-2.74269900000000
Brunos Steak House,WA10 2JX,53.45533700000000,-2.74100500000000
Miami Fast Food (Air Nation),WA10 2QS,53.45560360000000,-2.74289100000000
Halabala2,WA10 2RS,53.4543,-2.7389
Limassol Restaurant,WA10 2RS,53.4543,-2.7389
Cake bake,WA10 2SY,53.4543,-2.7394
Pizza Hut Delivery,WA10 2SY,53.45422363281250,-2.73951005935669
THE NEW ERA GREEKS,WA10 2TW,53.45643400000000,-2.73950300000000
Subway,WA10 3BD,53.43960600000000,-2.77237500000000
The Bird I'Th Hand,WA10 3HE,53.44701400000000,-2.75829600000000
Sunflower cafe,WA10 3RN,53.4477,-2.7512
Eccleston Arms Bar & Grill,WA10 3TU,53.44854200000000,-2.75529600000000
The Black Bull,WA10 4PX,53.45269500000000,-2.76107800000000
THE GRIFFIN INN (ST HELENS) LTD,WA10 5AD,53.45290160000000,-2.77833770000000
Whistles tearoom,WA10 5JN,53.46075800000000,-2.77635800000000
Stanley Arms,WA10 5PT,53.45040130000000,-2.79426850000000
Subway,WA10 5RG,53.45223236083980,-2.76986408233643
Starbucks,WA10 6DQ,53.46889114379880,-2.76648902893066
Diya Restaurant limited,WA10 6QY,53.46940900000000,-2.77437800000000
Toast Coffee House and Cafe,WA10 6RG,53.45861500000000,-2.75308100000000
Dentons Deli,WA10 6SH,53.46070600000000,-2.75503000000000
The Ship Inn,WA11 0AB,53.46416900000000,-2.70169500000000
Hotel ibis Styles Haydock,WA11 0GR,53.47210900000000,-2.66503600000000
Costa Coffee,WA11 0GT,53.46489700000000,-2.66230200000000
The Wood Pit,WA11 0LF,53.46910470000000,-2.65694300000000
Bridge Farm Coffee Shop and cafe,WA11 7JT,53.5165,-2.7877
The Junction,WA11 7JU,53.51848200000000,-2.79029400000000
THE BOAT HOUSE/CARRMILL DAM,WA11 7LZ,53.47567749023440,-2.71318507194519
The Derby Arms Rainford,WA11 8EZ,53.49773300000000,-2.78399900000000
The Cottage Tandoori,WA11 8HE,53.50121300000000,-2.78780200000000
The Golden Lion,WA11 8HE,53.50078020000000,-2.78810670000000
The Colliers Arms,WA11 8RD,53.50492700000000,-2.74553400000000
Rachael Lightfoot t/a The Barn at Fir Tree Farm,WA11 8RG,53.5059,-2.7472
Drink out loud limited ,WA11 8RU,53.49300900000000,-2.74960500000000
Woodlands,WA11 9AQ,53.46893100000000,-2.72446000000000
Haydock Starbucks,WA11 9TL,53.47220611572270,-2.66196298599243
Elior UK,WA11 9WB,53.47652300000000,-2.65502500000000
Haydock Park Golf Club Co Ltd,WA12 0HX,53.46333694458010,-2.60913610458374
Newton Deli,WA12 8EW,53.44777000000000,-2.62975300000000
Arcadia Food,WA12 9AN,53.45222200000000,-2.64099300000000
Poco Coffee,WA12 9AN,53.45222200000000,-2.64099300000000
What's Cookin',WA12 9BA,53.45205800000000,-2.63961900000000
McDonald's Earlestown,WA12 9LW,53.45107900000000,-2.64133700000000
McDonalds,WA12 9LW,53.45107900000000,-2.64133700000000
Subway Newton,WA12 9SH,53.45759300000000,-2.61965800000000
Amans,WA12 9SL,53.45721600000000,-2.61960700000000
Saffron Restaurant (Merseyside) limited ,WA12 9SL,53.4572,-2.6196
Verona Kitchen and Bar Limited,WA12 9SL,53.45681650000000,-2.61804250000000
The Kirkfield Hotel Ltd,WA12 9SU,53.4558,-2.6151
The Oak Tree,WA12 9UY,53.45765000000000,-2.62417600000000
Miller and Carter Steakhouse (Mitchells & Butlers),WA3 1HD,53.46664200000000,-2.56970300000000
Duncan's Kitchens Ltd,WA3 2ED,53.47622800000000,-2.58006200000000
Scott's Deli & Catering,WA3 2EY,53.47810400000000,-2.57677300000000
Amans Restaurant & Takeaway ,WA3 2RZ,53.47389300000000,-2.57959300000000
Imperial Court Chinese Restaurant,WA3 2RZ,53.47389300000000,-2.57959300000000
Heaven 'N' Health,WA3 3AD,53.47640600000000,-2.59859700000000
Suhana Indian Restaurant,WA3 3BU,53.47679400000000,-2.59644800000000
McDonald's Stonecross,WA3 3JD,53.4698,-2.5911
McDonalds Restaurants,WA3 3JD,53.46869659423830,-2.59086489677429
The Queen Anne ,WA3 3PZ,53.47019100000000,-2.59936800000000
Partridge Lakes Cafe,WA3 4AQ,53.44757700000000,-2.53267900000000
Leigh Golf Club Limited,WA3 4BG,53.4580,-2.5354
The Raj (WA3) ltd,WA3 4EG,53.45256200000000,-2.51924900000000
Sundial Terrace Coffee House,WA3 4EH,53.4524,-2.5209
Mcdees,WA3 4ER,53.45374900000000,-2.52129700000000
Quench Cafe Ltd,WA3 4ER,53.45374900000000,-2.52129700000000
Culcheth Massala ,WA3 5DL,53.45153000000000,-2.51691800000000
The Culcheth Arms,WA3 5DL,53.45153000000000,-2.51691800000000
The George and Dragon,WA3 5LF,53.46536400000000,-2.49330100000000
The glazebury,WA3 5LL,53.46763360000000,-2.49316450000000
Bents Garden Centre Limited,WA3 5NT,53.47484400000000,-2.49609300000000
Chennai Indian Restaurant ,WA3 5NX,53.47667900000000,-2.49781700000000
The Comfortable Gill,WA3 5NX,53.47667900000000,-2.49781700000000
THAI PARAGON BAR AND RESTAURANT,WA3 5QX,53.45195500000000,-2.52044700000000
Istanbul Grill ,WA3 5SJ,53.45241200000000,-2.51662700000000
Le Brunch Ltd,WA3 5SJ,53.45241200000000,-2.51662700000000
Birchwood spice,WA3 6UG,53.43056488037110,-2.50082993507385
The General Elliot,WA3 7DE,53.43976400000000,-2.55290400000000
The plough inn ,WA3 7DS,53.44875600000000,-2.55799000000000
the horseshoe inn,WA3 7HQ,53.43702100000000,-2.55524700000000
Clare chapman catering  ,WA3 7PB,53.43135452270510,-2.53035402297974
Halabala,WA9 1AH,53.45189820000000,-2.72272300000000
Burger King,WA9 1JF,53.44414100000000,-2.73331300000000
Subway Ravenhead Retail Park ,WA9 1JF,53.44414100000000,-2.73331300000000
Costa Coffee,WA9 1JJ,53.45001700000000,-2.72767600000000
Dunelm Mill,WA9 1JJ,53.45001800000000,-2.72767700000000
Costa Coffee,WA9 3DA,53.44045900000000,-2.71947400000000
Junction Inn,WA9 3JL,53.43446400000000,-2.69948900000000
Cafe express,WA9 3JN,53.4352,-2.7016
Station House Cafe,WA9 3LA,53.43390500000000,-2.70000700000000
Bull & Dog Hotel ,WA9 4JY,53.42642100000000,-2.72480500000000
Reeve Court,WA9 5AG,53.42775100000000,-2.76112800000000
Elior UK,WA9 5AX,53.42685699462890,-2.73300004005432
Sherdley Park Golf Trading Ltd,WA9 5DE,53.43435668945310,-2.73678493499756
McDonalds Restaurant,WA9 5DT,53.44150900000000,-2.73146100000000
Brownedge pub.co limited,WA9 5JR,53.43050900000000,-2.76141900000000
Ei's bistro/bikers bistro,WA9 5PE,53.43621300000000,-2.75918700000000
The Haven Centre,WA9 5QS,53.43611500000000,-2.75479000000000
Lou's Diner,WN1 1AR,53.54821980000000,-2.63214870000000
The Little Kitchen,WN1 1AR,53.54821980000000,-2.63214870000000
Pat & Dad Kitchen and Bar,WN1 1BA,53.54429500000000,-2.63373600000000
SWAN & RAILWAY HOTEL,WN1 1BA,53.54437600000000,-2.63376800000000
Donut king,WN1 1BH,53.54639816284180,-2.62884807586670
Red Door Bistro,WN1 1DF,53.54451900000000,-2.63045000000000
Francos Italian Restaurant,WN1 1DG,53.54395600000000,-2.62991300000000
La Sentidos loca restaurant ,WN1 1HX,53.54772000000000,-2.63360600000000
Papa Luigis WIgan,WN1 1JP,53.55320600000000,-2.62807300000000
Subway,WN1 1JU,53.54536100000000,-2.63269600000000
Little Fifteen,WN1 1LD,53.54528400000000,-2.63192500000000
The Raven,WN1 1LD,53.54543700000000,-2.63198800000000
Mr Chips& Cafe Select,WN1 1LR,53.54658900000000,-2.63330300000000
THE MUAY THAI KITCHEN LIMITED,WN1 1LR,53.54657000000000,-2.63342300000000
Starbucks Market Place - Wigan,WN1 1PE,53.5463,-2.6314
Starbucks,WN1 1PE,53.54631200000000,-2.63139700000000
Gallimore’s Fine Restsurant ,WN1 1PF,53.54589800000000,-2.63142100000000
Uptown diner,WN1 1PL,53.54707300000000,-2.63184600000000
Country larder,WN1 1QF,53.54841100000000,-2.63219800000000
New Day Bakery,WN1 1QH,53.54801300000000,-2.63103000000000
New Day Cafe,WN1 1QH,53.54801300000000,-2.63103000000000
Cafe Santos Ltd,WN1 1QP,53.54854300000000,-2.63106800000000
Cassinellis Cafe,WN1 1QP,53.54854300000000,-2.63106800000000
The Tudor House Hotel Ltd,WN1 1SE,53.5483,-2.6343
Bap,WN1 1UE,53.54750900000000,-2.63105300000000
Caffe Nero,WN1 1UE,53.54744630000000,-2.63055240000000
McDonalds ,WN1 1UP,53.54845100000000,-2.62979900000000
McDonalds,WN1 1UP,53.54845100000000,-2.62979900000000
The Chinese Buffet,WN1 1UP,53.54845100000000,-2.62979900000000
Subway,WN1 1UW,53.54842900000000,-2.63040200000000
The Whitesmiths Arms,WN1 1XA,53.54951080000000,-2.62939070000000
Royal Oak,WN1 1XL,53.55022100000000,-2.62807400000000
Caffe Rosso,WN1 1XR,53.55231000000000,-2.62739500000000
Ella Turkish Restaurant ,WN1 1XR,53.55226060000000,-2.62780130000000
Casino De Cuba,WN1 1YB,53.54637908935550,-2.63070392608643
THE FAT OLIVE RESTAURANT ,WN1 2AD,53.55062800000000,-2.63099300000000
Basmati restaurant wigan,WN1 2LF,53.5535,-2.6280
The Cherry Gardens Hotel,WN1 2NT,53.56306300000000,-2.63042400000000
FORBES ,WN1 2NU,53.56277100000000,-2.63114400000000
Wigan Golf Club Limited,WN1 2UH,53.5908,-2.6214
The Crown Hotel,WN1 2XF,53.59707900000000,-2.64141600000000
The White Crow,WN1 2XL,53.60717700000000,-2.63219900000000
Jks kitchen,WN1 3EU,53.54332610000000,-2.62270410000000
India Lounge ,WN1 3LU,53.54634000000000,-2.62087800000000
McDonalds,WN1 3RB,53.54770700000000,-2.62414300000000
The Mount cafe,WN2 1DA,53.55720400000000,-2.60911100000000
Alexanders Coffee Shop ,WN2 1PE,53.57327200000000,-2.60972000000000
Two Left Feet Tap,WN2 1PE,53.57327200000000,-2.60972000000000
SHIVA FOOD AND CATERERS LIMITED,WN2 1PP,53.56690500000000,-2.58720700000000
GERRARD ARMS,WN2 1PZ,53.56266300000000,-2.56468300000000
KFC - WIGAN,WN2 2AT,53.54326100000000,-2.60598400000000
KFC,WN2 2AT,53.54326100000000,-2.60598400000000
Charlie's coffee factory,WN2 3AN,53.53616700000000,-2.57753200000000
Summat To Ate,WN2 3AN,53.53616700000000,-2.57753200000000
Alisons restaurant ,WN2 3AS,53.5359,-2.5779
mahabharat restaurant,WN2 3AY,53.53450000000000,-2.58022500000000
Gore's Sweet Shop Cafe,WN2 3EE,53.53218050000000,-2.57748650000000
PNBD RESTAURANT LTD,WN2 3PR,53.53074100000000,-2.57104600000000
McDonalds,WN2 5BD,53.52179100000000,-2.59625000000000
The Bucks Head,WN2 5RQ,53.51030700000000,-2.59405300000000
Hollywood Bowl,WN3 4AG,53.54304504394530,-2.63901400566101
Fresh Choice Cafes Ltd,WN3 4AR,53.5426,-2.6429
Power Kitchen Nutrition Limited,WN3 4DP,53.5448,-2.6376
Hideout,WN3 4HX,53.54178619384770,-2.63197803497314
Shimlar,WN3 4UG,53.5264,-2.6108
Postcode Coffee House,WN3 5AB,53.54106903076170,-2.64200305938721
Foodie Cafe & Resto,WN3 5BD,53.53959500000000,-2.64027500000000
McDonalds ,WN3 6XA,53.52020100000000,-2.65295400000000
McDonalds,WN3 6XA,53.52020100000000,-2.65295400000000
Velocity Leisure Ltd Wigan,WN3 6XU,53.51755900000000,-2.65434500000000
Workin Lunch Ltd (Rustic Kitchen),WN4 0AR,53.50090600000000,-2.64741100000000
Park Hotel,WN4 0BY,53.50958900000000,-2.65063400000000
Shawcross Care Home - Elior,WN4 8TU,53.49455200000000,-2.62521600000000
Blend n shake,WN4 9AE,53.48667400000000,-2.63789500000000
The Bistro,WN4 9AE,53.48667400000000,-2.63789500000000
Maxwell’s ,WN4 9AF,53.48713700000000,-2.63874600000000
Bengal Curry Pot,WN4 9AG,53.48650700000000,-2.63726000000000
Chinese Garden restaurant ,WN4 9AG,53.48650700000000,-2.63726000000000
KFC - ASHTON,WN4 9AG,53.4865,-2.6372
PRIMO RESTAURANT,WN4 9AL,53.4865,-2.6382
Costa Coffee - Ashton in Makerfield,WN4 9AN,53.4864,-2.6366
Green Cardamom ,WN4 9BJ,53.48936600000000,-2.63873400000000
The Old Band House Ltd,WN4 9BJ,53.48936600000000,-2.63873400000000
Market Kitchen Limited,WN4 9PL,53.48563200000000,-2.63953700000000
The coffee shop ,WN5 0DU,53.53677800000000,-2.68466800000000
Computionics Ltd,WN5 0LD,53.55301700000000,-2.67431900000000
Elior - Wincanton - Heinz Wigan,WN5 0LR,53.55378300000000,-2.67544800000000
Heinz,WN5 0LR,53.55378300000000,-2.67544800000000
ISTANBUL BBQ LTD,WN5 0PS,53.5519,-2.6661
Starbucks,WN5 0PS,53.55211200000000,-2.66577700000000
Burger King,WN5 0UH,53.54517400000000,-2.65406200000000
Costa Coffee,WN5 0UH,53.54517400000000,-2.65406200000000
KFC - ROBIN PARK,WN5 0UH,53.5451,-2.6528
KFC,WN5 0UH,53.54504776000980,-2.65288305282593
Subway,WN5 0UH,53.54504776000980,-2.65288305282593
Buzz Bingo,WN5 0UJ,53.54629898071290,-2.65705299377441
Nutri Licious Restaurant,WN5 0UJ,53.54629900000000,-2.65705300000000
Pizza Hut,WN5 0UJ,53.54602500000000,-2.65783300000000
Powerleague,WN5 0UN,53.54951900000000,-2.65844600000000
concept bars and restaurants limited,WN5 7DJ,53.5234,-2.7157
Holts arms,WN5 7DT,53.51861500000000,-2.71493100000000
THE VILLAGE KITCHEN,WN5 7HR,53.50250800000000,-2.70428800000000
Billinge Arms,WN5 7PB,53.49385900000000,-2.71073100000000
Subway,WN5 8BA,53.5362,-2.6828
KFC - PEMBERTON,WN5 8EY,53.5368,-2.6873
La Mamma Pizzeria ,WN5 8EY,53.53678900000000,-2.68746000000000
Pizza Hut,WN5 8HE,53.53671200000000,-2.68533100000000
The Lean Kitchen (Wigan) Ltd,WN5 8JG,53.5347,-2.6865
Pipsqueaks Play Cafe Limited,WN5 8QZ,53.54025000000000,-2.71345500000000
Raj gate limited ,WN5 8QZ,53.54025000000000,-2.71345500000000
The old bank coffee and wine bar,WN5 8TG,53.53283800000000,-2.71132300000000
Gelato House,WN5 8TQ,53.53071970000000,-2.70913070000000
Boars head,WN6 0AD,53.57341400000000,-2.64460700000000
Ajmeer Manzil Indian Restaurant ,WN6 0HA,53.58584000000000,-2.66354300000000
LAMAMA BAR AND RESTAURANT,WN6 0HA,53.5859,-2.6635
Subway,WN6 0HA,53.58584000000000,-2.66354300000000
Fifteens at Standish,WN6 0HD,53.58450700000000,-2.66069700000000
Asylum ,WN6 0HW,53.5866,-2.6629
Secret garden coffee lounge,WN6 0JH,53.58772400000000,-2.66565600000000
Foresters arms,WN6 0SQ,53.59004000000000,-2.68846000000000
Britannia Wigan Hotel,WN6 0SR,53.58909700000000,-2.68519700000000
DISH BAR & RESTAURANT,WN6 0SS,53.58868500000000,-2.68029500000000
Alberts Bar and Restaurant ,WN6 0TD,53.58582500000000,-2.66629200000000
THE OWLS AT STANDISH,WN6 0XD,53.58833200000000,-2.64669200000000
The Raj ,WN6 7LW,53.55125500000000,-2.64836000000000
Aster,WN6 7NQ,53.5533,-2.6568
Gathurst golf club,WN6 8EW,53.57143200000000,-2.70122000000000
Crooke Hall Inn Limited,WN6 8LR,53.56078000000000,-2.67794500000000
The Boathouse Pub & Kitchen,WN6 9DA,53.5779,-2.7202
Pesto at the Dicconson Arms,WN6 9DY,53.59051900000000,-2.72462000000000
Wrightington Hotel & Health Club,WN6 9PB,53.59522300000000,-2.70607100000000
The Rigbye Arms,WN6 9QB,53.60172500000000,-2.74696600000000
Costa Coffee,WN6 9RA,53.58840400000000,-2.69320700000000
YM Roof Ltd,WN6 9RB,53.5916,-2.6951
THE PADDOCK COFFEE HOUSE & RESTAURANT,WN6 9RE,53.60143840000000,-2.69804560000000
The White Lion,WN6 9RE,53.59857200000000,-2.69749900000000
Rivaj of India ,WN6 9RN,53.60839900000000,-2.70166600000000
Cornerhouse,WN6 9SE,53.61627600000000,-2.70421600000000
Pizza Hut,WN7 1DR,53.49697700000000,-2.51857100000000
Pizza Hut,WN7 1DR,53.49725420000000,-2.51864850000000
The Coal Room Ltd,WN7 1DR,53.49701300000000,-2.51855700000000
The Bowling Green ,WN7 2LD,53.49422600000000,-2.49555100000000
Leigh Cricket Tennis & Bowling Club,WN7 3LH,53.48496800000000,-2.52267400000000
Robin Hood,WN7 3PA,53.47985400000000,-2.53900600000000
The Greyhound Hotel,WN7 3XQ,53.48081000000000,-2.50115100000000
Maximillians ,WN7 4AA,53.49670800000000,-2.52058700000000
Uncle stes diner,WN7 4AA,53.49674300000000,-2.52070900000000
Perola Do Mar,WN7 4AN,53.49807200000000,-2.52517200000000
Frankie and Bennys,WN7 4BA,53.4931,-2.5156
Nando's,WN7 4BA,53.49756300000000,-2.52197700000000
Pitch Side Brasserie at Leigh Sports Village,WN7 4JY,53.4895,-2.5311
Bradshawgate Cafe,WN7 4LA,53.49613900000000,-2.51705400000000
SCRUMPTIOUS,WN7 4LP,53.49618400000000,-2.51911900000000
BJs Bingo,WN7 4LQ,53.49420100000000,-2.51826600000000
All or Muffin,WN7 4LZ,53.49586300000000,-2.51632600000000
McDonald's Leigh Town Centre,WN7 4NB,53.49650700000000,-2.51717900000000
McDonalds Restaurants Ltd,WN7 4NB,53.49650700000000,-2.51717900000000
Subway,WN7 4NB,53.49650700000000,-2.51717900000000
Health Shack,WN7 4ND,53.49617004394530,-2.51384305953979
Twentymans ,WN7 4ND,53.49617000000000,-2.51411500000000
Coffee Bar,WN7 4NP,53.49591700000000,-2.51447300000000
Caffe dolce,WN7 4PG,53.49544600000000,-2.51718100000000
Costa Coffee - Leigh Spinning Gate,WN7 4PG,53.4955,-2.5166
Costa Coffee Leigh,WN7 4PG,53.49544600000000,-2.51718100000000
Kathryn's Cafe,WN7 4PG,53.4955,-2.5166
Spinning Slots,WN7 4PG,53.49544600000000,-2.51718100000000
nevison country inn,WN7 4QE,53.49424600000000,-2.55050800000000
McDonald's ASDA Leigh,WN7 5RZ,53.50385200000000,-2.52506300000000
McDonalds Restaurants Ltd,WN7 5RZ,53.50385200000000,-2.52506300000000
Costa Coffee,WN7 5SJ,53.49952600000000,-2.52781300000000
KFC - LEIGH,WN7 5SJ,53.49952600000000,-2.52781300000000
KFC,WN7 5SJ,53.49952600000000,-2.52781300000000
McDonald's Parsonage Way,WN7 5SJ,53.49952600000000,-2.52781300000000
McDonalds,WN7 5SJ,53.49952600000000,-2.52781300000000
Subway Parsonage,WN7 5SJ,53.49952697753910,-2.52781295776367
The Fox,WN8 0QF,53.56031736782810,-2.72908602684073
Leisuretime,WN8 6LB,53.54988500000000,-2.77430700000000
Cafe (Compass Group),WN8 6LH,53.55223083496090,-2.77848505973816
McDonald,WN8 6LQ,53.54988500000000,-2.77430700000000
McDonalds,WN8 6LQ,53.54988500000000,-2.77430700000000
Kfc Drive Through Restaurant,WN8 6NS,53.54988200000000,-2.77057800000000
WAYFARER RESTAURANT LTD,WN8 7NL,53.58716200000000,-2.76989800000000
Coffee Etc Cafe,WN8 7NU,53.58986700000000,-2.77003700000000
The Windmill Pub,WN8 7NW,53.58796300000000,-2.76971600000000
YOURS IS THE EARTH LTD,WN8 7NW,53.58796300000000,-2.76971500000000
eden tearoom and galleries,WN8 7UB,53.5871,-2.7907
Compass Group UK,WN8 8DY,53.55907440185550,-2.81055593490601
Mellors Catering Services Ltd,WN8 9PG,53.53100500000000,-2.76519700000000
Balcony Restaurant,WN8 9QD,53.53151700000000,-2.74524700000000
LANCASHIRE MANOR HOTEL,WN8 9QD,53.53151700000000,-2.74524700000000
Elior Uk,WN8 9RA,53.52777099609380,-2.75239205360413
