name,id,postcode,lat,lon
massasauga and Stilt,505959,PR7 2WB,53.645103580753600,-2.653081799296320
taipan and Elephant,831399,M29 7WR,53.508711520100900,-2.455716843629330
ringhals and Quetzal,506102,PR7 3HR,53.645153000000000,-2.632404000000000
wall lizard and snake,53684,WN2 4XE,53.534486698043500,-2.554439881105720
rock snake and habu,48448,WN8 7HH,53.593544636447300,-2.768306126229320
slowworm and Scimitar babbler,96685,WA10 5BT,53.448916649631600,-2.776835298143890
frill-necked lizard and Polecat,94798,WA12 9PY,53.454165904089900,-2.640524735802020
Old World warbler and green turtle,825203,M38 9GJ,53.533105310261100,-2.419121311392110
rat snake and cycling lizard,50685,WN6 7LG,53.549849000000000,-2.647433000000000
B and frill-necked lizard,821261,M44 5YS,53.431864470274400,-2.437585138411380
Piping shrike and soft-shelled turtle,1563725,BL6 6PX,53.595423590000000,-2.508988316000000
Wallaby and Triller,506538,PR6 9EU,53.621793516525900,-2.589661489600640
Civet and harlequin snake,1563763,BL6 6RU,53.613884000000000,-2.532245490000000
leguaan and Civet,1564054,BL6 6EY,53.588031130000000,-2.532616820000000
Herring gull and chameleon,52839,WN3 4UA,53.526665935750800,-2.613470164109010
adder and Wader,51847,WN5 0RL,53.548174625587500,-2.667314425757740
pit viper and Solitaire,53894,WN2 4HD,53.527038641190100,-2.547856045291220
krait and jew lizard,505802,PR7 4DQ,53.614746657374100,-2.611149195080610
diamondback and Skunk,1564243,BL6 5LB,53.602530980000000,-2.594773000000000
anaconda and Capuchin,1564662,BL5 3TY,53.553702320000000,-2.514615553000000
puff adder and Triller,1589737,BL3 2BG,53.562909730000000,-2.421997747000000
Condor and thorny devil,1565023,BL5 3NR,53.564070960000000,-2.551293000000000
lizard and bearded dragon,51251,WN5 9EZ,53.534234565159500,-2.663881491143220
bicycle lizard and Bunting,946255,L35 7NA,53.427428921238400,-2.783050223237580
New World blackbird and Booted eagles,50280,WN6 9EQ,53.592778992259800,-2.729810877137130
boa constrictor and puff adder,49112,WN8 6EG,53.545678094732300,-2.768706400179040
boa constrictor and water snake,53619,WN2 4TX,53.521604332506100,-2.541119216198770
Hawk and whip snake,96988,WA10 3BN,53.439515357658600,-2.776693857501010
snake and crocodile,1592277,BL1 5RL,53.591549790000000,-2.467093009000000
bicycle lizard and Pheasant,48713,WN8 8HF,53.550995007935100,-2.804876618336060
Egret and king snake,1563265,BL7 9NX,53.620277960000000,-2.425759984000000
grass snake and Treepie,80011,WA9 5SW,53.435811296718400,-2.745783151557640
Songlark and Skunk,1564442,BL6 4LD,53.585580380000000,-2.511437000000000
amethystine python and brown snake,2649694,BL1 4GR,53.578763000000000,-2.434976000000000
Zebra and Jerboa,2630423,PR6 9FU,53.612680000000000,-2.596576000000000
Marmoset and mountain devil,54442,WN1 3XG,53.555897739389500,-2.620444000000000
Songlark and Thicketbird,96406,WA10 5PS,53.448119829829000,-2.791411135150600
cobra and racer,1589728,BL3 2AU,53.564935320000000,-2.423633441000000
slowworm and massasauga,506569,PR6 9HY,53.633112432790500,-2.607119822002560
horned viper and Gila monster,54998,WN1 2TP,53.585814112362200,-2.640142733156030
Chicken and Gull,80365,WA9 4JZ,53.425276000000000,-2.722709000000000
Vole and blue racer,1592881,BL1 3HQ,53.594935800000000,-2.446597200000000
Kangaroo and Mole,825521,M38 0BF,53.528560703875200,-2.418110950513100
racer and Bunting,97059,WA10 3EX,53.440622711059900,-2.766687770166230
Mink and anole,52240,WN4 9AN,53.486545000000000,-2.636931170581040
black snake and moloch,831831,M28 3AF,53.518609688136400,-2.402644521058340
horned viper and milk snake,1592139,BL1 5JL,53.580389630000000,-2.468525602000000
boa constrictor and Hawaiian honeycreeper,821050,M44 6NH,53.452128212895800,-2.421620925883420
Thrasher and cobra de capello,1566573,BL3 5BD,53.571534000000000,-2.440702790000000
Schneider python and mountain devil,946857,L34 2QT,53.433386423991600,-2.777861483023710
skink and Dolphin,96834,WA10 2PW,53.452544906353800,-2.752054679491910
snapping turtle and cerastes,1565235,BL4 9RF,53.543278000000000,-2.414996000000000
snake and boa constrictor,96769,WA10 3SE,53.436512025074200,-2.764325690834510
Mamo and River dolphin,48913,WN8 7AG,53.598335664436500,-2.764071482865310
agama and Partridge,50203,WN7 1TH,53.506545199538900,-2.519607539772460
massasauga and Prion,1592286,BL1 5RX,53.591362880000000,-2.464311118000000
Hawaiian honeycreeper and thorny devil,96941,WA10 2SN,53.460383918576500,-2.738954232556160
Marsh harrier and Hawaiian honeycreeper,824979,M38 9UX,53.534976472991000,-2.436264296025720
Gull and cobra,51254,WN5 9HD,53.533783290262100,-2.669049412328570
Mink and River dolphin,51227,WN5 9DP,53.538524486892400,-2.655302578494420
Greenbul and Towhee,1593376,BL1 1NB,53.577020770000000,-2.429765166000000
White ibis and Marmoset,52568,WN3 6RL,53.525441000000000,-2.659811052679710
sidewinder and sand viper,54816,WN1 3SZ,53.548644586794600,-2.625273613504540
chuckwalla and blue racer,2587885,WN7 2EL,53.504218000000000,-2.491776000000000
Polecat and bull snake,52043,WN4 9TU,53.493642576179900,-2.649093393517010
Marmoset and Herring gull,1592821,BL1 4NF,53.582557560000000,-2.458807107000000
Polecat and Duck,52625,WN3 5RR,53.516754913717500,-2.645269189325380
Marmoset and slowworm,832374,M28 1YA,53.498682431573200,-2.425926989295020
Polecat and Eagle,1592426,BL1 4RW,53.578311480000000,-2.450288266000000
giant tortoise and diamond snake,1591558,BL1 8BG,53.596709650000000,-2.445754668000000
Tree warbler and racer,52461,WN4 8BE,53.493251724550500,-2.638219788187800
bushmaster and Crow,1564747,BL5 2RY,53.535646220000000,-2.530676388000000
caiman and giant tortoise,49501,WN7 3UG,53.485098628295500,-2.531853402141330
Diving bird and gaboon viper,49658,WN7 2XD,53.503826262385100,-2.486496113886820
anole and B,1563858,BL6 7BQ,53.600831120000000,-2.544473965000000
gavial and Guillemot,48683,WN8 6PN,53.551935346478000,-2.771597000000000
tiger snake and Flameback,1590991,BL2 2PL,53.582124180000000,-2.409848890000000
Warbler and Bunting,1591136,BL11 1ZY,53.572021800000000,-2.425138891000000
Rat and perentie,2649699,BL1 9YQ,53.588504000000000,-2.425423000000000
River dolphin and moloch,80842,WA9 1PZ,53.447538000000000,-2.714219000000000
habu and American sparrow,1591635,BL1 8ER,53.595141680000000,-2.437095751000000
rattlesnake and monitor,52438,WN4 0YD,53.484345053073500,-2.667638019411300
Masked owl and Macaw,1566641,BL3 4AE,53.566240760000000,-2.447713967000000
sand lizard and saltwater crocodile,821576,M44 5HQ,53.428029073409000,-2.448953453551160
Armadillo and Meadowlark,1592011,BL1 7RB,53.608285210000000,-2.421346960000000
Jackal and snapping turtle,95889,WA11 0YR,53.461573098962300,-2.688879201221770
Treepie and Linsang,95192,WA12 0JF,53.479036778240100,-2.635595486779410
crocodile and Logrunners,1565115,BL5 2LU,53.531783300000000,-2.522028713000000
Greenbul and flying dragon,1592467,BL1 5AB,53.582032350000000,-2.487061825000000
Fulmarine petrel and Francolin,53489,WN2 5TA,53.516071266332600,-2.583893000000000
tuatara and Dorcopsis,825146,M38 0FU,53.527367724765800,-2.432565666598830
tortoise and Magpie,53564,WN2 4RB,53.527389862490700,-2.553562727194830
blue tongue and Tree warbler,1592749,BL1 2XW,53.582671950000000,-2.435426345000000
Cloud rat and glass snake,821264,M44 5YW,53.430355730860100,-2.442099861872520
Lemming and Shearwater,1592840,BL1 3DA,53.584807060000000,-2.446293987000000
copperhead and mountain devil,54986,WN1 2SU,53.577039729397900,-2.638771695798060
Hawaiian honeycreeper and Parakeet,53530,WN2 4PH,53.528970394838300,-2.561578721415600
slowworm and sand lizard,50355,WN6 8AY,53.574030656574900,-2.688607355255280
Philippine hawk-owl and Bronzewing pigeon,80619,WA9 3ZB,53.434056087304400,-2.709296167648200
bearded lizard and Diving bird,1566168,BL4 0DZ,53.553173880000000,-2.417282011000000
goanna and Tit-tyrant,52701,WN4 0EJ,53.507280713564400,-2.648397000000000
amphisbaena and Mole,1566134,BL3 5JR,53.571074330000000,-2.445892586000000
cobra and Black cockatoo,96308,WA10 9ER,53.450723000000000,-2.741738000000000
cobra de capello and Minke whale,89294,WA3 1FS,53.476376648754100,-2.548438447613600
rattlesnake and Chipmunk,51538,WN5 7EW,53.516557282562500,-2.713252705098580
Songlark and Tit-tyrant,1564871,BL5 3EH,53.554882270000000,-2.509844828000000
Skunk and indigo snake,51521,WN5 8SA,53.539190490279700,-2.705681112028840
Duck and Rat,52946,WN3 5BY,53.537323233985200,-2.634718188430860
boa constrictor and brown snake,50608,WN6 8PL,53.560276000000000,-2.660455000000000
Komodo dragon and Ice seal,96442,WA10 6AB,53.462527000000000,-2.758617000000000
smooth snake and king cobra,505671,PR7 3PW,53.637261522749700,-2.632104221111190
blindworm and Duck,95253,WA11 9HT,53.467908181312900,-2.713701954610080
B and grass snake,53429,WN2 4JX,53.535036591171800,-2.556031283523150
Komodo dragon and agama,1591149,BL2 1AW,53.578878130000000,-2.415420791000000
crocodile and Boto,1565316,BL5 1BU,53.544036850000000,-2.450784401000000
lizard and water snake,80847,WA9 1QF,53.449553804156800,-2.713619980835490
frilled lizard and Quetzal,505689,PR7 5HZ,53.608710000000000,-2.674314000000000
bicycle lizard and Kestrel,55162,WN1 1XH,53.550012000000000,-2.630261423371290
Gull and glass snake,1589922,BL3 2TD,53.563147310000000,-2.433474353000000
cobra de capello and mud turtle,95387,WA11 8GJ,53.502040040307900,-2.790500689435470
king cobra and viper,1564178,BL6 5HA,53.595283710000000,-2.592102457000000
Viscacha and thorny devil,1564013,BL6 7JX,53.603396680000000,-2.553423124000000
flying lizard and monitor,51843,WN5 0RF,53.547015375166900,-2.672080385898370
Ibex and Capuchin,1592596,BL1 5FE,53.581069560000000,-2.473895079000000
Schneider python and mamba,48515,WN8 9HN,53.537281241488000,-2.760617000000000
Francolin and Mole,1564447,BL6 4LJ,53.586646860000000,-2.494970079000000
Gull and Maya,88193,WA3 6UQ,53.430202179563100,-2.503564751861640
Fox and viper,1591922,BL1 7NZ,53.612427130000000,-2.458678000000000
New World blackbird and Stint,832569,M28 1AH,53.508409808613000,-2.430427407526630
bandy-bandy and galliwasp,51158,WN5 9AJ,53.539740724310300,-2.651503719520660
Eagle and rock python,1593041,BL1 2DU,53.581666770000000,-2.430038883000000
coral snake and Pratincole,53606,WN2 4TF,53.523415683223700,-2.538095418861510
Bronzewing pigeon and Grouse,824993,M38 9WR,53.530837763160500,-2.419823045333180
Fox and Kestrel,80358,WA9 4JQ,53.433485000000000,-2.696628000000000
mountain devil and blindworm,2643452,M28 0AA,53.524823000000000,-2.404481000000000
glass snake and tuatara,95466,WA11 8LS,53.490388768997800,-2.768897000000000
Kite and worm lizard,1593218,BL1 2TE,53.588820000000000,-2.423298000000000
asp and Moluccan boobook,1563966,BL6 6AQ,53.600832170000000,-2.536283712000000
Vole and Greenbul,49918,WN7 2HF,53.498712948842700,-2.505703174880550
Duck and Argus,1564419,BL6 5SQ,53.595510110000000,-2.552292572000000
Dolphin and king snake,831184,M29 8LZ,53.521282965389500,-2.465927145959920
Vole and Piping shrike,96079,WA11 0JB,53.464021505095500,-2.681855000000000
Chicken and caiman,1591087,BL2 2TF,53.583951550000000,-2.401090525000000
adder and copperhead,50933,WN5 9RD,53.541332689977500,-2.667614209546060
Kangaroo and Egret,1592700,BL1 4DP,53.581685670000000,-2.451728846000000
puff adder and Logrunners,1593110,BL1 2NN,53.584317040000000,-2.430398116000000
horned viper and leguaan,96145,WA10 6JX,53.467991481124500,-2.754271065487630
Treepie and Snipe,54268,WN2 1HT,53.555606522494700,-2.603337404989210
Siskin and alligator,50554,WN6 7BU,53.554577628229600,-2.647112700698120
lizard and sand viper,506100,PR7 3HN,53.643872689046800,-2.634608251948310
Prion and Old World quail,49815,WN7 3JT,53.483182651153300,-2.519924647118730
Black jay and milk snake,1592462,BL1 4UJ,53.584101230000000,-2.449957101000000
blind snake and agama,80425,WA9 3QR,53.445114047961300,-2.695222380399260
Lemming and Fox,1566512,BL3 4XS,53.564455960000000,-2.476925167000000
Recurvebill and Boto,88473,WA3 4HX,53.458016000000000,-2.530210187642030
Armadillo and Wallaby,51858,WN5 0UD,53.542666972764600,-2.657162357729800
glass snake and Peafowl,1780285,WN8 9DA,53.518351343732800,-2.758274000000000
Fulmarine petrel and Boto,1804573,PR7 4QN,53.620761000000000,-2.657015000000000
Dolphin and blindworm,1564696,BL5 3XQ,53.558501770000000,-2.535174319000000
snapping turtle and soft-shelled turtle,52007,WN4 9RW,53.496913486213000,-2.652565235205930
Polecat and frill-necked lizard,51006,WN6 0XQ,53.593959575845300,-2.649498000000000
turtle and Darwin's finches,1589681,BL3 3NP,53.564935520000000,-2.448228616000000
Prion and alligator,96113,WA11 0NA,53.468188291141400,-2.657050357647800
Marmoset and Crow,48898,WN8 0NP,53.541424172317800,-2.724942000000000
skink and hoop snake,1591815,BL1 8RL,53.605472450000000,-2.428769544000000
Logrunners and Kestrel,96400,WA10 5PF,53.461593837547400,-2.773587475618720
Kākāriki and Partridge,1804584,PR7 5FW,53.624221000000000,-2.666775000000000
Logrunners and Rat,505909,PR7 4JJ,53.612298486036300,-2.610040637169630
alligator and cobra,51765,WN5 0JP,53.550295331128800,-2.684901302750040
python and Egret,1589542,BL3 3AY,53.558790310000000,-2.442638432000000
Bunting and Grosbeak,53414,WN2 5QN,53.514822079572500,-2.595096696341810
Polecat and milk snake,94448,WA12 9UG,53.456547005880000,-2.627142129508920
mountain devil and Thicketbird,1591052,BL2 2RJ,53.580729940000000,-2.407524493000000
Komodo dragon and water snake,1591113,BL2 3AR,53.600131020000000,-2.411534366000000
boomslang and worm lizard,51440,WN5 8JY,53.532937627705100,-2.681905390741140
lizard and Marmoset,48859,WN8 0HR,53.541556498801700,-2.735176599487530
blindworm and diamondback terrapin,1779769,WN2 1RB,53.561726404142700,-2.560322097025550
Viscacha and Thrasher,1564514,BL6 4TW,53.576137450000000,-2.522892346000000
Darwin's finches and thorny devil,50022,WN7 2RR,53.497491912282500,-2.505372076072790
Jay and anole,1564531,BL5 3PA,53.560300080000000,-2.526939111000000
Grouse and Civet,1590969,BL2 2NG,53.591297110000000,-2.405798192000000
racer and diamondback,1776128,WA9 2HY,53.452616250592000,-2.693628596177830
Gull and bull snake,51329,WN5 8BD,53.535281850553500,-2.678789000000000
Greenbul and Pheasant,52832,WN3 4TR,53.528796520325000,-2.613410452565090
Armadillo and sand viper,946845,L34 2QA,53.434184104058300,-2.791889676818210
diamond python and Old World warbler,50020,WN7 2RP,53.497173884355200,-2.506182303993210
Chicken and anaconda,505807,PR7 4DW,53.608467333424100,-2.615713592962140
Mole and harlequin snake,51242,WN5 9EN,53.535783054638500,-2.663437991274890
rattlesnake and Masked owl,1563289,BL7 9QL,53.621703980000000,-2.455875437000000
cycling lizard and Philippine hawk-owl,505670,PR7 3PU,53.634472000000000,-2.631185000000000
tree snake and Boto,80570,WA9 3UN,53.432947643248500,-2.720280512125000
water snake and Fulmarine petrel,1592836,BL1 3BU,53.587770320000000,-2.449467370000000
Recurvebill and Marsh harrier,94947,WA11 9SL,53.472675395312000,-2.641843056356180
skink and bandy-bandy,53822,WN2 4GE,53.524801799712600,-2.537675554937960
tiger snake and constrictor,1564677,BL5 3US,53.555739400000000,-2.517463068000000
Greenbul and Wader,50328,WN6 7TE,53.555968665687900,-2.660659317861090
brown snake and Linsang,54851,WN1 2HF,53.558706906564700,-2.638087791175670
Duck and Tree warbler,53379,WN2 5NH,53.521295314971600,-2.594795295256700
Hawaiian honeycreeper and tiger snake,51278,WN5 9JH,53.533532316655700,-2.662467381757670
Quetzal and boa,1565053,BL5 2GP,53.536143940000000,-2.519683362000000
Kestrel and Rabbit,52215,WN4 8XU,53.490704113902700,-2.621903670052100
Moluccan boobook and harlequin snake,821588,M44 5JE,53.431887899003600,-2.436095317038100
racer and grass snake,53475,WN2 5RF,53.510526918312300,-2.593015899654660
Moluccan boobook and Eagle,54781,WN1 3QJ,53.546031583112600,-2.624767241309980
turtle and iguana,51963,WN4 9PH,53.480295858541400,-2.638838950734630
Boto and Masked owl,94331,WA12 9RQ,53.452939586234800,-2.634512906189700
horned viper and Magpie,49214,WN8 0AJ,53.540667738223700,-2.729125226281620
diamond python and loggerhead,1565401,BL5 1EU,53.543221390000000,-2.471117879000000
carpet snake and Grosbeak,830829,M29 8WS,53.513699000000000,-2.446692000000000
Greenbul and Thicketbird,48585,WN8 8BD,53.547760486888700,-2.803336159467940
frilled lizard and skink,80640,WA9 2RD,53.446962563901900,-2.684878541660890
boomslang and Perching duck,1566567,BL3 5AU,53.572429850000000,-2.441512463000000
Egret and Mink,505611,PR7 5EP,53.634105338266200,-2.665494348506960
Grosbeak and chuckwalla,79931,WA9 5NF,53.434623080280300,-2.747493360473510
Moluccan boobook and alligator,2612777,WA10 5QX,53.451389000000000,-2.773853000000000
Jerboa and Pratincole,97102,WA10 3LR,53.442329082087800,-2.752792552553800
Argus and Tahr,49384,WN7 5DH,53.503726457917300,-2.537077016353330
Condor and diamond snake,1563940,BL6 5TR,53.589480770000000,-2.578062000000000
White ibis and whip snake,1566428,BL3 4RN,53.559657150000000,-2.483392839000000
Kestrel and massasauga,51317,WN5 9NU,53.538004193493500,-2.668105025034410
Guillemot and Old World warbler,506296,PR7 2JW,53.641916034710500,-2.642504867394550
American sparrow and blue tongue,1754224,BL11 1AW,53.572026719678200,-2.425139238112670
Mink and Siskin,1565158,BL4 9PQ,53.541727840000000,-2.402667831000000
Buzzard and Minke whale,49407,WN7 5EQ,53.505075986277200,-2.532782029533300
blue racer and Ground sloth,48998,WN8 6BS,53.545162540762600,-2.763596109709500
fer-de-lance and fer-de-lance,54027,WN2 1YT,53.571170212369500,-2.580606023680560
agama and Old World quail,53670,WN2 3TX,53.524809503447100,-2.594859630654420
Bronzewing pigeon and Towhee,2648705,WN7 3FZ,53.483451000000000,-2.505369000000000
gopher snake and jew lizard,831830,M28 3AE,53.519400239154900,-2.402772678301920
Tit-tyrant and Triller,1754232,BL11 1BF,53.572026719678200,-2.425139238112670
ringhals and Maya,48728,WN8 6QH,53.556580664187700,-2.767394519300210
tiger snake and loggerhead,1593103,BL1 2LY,53.583642110000000,-2.433110153000000
puff adder and Ibex,1592404,BL1 5XA,53.577171530000000,-2.490993043000000
Goose and Armadillo,80604,WA9 3XH,53.429896600015700,-2.719431226844010
python and anaconda,95088,WA12 0DG,53.455176258341600,-2.608899937871160
Pheasant and habu,96350,WA10 5JA,53.455506440802800,-2.784922216427840
Macaw and bearded dragon,1591806,BL1 8QX,53.603058950000000,-2.430059822000000
Vole and Armadillo,505918,PR7 4JX,53.610912559578100,-2.613890053268250
diamondback and Boto,1563225,BL7 9JU,53.616566460000000,-2.417922383000000
Fox and Jackal,51450,WN5 8LZ,53.539208667765900,-2.701064065382000
River dolphin and Grosbeak,95196,WA12 0JL,53.457863202348900,-2.638291208821140
Snipe and Treepie,1754195,BL1 9RD,53.588492317668400,-2.425440538777890
mountain devil and Jackal,1565937,BL3 6QZ,53.565480070000000,-2.429920000000000
Minke whale and bearded dragon,1566645,BL3 4AN,53.565851620000000,-2.448419492000000
Quetzal and thorny devil,1563596,BL6 7RP,53.608535180000000,-2.546220527000000
tokay and bushmaster,1562955,BL7 9UW,53.628623430000000,-2.434553759000000
bull snake and River dolphin,1592940,BL1 1UR,53.576990820000000,-2.430595506000000
rock python and Chipmunk,832441,M28 0BA,53.529885667183300,-2.422182101599640
puff adder and gavial,820093,M46 9RS,53.523385449974700,-2.486433719945910
Old World vulture and Francolin,946980,L34 3LJ,53.429581000000000,-2.806992858357060
diamond snake and coral snake,1564440,BL6 4LA,53.581487490000000,-2.499305113000000
python and Diving bird,2577300,BL3 6ST,53.566833910400000,-2.436924745300000
blue tongue and Night heron,506589,PR6 9LH,53.620474181599200,-2.601903994851430
brown snake and leathery turtle,94447,WA12 9UF,53.454094327409800,-2.626910210363240
Nukupuʻu and bull snake,94949,WA11 9SR,53.474188676289600,-2.642437000000000
loggerhead and Nukupuʻu,2649695,BL1 6FT,53.594723000000000,-2.457517000000000
jew lizard and Partridge,1564551,BL5 3QA,53.558240220000000,-2.520965000000000
Schneider python and Civet,49425,WN7 3LF,53.486480067143500,-2.522300917156410
Asiatic leopard and Ground sloth,81314,WA9 1NF,53.454555797205100,-2.721881100575520
Moluccan boobook and leathery turtle,1591424,BL2 2HZ,53.590054670000000,-2.414261456000000
Flameback and water snake,52846,WN3 4UP,53.525364069302500,-2.606135424376960
sand viper and Zebra,506265,PR6 9SQ,53.619893105470800,-2.603059814526490
Kite and whip snake,831059,M29 8FR,53.517000593390400,-2.473767657779480
Bunting and Stint,51157,WN5 9AD,53.540092851533300,-2.649562564208010
leathery turtle and Flameback,1592923,BL1 3LS,53.597276200000000,-2.450474912000000
Maya and black snake,95846,WA11 0UF,53.468757658008000,-2.688423126556320
alligator and mountain devil,52472,WN4 8BW,53.496255854006800,-2.636169622005650
Minke whale and Wallaby,1564687,BL5 3XA,53.559491000000000,-2.535277000000000
Grosbeak and black snake,79930,WA9 5ND,53.433744448032400,-2.762770810626280
mamba and Zebra,50783,WN6 7PZ,53.559446370851200,-2.647233000000000
boomslang and Towhee,97403,WA10 1BW,53.452075514585400,-2.736506000765370
kabaragoya and Shearwater,1564199,BL6 6NN,53.591234860000000,-2.525647125000000
Nukupuʻu and green turtle,49270,WN7 4QW,53.494443175473800,-2.546576445898780
Stilt and Jackal,2633365,WN8 6HJ,53.550835000000000,-2.766294000000000
Puffleg and Parrotbill,1562929,BL7 9TN,53.632530880000000,-2.442578586000000
leathery turtle and Mamo,51593,WN5 7LT,53.499319206812800,-2.705335189318480
snapping turtle and Booted eagles,48414,WN8 9DN,53.536470000000000,-2.753964000000000
bull snake and king snake,1754385,BL6 6GD,53.589513022485500,-2.536034886425500
rock snake and Quetzal,52190,WN4 8UB,53.497847717571600,-2.615405563324030
harlequin snake and constrictor,85351,WA5 4LB,53.432173725763900,-2.651587794037150
Grosbeak and Moluccan boobook,1564622,BL6 5BU,53.593008080000000,-2.579575952000000
tuatara and Argus,1592068,BL1 6JZ,53.600634530000000,-2.458443971000000
carpet snake and racer,89378,WA3 1LH,53.465184499221600,-2.567966375172380
River dolphin and box turtle,89104,WA3 2JX,53.477783522637500,-2.572353577061500
Jerboa and mountain devil,94730,WA12 0NG,53.462555778253000,-2.634927000000000
Solitaire and bull snake,48146,WN8 9RN,53.526033508119800,-2.759571213476810
tree snake and Boto,52318,WN4 9JW,53.484217965863800,-2.626374904528310
king snake and leathery turtle,1565744,BL4 0LZ,53.550737360000000,-2.425121617000000
Siskin and Flameback,505980,PR7 3AQ,53.647132349512100,-2.626669726347170
saltwater crocodile and anaconda,821147,M44 6WW,53.449682960845700,-2.424261857792170
Black jay and Thicketbird,97193,WA10 2BN,53.460728000000000,-2.741629534935140
Diving bird and whip snake,1592204,BL1 6RF,53.604129520000000,-2.439213000000000
smooth snake and anaconda,1591994,BL1 7PQ,53.616159410000000,-2.441167680000000
anole and black snake,95949,WA11 0AE,53.463781507359500,-2.700181795525410
galliwasp and turtle,52033,WN4 9ST,53.497526537283700,-2.645610222515270
Philippine hawk-owl and Fulmarine petrel,1852667,BL3 2BT,53.563607000000000,-2.427875000000000
Black cockatoo and Eagle,95742,WA11 0PU,53.471299913341300,-2.656767000410930
Kākāriki and tokay,1564634,BL5 3SP,53.553953110000000,-2.525154538000000
Cuscus and Black jay,51309,WN5 9ND,53.541379380654100,-2.673711352000140
Logrunners and Siskin,51144,WN5 8UH,53.532383894985500,-2.723959000000000
diamond snake and loggerhead,1563608,BL7 9AT,53.616742490000000,-2.413661000000000
goanna and Tit-tyrant,94838,WA12 8DJ,53.447491000000000,-2.641751423174880
Eagle and diamondback turtle,95832,WA11 0TP,53.466987244865900,-2.662936776758340
elapid and tuatara,49824,WN7 3LE,53.486393873261200,-2.521455911158500
dukite and bicycle lizard,49843,WN7 2AD,53.497538636316300,-2.509186459530850
Chicken and crocodile,96575,WA10 4LX,53.455579488918300,-2.754051022784900
Old World vulture and perentie,80202,WA9 5BW,53.429671000000000,-2.743313430395950
Badger and death adder,96543,WA10 4JF,53.455004941879700,-2.753935424155000
River dolphin and Night heron,53288,WN3 4QS,53.536895799239800,-2.615036410693470
Ice seal and blue tongue,820044,M46 0NE,53.523948337064200,-2.500317252284640
king cobra and taipan,54320,WN2 2RN,53.540384000000000,-2.575401000000000
frill-necked lizard and king cobra,52922,WN3 6LA,53.518776210073600,-2.674770288499710
gecko and diamond python,53506,WN2 5TY,53.513199299724800,-2.570282381377360
Civet and turtle,51197,WN6 0EU,53.581676431137500,-2.649037125897720
Guillemot and Ground sloth,1593415,BL1 1RZ,53.577467840000000,-2.430419123000000
dugite and tiger snake,505915,PR7 4JT,53.612307207118400,-2.613607984570340
pit viper and Buzzard,51780,WN5 0LG,53.555778628310500,-2.673774117987340
Nukupuʻu and water snake,51085,WN6 0BG,53.583699572722900,-2.658765653227980
Mockingbird and Recurvebill,1565093,BL5 2JR,53.538272280000000,-2.528325197000000
Minke whale and asp,1804545,PR7 3DN,53.644246563500000,-2.626052438700000
Partridge and massasauga,820523,M46 0LD,53.516719018029100,-2.511542957893830
horned viper and Linsang,51487,WN5 8PY,53.540081887537200,-2.700837062657850
water snake and Linsang,1592294,BL1 5SG,53.593053750000000,-2.484438908000000
wall lizard and Pitohui,1589538,BL3 3AT,53.560143820000000,-2.441218390000000
grass snake and iguana,1592024,BL1 7RT,53.611902200000000,-2.422849152000000
tuatara and tree snake,95055,WA12 0AJ,53.462768672559700,-2.628559328630270
Old World quail and Civet,80997,WA9 2DT,53.454316271966100,-2.701742789931890
Grouse and diamondback turtle,1563602,BL6 7RX,53.612737330000000,-2.552925000000000
carpet snake and bearded lizard,1591808,BL1 8QZ,53.603657010000000,-2.431562000000000
blind snake and lizard,88562,WA3 5AL,53.445548023769900,-2.485648998269780
tuatara and Tit-tyrant,96808,WA10 3UJ,53.448314328825100,-2.752988754691940
agama and habu,81092,WA9 2LN,53.447182062403000,-2.687351376573470
Crow and Shearwater,97080,WA10 3JG,53.450227379551300,-2.741744264836170
galliwasp and Francolin,52246,WN4 9AX,53.487583248373600,-2.639280052894220
Diving bird and Perching duck,52629,WN3 5SA,53.516974039202900,-2.644639100285600
crocodile and Grouse,1861832,BL5 3FG,53.556685000000000,-2.525143000000000
Mamo and alligator,1754373,BL5 3YY,53.547258666159800,-2.527909250121860
Triller and Grosbeak,1592791,BL1 4JH,53.587779650000000,-2.451763653000000
Fox and blindworm,506001,PR7 3DL,53.648796521619500,-2.629841119949320
rat snake and Zebra,49700,WN7 3AP,53.488799000000000,-2.501633828570200
Eagle and bicycle lizard,1566361,BL3 4RF,53.561621950000000,-2.470794016000000
boa constrictor and Herring gull,53914,WN2 4JD,53.535501000000000,-2.560699000000000
garter snake and Logrunners,97401,WA10 1BQ,53.453437433150100,-2.738667948720290
king snake and Quetzal,53603,WN2 4TB,53.522625000000000,-2.542236745714980
constrictor and Solitaire,88728,WA3 2RG,53.473216419593300,-2.581843843427810
puff adder and American sparrow,55086,WN1 1LL,53.545160000000000,-2.631604163544390
Darwin's finches and Chicken,50543,WN6 7BB,53.553824694350900,-2.648384242627740
bull snake and Tattler,2638552,BL1 8GP,53.594704000000000,-2.431197000000000
green turtle and pit viper,1565968,BL3 6TH,53.565775510000000,-2.440023000000000
lizard and Pitohui,94463,WA12 9WB,53.458633553606800,-2.642143254224220
Old World vulture and cayman,53258,WN2 5EN,53.519701482683600,-2.606099808256560
mud turtle and Parrotlet,89031,WA3 2EH,53.477724955311700,-2.577053830552760
Egret and Elephant,1563283,BL7 9QA,53.622165820000000,-2.418023084000000
Snipe and loggerhead,52067,WN4 9XA,53.496201897881300,-2.649539494262610
Boto and Siskin,51741,WN5 0HG,53.547562419335600,-2.673900134236240
Badger and cobra de capello,1563319,BL7 9SB,53.625895610000000,-2.438215018000000
amethystine python and horned viper,1592893,BL1 3JE,53.592353960000000,-2.444772095000000
snake and Pratincole,79996,WA9 5SA,53.435083386127900,-2.750060367100830
sidewinder and Parrotlet,831171,M29 8LH,53.522175056628600,-2.467656417533240
Herring gull and cobra,53324,WN3 4TE,53.526992433958000,-2.609386862048330
skink and Duck,1591733,BL1 7AJ,53.603870270000000,-2.431896646000000
Pheasant and Skunk,95700,WA11 7RZ,53.490867513454200,-2.748572783318010
Grouse and Hawk,97157,WA10 1TY,53.459895685656200,-2.735044882922840
Mouse and Mink,832587,M28 1BG,53.506009483703400,-2.433026538772630
bushmaster and frilled lizard,54542,WN1 9GU,53.546965930396300,-2.635088890409610
saltwater crocodile and coral snake,820495,M46 0HT,53.531161020721100,-2.499376433372330
tortoise and Shearwater,822631,M41 6WE,53.447502843181800,-2.402302598173050
Stilt and Parrotlet,506554,PR6 9HE,53.623242342899400,-2.574532225481090
Grouse and Zebra,820060,M46 0PA,53.518987040955800,-2.504511900963270
Old World warbler and Piping shrike,1780231,WN6 8FP,53.562436082447600,-2.694096008650360
flying lizard and Duck,1591855,BL1 7HN,53.611445230000000,-2.434981855000000
Triller and Cloud rat,1564001,BL6 7JE,53.601696950000000,-2.551678183000000
Dorcopsis and thorn lizard,53574,WN2 4RQ,53.529796050157000,-2.550260134640510
whip snake and Darwin's finches,825196,M38 9GA,53.532818462309700,-2.408512396130810
Pratincole and Egret,52684,WN4 0DP,53.508429650947800,-2.650585978455810
Ice seal and cobra,54580,WN1 9SD,53.545096494276700,-2.629959998967720
American sparrow and Warbler,48798,WN8 6TZ,53.560944910886400,-2.768047223785630
Fox and loggerhead,49069,WN7 5LQ,53.509860377182400,-2.538240274644560
leguaan and leguaan,505742,PR7 3QW,53.636680046182700,-2.651696336858360
Chipmunk and Stilt,96123,WA11 0NP,53.465482557815600,-2.658710697238980
mud turtle and Zebra,80552,WA9 3TQ,53.431103043310900,-2.722085545089010
box turtle and gaboon viper,1589546,BL3 3BD,53.558214950000000,-2.447493315000000
Parrotbill and Jerboa,51894,WN5 7AZ,53.527657054410900,-2.710422193342730
Egret and diamond python,48871,WN8 0JF,53.542355708909200,-2.756905734816590
gopher snake and Puffleg,94718,WA12 9LR,53.450785720019700,-2.643952246445560
Kestrel and bearded lizard,89037,WA3 2ER,53.481039044305400,-2.577611153437070
Warbler and Egret,2633343,WN2 3FS,53.523881000000000,-2.595087000000000
swift and diamond snake,48785,WN8 6TH,53.560207483366600,-2.775069024557240
Myna and Philippine hawk-owl,506498,PR6 9DZ,53.643460266614900,-2.611972824617100
Stint and thorn lizard,1591739,BL1 7AT,53.605139640000000,-2.436292275000000
Scimitar babbler and Francolin,96055,WA11 0GW,53.466018319836200,-2.657724812696670
Kite and Macaw,89665,WA2 8ND,53.429097469406600,-2.591565374490250
milk snake and elapid,53600,WN2 4SY,53.528544644322100,-2.569870093834850
cobra de capello and Herring gull,1563246,BL7 9LW,53.620494970000000,-2.415164356000000
Tit-tyrant and Parrotbill,1565644,BL4 7SR,53.550998890000000,-2.404144480000000
Songlark and Nukupuʻu,1566159,BL3 5NN,53.572755920000000,-2.450485926000000
Thrasher and blue tongue,1592082,BL1 6LU,53.596787200000000,-2.463192068000000
Buzzard and Black jay,1565739,BL4 0LT,53.549312760000000,-2.423839540000000
agamid and monitor,1591464,BL1 9HZ,53.588487400000000,-2.425440191000000
Flameback and lizard,506312,PR7 2LS,53.643427243709600,-2.647292692590510
Guillemot and tuatara,51969,WN4 9PS,53.483392964074300,-2.632827559927590
asp and deaf adder,1592047,BL1 6HR,53.593534840000000,-2.458155552000000
python and iguana,1564529,BL5 3NY,53.554313030000000,-2.525068429000000
tuatara and Greenbul,50871,WN6 0RD,53.585850363279000,-2.668028846819020
Asiatic leopard and mamba,1564350,BL6 4EG,53.571091450000000,-2.491949410000000
cobra de capello and harlequin snake,1564404,BL6 5RW,53.597312490000000,-2.543416334000000
deaf adder and Hawaiian honeycreeper,50846,WN6 0PU,53.595814607997800,-2.679790000000000
whip snake and king snake,1563636,BL6 7TE,53.601118070000000,-2.554405783000000
Goose and snapping turtle,53538,WN2 4PT,53.523479137962700,-2.551777095910690
Solitaire and cobra de capello,85357,WA5 4LN,53.431775030686300,-2.647216832246910
glass snake and Chicken,2659967,WA3 3YP,53.483745000000000,-2.586387000000000
Cuscus and Flameback,1565827,BL4 0PP,53.546626000000000,-2.436397848000000
Perching duck and mamba,1565083,BL5 2JD,53.539007350000000,-2.528771938000000
River dolphin and Black jay,54132,WN2 2EX,53.545432320391300,-2.597820070887060
Stint and goanna,50447,WN6 8DJ,53.572848156823400,-2.683212060250810
Grouse and thorny devil,1565159,BL4 9PR,53.541503000000000,-2.408007545000000
wall lizard and perentie,49314,WN7 4TP,53.499026000000000,-2.541118000000000
Eagle and Old World quail,1591896,BL1 7LR,53.610565770000000,-2.432116153000000
Greenbul and python,52265,WN4 9DJ,53.487496191213400,-2.633687418966760
lizard and rock python,80658,WA9 3AX,53.446345888529000,-2.721064000000000
Shearwater and Viscacha,53966,WN2 3HX,53.532230628137700,-2.584614132133050
lizard and Mockingbird,88625,WA3 3PA,53.472815000000000,-2.599706000000000
diamond snake and Recurvebill,831028,M29 8DW,53.514161940866200,-2.461852708083610
White ibis and rock python,505889,PR7 4HJ,53.610679289459000,-2.604984073233100
tuatara and Elephant,96818,WA10 3XH,53.449397700773500,-2.749379047750300
Kestrel and Parakeet,1565860,BL4 0RF,53.544371810000000,-2.425616160000000
anaconda and flying lizard,947116,L34 5SG,53.427409000000000,-2.798491000000000
tortoise and rock snake,2654039,L40 3AE,53.625348000000000,-2.766342000000000
Peafowl and Stint,95523,WA11 8RA,53.500785000000000,-2.743984000000000
Ground sloth and milk snake,80769,WA9 3EZ,53.437516000000000,-2.706629000000000
Partridge and moloch,1566675,BL3 4DD,53.568234860000000,-2.452838674000000
python and horned toad,50789,WN6 7QG,53.555521000000000,-2.660516000000000
Pitohui and Grackle,89649,WA2 8LF,53.430465000000000,-2.596927000000000
bull snake and horned toad,1589685,BL3 3NW,53.565134030000000,-2.445618693000000
Tit-tyrant and bearded dragon,97135,WA10 1RR,53.453585000000000,-2.736788000000000
rattlesnake and Schneider python,50993,WN6 0UP,53.578012067679300,-2.653451506704480
Hawaiian honeycreeper and hoop snake,1564940,BL5 2AU,53.541855830000000,-2.537031598000000
habu and fer-de-lance,946941,L34 2SL,53.430973957272700,-2.796119550213300
bearded dragon and Diving bird,88978,WA3 3HP,53.476398841562900,-2.585428137145490
Thrasher and Moluccan boobook,505579,PR7 5BX,53.622692504566900,-2.660068000000000
Old World quail and Philippine hawk-owl,49002,WN8 6BX,53.547225624326700,-2.764267133617690
Chicken and adder,832256,M28 1HL,53.506044526240800,-2.412973977349860
Parakeet and habu,51769,WN5 0JT,53.549562644474500,-2.682565139800970
hognose snake and Hawk,53484,WN2 5RT,53.507451416305700,-2.589670869765690
puff adder and Francolin,820014,M46 9QA,53.532498706416600,-2.493266929042950
king snake and Ice seal,48847,WN8 0EW,53.546271909632900,-2.726942696301830
Schneider python and moloch,95182,WA11 9EG,53.471471636589600,-2.714545157924420
Thicketbird and Partridge,52339,WN4 0PX,53.493901631554300,-2.665723139712000
Hawaiian honeycreeper and Towhee,94789,WA12 9PH,53.451699044311600,-2.647926396798180
Goose and kabaragoya,51260,WN5 9HL,53.534055328834000,-2.671829804714090
gopher snake and black snake,825165,M38 9AD,53.526591230435200,-2.410624628963100
wall lizard and black snake,96034,WA11 0EZ,53.464117985838100,-2.686993000000000
habu and Coati,2633339,WN1 9RH,53.546982000000000,-2.635088000000000
Minke whale and copperhead,97380,WA10 1AA,53.450723000000000,-2.741738000000000
amphisbaena and Logrunners,50941,WN5 9RP,53.544160148803300,-2.665093230182740
python and water snake,1564923,BL5 3JH,53.549442530000000,-2.518608735000000
milk snake and Parakeet,1566270,BL3 5RF,53.567914510000000,-2.456715795000000
glass snake and Wallaby,505707,PR7 5LB,53.644341321112000,-2.684927161139900
Tit-tyrant and Civet,96562,WA10 4LE,53.449565577777300,-2.753674000000000
Buzzard and Polecat,49402,WN7 5EG,53.504584000000000,-2.532519000000000
massasauga and Chickadee,53199,WN3 4LS,53.536223502722400,-2.619900164530310
glass snake and Dorcopsis,88415,WA3 6GR,53.427126000000000,-2.531355000000000
python and kabaragoya,95932,WA10 9SG,53.454152618353900,-2.734930613368120
Moluccan boobook and Pratincole,1591092,BL2 2UF,53.589076040000000,-2.416533024000000
Skunk and krait,53276,WN3 4PW,53.531293546526900,-2.608483099967820
mountain devil and Fox,89055,WA3 2GG,53.473016809673300,-2.571054016359510
Chipmunk and Black jay,95158,WA11 9BY,53.462497819269400,-2.713565990802460
Chipmunk and habu,48483,WN8 7PB,53.590909178099900,-2.772775550865680
elapid and asp,2627975,M29 8SJ,53.511033000000000,-2.435806000000000
dugite and galliwasp,820208,M46 9AX,53.518092745114800,-2.477143065292200
boa and Mole,1563560,BL6 7PJ,53.597780320000000,-2.549224623000000
crocodile and loggerhead,1589628,BL3 3HW,53.558118190000000,-2.439657520000000
Marsh harrier and rat snake,1592672,BL1 4AP,53.582157680000000,-2.443290483000000
Grackle and Jackal,1776152,WA9 5RF,53.427087203258100,-2.728549361566760
water snake and Snipe,80555,WA9 3TT,53.432707760916600,-2.722639000000000
tree snake and fer-de-lance,95086,WA12 0DE,53.454651730180200,-2.609524922105560
wall lizard and gopher snake,49950,WN7 2HW,53.498238367498400,-2.505275434271810
Flameback and Badger,1591383,BL1 8UY,53.597362000000000,-2.416901663000000
Ice seal and Boto,1566068,BL3 6YE,53.568011660000000,-2.430534437000000
Partridge and Thrasher,51053,WN5 9XR,53.542481353279500,-2.679116169867730
soft-shelled turtle and Vulture,1589781,BL3 2EW,53.558946870000000,-2.426773969000000
Warbler and anole,48776,WN8 6SX,53.561340816479800,-2.781853351112730
Bunting and Philippine hawk-owl,53397,WN2 5PR,53.515984886294200,-2.588990099586310
grass snake and Asiatic leopard,946925,L34 2RR,53.429917714402100,-2.784765000000000
Eagle and Wader,54708,WN1 3JW,53.546048096483200,-2.616391571808980
puff adder and American sparrow,87847,WA3 7AZ,53.443826567112300,-2.543065711886180
Magpie and soft-shelled turtle,1565139,BL4 9NR,53.544024940000000,-2.401165468000000
bushmaster and Myna,79941,WA9 5NX,53.435473218550400,-2.759490193616910
king snake and krait,1589564,BL3 3DF,53.561103220000000,-2.432019232000000
Gila monster and Tahr,1565294,BL5 1AS,53.549127620000000,-2.468617745000000
anaconda and puff adder,831444,M28 7XE,53.509291803960600,-2.412266715593090
carpet snake and Elephant,48151,WN8 9SU,53.541851000000000,-2.790654000000000
whip snake and water snake,831231,M29 7JT,53.502091000000000,-2.445515000000000
goanna and Duck,1593051,BL1 2EQ,53.581261390000000,-2.427784249000000
Greenbul and bearded dragon,505857,PR7 2QE,53.648993186925700,-2.645229721635100
galliwasp and B,87885,WA3 7EF,53.440533969241700,-2.553456308966970
blind snake and Vole,81309,WA9 1LY,53.454221759031400,-2.723607247306180
Badger and Eagle,820319,M46 9EQ,53.521688523128100,-2.481527386649480
Mamo and thorn lizard,2649711,BL1 9ZE,53.588504000000000,-2.425423000000000
Black cockatoo and mamba,53195,WN3 4LN,53.535723612532600,-2.620964112342860
cycling lizard and Badger,1592796,BL1 4JS,53.587090990000000,-2.455593288000000
glass snake and anole,1564349,BL6 4EF,53.571634860000000,-2.493133578000000
rat snake and gaboon viper,1563628,BL6 7SE,53.624319000000000,-2.567592000000000
coral snake and python,1591203,BL2 3BQ,53.596061100000000,-2.411011288000000
turtle and gaboon viper,95813,WA11 8AH,53.502222318207100,-2.787398358956860
Vole and mud turtle,55152,WN1 1UF,53.547316081309900,-2.630068433250030
Kite and Vole,2660216,WN7 9BY,53.490956000000000,-2.509709000000000
boomslang and Partridge,821080,M44 6QB,53.458017711678700,-2.410730419249730
Fox and Capuchin,50652,WN6 7HB,53.555379618572700,-2.641736000746540
Siskin and Mink,1566326,BL3 4PN,53.573373860000000,-2.476572527000000
king snake and Moluccan boobook,825199,M38 9GE,53.536187405847300,-2.414233050973700
New World blackbird and caiman,52017,WN5 7DR,53.520809430021100,-2.719161214884900
Peafowl and Linsang,51862,WN5 0UJ,53.546290030123800,-2.656932000000000
diamondback turtle and Thicketbird,53399,WN2 5PT,53.514421956336300,-2.588772370317770
krait and cycling lizard,824972,M38 9UN,53.532110969180600,-2.425794868494910
Old World warbler and green turtle,52793,WN3 6BD,53.525750658503600,-2.679166000000000
Kākāriki and Elephant,1565741,BL4 0LW,53.549547000000000,-2.453484000000000
B and Thrasher,1591702,BL1 8NS,53.601543050000000,-2.434169820000000
Wallaby and cobra,80778,WA9 3GE,53.440996889600200,-2.698361761325200
Shearwater and deaf adder,52367,WN4 0RL,53.492731620575000,-2.665991192249250
ringhals and Booted eagles,821235,M44 5WA,53.457806728974000,-2.427309757827170
Warbler and sidewinder,1779726,WN1 2XA,53.600551741153300,-2.633324148905160
elapid and Zebra,88294,WA3 5QE,53.479304719405200,-2.488912573296380
Peafowl and Mouse,49834,WN7 1XX,53.497646050504600,-2.521789996516310
asp and sidewinder,1563873,BL6 7DP,53.602230750000000,-2.545035995000000
Coati and Chickadee,94859,WA12 8EZ,53.447771001989800,-2.626019048324530
worm lizard and carpet snake,50114,WN7 1NX,53.505718217511100,-2.515466233561290
Peafowl and Egret,54276,WN2 1JH,53.557054782512000,-2.595946061819150
Quetzal and Recurvebill,50884,WN6 0RW,53.586417007935200,-2.667962255318250
Rabbit and Black cockatoo,88815,WA3 4BE,53.465733834067500,-2.536642299168330
Hawaiian honeycreeper and Pitohui,85336,WA5 4HU,53.429357494315100,-2.660273937110840
Thrasher and Buzzard,1780250,WN7 3ND,53.482620965806400,-2.524032000000000
bandy-bandy and Civet,80794,WA9 3HP,53.436769879867700,-2.698759073345510
Chicken and jew lizard,96251,WA10 6TP,53.462160899200300,-2.755206963352970
Ground sloth and Old World quail,95000,WA12 8QS,53.445451535090900,-2.636298337552150
elapid and Prion,1754227,BL11 1AZ,53.572026719678200,-2.425139238112670
Ice seal and Triller,2593900,PR6 9FX,53.618987000000000,-2.604330000000000
anole and Masked owl,2587132,BL1 8FZ,53.588488000000000,-2.425425000000000
Skunk and anole,1589872,BL3 2PQ,53.561854690000000,-2.410060438000000
Rabbit and boomslang,1563291,BL7 9QP,53.625064000000000,-2.463668000000000
rattlesnake and mud turtle,54764,WN1 3PH,53.551981481657700,-2.617941933427270
worm lizard and Stint,53432,WN2 4LA,53.534026993762500,-2.556651722169990
sea snake and harlequin snake,96132,WA10 6JA,53.464408239998200,-2.767869567377220
Old World quail and Jay,96716,WA10 5EG,53.454238117792400,-2.772655600715460
alligator and puff adder,55009,WN1 2UJ,53.586226644171100,-2.630163865328270
Puffleg and Ground sloth,50664,WN6 7HS,53.559296148847700,-2.643863511991670
copperhead and glass snake,50196,WN7 1SS,53.508365715344300,-2.516418146317060
brown snake and massasauga,49865,WN7 2BH,53.494397605365300,-2.501642307555670
moloch and chameleon,52030,WN4 9SQ,53.492419206975600,-2.644281583432780
crocodile and Meadowlark,1564347,BL6 4ED,53.577278480000000,-2.499889809000000
diamond python and deaf adder,53653,WN2 3SY,53.524895406732300,-2.601045355116310
bearded dragon and bushmaster,2604898,M28 3YR,53.517391000000000,-2.411997000000000
habu and Magpie,1564062,BL6 6HB,53.587408360000000,-2.531173878000000
Zebra and New World blackbird,48920,WN8 7AW,53.603363002670300,-2.762227872523860
chameleon and Perching duck,54186,WN2 2NH,53.545466595027700,-2.596356677728520
boomslang and black snake,95001,WA12 8QT,53.443009391980300,-2.632392644267650
rock python and python,1754371,BL5 2TE,53.536196281996000,-2.514991899453630
horned toad and sand viper,821341,M44 6DW,53.448814113554300,-2.415730872481320
flying dragon and Snipe,95529,WA11 7DR,53.475290712922600,-2.734000193258460
Snipe and boa constrictor,1590935,BL2 2JP,53.592626290000000,-2.413984461000000
water snake and Philippine hawk-owl,1780240,WN6 9BD,53.599238074602500,-2.742963207070890
Eagle and Badger,1780239,WN6 8GJ,53.565227838309400,-2.688509944828600
amphisbaena and asp,96084,WA11 0JH,53.465518551838600,-2.676395447171650
Marsh harrier and Stilt,1787257,L34 5AB,53.425072709152100,-2.800328683393290
Chicken and tortoise,1564623,BL6 5BW,53.588107130000000,-2.570701669000000
boomslang and Asiatic leopard,506614,PR6 9NT,53.618114840152900,-2.595596692767180
tree snake and Vulture,50416,WN7 1AB,53.497114191183100,-2.516372000000000
Rat and Triller,52542,WN3 6PH,53.533337100685500,-2.657123447692760
giant tortoise and Eagle,54157,WN2 2JS,53.548538851057200,-2.600308870025810
Capuchin and water snake,81195,WA9 1DF,53.456186815978000,-2.716728152547090
black snake and tree snake,1565214,BL5 2QA,53.544423880000000,-2.515166956000000
Prion and Vulture,54056,WN2 2BD,53.542288596368000,-2.608067398590390
Black jay and Grouse,1565060,BL5 2GX,53.537881640000000,-2.519010569000000
boomslang and Grouse,50858,WN6 0QJ,53.594809897138200,-2.673186464502370
box turtle and diamond python,54060,WN2 2BJ,53.542016965067400,-2.608455851779060
Stilt and Myna,80869,WA9 3LP,53.437718962920200,-2.700927284399680
bull snake and Siskin,52079,WN5 0AF,53.537796378797000,-2.685755705609930
Thicketbird and Marmoset,830832,M29 8WW,53.513388504046200,-2.445497000000000
Prion and swift,1563484,BL7 8AB,53.637711760000000,-2.494448769000000
lizard and Capuchin,94778,WA12 9NR,53.452591439862500,-2.645801663070960
Wader and Tree warbler,79971,WA9 5QR,53.436309414158300,-2.755199965111000
Piping shrike and diamond snake,1592083,BL1 6LX,53.596405540000000,-2.459606926000000
caiman and skink,1565263,BL4 9SW,53.540366960000000,-2.406397121000000
Elephant and Mink,831706,M29 7HL,53.505416214042400,-2.452439885011570
gecko and Macaw,81306,WA9 1LU,53.455584927569800,-2.722773000000000
Peafowl and cayman,94530,WA12 8SH,53.443399299395500,-2.630049804009670
Asiatic leopard and amphisbaena,1563600,BL6 7RU,53.610328310000000,-2.549175909000000
monitor and mamba,52046,WN4 9TY,53.493918951543400,-2.651162650144620
bushmaster and swift,1566325,BL3 4PL,53.572443490000000,-2.479959791000000
Asiatic leopard and boa constrictor,1591254,BL2 1LX,53.572450900000000,-2.410374427000000
moloch and Civet,832293,M28 1LG,53.501848309825200,-2.417742378697830
Pitohui and constrictor,1589874,BL3 2PS,53.557776320000000,-2.404088342000000
Old World warbler and Thicketbird,51859,WN5 0UE,53.543878000000000,-2.657875000000000
Condor and sand lizard,49160,WN7 5RL,53.511253987919100,-2.521942138519830
Ground sloth and Triller,85697,WA5 4BX,53.429730183224500,-2.646373027955390
Kestrel and gaboon viper,53579,WN2 4RX,53.523895753991100,-2.554980279518370
tree snake and Badger,96354,WA10 5JN,53.460748995890400,-2.776480000000000
frilled lizard and perentie,51344,WN5 8BY,53.534527186266500,-2.683726374633430
Tattler and Komodo dragon,53036,WN2 5YP,53.504697636156200,-2.583013824998780
Chickadee and cobra,52889,WN3 6HJ,53.520337022675500,-2.668943035461020
rat snake and python,1592389,BL1 5UL,53.597210010000000,-2.472292826000000
Snipe and Treepie,48944,WN8 0QQ,53.563490577377600,-2.724535454269120
smooth snake and Jay,80965,WA9 2AN,53.452949937019700,-2.695606394218370
Kite and skink,88623,WA3 5EY,53.448693622284600,-2.509475132486360
iguana and Viscacha,1592138,BL1 5JH,53.580437440000000,-2.465490253000000
Marsh harrier and Warbler,821255,M44 5YJ,53.429842828548700,-2.449469240302030
harlequin snake and python,89319,WA3 1JR,53.464641273046600,-2.587360021710230
glass snake and Marmoset,88543,WA3 3NX,53.474652652904400,-2.603965860344450
agama and mud turtle,96095,WA11 0JY,53.469429849877600,-2.663639000000000
amphisbaena and thorny devil,832301,M28 1LS,53.502558427468100,-2.417734287948990
Shearwater and Schneider python,80410,WA9 4PL,53.427684705045900,-2.709024511874390
amphisbaena and taipan,50074,WN7 1JN,53.499627587712700,-2.508337141851330
blind snake and ringhals,1566024,BL4 7NF,53.555161020000000,-2.406644623000000
Fish eagle and Songlark,49302,WN7 4SY,53.497258516900700,-2.538231334424270
Mockingbird and Moluccan boobook,49055,WN7 5JX,53.510722236166600,-2.534466342014050
ringhals and lizard,50754,WN6 0LP,53.591027714365700,-2.664801927301680
skink and Bunting,48891,WN8 0NE,53.539819546325600,-2.722259961653660
slowworm and Maya,1563784,BL6 6SX,53.586200050000000,-2.542050124000000
crocodile and cobra de capello,54996,WN1 2TL,53.585663988070000,-2.639641970288230
Gull and B,50583,WN6 8NE,53.560467797965500,-2.653226285617790
Darwin's finches and horned viper,820101,M46 9SF,53.534306113653800,-2.495264403011620
death adder and ringhals,54511,WN2 1XX,53.568448363108400,-2.580266732111520
snake and Kākāriki,96802,WA10 3UA,53.449704044477000,-2.750694459835350
sidewinder and mamba,52130,WN4 8QR,53.491909987120000,-2.631914394715500
Tahr and loggerhead,52329,WN4 0NB,53.500689969280200,-2.662135986476600
sand lizard and Mouse,1565905,BL4 7DB,53.548381730000000,-2.407243660000000
leathery turtle and diamondback,1564286,BL6 5PH,53.592792480000000,-2.537194113000000
Kākāriki and frill-necked lizard,87947,WA3 7LS,53.426847822970300,-2.534933197121270
Zebra and crocodile,49897,WN7 2ED,53.492112609185500,-2.502097647844560
Herring gull and Eagle,51348,WN5 8DD,53.533638669619200,-2.672396526852290
Jay and gopher snake,1779756,WN1 9PT,53.546971188244900,-2.635089300043810
Bunting and New World blackbird,88798,WA3 4AE,53.449175932692800,-2.532834775506070
rattlesnake and Tit-tyrant,88266,WA3 5NJ,53.472071936207300,-2.494735028216290
puff adder and Jerboa,53043,WN3 4AA,53.542381032818100,-2.637147000000000
Coati and mamba,831158,M29 8JR,53.514477871581100,-2.473182000000000
Meadowlark and Magpie,50532,WN6 7AN,53.552798854626300,-2.645274251474010
Songlark and Triller,1754187,BL1 7QR,53.595582401661300,-2.493745258504610
Scimitar babbler and Towhee,2540003,WN1 3BQ,53.544854000000000,-2.614109000000000
flying lizard and bicycle lizard,49363,WN7 5BA,53.500048002626200,-2.531528009626510
Lemming and Francolin,825198,M38 9GD,53.533248476312500,-2.411549031861630
alligator and sand viper,831036,M29 8EG,53.515330783547900,-2.473251357878490
Capuchin and diamondback turtle,53344,WN2 5JJ,53.513200830739300,-2.602930674569860
elapid and Philippine hawk-owl,49486,WN7 3RX,53.475631543345200,-2.522152560401370
Cuscus and Tit-tyrant,53786,WN2 4DN,53.537020909740600,-2.564159805514730
jew lizard and Pitohui,1566732,BL3 4JH,53.564510800000000,-2.462975052000000
perentie and Polecat,95447,WA11 8JJ,53.508186921126500,-2.786619315554680
Ice seal and Grouse,51594,WN5 7LU,53.497621855598400,-2.706603425006960
diamondback and River dolphin,96130,WA10 6HY,53.464847096866500,-2.766717634630660
amethystine python and horned toad,1564884,BL5 3EZ,53.553390780000000,-2.522204189000000
Mole and Dolphin,1591102,BL2 3AB,53.596349870000000,-2.408052629000000
death adder and moloch,80301,WA9 5JF,53.431118406703800,-2.744466778230280
Towhee and Songlark,1566260,BL3 5QT,53.567916380000000,-2.463238757000000
garter snake and Vole,1564420,BL6 5SR,53.580361700000000,-2.568423000000000
Rabbit and Snipe,52248,WN4 9AZ,53.487539000000000,-2.639294000000000
Cuscus and Treepie,1564389,BL6 4JB,53.573126050000000,-2.495521839000000
Jay and Black cockatoo,1565286,BL5 1AG,53.550377370000000,-2.468525907000000
Dolphin and hognose snake,79943,WA9 5NZ,53.435768642853600,-2.760399000000000
Chickadee and Masked owl,52580,WN3 6SB,53.525468951041500,-2.655855000000000
anole and Bronzewing pigeon,54432,WN1 3UT,53.556077789587300,-2.616673257967390
Badger and sand viper,52733,WN3 5UG,53.531696217597800,-2.644832582128910
goanna and iguana,51804,WN5 0QB,53.549380580922700,-2.663816744932940
habu and Civet,52651,WN3 6XP,53.517446582734600,-2.655263717914490
dukite and harlequin snake,1563421,BL7 9TB,53.631095100000000,-2.441943553000000
American sparrow and tortoise,95059,WA12 0AQ,53.462846613038100,-2.625698659402410
River dolphin and Songlark,1592634,BL1 3TU,53.590418280000000,-2.438331107000000
green turtle and Hawaiian honeycreeper,96632,WA10 3PJ,53.436177698737600,-2.772975115254520
monitor and Bunting,80335,WA9 4HH,53.427101993940200,-2.714793878153680
cycling lizard and Jay,1565527,BL4 7NJ,53.554720040000000,-2.406806434000000
gaboon viper and River dolphin,946190,L35 7JD,53.426427416212100,-2.789081705929140
bull snake and boa constrictor,48471,WN8 7NF,53.586148753873500,-2.780543882937120
sand viper and anole,94980,WA12 8PF,53.448337554752800,-2.624071000000000
crocodile and Fish eagle,1563613,BL7 9AZ,53.621679250000000,-2.413195453000000
Duck and jew lizard,820354,M46 0DL,53.523190403560000,-2.496703356213460
harlequin snake and Diving bird,96395,WA10 5NZ,53.449630685955300,-2.773460353966600
White ibis and bandy-bandy,1591133,BL11 1XY,53.579295000000000,-2.432628000000000
Boto and gaboon viper,2583860,WN6 0GN,53.588808000000000,-2.648572000000000
Kite and Dorcopsis,821414,M44 6JL,53.452230429570900,-2.412948350503740
Grouse and whip snake,52596,WN3 6SX,53.522136860999200,-2.660479518578180
sidewinder and hawksbill,1566154,BL3 5NF,53.571504480000000,-2.451031342000000
hoop snake and crocodile,49845,WN7 2AF,53.494353727233100,-2.503525950012970
Mouse and Vulture,820326,M46 0AW,53.522333989805700,-2.492967779945730
glass snake and agamid,1566075,BL4 0AA,53.549380670000000,-2.409517172000000
rock python and sea snake,51618,WN5 8TA,53.533077252200600,-2.713424776068290
Mole and diamond snake,95739,WA11 0PR,53.471929095028700,-2.658403787543680
rat snake and leathery turtle,505814,PR7 4EE,53.622059071414500,-2.610196550323480
Black jay and Old World vulture,1592203,BL1 6RE,53.604173130000000,-2.440045276000000
Nukupuʻu and glass snake,2633359,WN6 9BE,53.582945000000000,-2.717919000000000
Darwin's finches and moloch,505891,PR7 4HN,53.608716674366600,-2.605605913604100
Cuscus and Minke whale,831034,M29 8EE,53.516449787274300,-2.465255767404740
Crow and rock snake,53102,WN3 5QL,53.521365617005100,-2.643680152467340
Nukupuʻu and diamond snake,831170,M29 8LG,53.523159253106200,-2.468813608260300
Wader and jew lizard,97155,WA10 1TQ,53.457136043052800,-2.737979144562050
brown snake and Viscacha,89201,WA3 2PT,53.471938669144300,-2.574700426861160
asp and Mamo,80916,WA9 3QB,53.436030603037700,-2.706770082487220
Chickadee and Rabbit,95715,WA11 7SX,53.514062794087800,-2.803241354032200
Bronzewing pigeon and Ground sloth,1592349,BL1 4PY,53.584707250000000,-2.458422556000000
Kākāriki and Crow,49396,WN7 5DY,53.508931706574900,-2.532860564207740
garter snake and Schneider python,1590446,BL2 6AL,53.579098280000000,-2.406285419000000
perentie and Chicken,52885,WN3 6HE,53.524841620561500,-2.671910207977980
constrictor and blue tongue,48245,WN8 8LQ,53.549615490160600,-2.806842733387980
Perching duck and anaconda,54988,WN1 2SZ,53.578232000000000,-2.642928000000000
habu and leguaan,87906,WA3 7HL,53.437621831778500,-2.553418450400830
Francolin and Puffleg,50739,WN6 0JS,53.585591708628900,-2.661196918913680
Nukupuʻu and Komodo dragon,1564878,BL5 3ES,53.555735420000000,-2.510021135000000
Nukupuʻu and Vulture,52256,WN4 9BQ,53.489300440372500,-2.640888403029560
Cloud rat and Goose,53827,WN2 2RZ,53.537909940655300,-2.579366052393400
mud turtle and Cuscus,52517,WN4 8PH,53.488606824904800,-2.629167000000000
gopher snake and Bronzewing pigeon,95473,WA11 8ND,53.490503000000000,-2.766593000000000
Ground sloth and gecko,53861,WN2 3AU,53.536994650055800,-2.582748459977540
Magpie and Gull,49467,WN7 3PR,53.480633269333500,-2.539437228779700
deaf adder and sand viper,1566708,BL3 4EY,53.567540990000000,-2.462691079000000
leathery turtle and blue racer,51756,WN5 0JA,53.547846287833200,-2.688755594442550
gavial and grass snake,1779761,WN1 9QB,53.546971188244900,-2.635089300043810
Francolin and rattlesnake,81008,WA9 2ER,53.453440861078200,-2.703866724676960
Wallaby and Black jay,52087,WN5 0AX,53.537555960434600,-2.685359511083310
Ibex and Kākāriki,1791295,M28 3UN,53.518175000000000,-2.409080000000000
swift and thorny devil,1590519,BL2 6GA,53.580047740000000,-2.401944665000000
Tattler and Herring gull,54957,WN1 2RF,53.571731202772900,-2.638087620453720
swift and Badger,49257,WN7 4QD,53.494341306045100,-2.553086806733910
sea snake and goanna,1564681,BL5 3UX,53.553113830000000,-2.507197174000000
massasauga and Armadillo,831314,M29 8TF,53.514790300721900,-2.457395714025800
Booted eagles and Flameback,1564838,BL5 3BQ,53.555965880000000,-2.495834444000000
Towhee and Triller,53015,WN3 5LP,53.525756239531400,-2.651198508779530
Parakeet and crocodile,51666,WN5 7QN,53.490580110075400,-2.720759624853810
amethystine python and diamond python,820409,M46 0GR,53.520530870450200,-2.509266181574280
cobra and Parrotbill,2585270,WA10 5QU,53.451162000000000,-2.774452000000000
bearded dragon and terrapin,80048,WA9 5UN,53.432656120711500,-2.768486001944290
Herring gull and sand viper,96330,WA10 5GA,53.453897635193800,-2.780781380126710
Minke whale and Greenbul,2617745,BL5 1FH,53.543109000000000,-2.469863000000000
Marmoset and thorn lizard,79964,WA9 5QF,53.435014751801600,-2.758082134509770
Tit-tyrant and alligator,946662,L34 6JE,53.431789299044700,-2.799205276280780
Gila monster and kabaragoya,95134,WA11 9AR,53.469512322249000,-2.721984307203180
milk snake and Fish eagle,94445,WA12 9UB,53.456240153623500,-2.634185630517200
Scimitar babbler and Puffleg,1592009,BL1 7QJ,53.606105390000000,-2.430226807000000
B and Eagle,52602,WN3 6TF,53.520752886437000,-2.662056757987730
bushmaster and bearded lizard,50051,WN7 1HF,53.502847437404300,-2.514180056888990
diamondback terrapin and king cobra,831599,M29 7FP,53.509290967563100,-2.447475095349210
Piping shrike and king cobra,50187,WN7 1SF,53.505345066634900,-2.520678413430030
Mamo and Guillemot,831238,M29 7LE,53.482720032570100,-2.452499611791690
Fish eagle and Grouse,820092,M46 9RR,53.529568362327300,-2.475552333517290
carpet snake and Black cockatoo,95831,WA11 0TN,53.467414185496700,-2.662129983098740
Dolphin and glass snake,1563284,BL7 9QB,53.621127970000000,-2.419222292000000
Hawk and bandy-bandy,1591666,BL1 8JS,53.592739260000000,-2.427854919000000
blindworm and Night heron,1591180,BL2 1HD,53.570119470000000,-2.419140134000000
Darwin's finches and Mouse,51785,WN5 0LP,53.553228343518300,-2.671863000000000
Stint and Badger,832262,M28 1HT,53.500931674731800,-2.422798752705560
sand viper and gopher snake,49775,WN7 3EW,53.491914022882600,-2.510777016112670
taipan and Buzzard,96116,WA11 0NE,53.467946778633900,-2.656835729742220
saltwater crocodile and Hawk,1593320,BL1 1HX,53.579790800000000,-2.424280459000000
Grosbeak and taipan,54970,WN1 2RX,53.562583586291300,-2.632514739428730
rat snake and Scimitar babbler,49773,WN7 3ET,53.490149461255200,-2.511434034976500
Wallaby and Perching duck,80979,WA9 2BJ,53.451216099217700,-2.701586260044290
Zebra and moloch,48392,WN8 9AY,53.541409046893100,-2.758775118337440
agamid and whip snake,831066,M29 8GF,53.515413206857200,-2.463585000000000
habu and Towhee,1564232,BL6 5JP,53.594945880000000,-2.587700975000000
Capuchin and Songlark,51156,WN5 8UY,53.532342776421000,-2.705416347809880
hoop snake and rat snake,831635,M28 3RD,53.530577774996400,-2.403980079127630
tiger snake and Darwin's finches,94683,WA12 9HS,53.454224929895100,-2.651217642435600
Recurvebill and green turtle,52965,WN3 5EQ,53.533360291162100,-2.642941793725270
Minke whale and grass snake,52391,WN4 0SS,53.492358701293600,-2.671592394368270
Asiatic leopard and amphisbaena,1593409,BL1 1RS,53.578230210000000,-2.428674000000000
Maya and indigo snake,80021,WA9 5TN,53.434116980902200,-2.755070769405210
Petrel and racer,54247,WN2 1EQ,53.558431287210900,-2.602864343660420
tokay and constrictor,831457,M28 7XW,53.509461109443900,-2.402150628234170
Badger and Old World warbler,821103,M44 6RW,53.444647000000000,-2.412333000000000
krait and Tit-tyrant,2558210,WN7 5DD,53.502142000000000,-2.529367000000000
Viscacha and Tahr,51192,WN6 0EP,53.583499505377300,-2.657554132632330
Pratincole and New World blackbird,94453,WA12 9UP,53.455756592635900,-2.618410910913320
Parakeet and Marmoset,51839,WN5 0RA,53.548742105630000,-2.673511378307240
Parrotlet and Minke whale,48025,WN8 9JB,53.535212000000000,-2.755285000000000
Cloud rat and Puffleg,88616,WA3 5EQ,53.447464944823900,-2.508828042271430
Logrunners and Mockingbird,80917,WA9 3QD,53.437531195749500,-2.703814432221960
Viscacha and tortoise,1779789,WN2 5AZ,53.519650353345600,-2.599448092937550
pit viper and cayman,96402,WA10 5PH,53.461324996161400,-2.774728000000000
sand lizard and hoop snake,53854,WN2 3AH,53.536180804047300,-2.576339886338230
king snake and Flameback,1564710,BL5 3YW,53.557067280000000,-2.526249811000000
Polecat and Herring gull,1564167,BL6 5GH,53.590782000000000,-2.564151000000000
cayman and Armadillo,80066,WA9 5WL,53.428999766059400,-2.746913053660660
Mockingbird and Piping shrike,97422,WA10 1EB,53.452719766018400,-2.733913000000000
Booted eagles and Quetzal,52709,WN4 0JH,53.510790526271900,-2.667450580160360
Badger and Piping shrike,1592432,BL1 4SE,53.575590260000000,-2.444882977000000
diamondback terrapin and glass snake,94834,WA12 8DD,53.443206195392900,-2.610113779302350
pit viper and Grosbeak,52905,WN3 6JE,53.518923281260400,-2.667789596829760
Chicken and Logrunners,831707,M29 7HN,53.506351149451300,-2.452404614211820
Mink and Viscacha,1787263,L34 5NB,53.425059081063400,-2.801020682352130
perentie and snake,95711,WA11 7SQ,53.492500000000000,-2.744906796795610
cayman and Francolin,51133,WN5 8TU,53.531165561536800,-2.714448690265230
Moluccan boobook and box turtle,54173,WN2 2LR,53.543068745362100,-2.594134815059790
Stint and sand lizard,95960,WA11 0AU,53.467547498643200,-2.692515992265010
Polecat and coral snake,1564051,BL6 6EU,53.587111690000000,-2.527121670000000
Gila monster and boa,80601,WA9 3XE,53.432351878761700,-2.717711678215990
Moluccan boobook and blind snake,1589660,BL3 3LN,53.559299450000000,-2.453090407000000
Tattler and Partridge,1563833,BL6 7AE,53.600333920000000,-2.547066664000000
moloch and Fox,51354,WN5 8DL,53.531837000000000,-2.673213000000000
Ibex and Bronzewing pigeon,54348,WN2 1PY,53.562918011416000,-2.569562224411130
massasauga and Polecat,79983,WA9 5RJ,53.426920000000000,-2.727312000000000
Recurvebill and Minke whale,54207,WN2 2PJ,53.542812919680400,-2.596772079790600
Meadowlark and alligator,85686,WA5 4BE,53.435553142850600,-2.646687208743540
Tit-tyrant and snapping turtle,505458,PR7 4PQ,53.626221917802000,-2.652548201016330
moloch and smooth snake,88222,WA3 6YE,53.429285714549600,-2.526400213839550
Eagle and hawksbill,94690,WA12 9JA,53.452362337043500,-2.658131119506610
Pratincole and moloch,1564035,BL6 6DU,53.590931120000000,-2.539361104000000
Grackle and Macaw,48984,WN8 6AX,53.550288363309800,-2.756156820457860
Masked owl and saltwater crocodile,80171,WA9 4ZR,53.434835792184200,-2.685059786574890
garter snake and dugite,80894,WA9 3NX,53.436881779753200,-2.716282721868220
Condor and Cloud rat,48227,WN8 8HY,53.551595743893600,-2.805099336150710
Eagle and Tit-tyrant,1774591,WA10 9TG,53.454158050478800,-2.734931054333120
gopher snake and tiger snake,1593018,BL1 3QF,53.589967620000000,-2.431256249000000
indigo snake and Tree warbler,1591079,BL2 2SW,53.583380480000000,-2.402520079000000
Armadillo and lizard,1563585,BL6 7QX,53.598088170000000,-2.558445854000000
thorny devil and Mink,94945,WA11 9SG,53.472726000000000,-2.637718889108480
Logrunners and king snake,51733,WN5 0EU,53.547665874958000,-2.673086791091480
Tahr and Snipe,51140,WN5 8UD,53.533030005298200,-2.718312231549470
Rat and constrictor,505389,PR7 5TN,53.644275620358500,-2.719112790871520
Night heron and Solitaire,80758,WA9 3EE,53.440968000000000,-2.709502000000000
dukite and swift,942758,L40 2RF,53.627463653713900,-2.750444579605280
anaconda and Grouse,80277,WA9 5HA,53.434768187437100,-2.741520108137590
Pratincole and Magpie,1566640,BL3 4AD,53.566405200000000,-2.447006058000000
diamondback terrapin and Eagle,51482,WN5 8PS,53.544892194053200,-2.702123863339750
Rabbit and black snake,48832,WN8 0DD,53.538160573561300,-2.743612873752860
puff adder and python,50949,WN5 9RY,53.544650776101900,-2.660905550160940
soft-shelled turtle and giant tortoise,89087,WA3 2JA,53.475698296842000,-2.579783533494190
tokay and milk snake,505832,PR7 2NU,53.640541658524800,-2.642347842807390
Gila monster and caiman,51516,WN5 8RU,53.536538000000000,-2.705999000000000
constrictor and krait,831884,M28 3EY,53.535860806007600,-2.404618827351390
leathery turtle and Wader,49752,WN7 3DQ,53.488610833340300,-2.496901902985150
Marsh harrier and Cloud rat,48480,WN8 7NT,53.588964850428900,-2.771818528347210
tortoise and snapping turtle,54973,WN1 2SA,53.562721173700300,-2.627279000000000
Viscacha and snapping turtle,1566220,BL4 0JU,53.548705470000000,-2.425267260000000
Egret and Chipmunk,831620,M29 7GS,53.505181340014000,-2.471344065043520
Fish eagle and carpet snake,52207,WN4 8XJ,53.493985000000000,-2.618575000000000
lizard and B,94959,WA11 9TH,53.478427000000000,-2.663612000000000
flying lizard and Guillemot,1566158,BL3 5NL,53.570527000000000,-2.448258000000000
River dolphin and B,54401,WN2 1SZ,53.571199919740800,-2.594680248048240
Eagle and gaboon viper,1592849,BL1 3DR,53.588666390000000,-2.440548771000000
Hawaiian honeycreeper and Tattler,1563546,BL6 7NQ,53.607084340000000,-2.547033036000000
boa constrictor and worm lizard,1563273,BL7 9PN,53.629932030000000,-2.445333735000000
gaboon viper and death adder,96815,WA10 3XA,53.449130250328900,-2.750458476744180
Logrunners and tortoise,831634,M28 3RB,53.529956011777300,-2.404201000000000
Gila monster and smooth snake,52258,WN4 9DA,53.487207859769900,-2.633818757351460
cycling lizard and Tree warbler,95475,WA11 8NF,53.495089994099700,-2.765665000000000
hoop snake and Recurvebill,2537286,WA12 9DS,53.450035000000000,-2.644587000000000
Nukupuʻu and Linsang,1791475,M38 9AG,53.536433443800000,-2.420014000000000
box turtle and Myna,54783,WN1 3QQ,53.547617828452100,-2.622224921863200
Jay and Thicketbird,1593034,BL1 2DG,53.580387750000000,-2.430781085000000
Old World warbler and diamondback turtle,80390,WA9 4NH,53.425059291619800,-2.716670814786250
River dolphin and crocodile,48779,WN8 6TA,53.564950717875100,-2.768527481059410
diamondback and rock python,1593408,BL1 1RJ,53.578371420000000,-2.429099233000000
rock python and Black cockatoo,80654,WA9 3AQ,53.446500669945000,-2.696359209677300
Badger and Jackal,1791282,M28 1FJ,53.504961006700000,-2.440886344500000
Hawk and boomslang,88587,WA3 5DA,53.426651605215200,-2.463642092886540
mountain devil and Ice seal,55217,WN1 2DL,53.554092697742300,-2.632025000000000
dugite and sand lizard,49750,WN7 3DN,53.487072490252700,-2.499370579952260
Songlark and giant tortoise,53632,WN2 3RB,53.533346850667300,-2.576874699792460
Cuscus and diamond python,52826,WN3 4TG,53.527453874985300,-2.610555042339350
Stilt and habu,1564495,BL6 4RG,53.574713560000000,-2.487611942000000
Asiatic leopard and giant tortoise,51898,WN5 7BE,53.525306226209200,-2.709719126400310
Buzzard and sand lizard,53005,WN3 5JU,53.526294837915400,-2.641356442283650
Asiatic leopard and cycling lizard,1566566,BL3 5AT,53.571911220000000,-2.443213450000000
mountain devil and White ibis,48621,WN8 8EG,53.553153585353600,-2.807347800348470
Tree warbler and gopher snake,49448,WN7 3NL,53.480039287660600,-2.516992000000000
puff adder and harlequin snake,51122,WN6 0EE,53.583295407890100,-2.655436259269810
sand lizard and Cloud rat,831221,M29 8PW,53.515566848444200,-2.442127253038880
rat snake and Buzzard,1775263,WA3 1AD,53.478641000000000,-2.552837000000000
diamond snake and Triller,506186,PR7 2FT,53.642960887993400,-2.650416700561230
Night heron and soft-shelled turtle,1861861,BL5 3WD,53.588218000000000,-2.538918000000000
Marsh harrier and racer,1592014,BL1 7RF,53.609231770000000,-2.420555340000000
Petrel and Night heron,95345,WA11 8DB,53.504602693401200,-2.791830000000000
Solitaire and worm lizard,48668,WN8 6NQ,53.549875671877300,-2.774291525662160
Stint and Eagle,831703,M29 7HG,53.500768248896200,-2.447912937998410
worm lizard and green turtle,52867,WN3 6EQ,53.522997230783200,-2.669015128850770
Jerboa and Old World vulture,820128,M46 0PZ,53.520820240544400,-2.515151900621780
Kangaroo and frilled lizard,825211,M38 9GU,53.533000540067100,-2.423344623671250
green turtle and wall lizard,1564045,BL6 6EJ,53.591046790000000,-2.537625192000000
Wader and puff adder,53052,WN3 4AR,53.542537871657400,-2.642884733649040
gaboon viper and tiger snake,52636,WN3 5TJ,53.531287954690300,-2.647194959271800
Badger and galliwasp,506111,PR7 3JB,53.641685000000000,-2.632034000000000
Darwin's finches and tiger snake,830840,M29 8XF,53.513020384771200,-2.445282584225320
leathery turtle and Quetzal,51332,WN5 8BG,53.534021517227200,-2.677819008857880
tuatara and Lemming,1590742,BL2 3EQ,53.609317850000000,-2.406046622000000
rat snake and Old World warbler,51535,WN5 7EQ,53.515235286533500,-2.711858137039340
mountain devil and cobra,52886,WN3 6HF,53.524541053854800,-2.667802565790040
Gull and Kākāriki,1593211,BL1 2SS,53.583523860000000,-2.425994514000000
python and Nukupuʻu,54923,WN1 3UG,53.553240234134500,-2.614382933659070
Rabbit and caiman,831678,M28 3TY,53.529957196559100,-2.401424658647590
diamond snake and lizard,1591780,BL1 7DU,53.611891690000000,-2.443133471000000
pit viper and asp,51830,WN5 0QQ,53.548356998763900,-2.665234517540610
Duck and Macaw,1591805,BL1 8QU,53.603017060000000,-2.431706594000000
blindworm and agama,820306,M46 9DY,53.526445146674400,-2.481718000000000
Towhee and Bronzewing pigeon,97505,WA10 1JT,53.457165812270200,-2.733145303501710
Rat and Dorcopsis,88722,WA3 3TZ,53.484687753375200,-2.594237650427410
krait and Parrotbill,54037,WN2 1ZF,53.572122496397500,-2.588063861725530
ringhals and monitor,506527,PR6 9EF,53.635700965200300,-2.598370000000000
Recurvebill and Mink,2577297,WN3 4DW,53.543433000000000,-2.642083000000000
soft-shelled turtle and Francolin,96080,WA11 0JD,53.465667080554200,-2.680314256438900
Jay and jew lizard,50270,WN6 9EB,53.590263000000000,-2.725492000000000
Night heron and Badger,832305,M28 1LX,53.501262233011300,-2.418264262612370
Diving bird and pit viper,1590448,BL2 6AP,53.579683510000000,-2.408632086000000
loggerhead and moloch,821466,M44 5AD,53.433070000000000,-2.432692446786500
Darwin's finches and frilled lizard,2541968,WA9 1HW,53.461190000000000,-2.721571000000000
diamond snake and Boto,48980,WN8 6AS,53.549192551102600,-2.758869109177030
hognose snake and sand viper,1589690,BL3 3PE,53.563960500000000,-2.451751231000000
Logrunners and Old World vulture,506250,PR6 9RT,53.618815251798900,-2.601124502142810
Myna and Piping shrike,946965,L34 2TT,53.432779661696600,-2.788145782044680
Stint and Mink,80793,WA9 3HN,53.437407399345400,-2.698874908956320
snapping turtle and Polecat,1590217,BL3 2AB,53.569309720000000,-2.424462378000000
horned toad and caiman,1563310,BL7 9RR,53.620289490000000,-2.419954764000000
Pratincole and crocodile,51647,WN5 7PN,53.493869657970500,-2.716323584532000
indigo snake and gopher snake,96217,WA10 6RW,53.458378067503400,-2.756404917363460
turtle and Linsang,85677,WA5 4AG,53.434228262324100,-2.662095507738450
Cuscus and Ice seal,50019,WN7 2RN,53.496454740178600,-2.508314247503360
American sparrow and tiger snake,54104,WN2 3PQ,53.534465365307800,-2.574189232513590
Partridge and Dolphin,1565841,BL4 0QG,53.545078990000000,-2.428943335000000
Flameback and Quetzal,831042,M29 8ET,53.520463161300200,-2.470985875605640
skink and carpet snake,81187,WA9 1BG,53.453625981721300,-2.721052138576170
Vole and blind snake,49623,WN7 4JT,53.494003721394000,-2.522242675661060
massasauga and boomslang,48407,WN8 9BU,53.537958390570200,-2.755786133854810
rat snake and Nukupuʻu,1589617,BL3 3HN,53.557057710000000,-2.439616328000000
New World blackbird and Thrasher,1566610,BL3 5ET,53.569093600000000,-2.444361757000000
Parrotbill and ringhals,53450,WN2 4LZ,53.525419350194700,-2.557866231044670
smooth snake and horned viper,1563241,BL7 9LQ,53.619155570000000,-2.420351679000000
bicycle lizard and garter snake,55222,WN1 2DS,53.553948534570300,-2.633668937320140
Snipe and Pheasant,1591795,BL1 8QE,53.599362830000000,-2.428088102000000
box turtle and Wader,53332,WN2 5HS,53.514994281530100,-2.605550022227090
blue racer and constrictor,89186,WA3 2NX,53.468989103906700,-2.571225893646180
Buzzard and Chipmunk,1564459,BL6 4NB,53.580131070000000,-2.496948035000000
agamid and Partridge,2583663,WN3 4FJ,53.536811000000000,-2.621116000000000
Thicketbird and Fish eagle,821378,M44 6FY,53.451047647950100,-2.414472775564960
sand viper and Jerboa,1591120,BL2 3AZ,53.595110500000000,-2.407753607000000
garter snake and loggerhead,821332,M44 6DJ,53.448514163902200,-2.414101786154780
Old World vulture and American sparrow,505747,PR7 3RE,53.635628183336900,-2.663189270587300
alligator and Magpie,51347,WN5 8DB,53.533360000000000,-2.674142000000000
Eagle and agama,1592580,BL1 5EH,53.583663190000000,-2.474905932000000
Kangaroo and rattlesnake,825316,M38 9QE,53.534427000000000,-2.414276000000000
Vulture and Flameback,1564194,BL6 5JB,53.590867180000000,-2.564892211000000
Guillemot and horned viper,49288,WN7 4SB,53.498130306526300,-2.534247598879470
thorny devil and Kestrel,1564879,BL5 3ET,53.554268470000000,-2.508343082000000
Peafowl and iguana,55110,WN1 1PX,53.548831893474600,-2.632385052380600
snapping turtle and terrapin,53416,WN2 5QQ,53.513626163310800,-2.595185494814310
asp and hoop snake,52353,WN4 0QS,53.497654630482400,-2.671299247489280
Wallaby and dukite,1592309,BL1 5TA,53.592804100000000,-2.477229398000000
constrictor and Mockingbird,1564547,BL5 3PW,53.562990160000000,-2.530429932000000
ringhals and dugite,50615,WN6 8QD,53.559975734660800,-2.662474000000000
Grouse and harlequin snake,505717,PR7 5LR,53.631482000000000,-2.690753000000000
Darwin's finches and B,1774606,WA12 0HW,53.469422000000000,-2.626775000000000
B and Armadillo,53547,WN2 4QF,53.527149159769400,-2.558929834518020
Jay and blindworm,96162,WA10 6LY,53.463382737693600,-2.752457151481460
jew lizard and Recurvebill,1565007,BL5 3LW,53.548710470000000,-2.529768311000000
crocodile and massasauga,1592381,BL1 5UA,53.596961060000000,-2.473771000000000
Argus and thorn lizard,505628,PR7 3JZ,53.639251074327400,-2.622242000000000
Tree warbler and goanna,1776133,WA9 3RW,53.445051456159700,-2.694544179553560
Skunk and tuatara,820137,M46 0QL,53.514564556644700,-2.508787433124640
Moluccan boobook and tuatara,89204,WA3 2PX,53.472226852527000,-2.576451919390080
Francolin and Stilt,51172,WN5 9BL,53.537613685348300,-2.654322000000000
Partridge and swift,1592922,BL1 3LR,53.596279600000000,-2.452564526000000
Zebra and water snake,94721,WA12 9LU,53.451427026678700,-2.643374681591210
blue tongue and Bunting,50235,WN6 9AH,53.583399833931300,-2.719997000000000
Condor and Grosbeak,96920,WA10 4EU,53.455226425096600,-2.761529406722350
Pratincole and diamondback terrapin,2587572,M28 1ZT,53.501623000000000,-2.420710000000000
Old World warbler and Meadowlark,95172,WA11 9DU,53.468292452869800,-2.730429697367020
leathery turtle and adder,2648700,WN7 1DA,53.496496000000000,-2.513107000000000
Egret and krait,831312,M29 8TD,53.514588632986700,-2.458540000000000
bushmaster and Partridge,51409,WN5 9PY,53.538917779198500,-2.665463708102820
cobra and Stint,97029,WA10 1NE,53.451333430516500,-2.735860711581310
Black jay and Capuchin,1592189,BL1 6QN,53.602274390000000,-2.438197020000000
Elephant and chameleon,49542,WN7 4AX,53.497031004896200,-2.520606650500910
Quetzal and bearded dragon,50852,WN6 0QB,53.598180346780700,-2.673224958207420
ringhals and Puffleg,1564005,BL6 7JJ,53.602167860000000,-2.552863033000000
puff adder and dukite,1564075,BL6 6HU,53.586812380000000,-2.523643522000000
brown snake and dukite,1589587,BL3 3EL,53.559608030000000,-2.435355397000000
rat snake and Grackle,1593178,BL1 2QL,53.583714670000000,-2.440315989000000
Pitohui and Coati,54886,WN1 2LW,53.554453208183600,-2.626597050648450
sea snake and Old World quail,51583,WN5 7LF,53.497181000000000,-2.702255000000000
moloch and cycling lizard,54925,WN1 1AN,53.547321000000000,-2.632785000000000
terrapin and diamondback,55043,WN1 1DB,53.543797716330200,-2.630800890598090
Kangaroo and rock python,1589787,BL3 2HE,53.562538500000000,-2.420212549000000
Badger and diamond python,54336,WN2 1PF,53.569926000000000,-2.599706000000000
horned viper and Solitaire,1779757,WN1 9PU,53.546971188244900,-2.635089300043810
Armadillo and Darwin's finches,825190,M38 9ES,53.537255002948400,-2.414816839547830
Kangaroo and Kangaroo,1592423,BL1 6AB,53.588936970000000,-2.461746552000000
Mole and River dolphin,53892,WN2 4HA,53.528877502291800,-2.547880000000000
Parrotlet and Partridge,1589918,BL3 2SN,53.562187570000000,-2.427923810000000
Ground sloth and Armadillo,946991,L34 3LZ,53.430105970209300,-2.810236030794170
worm lizard and leathery turtle,1592348,BL1 4PX,53.585011390000000,-2.458803486000000
black snake and Prion,88449,WA3 4EW,53.452991605582300,-2.521497000000000
sidewinder and ringhals,1564848,BL5 3DB,53.547460230000000,-2.511385531000000
anole and horned toad,52350,WN4 0QN,53.497134245536000,-2.669527319607530
krait and Stilt,48615,WN8 8DZ,53.558672000000000,-2.795496000000000
mamba and Condor,831618,M29 7GQ,53.499061285415000,-2.461854315991190
Magpie and racer,48570,WN8 8AE,53.547506749056100,-2.792872303346610
boa constrictor and Night heron,1592485,BL1 5BA,53.580425360000000,-2.482149687000000
Thrasher and perentie,97217,WA10 2DY,53.454059109283000,-2.745666214250690
Piping shrike and Grouse,825215,M38 9GZ,53.532620525588000,-2.424049911796800
Kite and puff adder,96904,WA10 4DY,53.457140000000000,-2.761820000000000
Francolin and flying lizard,94837,WA12 8DG,53.449416267711500,-2.613831651994440
Thrasher and Bunting,1564836,BL5 3BN,53.541063000000000,-2.506887000000000
goanna and Petrel,48544,WN8 7SH,53.562912516540200,-2.763976257830530
Francolin and harlequin snake,53849,WN2 3AA,53.534613285057600,-2.578928751270860
giant tortoise and horned viper,50086,WN7 1LB,53.500737712101600,-2.511486143254930
bandy-bandy and leguaan,54390,WN2 1SL,53.572815553437900,-2.591516564728900
Macaw and Zebra,1804568,PR7 4AN,53.611041403200000,-2.610808811400000
dugite and Myna,89072,WA3 2HF,53.480715072660200,-2.575828667723780
Duck and cobra,48878,WN8 0LD,53.544819085019600,-2.723431682142740
black snake and Myna,52196,WN4 8UQ,53.497261137672300,-2.617597928569980
Songlark and Kākāriki,49445,WN7 3NG,53.481125040495600,-2.519748791625690
Gull and crocodile,2663217,L40 3AA,53.625845000000000,-2.767410000000000
cerastes and Dorcopsis,1566443,BL3 4SG,53.556971760000000,-2.489490994000000
elapid and Fox,825220,M38 9HF,53.536220476742600,-2.420208260596670
Jerboa and White ibis,52564,WN3 6RF,53.525334252519600,-2.657678325511590
coral snake and Elephant,942427,L40 4BN,53.605828871967900,-2.793556590697560
hawksbill and Pitohui,1563490,BL7 8AJ,53.640745710000000,-2.495437171000000
dukite and giant tortoise,831135,M29 8HN,53.513272226647800,-2.464135184209690
Bronzewing pigeon and Grackle,88871,WA3 3BB,53.471089000000000,-2.597915138956150
Macaw and Towhee,1591829,BL1 7EL,53.608585410000000,-2.432927187000000
Gull and monitor,54823,WN1 3UB,53.553038355100500,-2.616930930925050
goanna and Capuchin,1591279,BL2 1PG,53.571283660000000,-2.402072905000000
Elephant and Stint,1591206,BL2 3BT,53.604748300000000,-2.409705328000000
Bunting and gecko,821496,M44 5BT,53.425862082261500,-2.437041892716760
bearded dragon and crocodile,1566300,BL3 6BF,53.570774510000000,-2.427074324000000
Puffleg and Capuchin,2622324,WN2 2AH,53.536441000000000,-2.596244000000000
blue tongue and worm lizard,50666,WN6 7HU,53.557691809402200,-2.643008868461570
B and Asiatic leopard,49870,WN7 2BQ,53.509808450791600,-2.511173200784850
hawksbill and Fish eagle,52390,WN4 0SR,53.493194566587100,-2.671605605919070
Rabbit and terrapin,79997,WA9 5SB,53.434028974323400,-2.749063405787530
fer-de-lance and Pheasant,50963,WN5 9SS,53.546181000000000,-2.663772426845340
crocodile and loggerhead,89115,WA3 2LL,53.474110257125000,-2.569833277474920
rat snake and Tattler,1564936,BL5 2AQ,53.544224280000000,-2.529983903000000
rattlesnake and Dorcopsis,506246,PR6 9RP,53.618200134625500,-2.603685724850810
bicycle lizard and Grouse,505528,PR7 4QH,53.627289097257800,-2.659550451987830
Ground sloth and Mouse,507337,PR6 0NU,53.647730399108100,-2.615347710632770
rock python and Darwin's finches,88287,WA3 5PS,53.461284000000000,-2.475451000000000
Prion and chameleon,50025,WN7 1DS,53.497118128440900,-2.519175661936160
sand lizard and Coati,831297,M29 8RE,53.514390731025600,-2.436867039810590
Peafowl and slowworm,95899,WA11 7AE,53.472895528103100,-2.733220620628690
Petrel and cayman,88868,WA3 3AW,53.475861000000000,-2.596269000000000
Mamo and River dolphin,1754221,BL11 1AS,53.572026719678200,-2.425139238112670
water snake and Chicken,95282,WA11 9LE,53.461637707235000,-2.719094330355820
Boto and Jackal,52419,WN4 0XJ,53.493137591044100,-2.678508134412410
boa constrictor and death adder,50440,WN6 8DA,53.576009480708600,-2.683670811912150
Tit-tyrant and Dorcopsis,821616,M44 5LW,53.452344000000000,-2.436802000000000
Kangaroo and tree snake,80859,WA9 1RD,53.453944723442400,-2.706826649699250
gavial and copperhead,48546,WN8 7TG,53.590828178937700,-2.744446917958540
Polecat and Pheasant,54265,WN2 1HQ,53.556532897742500,-2.599652204751860
Meadowlark and Petrel,96525,WA10 4HH,53.453049000731000,-2.754789242843970
caiman and Egret,53509,WN2 5XB,53.506586000000000,-2.592284482320290
bicycle lizard and B,95044,WA11 9YH,53.464592823979400,-2.729823899424060
blue racer and tuatara,505425,PR7 4LR,53.620047384730900,-2.645831181177420
Piping shrike and viper,51207,WN6 0GH,53.589562131339000,-2.669718994422040
Gila monster and rock snake,80651,WA9 3AH,53.446347000000000,-2.719348000000000
blue tongue and saltwater crocodile,1590965,BL2 2NB,53.590656270000000,-2.403933829000000
agama and Macaw,49397,WN7 5EA,53.504819611730800,-2.533834204499220
garter snake and Triller,95623,WA11 9AB,53.472131211930200,-2.721622000000000
Kite and mountain devil,50456,WN6 8DW,53.576935507122600,-2.714389756338680
River dolphin and Greenbul,831302,M29 8RL,53.511141124961400,-2.462030954443460
Chickadee and thorny devil,53098,WN3 5QF,53.522687778669000,-2.648392000000000
giant tortoise and sand viper,48137,WN8 9QR,53.519332799684600,-2.757400110377820
crocodile and boomslang,94979,WA12 8PE,53.447776443227900,-2.624980203488210
Parakeet and Mink,49435,WN7 3LT,53.482439821704000,-2.529424147299300
monitor and Magpie,1563242,BL7 9LR,53.615650500000000,-2.409886522000000
jew lizard and Tree warbler,1591863,BL1 7HX,53.603316200000000,-2.433492863000000
Recurvebill and Marsh harrier,507324,PR6 0NS,53.647671969494400,-2.619703722276230
bicycle lizard and Treepie,506191,PR7 2FZ,53.645921000000000,-2.645062000000000
monitor and Coati,97297,WA10 2JX,53.455328653289900,-2.740989847881650
sand viper and swift,2579810,M28 3UP,53.517885000000000,-2.407162000000000
Darwin's finches and Tattler,1564620,BL6 5BS,53.588270540000000,-2.572244759000000
Parrotlet and Wader,88298,WA3 5QQ,53.479363000000000,-2.498888000000000
Bronzewing pigeon and rat snake,2633349,WN6 0UU,53.588233000000000,-2.653034000000000
B and alligator,53476,WN2 5RG,53.510763894405800,-2.592355725684110
Lemming and tokay,1592089,BL1 6NE,53.597552370000000,-2.455872108000000
Darwin's finches and rat snake,1592436,BL1 4SJ,53.576431300000000,-2.443502389000000
kabaragoya and Chipmunk,54127,WN2 2ER,53.546134000000000,-2.587039000000000
Siskin and moloch,51165,WN5 9AY,53.538285709073800,-2.652945005385510
Night heron and Chickadee,96396,WA10 5PA,53.462307761434400,-2.772997971914240
sand lizard and American sparrow,2581317,PR7 3FW,53.639141000000000,-2.625281000000000
Eagle and Old World quail,505796,PR7 4DG,53.615325344240400,-2.610477317069860
gavial and Mole,51678,WN5 7RY,53.487718000000000,-2.714126950825620
cayman and Civet,825034,M38 0DE,53.530587703955600,-2.431979967554360
viper and hognose snake,94535,WA12 8SQ,53.443548041214900,-2.630819830572780
Bronzewing pigeon and agamid,1566764,BL3 4LZ,53.567724290000000,-2.466407517000000
elapid and Jerboa,505378,PR7 5SY,53.646861701846800,-2.724012828065300
Meadowlark and taipan,53030,WN2 5YE,53.506153133057600,-2.586818266604520
agama and bandy-bandy,1591303,BL2 2BY,53.579875400000000,-2.420686640000000
copperhead and White ibis,80051,WA9 5UR,53.429690691333600,-2.754254814627120
green turtle and Kestrel,820109,M46 9SR,53.533094987193100,-2.485941565301180
Scimitar babbler and Logrunners,52155,WN4 8SH,53.492738764602000,-2.628158518226340
iguana and Francolin,53104,WN3 5QP,53.519840000000000,-2.646824000000000
Jay and perentie,1564604,BL6 5AW,53.592882800000000,-2.581311701000000
cycling lizard and massasauga,50534,WN6 7AQ,53.552299881855600,-2.646127014169800
crocodile and lizard,1590943,BL2 2JY,53.593770500000000,-2.410596220000000
snake and sea snake,820169,M46 0SE,53.513773913206600,-2.510813781887820
king snake and Hawk,94727,WA12 0ND,53.459754067711500,-2.632943000000000
iguana and crocodile,96000,WA11 0DY,53.462441397649200,-2.687944348795920
Stint and Wallaby,80781,WA9 3GH,53.438957599511200,-2.696627227567570
Skunk and Guillemot,1593083,BL1 2JX,53.578947000000000,-2.434332090000000
racer and carpet snake,53686,WN2 4XG,53.516446391655700,-2.546723978992530
smooth snake and sand lizard,505621,PR7 5FH,53.618519270433100,-2.670358837706140
krait and Snipe,820149,M46 0RA,53.515468234346900,-2.509763433977880
tortoise and Armadillo,831717,M29 7HZ,53.497810248944200,-2.448122936297810
rattlesnake and Egret,1754415,BL7 9ZD,53.623682063888800,-2.435304591486370
Nukupuʻu and krait,831438,M28 7WA,53.513841578896000,-2.411798177460980
black snake and Asiatic leopard,49540,WN7 4AT,53.497541579593200,-2.523070039700770
Ground sloth and Jay,80688,WA9 4DB,53.425628389903300,-2.725138006395070
rattlesnake and bushmaster,1564810,BL6 4BF,53.579438740000000,-2.503449534000000
Tree warbler and rock python,52004,WN4 9RS,53.493367916135400,-2.653309651540460
Ice seal and Marsh harrier,89018,WA3 3LP,53.476064257847600,-2.589491583155920
Francolin and python,96916,WA10 4EP,53.455703924060900,-2.761357234951520
Parrotlet and Viscacha,88252,WA3 5LR,53.469877150892300,-2.495116235798380
chuckwalla and dukite,54659,WN1 3DJ,53.544560740962400,-2.610212744209480
gavial and Gull,1565153,BL4 9PH,53.541696800000000,-2.403874739000000
glass snake and Minke whale,97212,WA10 2DS,53.458364439962700,-2.744265716836630
viper and Stilt,53042,WN2 5YX,53.506343312247600,-2.583911000000000
Tahr and Darwin's finches,819652,M46 9XF,53.534892058032200,-2.497021414191220
Komodo dragon and boa,81297,WA9 1JZ,53.452455000000000,-2.726002000000000
carpet snake and thorny devil,1754193,BL1 8HQ,53.589167705771200,-2.427607621505140
tree snake and Polecat,95109,WA12 0EW,53.457639869325200,-2.634658306435210
Treepie and flying dragon,50111,WN7 1NS,53.504877121178900,-2.516662186512890
Viscacha and Kite,80933,WA9 1SA,53.452631629606000,-2.727902051635810
smooth snake and Stilt,505550,PR7 5AE,53.625152927639600,-2.662086000000000
Parrotbill and taipan,51252,WN5 9HA,53.534821042512200,-2.666712083517440
king snake and wall lizard,825207,M38 9GQ,53.531703170474100,-2.413706000000000
hognose snake and tokay,51723,WN5 7XZ,53.510697064031600,-2.682590000000000
tuatara and Marsh harrier,95341,WA11 8BX,53.503251713065600,-2.788050662101180
Booted eagles and Bronzewing pigeon,96865,WA10 4AT,53.449034198866800,-2.761373432045310
blue racer and adder,80569,WA9 3UL,53.433625902159700,-2.719599594158700
Wallaby and Zebra,947299,L34 1LU,53.425713358183100,-2.812321000000000
Linsang and Komodo dragon,88585,WA3 5BW,53.425556429555700,-2.456271253092020
Pitohui and Chickadee,1565154,BL4 9PJ,53.541474240000000,-2.405894674000000
hoop snake and Tattler,80193,WA9 5BE,53.427706000000000,-2.745491000000000
diamondback turtle and harlequin snake,2585269,WA10 9ZZ,53.450623000000000,-2.741917000000000
thorn lizard and gopher snake,1565924,BL4 7ED,53.552153000000000,-2.400593000000000
Warbler and hoop snake,1564011,BL6 7JU,53.603250990000000,-2.553829244000000
carpet snake and Condor,53448,WN2 4LX,53.526502891602500,-2.560656067087490
sea snake and leathery turtle,824836,M38 9RE,53.534610674496200,-2.428052915390880
Parakeet and Parrotlet,88793,WA3 3YB,53.471853133357100,-2.604769757595480
Eagle and brown snake,52836,WN3 4TX,53.526773924502700,-2.611691709920380
massasauga and krait,831339,M29 7QE,53.508715853525300,-2.461612525643290
Jackal and Mamo,96827,WA10 2PG,53.451497785891700,-2.748331000000000
snake and leathery turtle,1564489,BL6 4QT,53.583966270000000,-2.499787496000000
sand lizard and bicycle lizard,80044,WA9 5UG,53.431079514645200,-2.766096000000000
Prion and black snake,50890,WN6 0SD,53.589455173192600,-2.688556041456300
jew lizard and Masked owl,1565971,BL4 7EH,53.552140190000000,-2.401544142000000
Mamo and gavial,95390,WA11 8HB,53.499299749268000,-2.785023000000000
mud turtle and goanna,95811,WA11 8AF,53.496473356500000,-2.792266324034730
skink and Grosbeak,48868,WN8 0JB,53.542628712694000,-2.733293765965310
Macaw and carpet snake,506010,PR7 3EA,53.646630813411700,-2.628038901891250
Tree warbler and Diving bird,51076,WN6 0AW,53.580779489398400,-2.658554088017330
Jerboa and sidewinder,51526,WN5 7EB,53.516466031375500,-2.714985522024790
caiman and Guillemot,1565833,BL4 0PX,53.546071130000000,-2.432982831000000
Komodo dragon and Perching duck,53594,WN2 4SR,53.523795499139700,-2.549443224935750
blue racer and Elephant,96732,WA10 3QE,53.435975677682300,-2.765264392130720
tiger snake and River dolphin,52900,WN3 6HY,53.525605988900300,-2.667034928480440
Thrasher and harlequin snake,49938,WN7 1BU,53.496668910532700,-2.512522000000000
Cloud rat and Fox,54147,WN2 2HY,53.546456900925900,-2.604988058751640
Capuchin and Parrotlet,80024,WA9 5TY,53.429069184691500,-2.758713774058540
carpet snake and terrapin,80911,WA9 3PW,53.435092134650500,-2.705866409751240
Grackle and Diving bird,50057,WN7 1HQ,53.502259529594100,-2.510841122250450
Night heron and glass snake,53617,WN2 4TU,53.522146409134600,-2.540507717309130
agama and Goose,79978,WA9 5QZ,53.435238528132800,-2.752546773080240
puff adder and leathery turtle,48493,WN8 9EG,53.539784931265100,-2.754068280117170
carpet snake and Grackle,1563891,BL6 7EL,53.603131100000000,-2.540740667000000
Mouse and garter snake,1593399,BL1 1QD,53.577001000000000,-2.425642000000000
loggerhead and rattlesnake,1563295,BL7 9QU,53.629586690000000,-2.467528324000000
Stint and Warbler,48681,WN8 6PJ,53.566771088156100,-2.774766287178230
cobra de capello and Eagle,94937,WA11 9RX,53.475837596254400,-2.681124858725700
rock python and gecko,1593383,BL1 1NS,53.576408180000000,-2.427177000000000
galliwasp and Grackle,49960,WN7 2JJ,53.495750751614800,-2.496171431124750
Jay and Mouse,88668,WA3 3RF,53.479461922080800,-2.609202539231280
Old World quail and Grosbeak,1592703,BL1 4DT,53.582102390000000,-2.453243736000000
puff adder and Jay,52107,WN5 0DH,53.541887254162200,-2.685565309658430
saltwater crocodile and glass snake,2583587,WN2 3QZ,53.531419000000000,-2.566710000000000
diamondback and Dorcopsis,54751,WN1 3NS,53.551393647209000,-2.622099209496550
Puffleg and Pitohui,1564472,BL6 4PA,53.579183610000000,-2.499987812000000
Black jay and Rabbit,80748,WA9 3DJ,53.443926583630600,-2.715949000000000
viper and boa,505964,PR7 2WH,53.644070666669300,-2.652944820968530
box turtle and Philippine hawk-owl,1564716,BL5 3ZG,53.557755780000000,-2.510498321000000
elapid and Mamo,53339,WN2 5JD,53.517697876810700,-2.598801848799790
dugite and sand lizard,95207,WA12 0LD,53.460787898385600,-2.635970437141390
king snake and Wader,1566784,BL3 4NZ,53.572676160000000,-2.473453849000000
gopher snake and Dolphin,2660219,WN8 0BX,53.533624000000000,-2.741587000000000
terrapin and Dorcopsis,80849,WA9 1QH,53.448360270835000,-2.716295201595260
Linsang and horned viper,48339,WN8 8QQ,53.553353885832100,-2.793540140734370
Recurvebill and Goose,1591680,BL1 8LJ,53.595066490000000,-2.430567858000000
worm lizard and Perching duck,88899,WA3 3DU,53.481120948991600,-2.592093242409900
Quetzal and Ground sloth,96609,WA10 4QA,53.452559987558500,-2.765246364419950
puff adder and constrictor,94479,WA12 9WX,53.459859932142200,-2.639736917403460
Crow and gaboon viper,51474,WN5 8PG,53.544431211462100,-2.701029662923580
amphisbaena and carpet snake,946653,L34 6HT,53.432142253043500,-2.800190248808230
constrictor and deaf adder,2591552,WA12 2BX,53.452704000000000,-2.639688000000000
terrapin and Parrotlet,821369,M44 6FL,53.450584745479000,-2.415763230949470
Vole and thorny devil,825174,M38 9BN,53.535033241649400,-2.422972631544710
Tattler and Black jay,1566590,BL3 5DN,53.573682650000000,-2.443020565000000
swift and Black cockatoo,53081,WN3 5PJ,53.520093394808700,-2.639558412944590
habu and Bunting,1593377,BL1 1NE,53.577149750000000,-2.428890520000000
mountain devil and Wader,1591701,BL1 8NR,53.601191200000000,-2.434528880000000
Chickadee and iguana,87901,WA3 7HE,53.432757765939300,-2.559466147749060
perentie and chuckwalla,96467,WA10 6BP,53.463774551893800,-2.764363588012780
thorn lizard and Ice seal,80278,WA9 5HB,53.433895539477300,-2.743085380845710
Hawaiian honeycreeper and garter snake,96704,WA10 5DS,53.459604445950000,-2.774033259920680
python and deaf adder,55049,WN1 1DW,53.543082303855500,-2.626428000000000
cerastes and habu,50779,WN6 7PU,53.558418387681900,-2.649933931245000
Maya and dugite,53283,WN3 4QH,53.535088359115900,-2.616926361821950
Grackle and crocodile,1779775,WN2 3DS,53.532421121848700,-2.572321291087970
mud turtle and Parrotlet,80885,WA9 3NJ,53.438309123675400,-2.716592753377180
krait and Mockingbird,97010,WA10 3DX,53.442589446645200,-2.761348492731370
Buzzard and cycling lizard,80931,WA9 1RY,53.452606413380100,-2.708174758235570
snapping turtle and Fox,51218,WN6 0HQ,53.586241000000000,-2.662533290595170
crocodile and sand lizard,52982,WN3 5HN,53.529058805436800,-2.645531702647020
blue tongue and Badger,53255,WN2 5EE,53.520171527870800,-2.605578631724910
Black cockatoo and perentie,53939,WN2 3EL,53.531678623209500,-2.577983511596320
sidewinder and Tattler,54730,WN1 3LL,53.547778242306300,-2.619027697462520
Mouse and Goose,89217,WA3 2QP,53.472462996558900,-2.568440234038330
viper and krait,1564113,BL6 6LT,53.590244870000000,-2.525936981000000
moloch and Wallaby,1592713,BL1 4EF,53.581977860000000,-2.455266394000000
Parrotlet and puff adder,50382,WN6 9RB,53.591538415429600,-2.695131687332800
tuatara and Tahr,2584047,WN7 3RB,53.481270000000000,-2.515667000000000
Elephant and Grackle,1591878,BL1 7JR,53.611241870000000,-2.429069862000000
Recurvebill and Pheasant,95646,WA11 7NX,53.482211140955500,-2.729734556896870
Asiatic leopard and Jackal,53050,WN3 4AP,53.542996948887400,-2.643585000000000
Francolin and Stilt,88814,WA3 4BD,53.465764000000000,-2.540182000000000
Maya and racer,54609,WN2 1AE,53.554073551992000,-2.609625121862600
turtle and tree snake,50125,WN6 8QR,53.560967179199600,-2.647346124746710
Dolphin and water snake,54374,WN2 1RR,53.571123733904500,-2.588276508082750
Rabbit and Philippine hawk-owl,2633356,WN7 4FP,53.494068000000000,-2.553504000000000
massasauga and Songlark,1591372,BL1 8UH,53.601809850000000,-2.414708990000000
Grouse and Snipe,831349,M29 7QT,53.496666945537000,-2.448593244950440
smooth snake and gaboon viper,1592894,BL1 3JF,53.592794310000000,-2.444791830000000
boa constrictor and tortoise,1776125,WA9 1ET,53.454878591071000,-2.718438300562620
glass snake and Gull,1566657,BL3 4BD,53.566045840000000,-2.451743268000000
rat snake and Towhee,821601,M44 5JW,53.429398774702300,-2.440795604276580
rock python and Guillemot,831279,M29 7PH,53.500759408985700,-2.450370000000000
Pheasant and Boto,54662,WN1 3DQ,53.544726832429400,-2.609370023761730
Minke whale and frilled lizard,53801,WN2 4EF,53.537593443545200,-2.557075740479440
Piping shrike and chameleon,1592908,BL1 3JY,53.594375890000000,-2.447301407000000
Moluccan boobook and racer,53029,WN2 5YD,53.494755441610900,-2.570155365167200
ringhals and black snake,1591940,BL1 6BA,53.588430310000000,-2.462602109000000
diamond snake and cycling lizard,1565942,BL3 6RH,53.567439850000000,-2.432068746000000
Hawk and dugite,50777,WN6 7PS,53.557594238047800,-2.646102040536870
ringhals and tree snake,51803,WN5 0QA,53.549856000000000,-2.664281040151550
Hawaiian honeycreeper and racer,96336,WA10 5HF,53.456482923897300,-2.781310743597220
sidewinder and massasauga,1566553,BL3 3TA,53.560978000000000,-2.456052255000000
soft-shelled turtle and Stint,1564763,BL5 2TF,53.536734000000000,-2.514379000000000
Gila monster and Diving bird,825287,M38 9NR,53.529926264956000,-2.418305439071490
Gull and Stilt,1564741,BL5 2RR,53.536069250000000,-2.532567695000000
Marmoset and snake,1592256,BL1 5QH,53.589206390000000,-2.471025186000000
Black cockatoo and slowworm,1591871,BL1 7JG,53.608037100000000,-2.430442930000000
Cuscus and B,49762,WN7 3EB,53.490325734666800,-2.499514316832430
swift and rat snake,831497,M29 8BA,53.516322224307000,-2.467999121592060
Tahr and Minke whale,2659961,WA3 1FW,53.474177000000000,-2.549524000000000
Jerboa and puff adder,1565075,BL5 2HT,53.537845310000000,-2.523219883000000
kabaragoya and Grackle,1563548,BL6 7NS,53.598923370000000,-2.548891914000000
Mole and Thicketbird,51539,WN5 7EX,53.515198092622000,-2.716577820737030
dukite and whip snake,820337,M46 0BL,53.520429066351600,-2.499310483620740
Argus and Hawaiian honeycreeper,2648681,WN1 9RW,53.546982000000000,-2.635088000000000
