name,postcode,lat,lon
death adder and Civet,BL1 1EL,53.578822000000000,-2.426508290000000
Logrunners and dugite,BL1 1HQ,53.579494490000000,-2.429231441000000
swift and dukite,BL1 1HX,53.579790800000000,-2.424280459000000
Stint and Tree warbler,BL1 1NE,53.577149750000000,-2.428890520000000
sidewinder and Nukupuʻu,BL1 1RW,53.578227770000000,-2.429052468000000
box turtle and Parrotbill,BL1 1UT,53.588487400000000,-2.425440191000000
Booted eagles and sand lizard,BL1 1UU,53.580251470000000,-2.421098178000000
brown snake and green turtle,BL1 2BP,53.586813466171500,-2.437357504030250
whip snake and Bronzewing pigeon,BL1 2BS,53.581560220000000,-2.432167500000000
Prion and flying lizard,BL1 2BZ,53.581516060000000,-2.434432684000000
Komodo dragon and swift,BL1 2HD,53.585946000000000,-2.432318007000000
indigo snake and Dolphin,BL1 2HZ,53.587307550000000,-2.431123407000000
brown snake and sea snake,BL1 2LE,53.584302610000000,-2.431908491000000
skink and bearded lizard,BL1 2QB,53.582650000000000,-2.436725000000000
Elephant and krait,BL1 2QZ,53.583303390000000,-2.439722622000000
Skunk and cobra,BL1 2RY,53.584069050000000,-2.424338434000000
Herring gull and rock snake,BL1 2SP,53.585741770000000,-2.421545533000000
Egret and leguaan,BL1 2SY,53.584075790000000,-2.422435254000000
sea snake and saltwater crocodile,BL1 2UA,53.583005620000000,-2.425475000000000
tokay and Chipmunk,BL1 3AW,53.585396070000000,-2.445016217000000
Mole and rock snake,BL1 3BJ,53.586278890000000,-2.446898633000000
tiger snake and python,BL1 3BQ,53.585486000000000,-2.447555000000000
diamond python and coral snake,BL1 3BW,53.586007310000000,-2.449811194000000
Jay and tuatara,BL1 3HX,53.588419460000000,-2.444126489000000
turtle and frilled lizard,BL1 3HY,53.587991960000000,-2.443064546000000
Snipe and massasauga,BL1 3JT,53.593767470000000,-2.446554655000000
Eagle and diamondback terrapin,BL1 3JU,53.594591890000000,-2.447228145000000
galliwasp and Piping shrike,BL1 3QL,53.591831340000000,-2.435354373000000
Grosbeak and blue tongue,BL1 3QU,53.592695070000000,-2.435121525000000
Vole and bicycle lizard,BL1 3RR,53.588338920000000,-2.436708270000000
River dolphin and rock snake,BL1 3RZ,53.588558110000000,-2.435758806000000
Puffleg and Fox,BL1 3TY,53.590870670000000,-2.437519982000000
sea snake and Dorcopsis,BL1 3UT,53.588664680000000,-2.438569765000000
massasauga and Fish eagle,BL1 4EF,53.581977860000000,-2.455266394000000
copperhead and Jay,BL1 4EJ,53.583284540000000,-2.459086872000000
Minke whale and Cloud rat,BL1 4HH,53.583205000000000,-2.449526826000000
slowworm and kabaragoya,BL1 4JP,53.588165960000000,-2.451813096000000
taipan and Triller,BL1 4LR,53.577428000000000,-2.456124000000000
taipan and cycling lizard,BL1 4LY,53.578310640000000,-2.459954243000000
Rat and Jerboa,BL1 4NF,53.582557560000000,-2.458807107000000
Bronzewing pigeon and Chickadee,BL1 4PS,53.584388700000000,-2.461787583000000
Dorcopsis and moloch,BL1 4RZ,53.576814860000000,-2.446708149000000
Pheasant and chameleon,BL1 4SN,53.577433420000000,-2.437426462000000
alligator and Triller,BL1 4TG,53.577241860000000,-2.435732980000000
thorny devil and python,BL1 4UJ,53.584101230000000,-2.449957101000000
Polecat and Magpie,BL1 5BZ,53.580619430000000,-2.485278413000000
Grosbeak and goanna,BL1 5EG,53.584276690000000,-2.476589495000000
mud turtle and krait,BL1 5EJ,53.585392950000000,-2.478414736000000
chameleon and Flameback,BL1 5GT,53.578245070000000,-2.465284919000000
Philippine hawk-owl and green turtle,BL1 5HA,53.578440830000000,-2.468096257000000
Petrel and blue racer,BL1 5HU,53.582445630000000,-2.464515426000000
tokay and Mole,BL1 5LU,53.586742540000000,-2.464396401000000
Nukupuʻu and Perching duck,BL1 5NY,53.586238930000000,-2.471354714000000
moloch and Macaw,BL1 5PF,53.587740000000000,-2.476203766000000
Tit-tyrant and Thicketbird,BL1 5PX,53.586463650000000,-2.487052376000000
cerastes and Stilt,BL1 5SU,53.594032030000000,-2.484797605000000
Marmoset and Mockingbird,BL1 5SY,53.591760510000000,-2.481946410000000
carpet snake and Viscacha,BL1 5UG,53.595436040000000,-2.473119147000000
Hawk and amethystine python,BL1 5UW,53.595861660000000,-2.474589514000000
blind snake and thorn lizard,BL1 5XB,53.575879000000000,-2.490555196000000
Old World vulture and Meadowlark,BL1 6DA,53.589115240000000,-2.457458121000000
Recurvebill and Goose,BL1 6ER,53.591907960000000,-2.458153051000000
diamondback turtle and Boto,BL1 6EZ,53.589614280000000,-2.451496196000000
Civet and diamondback,BL1 6NU,53.599089790000000,-2.436486778000000
death adder and amphisbaena,BL1 6QL,53.602557110000000,-2.437081680000000
diamondback terrapin and White ibis,BL1 6QU,53.603976660000000,-2.444561795000000
Prion and Cuscus,BL1 6RA,53.605035840000000,-2.444950740000000
skink and Parrotlet,BL1 6RL,53.604786680000000,-2.436953587000000
Linsang and mamba,BL1 6RU,53.603285300000000,-2.437043866000000
diamondback turtle and ringhals,BL1 7AW,53.603904250000000,-2.434919436000000
Jackal and agama,BL1 7DE,53.610710310000000,-2.441760776000000
Old World quail and grass snake,BL1 7HT,53.610645250000000,-2.427507004000000
Parrotlet and frilled lizard,BL1 7JL,53.609219920000000,-2.431452497000000
Tahr and Parakeet,BL1 7JZ,53.612079980000000,-2.428458644000000
diamondback and cobra de capello,BL1 7NZ,53.612427130000000,-2.458678000000000
Herring gull and amethystine python,BL1 7PX,53.595164240000000,-2.493664526000000
Warbler and Diving bird,BL1 7WW,53.588487400000000,-2.425440191000000
Parrotbill and moloch,BL1 8AA,53.593564250000000,-2.438318360000000
Thrasher and Siskin,BL1 8AD,53.593036170000000,-2.437708558000000
Goose and Parakeet,BL1 8EA,53.595784420000000,-2.433370386000000
B and Bronzewing pigeon,BL1 8ET,53.594598270000000,-2.435760555000000
anaconda and Herring gull,BL1 8FX,53.595119000000000,-2.418587000000000
Argus and gaboon viper,BL1 8GF,53.597814646600000,-2.442397065600000
bicycle lizard and Night heron,BL1 8GG,53.595436000000000,-2.418016000000000
bushmaster and Chicken,BL1 8LD,53.594684990000000,-2.426665874000000
indigo snake and Perching duck,BL1 8RN,53.605878340000000,-2.425856864000000
Dorcopsis and terrapin,BL1 8RP,53.604780830000000,-2.431135202000000
Kākāriki and New World blackbird,BL1 8RQ,53.604041840000000,-2.429178189000000
Schneider python and thorny devil,BL1 8SF,53.603730910000000,-2.425638791000000
Meadowlark and massasauga,BL1 8SN,53.607232400000000,-2.424223134000000
Masked owl and caiman,BL1 8SP,53.595958886730300,-2.421133872718620
puff adder and Kite,BL1 8UP,53.597430910000000,-2.415179813000000
Fox and Grosbeak,BL1 8XF,53.595016880000000,-2.434344615000000
mamba and Marsh harrier,BL1 9SB,53.578230570000000,-2.430774245000000
Moluccan boobook and sand lizard,BL1 9SQ,53.578230570000000,-2.430774245000000
Cuscus and Diving bird,BL1 9WN,53.588492317668400,-2.425440538777890
boa and Solitaire,BL11 1AQ,53.572021800000000,-2.425138891000000
Fox and hognose snake,BL11 1AS,53.572026719678200,-2.425139238112670
Maya and gecko,BL11 1AZ,53.572026719678200,-2.425139238112670
python and elapid,BL11 1BH,53.572026719678200,-2.425139238112670
whip snake and brown snake,BL2 1AB,53.578718390000000,-2.419980398000000
Perching duck and Mole,BL2 1AE,53.578399000000000,-2.418784084000000
White ibis and Grackle,BL2 1AJ,53.578836450000000,-2.417066638000000
Darwin's finches and Parrotbill,BL2 1JF,53.575428870000000,-2.417350225000000
Booted eagles and Kite,BL2 1JU,53.579373730000000,-2.412465375000000
Old World quail and Fulmarine petrel,BL2 1LQ,53.574001510000000,-2.416837809000000
gaboon viper and loggerhead,BL2 1LU,53.572907110000000,-2.411013095000000
Ibex and adder,BL2 2AH,53.584324290000000,-2.418223376000000
gavial and taipan,BL2 2HD,53.586004250000000,-2.413300367000000
galliwasp and Recurvebill,BL2 2HN,53.589765370000000,-2.412143622000000
Wader and boomslang,BL2 2JE,53.590030210000000,-2.413536068000000
coral snake and Dorcopsis,BL2 2JP,53.592626290000000,-2.413984461000000
Vulture and Gull,BL2 2LG,53.590539640000000,-2.411773475000000
Marmoset and lizard,BL2 2LW,53.589139000000000,-2.409056000000000
Cloud rat and horned viper,BL2 2NL,53.593552480000000,-2.408645107000000
fer-de-lance and Condor,BL2 2NT,53.593154580000000,-2.409351359000000
krait and sand viper,BL2 2PE,53.595242000000000,-2.409039000000000
Grackle and Parakeet,BL2 2QE,53.583881240000000,-2.408581968000000
Cloud rat and rat snake,BL2 2QH,53.584462730000000,-2.409388159000000
gaboon viper and slowworm,BL2 2QR,53.587513390000000,-2.408330002000000
Guillemot and Bunting,BL2 2UB,53.588292550000000,-2.416963407000000
Francolin and carpet snake,BL2 3AY,53.595921020000000,-2.407293026000000
water snake and Recurvebill,BL2 3EB,53.610084140000000,-2.408018851000000
Piping shrike and Darwin's finches,BL2 3FR,53.605911320000000,-2.408673799000000
Chipmunk and Mouse,BL2 6AN,53.578965600000000,-2.408292886000000
Elephant and chuckwalla,BL2 6AT,53.579900470000000,-2.405628555000000
black snake and Snipe,BL2 6AX,53.580477600000000,-2.407718415000000
boa and milk snake,BL2 6BG,53.579726080000000,-2.404041009000000
Civet and box turtle,BL2 6BH,53.580271230000000,-2.404967541000000
blind snake and taipan,BL2 6BW,53.579429180000000,-2.401455483000000
worm lizard and amethystine python,BL3 1RS,53.568665580000000,-2.402803038000000
glass snake and sea snake,BL3 2AD,53.569881960000000,-2.423018000000000
kabaragoya and Eagle,BL3 2AS,53.564729070000000,-2.423495495000000
Perching duck and brown snake,BL3 2EH,53.560656300000000,-2.428829252000000
Tahr and Lemming,BL3 2JE,53.557877510000000,-2.419079435000000
caiman and Eagle,BL3 2LE,53.559023490000000,-2.417807590000000
Linsang and Quetzal,BL3 2NP,53.566693430000000,-2.409186236000000
Tit-tyrant and sand viper,BL3 2RN,53.565115680000000,-2.415784087000000
caiman and Linsang,BL3 2TG,53.563097750000000,-2.432266033000000
lizard and amethystine python,BL3 3AD,53.564900780000000,-2.440648893000000
swift and bandy-bandy,BL3 3AS,53.560136720000000,-2.440705031000000
Fox and Kangaroo,BL3 3DH,53.560492030000000,-2.432013002000000
Herring gull and habu,BL3 3FD,53.558302470000000,-2.433500278000000
Armadillo and deaf adder,BL3 3LA,53.557740000000000,-2.447110906000000
Tree warbler and Petrel,BL3 3LE,53.557304640000000,-2.450548114000000
Schneider python and Boto,BL3 3LU,53.559526020000000,-2.454964785000000
Elephant and diamondback turtle,BL3 3PA,53.563382000000000,-2.450492000000000
leathery turtle and taipan,BL3 3PE,53.563960500000000,-2.451751231000000
agama and loggerhead,BL3 3PU,53.562506270000000,-2.451252609000000
puff adder and rattlesnake,BL3 3QY,53.559240430000000,-2.456788372000000
Polecat and New World blackbird,BL3 3QZ,53.559513530000000,-2.455885531000000
Schneider python and tiger snake,BL3 3RX,53.555761770000000,-2.456826358000000
anole and Moluccan boobook,BL3 3RY,53.555633810000000,-2.457383495000000
Wader and Dolphin,BL3 3SW,53.558514850000000,-2.463151087000000
hognose snake and puff adder,BL3 3TS,53.557554920000000,-2.443712420000000
tuatara and death adder,BL3 4BD,53.566045840000000,-2.451743268000000
habu and puff adder,BL3 4BY,53.567740520000000,-2.448062000000000
Night heron and black snake,BL3 4DQ,53.567425600000000,-2.452920619000000
Kestrel and sand lizard,BL3 4DS,53.565681960000000,-2.455257362000000
Grosbeak and Duck,BL3 4EX,53.566769420000000,-2.462320277000000
diamondback terrapin and Chipmunk,BL3 4JD,53.564845080000000,-2.464850895000000
Coati and Booted eagles,BL3 4JE,53.566021000000000,-2.463142000000000
Tattler and Piping shrike,BL3 4JW,53.566216840000000,-2.465741675000000
Eagle and Gull,BL3 4LR,53.557371220000000,-2.466006763000000
Masked owl and king snake,BL3 4PD,53.573323240000000,-2.475741384000000
Dolphin and Darwin's finches,BL3 4PH,53.571330330000000,-2.477364971000000
Kangaroo and bearded lizard,BL3 4PJ,53.571657450000000,-2.478727725000000
Duck and bull snake,BL3 4QN,53.564908220000000,-2.469396186000000
tiger snake and king snake,BL3 4RZ,53.571456090000000,-2.479631490000000
flying lizard and Partridge,BL3 4SA,53.558539010000000,-2.482051632000000
Darwin's finches and Asiatic leopard,BL3 4SB,53.558206170000000,-2.484342432000000
Boto and Old World vulture,BL3 4TU,53.569332770000000,-2.477901160000000
Petrel and deaf adder,BL3 4TX,53.568812670000000,-2.477593298000000
garter snake and green turtle,BL3 4UR,53.565699570000000,-2.478373534000000
tuatara and pit viper,BL3 4WF,53.562795400000000,-2.464934093000000
giant tortoise and carpet snake,BL3 5BS,53.571365560000000,-2.437727000000000
Hawaiian honeycreeper and Chickadee,BL3 5BW,53.571277630000000,-2.439537378000000
moloch and Darwin's finches,BL3 5HL,53.571263340000000,-2.450621059000000
Herring gull and lizard,BL3 5JG,53.571991560000000,-2.445781434000000
Goose and slowworm,BL3 5JQ,53.571828370000000,-2.446157236000000
death adder and Tree warbler,BL3 5LJ,53.568521280000000,-2.443570574000000
Crow and Rat,BL3 5NU,53.573748520000000,-2.451840514000000
blue tongue and mountain devil,BL3 5PW,53.569042640000000,-2.452636000000000
rock python and agamid,BL3 5RA,53.568618260000000,-2.458369243000000
Duck and swift,BL3 6AU,53.572604570000000,-2.425552468000000
Ice seal and bushmaster,BL3 6BL,53.570354550000000,-2.426375479000000
Piping shrike and Logrunners,BL3 6DW,53.570766070000000,-2.429429901000000
Francolin and Siskin,BL3 6EE,53.574594720000000,-2.432036018000000
Greenbul and lizard,BL3 6SP,53.566797000000000,-2.436169000000000
Triller and copperhead,BL3 6SY,53.567594700000000,-2.438910296000000
Asiatic leopard and Hawk,BL3 6TJ,53.565464350000000,-2.441379483000000
Parrotlet and Bunting,BL3 6TN,53.566718320000000,-2.442570266000000
Diving bird and tokay,BL3 6XJ,53.569772460000000,-2.438208056000000
Grosbeak and Asiatic leopard,BL4 0AA,53.549380670000000,-2.409517172000000
thorny devil and Bunting,BL4 0AB,53.548371000000000,-2.410382779000000
Diving bird and Ground sloth,BL4 0AY,53.547983290000000,-2.415932985000000
copperhead and Hawk,BL4 0BD,53.548196560000000,-2.414048533000000
saltwater crocodile and Triller,BL4 0BF,53.548189279000000,-2.412373506900000
king snake and Boto,BL4 0EW,53.549338880000000,-2.418979930000000
brown snake and caiman,BL4 0HT,53.555362650000000,-2.423643421000000
galliwasp and gaboon viper,BL4 0HW,53.553707340000000,-2.424049518000000
Kākāriki and slowworm,BL4 0HZ,53.555333950000000,-2.421590228000000
Schneider python and elapid,BL4 0JE,53.554006860000000,-2.420686457000000
cycling lizard and Rat,BL4 0LD,53.548745390000000,-2.436632358000000
Darwin's finches and Jay,BL4 0LL,53.553711130000000,-2.450057088000000
gecko and snake,BL4 0LY,53.550134250000000,-2.425372151000000
perentie and Cloud rat,BL4 0NG,53.550292670000000,-2.428830062000000
lizard and agamid,BL4 0NP,53.547584970000000,-2.434416953000000
asp and Pratincole,BL4 0PY,53.545790310000000,-2.433583624000000
Coati and Eagle,BL4 7BP,53.547195630000000,-2.409767722000000
copperhead and Cuscus,BL4 7BT,53.548188000000000,-2.403604000000000
Grouse and kabaragoya,BL4 7HT,53.555581370000000,-2.415101846000000
Towhee and Jerboa,BL4 7HX,53.555006280000000,-2.409843231000000
Kākāriki and Herring gull,BL4 7JR,53.553330060000000,-2.400529010000000
cayman and fer-de-lance,BL4 7NG,53.553769370000000,-2.400865237000000
gopher snake and B,BL4 7UD,53.548849890000000,-2.407021769000000
Jerboa and Rat,BL4 7UE,53.548772890000000,-2.405873995000000
perentie and gaboon viper,BL4 7UG,53.548564170000000,-2.406460604000000
Siskin and habu,BL4 9LZ,53.541389950000000,-2.401578148000000
sand viper and Civet,BL4 9NU,53.544293760000000,-2.404080567000000
Badger and Boto,BL4 9PU,53.543314490000000,-2.411842901000000
puff adder and Prion,BL4 9PZ,53.544871430000000,-2.408658696000000
galliwasp and Argus,BL4 9QN,53.543342950000000,-2.400827022000000
bicycle lizard and Flameback,BL4 9QT,53.545303930000000,-2.410971837000000
viper and Siskin,BL4 9RZ,53.547008060000000,-2.424872935000000
Scimitar babbler and Perching duck,BL4 9SJ,53.541551920000000,-2.409471745000000
tiger snake and gaboon viper,BL4 9TE,53.542406130000000,-2.414595603000000
garter snake and cycling lizard,BL5 1AL,53.545106180000000,-2.446072200000000
diamondback and Fish eagle,BL5 1BX,53.540483610000000,-2.446747879000000
Linsang and Tit-tyrant,BL5 1DP,53.544643890000000,-2.475072467000000
Grouse and Thicketbird,BL5 1ES,53.544816010000000,-2.470184851000000
indigo snake and Prion,BL5 2AW,53.542428880000000,-2.537521747000000
Warbler and amethystine python,BL5 2DX,53.543183420000000,-2.529578539000000
rat snake and Kangaroo,BL5 2GU,53.537491480000000,-2.519850757000000
dugite and Skunk,BL5 2JN,53.537201130000000,-2.516331576000000
Thicketbird and Logrunners,BL5 2LD,53.541433290000000,-2.516654720000000
jew lizard and Partridge,BL5 2PB,53.541579670000000,-2.522270008000000
elapid and Fish eagle,BL5 3AP,53.547131830000000,-2.520829187000000
Cuscus and cayman,BL5 3BX,53.548104430000000,-2.518335798000000
rock snake and Gull,BL5 3DN,53.550942110000000,-2.516876244000000
viper and mud turtle,BL5 3PB,53.560747190000000,-2.529496046000000
whip snake and jew lizard,BL5 3PX,53.560569900000000,-2.522805935000000
loggerhead and Quetzal,BL5 3QU,53.551146170000000,-2.523685888000000
Ground sloth and habu,BL5 3RB,53.550633170000000,-2.525883172000000
thorny devil and bull snake,BL5 3SY,53.555142700000000,-2.524444720000000
Songlark and Magpie,BL5 3XG,53.559490030000000,-2.535277376000000
puff adder and Thicketbird,BL5 3XR,53.556950090000000,-2.513930398000000
Tahr and Siskin,BL5 3ZS,53.546373553985900,-2.524789324026050
dugite and Ground sloth,BL6 4AG,53.580307330000000,-2.508474337000000
Dolphin and snapping turtle,BL6 4AX,53.582294440000000,-2.522907949000000
Puffleg and Thrasher,BL6 4DA,53.575462160000000,-2.500049598000000
ringhals and Treepie,BL6 4EB,53.564692560000000,-2.500405643000000
tree snake and Chickadee,BL6 4HG,53.562190560000000,-2.501176260000000
Maya and blindworm,BL6 4HX,53.561883310000000,-2.499421342000000
turtle and Linsang,BL6 4LE,53.582313930000000,-2.516352806000000
Bunting and Chipmunk,BL6 4NL,53.585536420000000,-2.521497836000000
sidewinder and constrictor,BL6 4RG,53.574713560000000,-2.487611942000000
Rat and rat snake,BL6 4RR,53.572280100000000,-2.487025194000000
green turtle and Piping shrike,BL6 4SA,53.574928000000000,-2.524282000000000
taipan and rattlesnake,BL6 5AW,53.592882800000000,-2.581311701000000
Goose and dukite,BL6 5BX,53.593267000000000,-2.580123000000000
Grosbeak and Marsh harrier,BL6 5DB,53.591917370000000,-2.583912136000000
Ground sloth and Jackal,BL6 5DG,53.594252280000000,-2.582493891000000
Pheasant and Wader,BL6 5DS,53.593432040000000,-2.577406121000000
Parrotlet and Asiatic leopard,BL6 5DW,53.594976450000000,-2.581446217000000
Gull and amethystine python,BL6 5DX,53.595705580000000,-2.583072938000000
Songlark and Magpie,BL6 5EN,53.594862230000000,-2.586430649000000
Vole and cayman,BL6 5HA,53.595283710000000,-2.592102457000000
Stilt and flying dragon,BL6 5JW,53.593800420000000,-2.588500943000000
leguaan and Macaw,BL6 5JZ,53.601032000000000,-2.591412000000000
smooth snake and Jerboa,BL6 5LA,53.601676040000000,-2.593597263000000
Fulmarine petrel and Bunting,BL6 5NG,53.594404220000000,-2.546491432000000
Tahr and rock python,BL6 5NH,53.595384960000000,-2.544298143000000
coral snake and brown snake,BL6 5RL,53.596095780000000,-2.561637894000000
Capuchin and Nukupuʻu,BL6 5RT,53.581883690000000,-2.563851004000000
Chipmunk and Kestrel,BL6 5SZ,53.595719060000000,-2.551811798000000
gavial and blue racer,BL6 5UD,53.593845440000000,-2.542873238000000
habu and Dolphin,BL6 5WF,53.600489000000000,-2.573058000000000
Petrel and Jay,BL6 6AT,53.599292330000000,-2.536913958000000
Capuchin and black snake,BL6 6BT,53.598351140000000,-2.540332057000000
Bunting and king snake,BL6 6DL,53.597702520000000,-2.538661668000000
White ibis and Gull,BL6 6EZ,53.587693750000000,-2.531675973000000
constrictor and iguana,BL6 6GH,53.596502000000000,-2.508955000000000
jew lizard and Wallaby,BL6 6JS,53.581445560000000,-2.531960028000000
Asiatic leopard and grass snake,BL6 6NW,53.591637260000000,-2.526120467000000
mountain devil and amphisbaena,BL6 6QH,53.597271760000000,-2.516081976000000
Dorcopsis and Komodo dragon,BL6 6QW,53.591706620000000,-2.522601182000000
White ibis and Jerboa,BL6 6SJ,53.606975390000000,-2.537162000000000
coral snake and Peafowl,BL6 6ZE,53.588218000000000,-2.538918000000000
Philippine hawk-owl and diamond snake,BL6 7BE,53.601056710000000,-2.542300844000000
Schneider python and Duck,BL6 7BT,53.599435680000000,-2.542990275000000
Mole and leathery turtle,BL6 7ER,53.604199100000000,-2.539107064000000
Coati and pit viper,BL6 7HZ,53.601214110000000,-2.551127880000000
horned viper and Magpie,BL6 7QJ,53.601570540000000,-2.553746806000000
Linsang and king cobra,BL6 7QS,53.597453000000000,-2.561849338000000
White ibis and loggerhead,BL6 7QW,53.598392770000000,-2.558661418000000
swift and puff adder,BL6 7RU,53.610328310000000,-2.549175909000000
flying dragon and Tit-tyrant,BL6 7SL,53.625353000000000,-2.565641670000000
asp and gopher snake,BL6 9DQ,53.588205738676300,-2.538918819449460
Pratincole and Quetzal,BL6 9EH,53.588200640000000,-2.538918439000000
lizard and Warbler,BL7 0EX,53.638281420000000,-2.405069560000000
adder and leguaan,BL7 8AD,53.638373730000000,-2.495212743000000
Recurvebill and Jay,BL7 8AL,53.641062290000000,-2.494956866000000
mamba and Logrunners,BL7 9AR,53.619973870000000,-2.415098768000000
Towhee and Boto,BL7 9DT,53.616439390000000,-2.430936597000000
turtle and Lemming,BL7 9DZ,53.619435220000000,-2.430181003000000
Dorcopsis and Stilt,BL7 9ER,53.621991820000000,-2.436376000000000
Gila monster and Francolin,BL7 9JP,53.615982720000000,-2.417780565000000
diamondback and Zebra,BL7 9LD,53.617399510000000,-2.421301713000000
slowworm and hognose snake,BL7 9NY,53.621106410000000,-2.425329894000000
cayman and Marmoset,BL7 9PS,53.638846000000000,-2.446244000000000
jew lizard and tortoise,BL7 9RY,53.621994810000000,-2.433383000000000
Songlark and Jackal,BL7 9TG,53.624241890000000,-2.435718282000000
massasauga and gopher snake,BL7 9UR,53.629572000000000,-2.435970000000000
Macaw and Old World quail,BL7 9UY,53.627067410000000,-2.432360413000000
Capuchin and giant tortoise,BL7 9YA,53.614150630000000,-2.406909276000000
puff adder and constrictor,BL7 9YH,53.613981450000000,-2.406439059000000
Pitohui and Cuscus,L34 1LW,53.427533461765800,-2.811812484724650
loggerhead and frill-necked lizard,L34 2QL,53.433025664665000,-2.782174763428070
cayman and Old World vulture,L34 2QR,53.432757190810900,-2.780619505321550
milk snake and rat snake,L34 2RL,53.431666185394700,-2.787974661908490
gavial and Kangaroo,L34 2SD,53.429929330202900,-2.797755604274930
Polecat and frilled lizard,L34 2SQ,53.430090402174500,-2.789751601428660
Fox and loggerhead,L34 2SU,53.429959309964000,-2.791901426375790
kabaragoya and Moluccan boobook,L34 2TH,53.430411423085000,-2.786055033678490
milk snake and River dolphin,L34 3LG,53.429654235300800,-2.809129000000000
Egret and bull snake,L34 5AD,53.425450290878600,-2.800439000000000
Rabbit and Old World warbler,L34 5RW,53.427806132244200,-2.795337939641070
Old World warbler and mamba,L34 5SE,53.428046214548200,-2.802446056904710
bandy-bandy and Jerboa,L34 5SG,53.427409000000000,-2.798491000000000
Kestrel and ringhals,L34 5SX,53.426429718720700,-2.795507882762810
Lemming and Stilt,L34 6JU,53.430920030677400,-2.802831327589610
king snake and galliwasp,L34 6LJ,53.432641512472200,-2.794073590301800
Darwin's finches and Herring gull,L34 9GX,53.428716252554800,-2.801855000000000
Darwin's finches and Fulmarine petrel,L35 7AG,53.425930000000000,-2.790757000000000
leguaan and Zebra,L35 7JY,53.427101507498300,-2.785000668121010
boa and Linsang,L35 7LW,53.427525402649900,-2.788876298575750
Cuscus and sidewinder,L39 0HH,53.527735645269600,-2.807075361985180
glass snake and tree snake,L40 2QP,53.626989290230000,-2.768416000000000
death adder and turtle,L40 3SD,53.610391317780200,-2.777696018646040
Condor and king cobra,L40 3SF,53.626328876517500,-2.753660224056290
gaboon viper and Quetzal,L40 3SU,53.623696000000000,-2.737768000000000
habu and smooth snake,L40 6JH,53.566391767689800,-2.796924880263760
horned toad and blind snake,L40 6JJ,53.570010000000000,-2.782768000000000
bandy-bandy and Nukupuʻu,M28 0AY,53.529870591321500,-2.423901737766900
tiger snake and taipan,M28 0BG,53.526477355469900,-2.425678000000000
Asiatic leopard and Recurvebill,M28 0JA,53.523843359896600,-2.420221436545760
king cobra and Parrotbill,M28 0JG,53.523663322271600,-2.425378257875130
Chicken and Chicken,M28 0SN,53.524319000000000,-2.404612000000000
Solitaire and Dolphin,M28 0TJ,53.521754684124700,-2.418617042959260
garter snake and jew lizard,M28 0TT,53.521306398908900,-2.415716723740280
carpet snake and Kangaroo,M28 0YJ,53.524703073809800,-2.428707163321600
Old World warbler and Eagle,M28 0ZA,53.525743751769100,-2.411370645803000
thorn lizard and thorn lizard,M28 1AG,53.507053426878900,-2.435148069795890
Vole and boa,M28 1AS,53.506855000000000,-2.433138036016940
brown snake and mountain devil,M28 1BG,53.506009483703400,-2.433026538772630
Black jay and Black jay,M28 1BT,53.506007830785600,-2.426166000000000
garter snake and galliwasp,M28 1HJ,53.503753836710200,-2.409966540073510
Chicken and adder,M28 1HN,53.506626722835800,-2.413567665668340
Tit-tyrant and anole,M28 1JF,53.500744256544000,-2.422419999350440
Komodo dragon and mamba,M28 1LG,53.501848309825200,-2.417742378697830
Condor and Parakeet,M28 1NG,53.504166101497600,-2.415518749662390
garter snake and Hawk,M28 1UL,53.498677713001100,-2.419640763424390
Perching duck and jew lizard,M28 1XZ,53.511255637189800,-2.418769854568480
Black jay and Scimitar babbler,M28 1YD,53.498774783382900,-2.425234474401750
moloch and Triller,M28 1ZA,53.508182405131800,-2.413371725133790
chameleon and Puffleg,M28 3BZ,53.531187506979700,-2.401753113148590
Condor and Jerboa,M28 3EB,53.522410796766700,-2.400267278268410
anaconda and Dolphin,M28 3EY,53.535860806007600,-2.404618827351390
Booted eagles and blue tongue,M28 3TP,53.519721265649300,-2.400860282313860
grass snake and Towhee,M28 7DZ,53.518424134777200,-2.401692609430640
caiman and mamba,M28 7PS,53.509808913366700,-2.408260799835670
alligator and Gila monster,M28 7UF,53.512977140362300,-2.409633375063710
indigo snake and gopher snake,M29 7BG,53.501900730563300,-2.450321954412970
Fox and frill-necked lizard,M29 7BL,53.505377687526700,-2.460174060437430
Ground sloth and Rat,M29 7BQ,53.502143319584200,-2.447957592593150
copperhead and diamondback,M29 7BX,53.506411251890700,-2.457863320992360
Capuchin and Night heron,M29 7DF,53.498953419349200,-2.464174676204680
Masked owl and Triller,M29 7DL,53.505031691952700,-2.470543320279400
Pheasant and smooth snake,M29 7GQ,53.499061285415000,-2.461854315991190
anaconda and Pheasant,M29 7LJ,53.468570031934400,-2.455407033079830
bandy-bandy and bull snake,M29 7LW,53.483313965289400,-2.437843473199160
taipan and Rabbit,M29 7QP,53.497877175595800,-2.447053352941080
Partridge and rat snake,M29 7UD,53.498306000000000,-2.454865000000000
hoop snake and coral snake,M29 7UT,53.514382351313800,-2.465278349245400
Argus and asp,M29 7WF,53.509285803512400,-2.453612010372200
Herring gull and blindworm,M29 7WL,53.507776914327000,-2.450927081880040
Cloud rat and rock python,M29 8AU,53.516415769856200,-2.469357451196270
anaconda and boa,M29 8DL,53.514179052368600,-2.457404208217330
Polecat and Triller,M29 8FF,53.514186482736400,-2.467100918549020
cerastes and tree snake,M29 8GQ,53.514879407830700,-2.473624000000000
python and Moluccan boobook,M29 8HE,53.513702422455100,-2.466763829575380
alligator and tortoise,M29 8HQ,53.513605025517100,-2.466385756379350
Chicken and Parrotbill,M29 8JU,53.514182458457300,-2.472695665294240
Argus and Kangaroo,M29 8LT,53.525082566439500,-2.466572231427510
puff adder and Ground sloth,M29 8NR,53.514654590870700,-2.445737059606350
Rat and glass snake,M29 8NX,53.513310954763900,-2.456414655904630
diamondback and tokay,M29 8WA,53.515505915905900,-2.453587992630960
Armadillo and gaboon viper,M29 8WW,53.513388504046200,-2.445497000000000
massasauga and sidewinder,M30 7RD,53.458038854121300,-2.401875130537830
Shearwater and Herring gull,M31 4YR,53.431420000000000,-2.400721000000000
Fish eagle and lizard,M38 0EF,53.527859740921000,-2.428226164396780
python and diamond python,M38 9AQ,53.536104000000000,-2.422589000000000
Booted eagles and diamondback terrapin,M38 9DL,53.536852585909700,-2.439391789958330
Jerboa and kabaragoya,M38 9EB,53.537779022526100,-2.419197673791870
boa and swift,M38 9LT,53.528446320764300,-2.412226543305540
hoop snake and Fox,M38 9NE,53.530319916947500,-2.408443077848120
galliwasp and frill-necked lizard,M38 9PF,53.530401494007500,-2.416062306610650
krait and tiger snake,M38 9QH,53.534963661681100,-2.414613378681340
tiger snake and smooth snake,M38 9TS,53.539473000000000,-2.428464000000000
Old World vulture and Minke whale,M38 9UF,53.537797264256500,-2.426742184805460
Prion and skink,M38 9UJ,53.536624556417800,-2.425402620027770
iguana and Wallaby,M38 9UL,53.533743379072000,-2.421707530362860
Moluccan boobook and jew lizard,M38 9WF,53.529046897901900,-2.407465347047710
Ibex and Kite,M41 6NQ,53.446034454600600,-2.403267363212350
Argus and Shearwater,M41 6WE,53.447502843181800,-2.402302598173050
sea snake and snapping turtle,M44 0AQ,53.438405000000000,-2.428273000000000
diamondback and horned toad,M44 5AQ,53.428845136132800,-2.444657739021760
Elephant and Puffleg,M44 5DQ,53.427875100977100,-2.439605954310810
diamond snake and cycling lizard,M44 5FF,53.425119491929300,-2.443414939678480
anaconda and sand viper,M44 5FZ,53.433949000000000,-2.418988000000000
Tattler and green turtle,M44 5HU,53.426009999265100,-2.443243622832870
Minke whale and Mockingbird,M44 5JN,53.428293651059400,-2.438225687647750
Minke whale and cerastes,M44 5YD,53.427994450899800,-2.450984806846800
mamba and lizard,M44 5ZR,53.435555169108100,-2.431165581931740
Herring gull and adder,M44 6BP,53.436864570335800,-2.426979088653220
Civet and copperhead,M44 6DT,53.446201831836800,-2.414756812061720
leathery turtle and Warbler,M44 6FS,53.453683829321300,-2.408520105254870
wall lizard and Night heron,M44 6HQ,53.455107448214700,-2.412750388134970
krait and Marsh harrier,M44 6JU,53.451122991098500,-2.416069649082700
green turtle and Dolphin,M44 6PD,53.455961553875900,-2.420424028456970
Fish eagle and Black cockatoo,M44 6RD,53.446745968803700,-2.418390000000000
Flameback and tiger snake,M44 6TA,53.451832038401400,-2.411182677846740
king snake and worm lizard,M44 6TQ,53.453551050081900,-2.405281193682420
flying dragon and soft-shelled turtle,M46 0DB,53.524125053740400,-2.494572389492740
Chicken and bearded dragon,M46 0DG,53.523496493208500,-2.492242186334230
massasauga and Parrotlet,M46 0FE,53.524352128891500,-2.498330934079140
River dolphin and diamond snake,M46 0LQ,53.523833114144000,-2.504207500807870
Jackal and diamondback terrapin,M46 0NP,53.523448748089400,-2.501563302098480
cerastes and American sparrow,M46 0TZ,53.527766000000000,-2.513561000000000
Marsh harrier and monitor,M46 9AA,53.520953062327800,-2.485576291874050
frilled lizard and Dolphin,M46 9DR,53.523338605644900,-2.486900773417570
python and snake,M46 9ED,53.527319899933200,-2.480384493686140
Towhee and Old World warbler,M46 9FF,53.521022373592000,-2.481776235126960
Fish eagle and terrapin,M46 9GT,53.535740575628900,-2.474007116295330
Recurvebill and sand lizard,M46 9JB,53.525651858918500,-2.488315079304030
slowworm and Booted eagles,M46 9NX,53.535077457057200,-2.495665689867610
constrictor and Komodo dragon,M46 9PJ,53.530551664147900,-2.492429640850270
Meadowlark and sea snake,M46 9PW,53.531663573246000,-2.495248640361920
Asiatic leopard and harlequin snake,M46 9QL,53.529641906065600,-2.479641408444300
Mouse and Masked owl,M46 9QN,53.533366534526500,-2.474282331301860
blue tongue and blind snake,M46 9QW,53.536526724802700,-2.470681400574390
Black jay and Tattler,M46 9QZ,53.516400852227600,-2.475404802744930
diamond snake and Kangaroo,M46 9RF,53.527813575489400,-2.480556019538370
Chicken and White ibis,M46 9SD,53.519606361042500,-2.478502399640580
Buzzard and brown snake,M46 9XE,53.534841000000000,-2.496583000000000
Schneider python and Skunk,M46 9XG,53.532098300023400,-2.483471021042790
bearded lizard and asp,PR6 0LE,53.649021997193000,-2.619360441616020
chuckwalla and deaf adder,PR6 0LT,53.646556553880400,-2.616389545982230
Diving bird and Darwin's finches,PR6 0LY,53.647593039963400,-2.617584649023140
Shearwater and python,PR6 9EF,53.635700965200300,-2.598370000000000
Quetzal and Mole,PR6 9FU,53.612680000000000,-2.596576000000000
Partridge and ringhals,PR6 9HR,53.614657391362600,-2.589531773762590
Pratincole and gaboon viper,PR6 9JR,53.624626000000000,-2.607616181617800
mountain devil and deaf adder,PR6 9JS,53.623193070341200,-2.606372628774770
grass snake and Argus,PR6 9LU,53.618379959062600,-2.598306459312280
Old World warbler and blue tongue,PR6 9NF,53.620263339528100,-2.600933430554100
Civet and diamondback terrapin,PR6 9PD,53.621279351982400,-2.595474956478190
Zebra and Egret,PR6 9PH,53.619745624373400,-2.593004246891720
Marmoset and gecko,PR6 9PR,53.616633000000000,-2.597344000000000
perentie and Wallaby,PR6 9QP,53.616772497296800,-2.599810530575950
Stilt and American sparrow,PR6 9QU,53.617073036175600,-2.597229779196870
Kite and Elephant,PR6 9QX,53.617087462993000,-2.597940483872400
Fox and loggerhead,PR6 9RR,53.618355434083600,-2.601405199190810
jew lizard and Logrunners,PR6 9SR,53.622317349848500,-2.601794159036140
Thicketbird and snapping turtle,PR7 2FB,53.646960000000000,-2.652399000000000
Fish eagle and worm lizard,PR7 2NA,53.640796897252200,-2.646692757629250
agamid and brown snake,PR7 2PT,53.648097649327300,-2.642946819219170
Crow and Ibex,PR7 2RE,53.639932652520200,-2.653561523362610
cobra and swift,PR7 2WL,53.644575705055300,-2.652634959855500
New World blackbird and Peafowl,PR7 3AF,53.648500000000000,-2.628339000000000
Cuscus and crocodile,PR7 3DL,53.648796521619500,-2.629841119949320
Gila monster and Vulture,PR7 3EF,53.641833000000000,-2.629659800168520
whip snake and Zebra,PR7 3EY,53.643074450059800,-2.622298533819260
brown snake and swift,PR7 3FJ,53.638261655600000,-2.625797409900000
Perching duck and Mole,PR7 3JB,53.641685000000000,-2.632034000000000
pit viper and gavial,PR7 3JZ,53.639251074327400,-2.622242000000000
Tit-tyrant and bearded dragon,PR7 3QU,53.637271208146800,-2.638743928863980
Macaw and lizard,PR7 3TR,53.630764000000000,-2.637148000000000
slowworm and Pheasant,PR7 4AB,53.639861617534500,-2.617864914898500
hognose snake and soft-shelled turtle,PR7 4AJ,53.634399834905300,-2.613762292477850
Dolphin and chameleon,PR7 4BS,53.607375990749600,-2.631944826296910
agama and Chickadee,PR7 4DA,53.623899967334800,-2.622742054037540
tuatara and Nukupuʻu,PR7 4ER,53.622268293209800,-2.611469557216020
Perching duck and anaconda,PR7 4ET,53.618224861625200,-2.609445828350250
Stilt and fer-de-lance,PR7 4EX,53.613699000000000,-2.605270641159810
Warbler and Rat,PR7 4HB,53.612221388612900,-2.602301000000000
Argus and Ice seal,PR7 4JH,53.612759556439600,-2.609518243442990
Rabbit and habu,PR7 4NN,53.630110611245700,-2.656434023310560
chameleon and tuatara,PR7 4NS,53.629836674140400,-2.658849233908430
tuatara and Kangaroo,PR7 4PF,53.626396370533600,-2.650222349534760
lizard and turtle,PR7 4QN,53.620761000000000,-2.657015000000000
green turtle and galliwasp,PR7 5ER,53.634099965101200,-2.664843967123290
blue racer and moloch,PR7 5FJ,53.635335297400000,-2.665090587300000
crocodile and frilled lizard,PR7 5HY,53.606344000000000,-2.676202579526890
Logrunners and Dolphin,PR7 5LX,53.625765153242000,-2.696888727471720
Thrasher and chuckwalla,PR7 5PA,53.636170000000000,-2.714392000000000
Skunk and Prion,PR7 5PS,53.633598250713000,-2.741071307512630
whip snake and skink,PR7 5PT,53.624413789153400,-2.729086671460490
blue racer and terrapin,PR7 5RQ,53.643785526325200,-2.730283083907330
cobra and Mamo,WA10 1EJ,53.454549655938500,-2.730284124033070
Duck and boa constrictor,WA10 1GH,53.454117875919200,-2.730336950565930
Asiatic leopard and bearded lizard,WA10 1JA,53.456450046785700,-2.734066693105680
Prion and rattlesnake,WA10 1LD,53.456072911941000,-2.732539135251770
snake and Argus,WA10 1LJ,53.455299504700400,-2.732601118408560
puff adder and Pheasant,WA10 1PP,53.452656589737100,-2.741380021463370
Darwin's finches and Stint,WA10 1QN,53.453762429585000,-2.739893377662820
flying dragon and Scimitar babbler,WA10 2AH,53.459093639121300,-2.749835981255250
harlequin snake and Philippine hawk-owl,WA10 2DH,53.459961400560800,-2.746191378680470
Kestrel and black snake,WA10 2DS,53.458364439962700,-2.744265716836630
iguana and Ice seal,WA10 2DW,53.457155600801100,-2.743521676007620
terrapin and Mamo,WA10 2DZ,53.453601255259500,-2.747013505849890
caiman and Goose,WA10 2JH,53.456901763888300,-2.745309406212470
habu and Tahr,WA10 2JN,53.456082602371500,-2.742614389994070
Parrotbill and Grosbeak,WA10 2LP,53.453605000000000,-2.750808000000000
Piping shrike and hoop snake,WA10 2NR,53.457726185267800,-2.750022728298290
Siskin and gecko,WA10 2NW,53.456847264729700,-2.748275311304930
Argus and Petrel,WA10 2PZ,53.451681679140600,-2.753530203924630
rattlesnake and Argus,WA10 2SZ,53.453739755312700,-2.739050000000000
terrapin and asp,WA10 2TN,53.455941375250600,-2.739298752529790
Guillemot and habu,WA10 3AB,53.442636000000000,-2.764029000000000
glass snake and Macaw,WA10 3BS,53.438152466001700,-2.774653000000000
constrictor and amethystine python,WA10 3BW,53.438938887088900,-2.775494083246760
Fish eagle and cayman,WA10 3DB,53.444964000000000,-2.742721000000000
Treepie and elapid,WA10 3EB,53.442442327180300,-2.757627247077720
Nukupuʻu and leguaan,WA10 3JR,53.444412257953200,-2.757406359356920
Jerboa and White ibis,WA10 3JU,53.435812934553400,-2.775166201091790
carpet snake and Prion,WA10 3JW,53.444989292468200,-2.758545828202630
Skunk and terrapin,WA10 3ND,53.440537104170000,-2.756148115037650
blue tongue and Eagle,WA10 3PD,53.435623286867700,-2.772528522020410
Crow and Marmoset,WA10 3PR,53.436991167378400,-2.772282382146990
bearded dragon and brown snake,WA10 3PY,53.436519182754800,-2.768811623095560
Schneider python and Thrasher,WA10 3QW,53.435826315750300,-2.775873926154580
adder and Meadowlark,WA10 3RE,53.436924942205600,-2.763008423752420
anole and mamba,WA10 3SA,53.437507458344300,-2.767489716626740
Jerboa and Thrasher,WA10 3SF,53.437463661485600,-2.764508360692540
Greenbul and Boto,WA10 3SU,53.447599758605800,-2.747977210701730
mountain devil and Rat,WA10 3UP,53.438209000000000,-2.767578000000000
goanna and frilled lizard,WA10 4AG,53.450205956636900,-2.760867369482250
Marmoset and B,WA10 4BL,53.449635262404800,-2.758734036098910
flying dragon and mud turtle,WA10 4DG,53.453520259476900,-2.762673477978740
Schneider python and Schneider python,WA10 4EE,53.454277026695400,-2.766617521727910
moloch and frill-necked lizard,WA10 4EU,53.455226425096600,-2.761529406722350
gecko and Gila monster,WA10 4EW,53.454679520563900,-2.761308786581730
gopher snake and leathery turtle,WA10 4JX,53.448415613319700,-2.758290690803120
Stint and fer-de-lance,WA10 4NB,53.456092116017300,-2.755430562281060
Old World quail and puff adder,WA10 4PL,53.452425000000000,-2.758392000000000
Skunk and Bronzewing pigeon,WA10 4QL,53.454149737846200,-2.768241629456070
Moluccan boobook and cobra de capello,WA10 5AD,53.452863000000000,-2.778268044897580
Cuscus and blue racer,WA10 5BU,53.449320475395500,-2.778318310953140
Maya and Tattler,WA10 5DD,53.457024752935300,-2.778173090919030
Marsh harrier and cayman,WA10 5DW,53.459700759265900,-2.773040970477250
thorn lizard and boa,WA10 5DY,53.457661747191500,-2.775594331831570
milk snake and blindworm,WA10 5PH,53.461324996161400,-2.774728000000000
Viscacha and diamond snake,WA10 6AJ,53.460275673675300,-2.761905954549000
elapid and horned viper,WA10 6AP,53.469145000000000,-2.750736000000000
Marmoset and elapid,WA10 6BG,53.462111079020600,-2.765854968432130
Zebra and flying lizard,WA10 6BU,53.463750290718600,-2.761124679928230
Vole and Gila monster,WA10 6BX,53.464297030638900,-2.759959560518110
Vulture and milk snake,WA10 6BZ,53.464514000000000,-2.762675000000000
Duck and fer-de-lance,WA10 6DW,53.467552755193200,-2.768107106129460
king snake and habu,WA10 6EF,53.464818042104300,-2.772621824995700
Stilt and kabaragoya,WA10 6EL,53.466257633127400,-2.769620199997810
blind snake and brown snake,WA10 6FG,53.450723000000000,-2.741738000000000
indigo snake and agamid,WA10 6HB,53.463623556250800,-2.762673861634010
Tattler and Mole,WA10 6HE,53.462762533980500,-2.765188892845360
Ice seal and Snipe,WA10 6HF,53.463077391505400,-2.765149369296390
Fulmarine petrel and Songlark,WA10 6JD,53.464592927802400,-2.765703834663490
Linsang and Rat,WA10 6JG,53.466253339479500,-2.754797592360270
terrapin and blind snake,WA10 6NQ,53.467085067716400,-2.746888778227910
Herring gull and Fox,WA10 6NU,53.467627308767100,-2.743539024942790
diamondback turtle and Logrunners,WA10 6PH,53.467783143590900,-2.745832000000000
Shearwater and diamond python,WA10 6RQ,53.459067378672800,-2.754007413366580
hawksbill and Vulture,WA10 6RY,53.460443489960500,-2.755296967522770
kabaragoya and bicycle lizard,WA10 6SA,53.461106220132400,-2.757238000000000
saltwater crocodile and mud turtle,WA10 6TL,53.463415766863800,-2.757187371615350
Hawaiian honeycreeper and dugite,WA10 6UJ,53.466026685555000,-2.746523733487600
Tit-tyrant and mud turtle,WA10 6UX,53.466287860435400,-2.743560799820040
Crow and brown snake,WA10 9ZZ,53.450623000000000,-2.741917000000000
chameleon and rock snake,WA11 0BL,53.465937721948600,-2.692655478708080
sand lizard and jew lizard,WA11 0BN,53.464996840509100,-2.695246061813130
caiman and Grouse,WA11 0EP,53.466401496477400,-2.687059398667870
diamond snake and gecko,WA11 0ER,53.466791181530800,-2.684941717148450
Moluccan boobook and diamondback turtle,WA11 0FE,53.471251820258300,-2.670279762527880
Ground sloth and Egret,WA11 0FJ,53.468954005119000,-2.672894883273980
Gila monster and Ground sloth,WA11 0GQ,53.464943878289600,-2.669909219324330
Cuscus and Old World quail,WA11 0GT,53.464931672867400,-2.662272000000000
Grosbeak and Gull,WA11 0HG,53.468264272072600,-2.681982733291680
dugite and Black jay,WA11 0HU,53.467387505681400,-2.681260672137200
moloch and Black cockatoo,WA11 0JS,53.462627786544000,-2.696111072947500
Skunk and racer,WA11 0JZ,53.468765535135600,-2.661578577611840
Argus and bicycle lizard,WA11 0PT,53.471616806717200,-2.656350065102810
Grackle and Warbler,WA11 0QQ,53.470447000000000,-2.655142000000000
anaconda and chameleon,WA11 0RB,53.470864069135500,-2.646033935680060
perentie and Nukupuʻu,WA11 0TF,53.466200446497300,-2.668633555276560
Chipmunk and Thicketbird,WA11 0TN,53.467414185496700,-2.662129983098740
racer and agama,WA11 0TS,53.466928465954000,-2.663809554677630
Hawk and Polecat,WA11 0TX,53.462300022516500,-2.699901354647520
Jerboa and bandy-bandy,WA11 0TZ,53.462920421603400,-2.701402730855700
bushmaster and B,WA11 0XR,53.471723344287700,-2.674339786945680
Flameback and Petrel,WA11 7AE,53.472895528103100,-2.733220620628690
Boto and diamond python,WA11 7BA,53.478839584212000,-2.726919244566190
Gila monster and Tahr,WA11 7DP,53.475375959406100,-2.734755002354420
Hawk and bandy-bandy,WA11 7DR,53.475290712922600,-2.734000193258460
tokay and amethystine python,WA11 7DT,53.476385083293300,-2.734365629405010
Tit-tyrant and Tit-tyrant,WA11 7DZ,53.478706039858500,-2.734059157936860
Parrotlet and Polecat,WA11 7ER,53.475050344026800,-2.727743391968790
Kangaroo and leguaan,WA11 7EU,53.475722753583200,-2.725072999014700
Maya and Pheasant,WA11 7JT,53.516485447833700,-2.787677946506100
blind snake and Vole,WA11 7LJ,53.518017576513200,-2.792502427869590
rat snake and fer-de-lance,WA11 7NX,53.482211140955500,-2.729734556896870
Herring gull and Boto,WA11 7PG,53.476408826183300,-2.721786000000000
Coati and asp,WA11 7RD,53.472644713063500,-2.761811175293300
diamondback and Old World vulture,WA11 7RF,53.472314398023000,-2.755794047561080
Nukupuʻu and Tahr,WA11 7RY,53.489083935128600,-2.746310766257200
water snake and Minke whale,WA11 7SA,53.491371766054500,-2.748430941856420
Mouse and blue racer,WA11 7SB,53.491197390815700,-2.747568745538310
Black jay and flying dragon,WA11 7TL,53.521126856884600,-2.792620808640190
frill-necked lizard and Masked owl,WA11 8AA,53.491513370665200,-2.765254688662680
cayman and Macaw,WA11 8AL,53.502991773238000,-2.783839469979820
garter snake and boa,WA11 8AR,53.502646762818200,-2.780244904283190
Zebra and chuckwalla,WA11 8AU,53.501877373994900,-2.779688029032260
python and Black cockatoo,WA11 8AZ,53.500729869942000,-2.781973562384960
copperhead and massasauga,WA11 8HA,53.497254542936800,-2.784216001769240
racer and Elephant,WA11 8JU,53.506203480670700,-2.784788329259040
copperhead and Gila monster,WA11 8NE,53.492415375083700,-2.759678565587070
ringhals and Myna,WA11 8NP,53.502560000000000,-2.767383000000000
Gull and tuatara,WA11 8NR,53.503596885076900,-2.780654354161340
Philippine hawk-owl and goanna,WA11 8NS,53.503223935330300,-2.779953972990180
saltwater crocodile and Snipe,WA11 8NU,53.505357908981800,-2.776630894290250
Parakeet and tree snake,WA11 8PA,53.509349632445600,-2.783398900130630
water snake and crocodile,WA11 8PU,53.492589000000000,-2.783014000000000
bearded lizard and Duck,WA11 8RB,53.502764496881300,-2.744892701416440
Jay and Maya,WA11 8RL,53.509401000000000,-2.731514000000000
massasauga and bandy-bandy,WA11 8RU,53.493000432470900,-2.749590104191330
worm lizard and harlequin snake,WA11 9BQ,53.461480121093900,-2.710882979837750
cobra and tree snake,WA11 9DL,53.464976151603400,-2.709465229697180
agamid and Shearwater,WA11 9DR,53.461396197908400,-2.708366260872820
Scimitar babbler and Parrotlet,WA11 9DT,53.468300000000000,-2.730459000000000
Elephant and alligator,WA11 9EN,53.468542271279500,-2.712642000000000
thorny devil and Scimitar babbler,WA11 9HN,53.465727664193700,-2.713077896249380
Gull and Mouse,WA11 9HS,53.467523612265900,-2.731214883298930
deaf adder and gaboon viper,WA11 9JU,53.465334755612500,-2.718644684203020
Marsh harrier and Bronzewing pigeon,WA11 9NG,53.471465438612700,-2.731900341298250
blue racer and Old World warbler,WA11 9NL,53.471256249861300,-2.733764836771590
lizard and Ibex,WA11 9NQ,53.470272502692800,-2.732949420966500
Shearwater and fer-de-lance,WA11 9PG,53.465847456860300,-2.726019331562820
blind snake and Skunk,WA11 9PR,53.470216607503900,-2.731803523664050
dugite and grass snake,WA11 9QH,53.465169544088000,-2.708685173692150
krait and cerastes,WA11 9SL,53.472675395312000,-2.641843056356180
Nukupuʻu and thorn lizard,WA11 9SZ,53.475370000000000,-2.653952000000000
tortoise and Parakeet,WA11 9UF,53.474599723051100,-2.667936978966750
Lemming and Parakeet,WA11 9UH,53.475151685423100,-2.667282719267210
Prion and python,WA11 9WA,53.478510000000000,-2.646858000000000
Boto and Wallaby,WA12 0AH,53.462567687092600,-2.629173905538220
Scimitar babbler and thorn lizard,WA12 0DS,53.464586374693500,-2.616099106311680
black snake and rattlesnake,WA12 0EF,53.457173000000000,-2.631379523975120
Moluccan boobook and Thicketbird,WA12 0JH,53.459527665638800,-2.636313062445310
Mamo and Gila monster,WA12 0LL,53.462612764834500,-2.635937471963930
Myna and Wallaby,WA12 0NA,53.458853538558900,-2.631227487185940
Diving bird and Herring gull,WA12 8AA,53.444601000000000,-2.625626000000000
Minke whale and Treepie,WA12 8BE,53.451996512055200,-2.610224747822390
Minke whale and Mamo,WA12 8EF,53.447169714401100,-2.611962338123160
New World blackbird and Capuchin,WA12 8EZ,53.447771001989800,-2.626019048324530
Scimitar babbler and brown snake,WA12 8HB,53.447809000000000,-2.627510000000000
New World blackbird and Francolin,WA12 8HU,53.451805966336500,-2.619302169365670
Philippine hawk-owl and Greenbul,WA12 8JA,53.450306623814300,-2.624144010513710
Chickadee and B,WA12 8NJ,53.443371812273400,-2.622582284713720
sidewinder and Black cockatoo,WA12 8PH,53.447181139748500,-2.621930014387480
Buzzard and New World blackbird,WA12 8PU,53.450565295649200,-2.617612691061690
Cloud rat and Masked owl,WA12 8QX,53.444408799329600,-2.632925328905820
fer-de-lance and Myna,WA12 8SL,53.442894782695600,-2.630268163908770
harlequin snake and bicycle lizard,WA12 9DW,53.453688000000000,-2.642731000000000
Old World quail and Myna,WA12 9EW,53.457530584847400,-2.651614627689310
Lemming and adder,WA12 9FF,53.457473848291300,-2.647170960489450
Stint and Moluccan boobook,WA12 9HA,53.455243138061600,-2.655690852260400
black snake and Mamo,WA12 9PA,53.448920847742400,-2.656286078312720
Vulture and New World blackbird,WA12 9PS,53.452759102782400,-2.643048472740820
sand lizard and dukite,WA12 9RA,53.452796838128700,-2.636001585551840
Mouse and Tree warbler,WA12 9RJ,53.452191153846900,-2.633266953204290
Fulmarine petrel and diamondback turtle,WA12 9SH,53.457549000000000,-2.619627000000000
Kākāriki and Recurvebill,WA12 9SQ,53.457930411415100,-2.622147384505500
blindworm and Gull,WA12 9TA,53.454390623449300,-2.616614070311750
diamondback terrapin and mud turtle,WA12 9TF,53.455644222250500,-2.615803956744840
American sparrow and Darwin's finches,WA12 9TH,53.456278907162500,-2.618222724254640
moloch and Ibex,WA12 9TR,53.455558151901300,-2.630576210938870
tokay and diamondback,WA12 9UG,53.456547005880000,-2.627142129508920
monitor and Jay,WA12 9XL,53.453521389684600,-2.631585092410230
cayman and Polecat,WA12 9YZ,53.456163561847100,-2.650102764195430
Chicken and Linsang,WA2 0RF,53.428592690868900,-2.571556824447450
Kestrel and Quetzal,WA2 8LP,53.432297458577100,-2.593370839999390
tiger snake and lizard,WA2 8ND,53.429097469406600,-2.591565374490250
diamond snake and Songlark,WA2 8NF,53.430024669584900,-2.589471172965130
American sparrow and Marsh harrier,WA2 8RG,53.434723609264900,-2.598928823166060
blind snake and python,WA2 8SE,53.434106756798100,-2.600049048719690
cycling lizard and Bronzewing pigeon,WA2 8SS,53.440802593034000,-2.592992589922320
grass snake and flying dragon,WA2 8ST,53.443806943022100,-2.590746015454850
Fish eagle and skink,WA2 8XF,53.426769886268100,-2.600472409369700
giant tortoise and turtle,WA3 1AZ,53.479448644638400,-2.554731316323030
chameleon and garter snake,WA3 1BS,53.489468067572500,-2.570747000000000
Parrotbill and water snake,WA3 1EQ,53.473523000000000,-2.541290000000000
Warbler and fer-de-lance,WA3 1HR,53.467232196231800,-2.579547599532110
Jerboa and box turtle,WA3 2AZ,53.469233863593600,-2.568909259015540
Lemming and Triller,WA3 2ED,53.476218356386500,-2.580046763250430
coral snake and garter snake,WA3 2EE,53.476660083983800,-2.579781582841290
Jerboa and constrictor,WA3 2GU,53.473898124414600,-2.574711845895040
gopher snake and Thicketbird,WA3 2HY,53.477411486049600,-2.574955216380900
Kite and jew lizard,WA3 2JQ,53.482394924821900,-2.579754322001720
rattlesnake and Darwin's finches,WA3 2JZ,53.478826418226500,-2.572307347188520
green turtle and sand lizard,WA3 2NQ,53.473113223495300,-2.564004515337190
Perching duck and blue racer,WA3 2NU,53.468976006612000,-2.572084385165080
Magpie and Zebra,WA3 2QJ,53.472413524795300,-2.565607248309330
rattlesnake and cycling lizard,WA3 2QT,53.468643839615900,-2.573872559357400
brown snake and Eagle,WA3 3AW,53.475861000000000,-2.596269000000000
Recurvebill and frill-necked lizard,WA3 3BU,53.476784845090200,-2.596432451564350
Puffleg and Vulture,WA3 3DH,53.477715369560900,-2.600875338975220
amethystine python and Bunting,WA3 3DN,53.477211003422300,-2.599286145900550
Black cockatoo and American sparrow,WA3 3HB,53.481123058321700,-2.584363050822660
Kestrel and agamid,WA3 3HU,53.478462454277300,-2.586194873211330
Argus and milk snake,WA3 3LB,53.476084895016300,-2.587126370416160
Kangaroo and horned viper,WA3 3LL,53.474899264752900,-2.592413388924850
lizard and slowworm,WA3 3NB,53.477317474627100,-2.592356682110610
ringhals and cycling lizard,WA3 3NY,53.473432784041100,-2.601673574973450
giant tortoise and Partridge,WA3 3PQ,53.471630754915000,-2.600744158186120
taipan and Civet,WA3 3RH,53.481426587710600,-2.608190950309620
Tit-tyrant and Schneider python,WA3 3SG,53.479604277369100,-2.600615744074930
deaf adder and blue tongue,WA3 3SQ,53.480171805286500,-2.600367601201160
Ibex and Ground sloth,WA3 3SW,53.479963146856600,-2.602534483160190
smooth snake and Duck,WA3 3TA,53.481581287192600,-2.604275267033990
agamid and Armadillo,WA3 3UJ,53.490610488934600,-2.581433000000000
Mamo and Crow,WA3 3UN,53.484100056510900,-2.596731006753310
Guillemot and Mole,WA3 3US,53.480618594560300,-2.607998567839040
saltwater crocodile and fer-de-lance,WA3 3UW,53.484041232426000,-2.597709711247400
loggerhead and boa constrictor,WA3 3XE,53.484279363619400,-2.607523491349080
mud turtle and coral snake,WA3 4BE,53.465733834067500,-2.536642299168330
Jackal and Fox,WA3 4FS,53.431306596264100,-2.514384410965920
flying lizard and blindworm,WA3 4HP,53.461667444674900,-2.535431241831250
Wallaby and Macaw,WA3 4HQ,53.457323303073500,-2.532003083197280
slowworm and Grouse,WA3 4HW,53.459211723870100,-2.533834002616980
horned viper and Kangaroo,WA3 4PS,53.455080000000000,-2.515031572136860
Hawaiian honeycreeper and Prion,WA3 5AL,53.445548023769900,-2.485648998269780
Jerboa and Gila monster,WA3 5DP,53.450204513138900,-2.513664000000000
diamondback terrapin and Bunting,WA3 5DQ,53.448264437985300,-2.513143894561030
Petrel and Ground sloth,WA3 5EF,53.447630194861500,-2.510124897985110
Grosbeak and mountain devil,WA3 5JQ,53.458944718572700,-2.495681774263940
adder and Maya,WA3 5RG,53.450735005694500,-2.519678676785620
Kestrel and Pratincole,WA3 6AB,53.429045488229800,-2.529031341342430
adder and swift,WA3 6BT,53.445993081185900,-2.514592012271490
monitor and Zebra,WA3 6UH,53.427903257828000,-2.507300010094540
viper and tortoise,WA3 6UJ,53.431275331443200,-2.498445066585890
leguaan and diamondback terrapin,WA3 6UX,53.429454177088200,-2.508266655643890
Moluccan boobook and water snake,WA3 7BA,53.445346000000000,-2.541143000000000
Marsh harrier and Boto,WA3 7BD,53.444409764194200,-2.545271274759180
worm lizard and amphisbaena,WA3 7BW,53.441539379083700,-2.551798318298720
rattlesnake and coral snake,WA3 7DH,53.441335233375000,-2.553180690361360
rattlesnake and Ground sloth,WA3 7EB,53.446838805229100,-2.569844486011820
blue racer and gaboon viper,WA3 7LW,53.434358076521500,-2.549718372910600
Old World warbler and agama,WA3 7LY,53.425031041959800,-2.541155621476220
Chicken and Hawk,WA3 9BJ,53.431311678610000,-2.514384784286420
Quetzal and dugite,WA3 9DT,53.431288000000000,-2.514399000000000
tuatara and giant tortoise,WA5 4AB,53.444205573576900,-2.678134409541650
Mole and sidewinder,WA5 4EF,53.447029076140700,-2.663544324661800
caiman and puff adder,WA5 4HT,53.428636531003400,-2.662234329357020
Elephant and bicycle lizard,WA5 4JH,53.427431083089200,-2.660785862958450
kabaragoya and mud turtle,WA5 4LD,53.431643109523800,-2.651639879988060
bushmaster and diamond python,WA5 4LL,53.430579474810300,-2.648884354722160
crocodile and puff adder,WA5 4LY,53.431628857157100,-2.647651095273920
sidewinder and Vole,WA5 4NB,53.432012305550600,-2.649869472391400
elapid and fer-de-lance,WA5 4NP,53.432972172521800,-2.651870941484710
constrictor and Triller,WA5 4PN,53.429671447491500,-2.657133247657440
Chickadee and diamond snake,WA9 1AU,53.452423893219200,-2.720655304562320
bull snake and B,WA9 1BT,53.450665000000000,-2.720240070069780
puff adder and coral snake,WA9 1HP,53.461173606435100,-2.721526481835790
Night heron and Myna,WA9 1HY,53.460204000000000,-2.720004000000000
Crow and thorny devil,WA9 1NW,53.454508055042900,-2.720856254874740
habu and anole,WA9 1PB,53.450596635971700,-2.710580702318390
New World blackbird and chuckwalla,WA9 2ER,53.453440861078200,-2.703866724676960
amphisbaena and brown snake,WA9 2EZ,53.454780247378000,-2.694642393857160
Parakeet and bandy-bandy,WA9 2LS,53.448934395270100,-2.688990813404090
frilled lizard and pit viper,WA9 2QY,53.446152949755400,-2.683420103781300
Elephant and Petrel,WA9 3AH,53.446347000000000,-2.719348000000000
Old World warbler and gopher snake,WA9 3BJ,53.442809145974900,-2.721621666752730
Eagle and frill-necked lizard,WA9 3BP,53.444560761816200,-2.721816975379720
chuckwalla and ringhals,WA9 3DE,53.438469138374000,-2.721367461572020
Mink and Vole,WA9 3EE,53.440968000000000,-2.709502000000000
Linsang and habu,WA9 3EG,53.445215140190700,-2.722114137351660
carpet snake and sand lizard,WA9 3FD,53.430704667678300,-2.718090293507200
Rabbit and Ground sloth,WA9 3JS,53.434139680121600,-2.704285199620530
Mink and Diving bird,WA9 3NF,53.437642992394200,-2.719742752321900
Triller and Herring gull,WA9 3QX,53.443315643040600,-2.696879209500920
tree snake and leathery turtle,WA9 3WW,53.432063542641900,-2.711821718525800
Black jay and Peafowl,WA9 3XQ,53.429156230350400,-2.718485596752160
chameleon and mamba,WA9 4AZ,53.431266000000000,-2.703725000000000
Night heron and Petrel,WA9 4BP,53.431927000000000,-2.704443000000000
Booted eagles and deaf adder,WA9 4HE,53.427624249666000,-2.716142078380420
giant tortoise and death adder,WA9 4JY,53.426412521120000,-2.724790169353470
Mink and Meadowlark,WA9 4LA,53.425447316031400,-2.723870801211260
Dorcopsis and Bronzewing pigeon,WA9 4PX,53.430542565085200,-2.709117242409690
chameleon and cayman,WA9 4SU,53.425134930900800,-2.713045288055020
harlequin snake and Kite,WA9 4YE,53.429201447114300,-2.715446179094610
copperhead and Parrotlet,WA9 5BD,53.425539240525200,-2.762533578709650
green turtle and bandy-bandy,WA9 5DD,53.442412971729900,-2.724701241008140
Ground sloth and Jay,WA9 5DG,53.434899060220800,-2.740709555678230
mud turtle and amethystine python,WA9 5EQ,53.433998600918800,-2.752464652004100
Tree warbler and brown snake,WA9 5FR,53.429700000000000,-2.761415361158670
Duck and ringhals,WA9 5HB,53.433895539477300,-2.743085380845710
Marsh harrier and tree snake,WA9 5HD,53.433667006337700,-2.742253532892670
giant tortoise and Triller,WA9 5HY,53.431782294478600,-2.747548856739210
anole and moloch,WA9 5LU,53.432600678307900,-2.760296906110880
caiman and tree snake,WA9 5QU,53.436194140262300,-2.753527048085830
Fox and snapping turtle,WA9 5SF,53.434333000000000,-2.746690000000000
garter snake and Greenbul,WA9 5SX,53.428405887580000,-2.744133412428280
Bunting and Stilt,WA9 5UW,53.430605348132800,-2.754602133780280
puff adder and diamond python,WA9 5WS,53.426878000000000,-2.745370000000000
cerastes and Civet,WN1 1AR,53.548275608624400,-2.632195645742260
Thrasher and Goose,WN1 1AZ,53.545835083380100,-2.629669137333020
diamondback turtle and Jerboa,WN1 1HR,53.545992523110700,-2.635587431297270
iguana and Polecat,WN1 1HW,53.546357249226100,-2.636302215098310
rock snake and perentie,WN1 1NJ,53.544727832198500,-2.629275745385350
tiger snake and Polecat,WN1 1QX,53.549294179844100,-2.631652394865850
Mink and goanna,WN1 1UP,53.548495310617200,-2.629738825202570
viper and Wader,WN1 2DQ,53.554380284655800,-2.635305619557890
anole and Jackal,WN1 2DX,53.555066136985200,-2.633096939332470
agama and Ground sloth,WN1 2EX,53.558420281324400,-2.634520784782730
saltwater crocodile and Buzzard,WN1 2HS,53.557763272323500,-2.638058490464480
black snake and leathery turtle,WN1 2LA,53.556131103224100,-2.628871055875200
mud turtle and king snake,WN1 2NW,53.558891000000000,-2.629033000000000
alligator and Gila monster,WN1 2TE,53.580530702676600,-2.636437908496170
Myna and cayman,WN1 2UH,53.590802463031800,-2.621439300433190
bushmaster and Fox,WN1 3DL,53.543367195771300,-2.613349542811930
glass snake and Old World vulture,WN1 3EW,53.544095550742500,-2.621992150222960
leathery turtle and Peafowl,WN1 3EY,53.543843365979400,-2.623814456887740
jew lizard and Old World warbler,WN1 3HL,53.546132009133800,-2.608786545493230
leguaan and hoop snake,WN1 3JX,53.547719129570100,-2.616551692901940
Greenbul and brown snake,WN1 3NQ,53.550287746354900,-2.606416202519730
turtle and grass snake,WN1 3PJ,53.551415561989500,-2.617873310721080
White ibis and Ground sloth,WN1 3PL,53.551682386856900,-2.618420573759330
lizard and thorny devil,WN1 3PR,53.550970614579500,-2.617006497992640
hognose snake and Civet,WN1 3US,53.554888756599700,-2.620838000000000
Towhee and Darwin's finches,WN1 3XB,53.553707500021600,-2.616155756578460
bearded dragon and Jay,WN1 3XZ,53.552252441676900,-2.617689285720600
soft-shelled turtle and Fulmarine petrel,WN2 1AA,53.555446762764900,-2.610022246213930
tokay and amphisbaena,WN2 1AF,53.554960508874400,-2.608430284921280
chameleon and Fox,WN2 1AP,53.554231650738200,-2.608585865366430
caiman and Fox,WN2 1BU,53.557226000000000,-2.599163000000000
Black jay and Logrunners,WN2 1EE,53.560694336220100,-2.599695983403130
tree snake and boa constrictor,WN2 1LU,53.576612217021500,-2.620959253307690
Buzzard and Zebra,WN2 1RP,53.573150193374300,-2.590931000000000
Triller and Diving bird,WN2 1RS,53.570925184530100,-2.588439857400150
Polecat and Dorcopsis,WN2 1SP,53.572043605102500,-2.589482257250360
Ground sloth and Tit-tyrant,WN2 1XT,53.568017752575400,-2.580094740247590
moloch and Tattler,WN2 1XU,53.569659601491400,-2.577006597475550
Philippine hawk-owl and habu,WN2 1YE,53.573014443576200,-2.587638305012400
Elephant and gecko,WN2 1YX,53.570014056245500,-2.583610226976000
iguana and bicycle lizard,WN2 1ZE,53.572655375865300,-2.587542717287630
Songlark and taipan,WN2 2AF,53.543928000000000,-2.608799000000000
Snipe and diamondback terrapin,WN2 2AL,53.541967000000000,-2.604335000000000
asp and bicycle lizard,WN2 2BA,53.542574272661200,-2.606683169479890
Thicketbird and constrictor,WN2 2BT,53.541942927679900,-2.612393349088810
Puffleg and agama,WN2 2BW,53.542214378106100,-2.610284617678710
alligator and flying lizard,WN2 2BY,53.540917741335600,-2.610733747656270
cobra de capello and snapping turtle,WN2 2EE,53.548308335518300,-2.596079700800560
rat snake and Triller,WN2 2HN,53.544789131944700,-2.604179520185350
mud turtle and boa constrictor,WN2 2PE,53.544304115334700,-2.595148134268050
Kākāriki and White ibis,WN2 2PQ,53.542784266275800,-2.595307892901000
carpet snake and Greenbul,WN2 2ST,53.553749347105100,-2.577152291745340
gecko and leguaan,WN2 2SW,53.543080883457800,-2.576976915119500
goanna and Peafowl,WN2 3DB,53.537474038487600,-2.589469498268580
Mole and chuckwalla,WN2 3DX,53.532015403139300,-2.580824401272450
Rabbit and Thrasher,WN2 3JE,53.534300783547100,-2.582198479656910
krait and Elephant,WN2 3LE,53.537129112414200,-2.575402193468400
Buzzard and Mouse,WN2 3LS,53.536834200168600,-2.574251794370910
sand viper and Eagle,WN2 3ND,53.535467337688400,-2.571426614561760
Meadowlark and cayman,WN2 3NH,53.535357000000000,-2.572149000000000
American sparrow and Fish eagle,WN2 3NS,53.528487771842900,-2.577970218597540
Marmoset and Black jay,WN2 3PQ,53.534465365307800,-2.574189232513590
Thicketbird and Snipe,WN2 3QL,53.532934747513300,-2.567198308411160
viper and deaf adder,WN2 3RA,53.533796172814900,-2.576895896844240
Gull and thorn lizard,WN2 3SQ,53.522065377515800,-2.573327638987000
rattlesnake and horned viper,WN2 3TL,53.524634934538600,-2.599413000000000
Parrotlet and grass snake,WN2 3XB,53.529618120682700,-2.572826252507210
adder and Maya,WN2 4AF,53.513072368013300,-2.557176182285680
lizard and Tattler,WN2 4AJ,53.513744037989000,-2.559416000000000
Siskin and Crow,WN2 4AR,53.529225109383000,-2.545395136350820
worm lizard and green turtle,WN2 4JW,53.535148559240900,-2.559005049393200
Moluccan boobook and adder,WN2 4JX,53.535036591171800,-2.556031283523150
perentie and Hawaiian honeycreeper,WN2 4NA,53.524411656124200,-2.556148493422710
Vole and skink,WN2 4PT,53.523479137962700,-2.551777095910690
ringhals and Moluccan boobook,WN2 4RY,53.524011196126400,-2.555283466138330
Elephant and Bunting,WN2 4TU,53.522146409134600,-2.540507717309130
alligator and Viscacha,WN2 4UQ,53.513475000000000,-2.553456000000000
Meadowlark and Kākāriki,WN2 4XL,53.513451847613100,-2.545056765663610
tortoise and Kākāriki,WN2 5BB,53.521556000000000,-2.596867197379280
Bronzewing pigeon and Elephant,WN2 5BN,53.523060969995000,-2.601200378809680
cobra de capello and box turtle,WN2 5ES,53.520403247218700,-2.604194337920760
tuatara and Rabbit,WN2 5FN,53.519997000000000,-2.604248000000000
Partridge and gavial,WN2 5HG,53.520829246971900,-2.605271277589050
Schneider python and death adder,WN2 5HH,53.522169974862100,-2.603208910960140
Wallaby and blue tongue,WN2 5HL,53.521067587367300,-2.604354622993910
tree snake and Coati,WN2 5HP,53.516435244649300,-2.604997490789850
bicycle lizard and diamondback,WN2 5NW,53.520720390264100,-2.594726907856100
Prion and Asiatic leopard,WN2 5PJ,53.516521131370500,-2.596854853897740
tokay and blindworm,WN2 5QF,53.515135715142000,-2.597091748793470
Hawaiian honeycreeper and dukite,WN2 5QW,53.514335544233800,-2.593521510532220
bushmaster and carpet snake,WN2 5RG,53.510763894405800,-2.592355725684110
Wallaby and agamid,WN2 5SA,53.513099361909500,-2.593715673807780
deaf adder and hawksbill,WN2 5TF,53.516323234773800,-2.576748908836670
python and Gila monster,WN2 5XB,53.506586000000000,-2.592284482320290
Songlark and Kite,WN2 5XU,53.504312738454200,-2.591828515730190
Philippine hawk-owl and Mole,WN3 4DU,53.541118237759700,-2.637747706637930
Condor and diamondback,WN3 4HG,53.540613089172600,-2.631177000000000
harlequin snake and Macaw,WN3 4JA,53.531154121665600,-2.612901424595000
Viscacha and mud turtle,WN3 4JN,53.538390755190200,-2.623613000000000
hoop snake and tree snake,WN3 4JY,53.537826252674200,-2.622820637974210
Dolphin and Buzzard,WN3 4LU,53.536595000000000,-2.619453000000000
chuckwalla and Capuchin,WN3 5AW,53.541362000000000,-2.641177000000000
leathery turtle and Eagle,WN3 5BJ,53.539177278001800,-2.637643077548380
crocodile and loggerhead,WN3 5DU,53.534523000000000,-2.639112000000000
mountain devil and Boto,WN3 5DW,53.541400000000000,-2.646745000000000
hoop snake and Logrunners,WN3 5DY,53.532806614779600,-2.640594911569660
Pratincole and anaconda,WN3 5EA,53.531707677594300,-2.641030919385210
garter snake and Eagle,WN3 5HD,53.537509865790700,-2.638493158841550
hognose snake and Booted eagles,WN3 5HX,53.528001854424500,-2.648170644009600
Hawaiian honeycreeper and Capuchin,WN3 5JZ,53.528503083720000,-2.641902724865250
Francolin and habu,WN3 5LS,53.524686629883600,-2.652841355205030
agama and Pitohui,WN3 5NF,53.525182755330500,-2.639212745113950
Rat and thorn lizard,WN3 5NT,53.523498769335300,-2.638116437561030
dugite and American sparrow,WN3 5QG,53.524168304559400,-2.645668491370990
massasauga and Meadowlark,WN3 5QY,53.520978759231100,-2.650507000000000
Tahr and anaconda,WN3 5RL,53.518461922440100,-2.642082681580490
puff adder and amethystine python,WN3 5UQ,53.532234382314000,-2.643377337410500
Masked owl and Duck,WN3 6BB,53.516662556087800,-2.658661000000000
Meadowlark and Siskin,WN3 6BW,53.527548747871000,-2.668423133103890
diamondback turtle and Polecat,WN3 6DG,53.518378739308400,-2.679876751304080
worm lizard and Bunting,WN3 6ER,53.523937925371000,-2.671171873208770
Tit-tyrant and smooth snake,WN3 6GP,53.528624000000000,-2.667550000000000
Buzzard and Badger,WN3 6HF,53.524541053854800,-2.667802565790040
alligator and diamondback terrapin,WN3 6JN,53.521289725371500,-2.668958049766060
Parakeet and Puffleg,WN3 6LF,53.518601950254500,-2.675280000000000
Old World warbler and Black jay,WN3 6LH,53.515379824742400,-2.668141043361030
Towhee and Nukupuʻu,WN3 6RG,53.527329800331000,-2.659293188714200
Viscacha and giant tortoise,WN3 6SF,53.522443754946800,-2.656984950866740
Cloud rat and Jerboa,WN3 6SP,53.521042000000000,-2.657008000000000
gavial and Towhee,WN3 6SX,53.522136860999200,-2.660479518578180
Asiatic leopard and tree snake,WN3 6TW,53.519648684214700,-2.663427115593950
Lemming and leguaan,WN3 6XE,53.518985778707900,-2.656509130979780
king snake and Grackle,WN3 6XU,53.517550571125800,-2.654528000000000
horned toad and Rat,WN4 0BP,53.511539054474900,-2.651674438567020
blue tongue and Linsang,WN4 0EJ,53.507280713564400,-2.648397000000000
black snake and cayman,WN4 0JU,53.506077428975800,-2.655012902156670
harlequin snake and cycling lizard,WN4 0LY,53.502122000000000,-2.658510000000000
frill-necked lizard and Capuchin,WN4 0QN,53.497134245536000,-2.669527319607530
frill-necked lizard and rattlesnake,WN4 0QT,53.498165325239800,-2.671593738025200
Vole and Songlark,WN4 0RJ,53.492470372600500,-2.667705390470580
grass snake and horned viper,WN4 0SG,53.491601145553500,-2.675227952318780
Prion and Asiatic leopard,WN4 0UU,53.499614593073100,-2.680752274524290
Magpie and Boto,WN4 8AJ,53.492924272445100,-2.630482483289740
death adder and garter snake,WN4 8BG,53.495227000000000,-2.638913000000000
leguaan and caiman,WN4 8DE,53.499163000000000,-2.633892000000000
pit viper and Philippine hawk-owl,WN4 8RY,53.492258803027600,-2.627126483419090
Skunk and Tattler,WN4 8SA,53.493267435600900,-2.625046224541630
carpet snake and Old World quail,WN4 8SH,53.492738764602000,-2.628158518226340
Civet and Pratincole,WN4 8SP,53.490285994771500,-2.621068594497160
gecko and Zebra,WN4 9AB,53.487183888577900,-2.636636647560000
rock snake and Mouse,WN4 9AX,53.487583248373600,-2.639280052894220
Boto and agama,WN4 9HE,53.485728727872200,-2.634761199582470
horned toad and Mink,WN4 9PL,53.485731000000000,-2.639521824296390
water snake and brown snake,WN4 9QZ,53.490787551171600,-2.646819106033760
deaf adder and Kākāriki,WN4 9SG,53.491871842036200,-2.644107486268990
Old World vulture and agama,WN4 9TT,53.494151540373200,-2.648061109542750
asp and Macaw,WN4 9UT,53.494381517846900,-2.650400995528570
leathery turtle and Chickadee,WN5 0AH,53.538450316760200,-2.686143504328450
Pheasant and Jackal,WN5 0BA,53.544012552641600,-2.681721260077080
cycling lizard and loggerhead,WN5 0BF,53.541328530229000,-2.653052540672820
chuckwalla and bushmaster,WN5 0DA,53.545291572403700,-2.687418000000000
Flameback and Darwin's finches,WN5 0DT,53.537347687460400,-2.684058518310480
Prion and black snake,WN5 0EE,53.548120837593100,-2.676882235126360
fer-de-lance and diamond snake,WN5 0EH,53.548963716935600,-2.678827571138660
fer-de-lance and Meadowlark,WN5 0HE,53.549385567330400,-2.686803416338180
cayman and fer-de-lance,WN5 0JF,53.550100804554200,-2.689033707066270
blue racer and dukite,WN5 0JU,53.549320252533100,-2.684085626340420
Armadillo and Old World quail,WN5 0LE,53.553399523313800,-2.670068369986890
Thrasher and bandy-bandy,WN5 0LX,53.554659000000000,-2.666798000000000
gecko and Komodo dragon,WN5 0QE,53.547938915356700,-2.662828259965750
Triller and Fox,WN5 0TR,53.539829543237200,-2.653346008862620
cayman and Diving bird,WN5 0UP,53.543813639068300,-2.656229394147420
rock python and leathery turtle,WN5 0XD,53.541399109992500,-2.649024234978690
slowworm and rock python,WN5 7AQ,53.517889000000000,-2.711239000000000
coral snake and mamba,WN5 7BE,53.525306226209200,-2.709719126400310
hognose snake and Francolin,WN5 7BG,53.523350940176900,-2.709007662273990
Vole and Diving bird,WN5 7DT,53.518605730450500,-2.714915985050760
sidewinder and Buzzard,WN5 7DX,53.518120756657800,-2.714847490199240
coral snake and amphisbaena,WN5 7JS,53.514784122506700,-2.706345000000000
chameleon and Jerboa,WN5 7JW,53.514195554344700,-2.706818900271110
Viscacha and Jackal,WN5 7NG,53.498664317330200,-2.708158412048320
black snake and adder,WN5 7NN,53.499296936021500,-2.710611141065990
Vole and Thrasher,WN5 7NX,53.496697125791500,-2.709452158603330
bearded dragon and sand viper,WN5 7PT,53.495776998074300,-2.711517000190220
Coati and Recurvebill,WN5 7TS,53.493177783961600,-2.708745255412380
blindworm and Ground sloth,WN5 7XZ,53.510697064031600,-2.682590000000000
Peafowl and mud turtle,WN5 7YB,53.512202539353500,-2.689474141532590
Thrasher and mountain devil,WN5 8AW,53.536771297719900,-2.681106968500480
diamondback and Buzzard,WN5 8BA,53.536138574729400,-2.682772000000000
blue tongue and indigo snake,WN5 8BW,53.533766939540500,-2.679912092833530
milk snake and taipan,WN5 8BX,53.534366244497200,-2.682003790544470
bushmaster and amphisbaena,WN5 8DE,53.530755518023500,-2.668805547777400
Guillemot and asp,WN5 8FQ,53.546965930396300,-2.635088890409610
Recurvebill and Warbler,WN5 8FR,53.531670345000000,-2.679667620700000
bearded lizard and Myna,WN5 8PB,53.543169183653400,-2.698579187246240
Marmoset and Kākāriki,WN5 8PG,53.544431211462100,-2.701029662923580
rattlesnake and Civet,WN5 8PJ,53.545711705094800,-2.700326428726370
Magpie and frilled lizard,WN5 8QZ,53.540241041947700,-2.713439630760580
blind snake and deaf adder,WN5 8RT,53.536763892729500,-2.707149597137910
Marsh harrier and Civet,WN5 8ST,53.532097783148400,-2.711869447696820
cerastes and dukite,WN5 8TW,53.532845351809700,-2.714627846655950
bicycle lizard and Puffleg,WN5 8UE,53.532147947708600,-2.720002116380800
Coati and Dorcopsis,WN5 8UN,53.533335201215400,-2.716884104891540
whip snake and amethystine python,WN5 9DG,53.535498935162900,-2.669257524914930
Jackal and Darwin's finches,WN5 9DH,53.535645979016800,-2.667072073484160
dugite and Quetzal,WN5 9HF,53.535256097282000,-2.669148000000000
Treepie and Badger,WN5 9HL,53.534055328834000,-2.671829804714090
Rat and monitor,WN5 9HP,53.533748554722100,-2.667223288912760
mamba and giant tortoise,WN5 9JW,53.536126971583900,-2.661391368669470
constrictor and deaf adder,WN5 9LT,53.543029776988100,-2.677510245128970
bearded lizard and Myna,WN5 9NT,53.537382380731600,-2.666782515530370
milk snake and New World blackbird,WN5 9PA,53.537877534651800,-2.663410392271710
Treepie and Ibex,WN5 9PF,53.539086578645000,-2.662584300640380
skink and Prion,WN5 9QD,53.540207391134800,-2.664699276102670
Old World vulture and Logrunners,WN5 9QL,53.537476744101200,-2.669349000000000
Perching duck and blindworm,WN5 9RR,53.543784006958300,-2.664530000000000
Elephant and Parrotlet,WN5 9UB,53.540119194667700,-2.680376062391510
iguana and milk snake,WN5 9XJ,53.544005919079000,-2.679729133390950
Fox and cobra,WN6 0BA,53.581493257399800,-2.657885489044170
iguana and Masked owl,WN6 0BF,53.577998849380500,-2.640945907087940
coral snake and Cloud rat,WN6 0BG,53.583699572722900,-2.658765653227980
tree snake and Ground sloth,WN6 0BZ,53.579425107683200,-2.646495422215210
skink and anaconda,WN6 0DH,53.585878892082200,-2.656382603563800
Francolin and diamond snake,WN6 0DP,53.584432951938300,-2.655559000000000
Jay and Skunk,WN6 0HZ,53.589619790147000,-2.659341195558810
sand viper and Magpie,WN6 0LE,53.589462769221700,-2.664973749272780
black snake and tortoise,WN6 0LH,53.591499782134500,-2.660715082031050
snapping turtle and diamondback,WN6 0ND,53.588714532194000,-2.658873889753710
flying dragon and Towhee,WN6 0NG,53.589451728803000,-2.662103201603000
constrictor and blindworm,WN6 0NQ,53.590077486507700,-2.672386059715170
chuckwalla and Bronzewing pigeon,WN6 0NX,53.592690003444200,-2.672941237465040
adder and sea snake,WN6 0RQ,53.586350417397700,-2.667009518680310
hognose snake and wall lizard,WN6 0TB,53.585536088376900,-2.672782229480890
Zebra and grass snake,WN6 0TW,53.583675114911800,-2.663191087778100
Elephant and hoop snake,WN6 0UF,53.582489260724700,-2.664698097679980
Triller and Hawaiian honeycreeper,WN6 0UL,53.585036617271100,-2.667275832413350
Vulture and Armadillo,WN6 0WB,53.587383000000000,-2.650528000000000
tiger snake and Capuchin,WN6 0XL,53.588136070231400,-2.657822522064720
habu and Mockingbird,WN6 0XU,53.589410305247700,-2.656573313333820
Snipe and Badger,WN6 0YA,53.570860552893800,-2.661027409696250
Cuscus and sand viper,WN6 7AS,53.553553759821400,-2.646961222748150
coral snake and Meadowlark,WN6 7DN,53.550088094040900,-2.641233301596710
Grosbeak and loggerhead,WN6 7DZ,53.550660378859800,-2.643460685442560
snake and slowworm,WN6 7EX,53.554976774408700,-2.651405755410600
Nukupuʻu and chameleon,WN6 7HE,53.556404789963500,-2.641645852104400
sea snake and snake,WN6 7JJ,53.556600880247000,-2.643626331873600
brown snake and Snipe,WN6 7NA,53.552545322288600,-2.649103000000000
puff adder and Vulture,WN6 7NL,53.557258140334500,-2.661539872700270
Tree warbler and Chipmunk,WN6 7NP,53.553913622867200,-2.656793273190130
brown snake and Mole,WN6 7QB,53.560511908753900,-2.646765488954790
python and Old World warbler,WN6 8AF,53.578226493401500,-2.684220105107530
Polecat and snake,WN6 8BU,53.576647799245800,-2.688347844633870
Triller and Songlark,WN6 8DA,53.576009480708600,-2.683670811912150
indigo snake and Asiatic leopard,WN6 8DN,53.578327527193900,-2.713084141489510
cycling lizard and Zebra,WN6 8EG,53.570385556718200,-2.697185578180750
snapping turtle and Marmoset,WN6 8EN,53.567467132222800,-2.698239819331390
Macaw and rock python,WN6 8EU,53.569207000000000,-2.709820000000000
massasauga and Flameback,WN6 8HP,53.568335441228700,-2.694222497865770
grass snake and Capuchin,WN6 8JA,53.562355000000000,-2.696495000000000
frill-necked lizard and Darwin's finches,WN6 8JZ,53.561153125023600,-2.662627270866500
saltwater crocodile and Jerboa,WN6 8LF,53.560656828873400,-2.669428247021150
Pheasant and leguaan,WN6 8LY,53.564959495909000,-2.677906083644700
Jackal and viper,WN6 8RJ,53.562820519383900,-2.645366435360400
dukite and mamba,WN6 9AE,53.581104000000000,-2.720849000000000
Stilt and box turtle,WN6 9AG,53.582664580657000,-2.719818407633530
Peafowl and Magpie,WN6 9DW,53.585044000000000,-2.714375000000000
tiger snake and Meadowlark,WN6 9JG,53.580638951837300,-2.706794424003340
Duck and alligator,WN6 9LD,53.583542940324900,-2.703625488582380
Badger and snapping turtle,WN6 9PA,53.592918711562300,-2.700427218067550
Hawaiian honeycreeper and Solitaire,WN6 9PX,53.604793234888300,-2.733297530868830
Marmoset and Ibex,WN6 9RB,53.591538415429600,-2.695131687332800
Marsh harrier and Parrotlet,WN6 9SA,53.609625878642400,-2.703892924989620
loggerhead and puff adder,WN6 9SR,53.609059573340700,-2.703898617965240
Old World warbler and bearded lizard,WN7 1AY,53.498083272071300,-2.516323280645610
bull snake and Fish eagle,WN7 1EG,53.498261508361000,-2.518752470727400
Darwin's finches and Black jay,WN7 1HL,53.501834017216800,-2.503086970709180
Rabbit and jew lizard,WN7 1PB,53.501646000000000,-2.517680536418630
flying dragon and Stint,WN7 1QP,53.499400369741400,-2.519369382734070
galliwasp and Old World quail,WN7 1RR,53.502064000000000,-2.518844000000000
Mamo and taipan,WN7 1TP,53.509571200021900,-2.518257329712240
racer and Lemming,WN7 1TY,53.510903855027100,-2.515634742202410
Ibex and mud turtle,WN7 1XW,53.499136957426700,-2.523708000000000
tokay and boa constrictor,WN7 2BB,53.492168498313000,-2.492994514526210
Mockingbird and Badger,WN7 2BG,53.494850360490600,-2.500848760390470
diamondback and king cobra,WN7 2BX,53.493997188099600,-2.502813285801750
kabaragoya and blind snake,WN7 2DZ,53.491905603218900,-2.504295774382140
bearded dragon and bearded lizard,WN7 2EN,53.503747000000000,-2.492449000000000
grass snake and Gila monster,WN7 2ER,53.491802013473700,-2.501144417464710
leguaan and Lemming,WN7 2RJ,53.496032044931100,-2.508369485185480
Puffleg and hawksbill,WN7 2UA,53.500628837481200,-2.485886620018140
rock snake and Guillemot,WN7 2XJ,53.507303134531500,-2.484696447884110
American sparrow and boa constrictor,WN7 3BZ,53.489903513388500,-2.495138559296130
copperhead and Jay,WN7 3DA,53.488637254780500,-2.494867592774930
Crow and Hawaiian honeycreeper,WN7 3DU,53.485377581115400,-2.498431387335650
Stint and Flameback,WN7 3EB,53.490325734666800,-2.499514316832430
copperhead and skink,WN7 3EF,53.487047721054400,-2.496552000000000
Wader and Puffleg,WN7 3EN,53.491718410942300,-2.510277276785060
horned viper and glass snake,WN7 3HT,53.489503586853300,-2.517394603910520
Komodo dragon and mountain devil,WN7 3JA,53.485817438663900,-2.517590849061550
Capuchin and Black cockatoo,WN7 3JQ,53.487874993478500,-2.521911145167360
amphisbaena and diamondback turtle,WN7 3LB,53.480849478551200,-2.527249540963520
bearded lizard and milk snake,WN7 3LU,53.482132290618000,-2.529857316822560
sand viper and ringhals,WN7 3NH,53.480360989406600,-2.519754517317890
monitor and pit viper,WN7 3QG,53.476995668717100,-2.544770045665200
Old World quail and viper,WN7 3QL,53.476636585544200,-2.540712412379980
Masked owl and White ibis,WN7 3SE,53.480571000000000,-2.504553000000000
worm lizard and blue racer,WN7 4AA,53.496734005476700,-2.520693455544470
Triller and Pheasant,WN7 4BG,53.494960339398200,-2.528464000000000
Petrel and glass snake,WN7 4DF,53.495537281933800,-2.520980261842400
Solitaire and Chipmunk,WN7 4GY,53.492971398897000,-2.530097993367470
Piping shrike and dukite,WN7 4JN,53.493735260200400,-2.526067937963710
Pratincole and B,WN7 4NB,53.496497660185600,-2.517163229493190
Vole and Treepie,WN7 4PP,53.494596532506900,-2.565766868101250
Old World warbler and glass snake,WN7 4RH,53.496426784335700,-2.541115000000000
tree snake and krait,WN7 4SA,53.497897291984800,-2.534093922680620
Wader and diamondback,WN7 4SH,53.498157325959900,-2.540232577809840
Perching duck and iguana,WN7 4TB,53.496285297722900,-2.538776741726420
jew lizard and massasauga,WN7 4TG,53.496887290694400,-2.538829599301090
flying dragon and Francolin,WN7 4UJ,53.495941495334900,-2.535275243261400
Marmoset and diamond snake,WN7 5AX,53.500052829188800,-2.532462740258540
Eagle and Armadillo,WN7 5DF,53.502866315745000,-2.534457934658110
boa constrictor and frill-necked lizard,WN7 5ET,53.505224267393400,-2.538136000000000
Mouse and Scimitar babbler,WN7 5EW,53.508110000000000,-2.535851000000000
blue tongue and Puffleg,WN7 5JQ,53.509822561094900,-2.526553730310230
tokay and Treepie,WN7 5LF,53.511093633245600,-2.537833689303430
Fulmarine petrel and Petrel,WN7 5SS,53.507432103552700,-2.522347498914990
bearded dragon and Logrunners,WN7 5TH,53.516723300640900,-2.532310186317560
Rat and Thicketbird,WN8 0AY,53.543099455381400,-2.741496205187310
Schneider python and moloch,WN8 0DT,53.536934000000000,-2.731400000000000
blindworm and leathery turtle,WN8 0JE,53.543734558170600,-2.733252521416530
constrictor and mud turtle,WN8 0JP,53.542266612142500,-2.735173817380400
indigo snake and python,WN8 0NJ,53.540961019910600,-2.723758220059500
Prion and Vulture,WN8 0NU,53.539239922664900,-2.725946997240170
habu and Ice seal,WN8 6AL,53.547569539791900,-2.758251461309220
frilled lizard and Minke whale,WN8 6BY,53.546527971728700,-2.763726339383550
gavial and Bunting,WN8 6DQ,53.547021891980900,-2.751027595069990
Jerboa and mud turtle,WN8 6JE,53.555927217127800,-2.778100420143490
cobra de capello and Myna,WN8 6JN,53.561212044996700,-2.791860478926490
Pratincole and Stint,WN8 6LA,53.554030757857400,-2.778080709210900
Vole and Solitaire,WN8 6ND,53.549875671877300,-2.774291525662160
Hawk and Prion,WN8 6PF,53.552136300672800,-2.765216007139800
Fox and frill-necked lizard,WN8 6PP,53.566497157961100,-2.775425642075830
Diving bird and Tit-tyrant,WN8 6PX,53.567428787009700,-2.777299927146210
blind snake and hognose snake,WN8 6QX,53.556382312757500,-2.771678065545820
Bunting and Fish eagle,WN8 6RE,53.559645308547400,-2.767465097234410
snake and B,WN8 6RH,53.557963496862500,-2.770408582968880
habu and Herring gull,WN8 6RY,53.553093917552600,-2.757399310773210
Wallaby and Jay,WN8 6SE,53.554804509896000,-2.758380853949380
horned toad and chameleon,WN8 6TA,53.564950717875100,-2.768527481059410
frilled lizard and rattlesnake,WN8 6UR,53.564541487221500,-2.776220274790510
tokay and Jerboa,WN8 6XR,53.555311600611600,-2.782904484487200
Booted eagles and Asiatic leopard,WN8 7DS,53.593617912470100,-2.772281076516680
mountain devil and Greenbul,WN8 7LD,53.586795991293900,-2.786024331068930
Moluccan boobook and Snipe,WN8 7RD,53.578192000000000,-2.748620000000000
Crow and Viscacha,WN8 8AE,53.547506749056100,-2.792872303346610
Meadowlark and Triller,WN8 8AN,53.546832093397800,-2.801039652582060
Treepie and Buzzard,WN8 8AT,53.547540582911400,-2.798592968024250
Piping shrike and Black cockatoo,WN8 8HJ,53.548411536344200,-2.802759875578880
indigo snake and blue racer,WN8 8LH,53.548926372089000,-2.805063747856560
frilled lizard and Tattler,WN8 8NQ,53.550526052170000,-2.791645812444450
Jerboa and gavial,WN8 8NY,53.550066874987300,-2.789041187737840
thorn lizard and Prion,WN8 8PN,53.551856083570900,-2.793044195630350
Elephant and alligator,WN8 8QF,53.553291740857600,-2.794776724796630
Recurvebill and tree snake,WN8 8QL,53.553208014130500,-2.791137393618250
Thicketbird and Black jay,WN8 8QW,53.553323042091400,-2.792769744565340
flying lizard and Cloud rat,WN8 8TL,53.550645491504500,-2.808612000000000
Moluccan boobook and terrapin,WN8 9AS,53.542233996054900,-2.757673178574440
Pratincole and jew lizard,WN8 9BF,53.538838797294400,-2.758698964744960
leguaan and gopher snake,WN8 9DR,53.536913130743400,-2.751919916690850
Civet and green turtle,WN8 9EP,53.541787786766000,-2.765632913084720
python and black snake,WN8 9HL,53.536468074406400,-2.759758024070020
Siskin and chameleon,WN8 9QD,53.531507937612600,-2.745369000000000
bushmaster and Tahr,WN8 9QZ,53.521763595735700,-2.753944174954360
Goose and rattlesnake,WN8 9UE,53.544566000000000,-2.785045000000000
