name,postcode,lat,lon
Northern Monkey Brew Co. ltd,BL1 1AQ,53.5781,-2.4267
Alisons cafe ltd,BL1 1BU,53.5791,-2.4296
SIZZLING PALATE,BL1 1DG,53.5792,-2.4272
Subway Crompton Place,BL1 1EA,53.5785,-2.4284
Tapaz Restaurant,BL1 1EL,53.5788,-2.4265
Bambu Oriental Cafe,BL1 1HA,53.5790,-2.4323
HEAVENLY DESSERTS BOLTON,BL1 1HH,53.5795,-2.4276
Definitely Maybe Bar Ltd,BL1 1LD,53.5778,-2.4280
ciao napoli,BL1 1LE,53.5775,-2.4283
THE COURTHOUSE RESTAURANT & BAR,BL1 1LF,53.5772,-2.4283
Subway Newport Street,BL1 1NB,53.5770,-2.4298
Odessa cafe,BL1 1RS,53.5782,-2.4287
THE FOOD CORNER LTD,BL1 1SN,53.5764,-2.4297
OLYMPUS FISH AND CHIP RESTAURANT LIMITED,BL1 1SW,53.5761,-2.4296
Istanbul’s kitchen,BL1 1TJ,53.5765,-2.4326
cosy cafe,BL1 1TQ,53.5765,-2.4326
Cadar Chimney Cakes,BL1 2AL,53.5812,-2.4302
Great Ale at the Vaults,BL1 2AL,53.5812,-2.4302
Amico Cafe,BL1 2AN,53.5801,-2.4293
McDonald's Bolton 1,BL1 2AQ,53.5798,-2.4306
Basic kneads ,BL1 2AR,53.5807,-2.4298
Klübb & Co.,BL1 2AR,53.5807,-2.4298
Nam ploy,BL1 2BS,53.5816,-2.4322
The Coffee Shop at St. Georges House,BL1 2DD,53.5820,-2.4313
Grill Cottage ,BL1 2EA,53.5803,-2.4281
Nadiis Diner,BL1 2EG,53.5814,-2.4285
The Chinese Buffet,BL1 2EH,53.5808,-2.4283
Little Dough Ltd,BL1 3AJ,53.5833,-2.4445
Subway,BL1 3AJ,53.5833,-2.4445
The Dessert Corner ,BL1 3AT,53.5843,-2.4460
Nicks Restaurant,BL1 3BA,53.5849,-2.4474
IQBAL'S,BL1 3NF,53.5905,-2.4335
DESI HOUSE LIMITED,BL1 3QD,53.5924,-2.4374
Tribez,BL1 3QD,53.5924,-2.4374
Cube Desserts Ltd,BL1 3QJ,53.5919,-2.4358
MAMA'S GRILL (NORTH-WEST) LTD,BL1 3QN,53.5912,-2.4342
Khanz Spicy Grill,BL1 4AZ,53.5813,-2.4409
burgerum,BL1 4JE,53.5865,-2.4512
Prime eatery,BL1 4QR,53.5819,-2.4417
Queen's Park Café Bolton ,BL1 4RU,53.5775,-2.4449
Victoria Inn,BL1 5AG,53.5830,-2.4772
Retreat Grill Bar Restaurant,BL1 5BP,53.5794,-2.4655
The Coffee Shop at  Heaton,BL1 5LW,53.5858,-2.4656
Cafe Italia,BL1 5SN,53.5913,-2.4776
McDonald's Delph Hill,BL1 5SX,53.5914,-2.4808
FLAVOURS N SPICES,BL1 6PU,53.5993,-2.4356
Wilton Arms,BL1 7BT,53.6167,-2.4556
The Brew House,BL1 7LG,53.6134,-2.4344
Poppins at Smithills,BL1 7NP,53.6017,-2.4590
Bobs Smithy Inn,BL1 7PX,53.5952,-2.4937
OAKS SPICE & GRILL,BL1 8AN,53.5945,-2.4440
SU FOODS LTD,BL1 8AN,53.5945,-2.4440
Heavenly doughnuts ,BL1 8DB,53.5953,-2.4479
D Foods Kompany Ltd,BL1 8DR,53.5911,-2.4306
D food company ,BL1 8DR,53.5911,-2.4306
FUSION FOODS (BOLTON) LTD,BL1 8DU,53.5948,-2.4314
Shahi Sweets and Bakers Ltd,BL1 8DU,53.5948,-2.4314
SALOTTO CAFE BAR RESTAURANT ,BL1 8DY,53.5951,-2.4320
Cinnamon Bean Cafe,BL1 8EY,53.5940,-2.4351
Chesters,BL1 8HE,53.5912,-2.4311
80/20 Health Bar & Kitchen,BL1 8NE,53.5963,-2.4319
Four Seasons Cafe ,BL1 8PE,53.5989,-2.4326
Sai spice restaurant ,BL1 8TS,53.5972,-2.4240
KFC BOLTON TV 02034,BL1 8TT,53.5904,-2.4278
McDonald's Astley Bridge,BL1 8TT,53.5904,-2.4278
Haute Dolci,BL2 1BJ,53.5764,-2.4251
Subway-Bridgeman,BL2 1DE,53.5753,-2.4219
Starbucks Bolton Manchester Road DT,BL2 1HE,53.5701,-2.4201
Jump Xtreme,BL2 1HY,53.5741,-2.4192
Grillicious Bolton Ltd ,BL2 2DL,53.5873,-2.4142
MARMARIS FOOD (BOLTON) LTD,BL2 3BN,53.5981,-2.4107
Grapper restaurant ,BL2 3EW,53.6066,-2.4007
subway,BL3 2NE,53.5690,-2.4156
HAMZAH SWEETS & BAKERS,BL3 3NH,53.5658,-2.4465
Mohammed Bilal Patel t/a Desi Brunch ,BL3 3PY,53.5622,-2.4528
Lagan Restaurant,BL3 4PZ,53.5704,-2.4765
Trufflez,BL3 4QH,53.5665,-2.4674
Bolton Garden Centre,BL3 4RD,53.5615,-2.4771
Tavern Fayre,BL3 4RJ,53.5588,-2.4844
Britannia Bolton Hotel,BL3 4TA,53.5648,-2.4782
A&A Desserts t/a Kaspas Bolton,BL3 5AH,53.5727,-2.4420
Arizona Joe's,BL3 5AH,53.5727,-2.4420
CHAIIWALA BOLTON,BL3 5AH,53.5727,-2.4420
Chilli Flames,BL3 5AH,53.5727,-2.4420
Somalian cafe,BL3 5BP,53.5712,-2.4429
Aroma restaurant ,BL3 5HJ,53.5715,-2.4507
Afghan Chopan,BL3 5HP,53.5727,-2.4463
Hotbite,BL3 5QU,53.5675,-2.4635
Yo'desi,BL3 5QU,53.5675,-2.4635
Dixy chicken bolton,BL3 6AB,53.5748,-2.4282
Achari Restaurant Ltd,BL3 6AS,53.5733,-2.4264
BEST PERSIAN RESTAURANT LTD,BL3 6DS,53.5753,-2.4318
KFC - BOLTON,BL3 6HE,53.5729,-2.4348
Taj Mahal ,BL3 6HE,53.5729,-2.4348
Doner's Empire,BL3 6HG,53.5718,-2.4369
Jojos Chicken Restaurant,BL3 6HG,53.5718,-2.4369
STEAKHOUSE GRILL DERBY STREET,BL3 6HG,53.5718,-2.4369
McDonald's China Gardens,BL3 6HH,53.5716,-2.4365
Kohinoor Bolton ltd,BL3 6JT,53.5697,-2.4391
The Fig And The Olive ,BL3 6JT,53.5697,-2.4391
Chunky Chicken Bolton,BL3 6LH,53.5674,-2.4424
chunky chicken ,BL3 6LH,53.5674,-2.4424
grillaz original limited,BL3 6LS,53.5667,-2.4446
grillaz orignal,BL3 6LS,53.5667,-2.4446
Cafe Pierre,BL3 6NF,53.5721,-2.4349
Taste Bakery Limited t/a Taste,BL3 6SZ,53.5672,-2.4391
unity catering ltd,BL4 0LQ,53.5522,-2.4415
PERI HUT 3,BL4 7LE,53.5544,-2.4020
Farnworth & Kearsley Events Team ,BL4 7ST,53.5518,-2.4063
Krave Dessert (Bolton) Ltd,BL4 9RJ,53.5444,-2.4121
McDonald's Westhoughton,BL5 3AJ,53.5480,-2.5225
The China room,BL5 3AJ,53.5480,-2.5225
Rosa ,BL5 3JD,53.5503,-2.4968
Subway Westhugton ,BL5 3JP,53.5515,-2.5020
Amore coffee &Desserts ltd,BL5 3JT,53.5538,-2.5083
India gate,BL5 3NB,53.5673,-2.5440
Royal Oak Carvery,BL5 3ND,53.5704,-2.5491
La Scala Westhoughton,BL5 3PD,53.5606,-2.5255
Casa Nostra,BL5 3RS,53.5500,-2.5250
Camerons Catering Ltd,BL5 3RZ,53.5514,-2.5244
Airvault Trampoline Park,BL5 3XU,53.5560,-2.5337
Bolton Golf Club Services Limited,BL6 4AJ,53.5827,-2.5117
Sagar Indian restaurant ,BL6 5EE,53.5944,-2.5848
The Hawthorn Willows ,BL6 5HX,53.6007,-2.5869
Rivington Pub & Grill,BL6 5JF,53.5900,-2.5696
Cherry Tree,BL6 5LA,53.6017,-2.5936
Goose and Gander,BL6 5LW,53.5925,-2.5949
The Goose and Gander,BL6 5LW,53.5925,-2.5949
Namma Ooru Dosa,BL6 5NP,53.5945,-2.5457
CHESTERS HORWICH LTD,BL6 5NY,53.5932,-2.5436
Il Toro,BL6 6AA,53.5989,-2.5405
Avocado health bar ,BL6 6EX,53.5885,-2.5322
Empire bar and restaurant ,BL6 6EX,53.5885,-2.5322
Abacus Restaurant,BL6 6JA,53.5835,-2.5352
Lucianos at Middlebrook,BL6 6JA,53.5835,-2.5352
McDonald's Middlebrook ,BL6 6JA,53.5835,-2.5352
Starbucks Middlebrook,BL6 6JA,53.5835,-2.5352
Subway,BL6 6JA,53.5835,-2.5352
subway,BL6 6JZ,53.5896,-2.5338
Curley’s dining room ltd,BL6 6PP,53.5999,-2.5196
Ye Jolly Crofters ,BL6 6RE,53.5977,-2.5193
Boltom Whites Hotel,BL6 6SF,53.5799,-2.5344
THYME DELI,BL6 7AA,53.5992,-2.5468
Home bakery /cafe latte,BL6 7AD,53.5994,-2.5471
Max Italia,BL6 7AE,53.6003,-2.5471
Pizza Paradise Limited,BL6 7AU,53.6008,-2.5470
SPICE VALLEY BAR & RESTAURANT,BL6 7JD,53.6019,-2.5514
bowling green,BL6 7JD,53.6019,-2.5514
CHILL AT THE COWSHED LTD,BL6 7NX,53.5987,-2.5478
Sokrates Greek Taverna (Horwich),BL6 7NZ,53.5981,-2.5486
Rocco's Italian Restaurant,BL6 7QJ,53.6016,-2.5537
Cafe at Spring Cottage,BL6 7SB,53.6232,-2.5622
Great House Barn,BL6 7SB,53.6232,-2.5622
Rivington Hall Barn,BL6 7SB,53.6232,-2.5622
Village green tearooms limited,BL6 7SD,53.6315,-2.5615
The Rivington,BL6 7SE,53.6243,-2.5676
Chetham Arms,BL7 0EW,53.6372,-2.4044
The King William ,BL7 9AN,53.6255,-2.4101
Spread Eagle ,BL7 9DE,53.6150,-2.4244
Retreat Bromley Cross,BL7 9JG,53.6170,-2.4221
The Railway Bromley Cross ,BL7 9LY,53.6146,-2.4113
Hot Chilli,BL7 9PQ,53.6171,-2.4366
Last Drop Village Hotel and Spa,BL7 9PZ,53.6220,-2.4210
Lotties,BL7 9QT,53.6337,-2.4825
San Marino bar and restaurant ,BL7 9QT,53.6337,-2.4825
San Marino,BL7 9QT,53.6337,-2.4825
AK Cafe,BL7 9SB,53.6259,-2.4382
Baker's,BL7 9SN,53.6302,-2.4417
The Thomas Egerton,BL7 9SR,53.6298,-2.4410
Lavender Cafe,L34 2QT,53.4334,-2.7779
Subway,L34 5NQ,53.4268,-2.8010
Pinion Bistro Limited,L34 5QA,53.4292,-2.8046
The Oven Pizzeria & Bar,L34 5QE,53.4287,-2.8048
CHINA CHINA TRADING LTD t/a BEIJING CHINESE RESTAURANT,L34 5QH,53.4296,-2.8027
Poco Bar and Cafe,L34 5QJ,53.4292,-2.8034
Ho’s restaurant ,L34 5RB,53.4300,-2.8010
Tastebuds at the Wharf,L40 1TB,53.6345,-2.8084
The Red Lion,L40 2QP,53.6270,-2.7684
Owd Barn at Bispham Tearoom,L40 3SA,53.6214,-2.7917
The Eagle & Child,L40 3SG,53.6147,-2.7730
Pine Pubs Ltd - Farmers Arms Parbold,L40 3SL,53.6093,-2.7614
CEDAR FARM CAFE,L40 3SY,53.6203,-2.7663
Lugana Restaurant,M28 1AN,53.5086,-2.4322
Queens Subway,M28 1BT,53.5060,-2.4262
The Tea Set,M28 1DN,53.5048,-2.4340
Buffalo Bar and Grill Limited,M28 1FB,53.5030,-2.4161
Shahbaaz Indian Restaurant Limited,M28 1FB,53.5030,-2.4161
Vesuvio Restaurant ,M28 1FB,53.5030,-2.4161
Coal and Cotton,M28 1LR,53.5021,-2.4184
Hug in a Mug,M28 3JH,53.5238,-2.4002
Club 3000 Bingo Walkden,M28 3TZ,53.5254,-2.4003
Purple Lounge,M28 3UD,53.5268,-2.4007
Subway,M28 3ZD,53.5250,-2.4003
Costa Coffee - Walkden,M28 3ZH,53.5250,-2.4004
Lowrys restaurant llp,M28 3ZH,53.5250,-2.4004
McDonald's Walkden,M28 3ZH,53.5250,-2.4004
The Archer,M29 7EJ,53.4940,-2.4719
Zest ,M29 7HX,53.4999,-2.4463
Old Boathouse,M29 7JB,53.4950,-2.4487
LIZHI,M29 7SG,53.4984,-2.4496
La Casa Restaurant and Bar,M29 7SG,53.4984,-2.4496
The Point Astley Ltd,M29 7SG,53.4984,-2.4496
The Tea Room at Damhouse Limited,M29 7TX,53.5045,-2.4558
Cafe Elliott ,M29 8DR,53.5141,-2.4660
TURKHAN,M29 8DS,53.5139,-2.4650
Enzo’s Italian bar and restaurant ,M29 8EQ,53.5148,-2.4719
REMA TANDOORI,M29 8FJ,53.5139,-2.4696
THE GATEHOUSE,M29 8WE,53.5153,-2.4500
Spice 'N' Spirits Indian Kitchen Ltd,M38 9EG,53.5319,-2.4272
THE MOTHI,M44 5AF,53.4308,-2.4340
Cafe Vibe,M44 5BE,53.4375,-2.4285
The Station,M44 5BG,53.4285,-2.4349
The Black Swan,M44 5BT,53.4259,-2.4370
The Boat House,M44 6DN,53.4476,-2.4140
Subway,M44 6EH,53.4502,-2.4151
D’ Grand Haveli ,M44 6FF,53.4514,-2.4137
Fortune Palace,M46 0DA,53.5239,-2.4941
roma cafe-bistro ,M46 0DA,53.5239,-2.4941
Jigsaw Sandwich Bar & Coffee Shop,M46 0DF,53.5236,-2.4969
Curiosity gin emporium,M46 0DP,53.5236,-2.4944
BEFRESH LIMITED,M46 0DR,53.5241,-2.4914
Curry Atherton limited T/a Tamarind Table,M46 0DR,53.5241,-2.4914
RANI MA LTD,M46 0DT,53.5247,-2.4907
The Lamp,M46 0DW,53.5238,-2.4911
The royal ,M46 0LW,53.5251,-2.5038
The Gardeners,M46 0PG,53.5171,-2.5098
McDonald's Tyldesley,M46 9AT,53.5162,-2.4758
The Cabinet,M46 9DE,53.5242,-2.4890
RAMA SPICE ,M46 9LF,53.5287,-2.4781
GLEN BARS LTD T/A THE SPINNERS AT COWLING,PR6 9EA,53.6453,-2.6089
The Black Horse Limbrick,PR6 9EE,53.6415,-2.6036
The bay horse ,PR6 9ER,53.6257,-2.5893
The Yew Tree Inn ,PR6 9HA,53.6322,-2.5817
Lucianos At The Millstone,PR6 9HJ,53.6108,-2.5756
CHORLEY GOLF CLUB LTD,PR6 9HX,53.6296,-2.6014
CARDWELL LEISURE LTD t/a THE CARDWELL,PR6 9LH,53.6205,-2.6019
Elephant and Castle,PR6 9NH,53.6173,-2.5969
SUBWAY,PR7 2BN,53.6499,-2.6287
Big Lamp Chippy & Cafe,PR7 2LA,53.6499,-2.6319
Texas steakhouse ,PR7 3DL,53.6488,-2.6298
Piccolo Italian Restaurant,PR7 3DX,53.6471,-2.6275
Birkacre Nurseries Ltd,PR7 3QL,53.6364,-2.6524
Duxbury Park Golf Course ,PR7 4AT,53.6341,-2.6200
Retreat Adlington,PR7 4EX,53.6137,-2.6053
Bistecca,PR7 4HE,53.6112,-2.6048
Corner house cafe,PR7 4HF,53.6099,-2.6052
Oh My Cod,PR7 5BY,53.6218,-2.6615
The Dog and Partridge ,PR7 5ES,53.6342,-2.6666
THE HINDS HEAD,PR7 5HL,53.6246,-2.6792
The Farmers Arms,PR7 5NP,53.6304,-2.7097
TWO BIRDS TEA ROOM LTD,PR7 5PA,53.6362,-2.7144
The Original Farmers Arms,PR7 5QS,53.6499,-2.7307
Caffe Manna,PR7 5SZ,53.6461,-2.7242
The Cafe,WA10 1AD,53.4515,-2.7338
Cafe Cassandra's Ltd,WA10 1AR,53.4513,-2.7341
McDonald's,WA10 1AX,53.4523,-2.7354
McDonald's,WA10 1BF,53.4503,-2.7394
The Secret Garden,WA10 1BJ,53.4533,-2.7377
cork and dough,WA10 1BJ,53.4533,-2.7377
Jaguarcafe Ltd t/a Cafezinho,WA10 1BN,53.4519,-2.7369
Thai Jaa Restaurant,WA10 1DL,53.4525,-2.7327
Cafe Country Kitchen Ltd,WA10 1EB,53.4527,-2.7339
Jaguarcafe Ltd t/a Cafezinho,WA10 1EB,53.4527,-2.7339
Opera Bingo,WA10 1EQ,53.4536,-2.7306
Mercure St. Helens Hotel Bar & Restaurant ,WA10 1NG,53.4499,-2.7368
The Chinese Buffet,WA10 1NU,53.4515,-2.7386
The Nelson ,WA10 1NU,53.4515,-2.7386
Kaspa's,WA10 1NW,53.4520,-2.7388
Subway,WA10 1NW,53.4520,-2.7388
Superbowl UK St Helens Ltd ,WA10 1QT,53.4519,-2.7437
MILLON RESTAURANT (SH) LTD,WA10 2JE,53.4555,-2.7406
AKESG,WA10 2JF,53.4556,-2.7419
Atlantic Bar & Grill,WA10 2JF,53.4556,-2.7419
C&L (NW) Limited T/A Yang Xing Restaurant ,WA10 2JG,53.4563,-2.7435
The sheesh restaurant,WA10 2JG,53.4563,-2.7435
Brunos Steak House,WA10 2JX,53.4553,-2.7410
Miami Fast Food (Air Nation),WA10 2QS,53.4553,-2.7430
Halabala2,WA10 2RS,53.4544,-2.7389
Limassol Restaurant,WA10 2RS,53.4544,-2.7389
Cake bake,WA10 2SY,53.4543,-2.7395
THE NEW ERA GREEKS,WA10 2TW,53.4564,-2.7395
Subway,WA10 3BD,53.4396,-2.7724
The Bird I'Th Hand,WA10 3HE,53.4470,-2.7583
Sunflower cafe,WA10 3RN,53.4477,-2.7512
Eccleston Arms Bar & Grill,WA10 3TU,53.4485,-2.7553
The Black Bull,WA10 4PX,53.4527,-2.7611
THE GRIFFIN INN (ST HELENS) LTD,WA10 5AD,53.4529,-2.7783
Whistles tearoom,WA10 5JN,53.4607,-2.7765
Stanley Arms,WA10 5PT,53.4502,-2.7940
Subway,WA10 5RG,53.4522,-2.7698
Diya Restaurant limited,WA10 6QY,53.4694,-2.7738
Toast Coffee House and Cafe,WA10 6RG,53.4586,-2.7531
Dentons Deli,WA10 6SH,53.4606,-2.7549
The Ship Inn,WA11 0AB,53.4641,-2.7020
Hotel ibis Styles Haydock,WA11 0GR,53.4723,-2.6652
The Wood Pit,WA11 0LF,53.4693,-2.6564
Bridge Farm Coffee Shop and cafe,WA11 7JT,53.5165,-2.7877
The Junction,WA11 7JU,53.5184,-2.7902
THE BOAT HOUSE/CARRMILL DAM,WA11 7LZ,53.4763,-2.7132
The Derby Arms Rainford,WA11 8EZ,53.4977,-2.7840
The Cottage Tandoori,WA11 8HE,53.5012,-2.7878
The Golden Lion,WA11 8HE,53.5012,-2.7878
The Colliers Arms,WA11 8RD,53.5049,-2.7455
Rachael Lightfoot t/a The Barn at Fir Tree Farm,WA11 8RG,53.5059,-2.7472
Drink out loud limited ,WA11 8RU,53.4930,-2.7496
Woodlands,WA11 9AQ,53.4689,-2.7244
Haydock Park Golf Club Co Ltd,WA12 0HX,53.4633,-2.6091
Newton Deli,WA12 8EW,53.4478,-2.6297
Arcadia Food,WA12 9AN,53.4522,-2.6410
Poco Coffee,WA12 9AN,53.4522,-2.6410
What's Cookin',WA12 9BA,53.4520,-2.6396
McDonald's Earlestown,WA12 9LW,53.4511,-2.6411
Subway Newton,WA12 9SH,53.4575,-2.6196
Amans,WA12 9SL,53.4572,-2.6196
Saffron Restaurant (Merseyside) limited ,WA12 9SL,53.4572,-2.6196
Verona Kitchen and Bar Limited,WA12 9SL,53.4572,-2.6196
The Kirkfield Hotel Ltd,WA12 9SU,53.4558,-2.6151
The Oak Tree,WA12 9UY,53.4576,-2.6242
Duncan's Kitchens Ltd,WA3 2ED,53.4762,-2.5800
Scott's Deli & Catering,WA3 2EY,53.4781,-2.5768
Amans Restaurant & Takeaway ,WA3 2RZ,53.4739,-2.5796
Imperial Court Chinese Restaurant,WA3 2RZ,53.4739,-2.5796
Heaven 'N' Health,WA3 3AD,53.4764,-2.5986
Suhana Indian Restaurant,WA3 3BU,53.4768,-2.5964
McDonald's Stonecross,WA3 3JD,53.4696,-2.5908
The Queen Anne ,WA3 3PZ,53.4702,-2.5994
Partridge Lakes Cafe,WA3 4AQ,53.4476,-2.5327
Leigh Golf Club Limited,WA3 4BG,53.4579,-2.5354
The Raj (WA3) ltd,WA3 4EG,53.4526,-2.5192
Sundial Terrace Coffee House,WA3 4EH,53.4524,-2.5209
Mcdees,WA3 4ER,53.4537,-2.5213
Quench Cafe Ltd,WA3 4ER,53.4537,-2.5213
Culcheth Massala ,WA3 5DL,53.4515,-2.5169
The Culcheth Arms,WA3 5DL,53.4515,-2.5169
The George and Dragon,WA3 5LF,53.4654,-2.4933
The glazebury,WA3 5LL,53.4671,-2.4925
Bents Garden Centre Limited,WA3 5NT,53.4748,-2.4961
Chennai Indian Restaurant ,WA3 5NX,53.4755,-2.4971
The Comfortable Gill,WA3 5NX,53.4755,-2.4971
THAI PARAGON BAR AND RESTAURANT,WA3 5QX,53.4519,-2.5204
Istanbul Grill ,WA3 5SJ,53.4524,-2.5170
Le Brunch Ltd,WA3 5SJ,53.4524,-2.5170
Birchwood spice,WA3 6UG,53.4306,-2.5008
The General Elliot,WA3 7DE,53.4398,-2.5529
The plough inn ,WA3 7DS,53.4487,-2.5580
the horseshoe inn,WA3 7HQ,53.4368,-2.5552
Clare chapman catering  ,WA3 7PB,53.4313,-2.5303
Subway Birchwood,WA3 7PE,53.4251,-2.5370
Halabala,WA9 1AH,53.4523,-2.7228
Subway Ravenhead Retail Park ,WA9 1JF,53.4441,-2.7333
Junction Inn,WA9 3JL,53.4345,-2.6996
Cafe express,WA9 3JN,53.4352,-2.7016
Station House Cafe,WA9 3LA,53.4339,-2.7000
Bull & Dog Hotel ,WA9 4JY,53.4264,-2.7248
Reeve Court,WA9 5AG,53.4279,-2.7619
Sherdley Park Golf Trading Ltd,WA9 5DE,53.4343,-2.7368
Brownedge pub.co limited,WA9 5JR,53.4305,-2.7614
Ei's bistro/bikers bistro,WA9 5PE,53.4362,-2.7592
Lou's Diner,WN1 1AR,53.5483,-2.6322
The Little Kitchen,WN1 1AR,53.5483,-2.6322
Pat & Dad Kitchen and Bar,WN1 1BA,53.5442,-2.6336
SWAN & RAILWAY HOTEL,WN1 1BA,53.5442,-2.6336
Donut king,WN1 1BH,53.5466,-2.6294
Francos Italian Restaurant,WN1 1DG,53.5439,-2.6298
La Sentidos loca restaurant ,WN1 1HX,53.5477,-2.6336
Papa Luigis WIgan,WN1 1JP,53.5532,-2.6281
Subway,WN1 1JU,53.5454,-2.6327
Little Fifteen,WN1 1LD,53.5453,-2.6321
The Raven,WN1 1LD,53.5453,-2.6321
Mr Chips& Cafe Select,WN1 1LR,53.5466,-2.6334
THE MUAY THAI KITCHEN LIMITED,WN1 1LR,53.5466,-2.6334
Starbucks Market Place - Wigan,WN1 1PE,53.5463,-2.6314
Gallimore’s Fine Restsurant ,WN1 1PF,53.5459,-2.6312
Uptown diner,WN1 1PL,53.5471,-2.6318
Country larder,WN1 1QF,53.5481,-2.6320
New Day Bakery,WN1 1QH,53.5480,-2.6310
New Day Cafe,WN1 1QH,53.5480,-2.6310
Cafe Santos Ltd,WN1 1QP,53.5486,-2.6312
Cassinellis Cafe,WN1 1QP,53.5486,-2.6312
The Tudor House Hotel Ltd,WN1 1SE,53.5482,-2.6344
Bap,WN1 1UE,53.5475,-2.6310
McDonalds ,WN1 1UP,53.5485,-2.6297
The Chinese Buffet,WN1 1UP,53.5485,-2.6297
Subway,WN1 1UW,53.5484,-2.6304
The Whitesmiths Arms,WN1 1XA,53.5498,-2.6292
Royal Oak,WN1 1XL,53.5502,-2.6281
Caffe Rosso,WN1 1XR,53.5523,-2.6274
Ella Turkish Restaurant ,WN1 1XR,53.5523,-2.6274
Casino De Cuba,WN1 1YB,53.5464,-2.6307
THE FAT OLIVE RESTAURANT ,WN1 2AD,53.5506,-2.6310
Basmati restaurant wigan,WN1 2LF,53.5535,-2.6281
The Cherry Gardens Hotel,WN1 2NT,53.5631,-2.6304
Wigan Golf Club Limited,WN1 2UH,53.5908,-2.6214
The Crown Hotel,WN1 2XF,53.5971,-2.6414
The White Crow,WN1 2XL,53.6072,-2.6322
Jks kitchen,WN1 3EU,53.5433,-2.6230
The Mount cafe,WN2 1DA,53.5572,-2.6093
Alexanders Coffee Shop ,WN2 1PE,53.5730,-2.6097
Two Left Feet Tap,WN2 1PE,53.5730,-2.6097
SHIVA FOOD AND CATERERS LIMITED,WN2 1PP,53.5669,-2.5872
GERRARD ARMS,WN2 1PZ,53.5627,-2.5647
KFC - WIGAN,WN2 2AT,53.5433,-2.6060
Charlie's coffee factory,WN2 3AN,53.5362,-2.5775
Summat To Ate,WN2 3AN,53.5362,-2.5775
Alisons restaurant ,WN2 3AS,53.5360,-2.5780
mahabharat restaurant,WN2 3AY,53.5345,-2.5802
Gore's Sweet Shop Cafe,WN2 3EE,53.5319,-2.5761
PNBD RESTAURANT LTD,WN2 3PR,53.5307,-2.5710
McDonalds,WN2 5BD,53.5218,-2.5962
The Bucks Head,WN2 5RQ,53.5103,-2.5940
Fresh Choice Cafes Ltd,WN3 4AR,53.5425,-2.6429
Power Kitchen Nutrition Limited,WN3 4DP,53.5449,-2.6376
Hideout,WN3 4HX,53.5418,-2.6320
Shimlar,WN3 4UG,53.5265,-2.6109
Postcode Coffee House,WN3 5AB,53.5411,-2.6417
Foodie Cafe & Resto,WN3 5BD,53.5396,-2.6403
McDonalds ,WN3 6XA,53.5202,-2.6529
Velocity Leisure Ltd Wigan,WN3 6XU,53.5176,-2.6545
Workin Lunch Ltd (Rustic Kitchen),WN4 0AR,53.5009,-2.6474
Park Hotel,WN4 0BY,53.5094,-2.6506
Blend n shake,WN4 9AE,53.4867,-2.6379
The Bistro,WN4 9AE,53.4867,-2.6379
Maxwell’s ,WN4 9AF,53.4871,-2.6387
Bengal Curry Pot,WN4 9AG,53.4865,-2.6373
Chinese Garden restaurant ,WN4 9AG,53.4865,-2.6373
KFC - ASHTON,WN4 9AG,53.4865,-2.6373
PRIMO RESTAURANT,WN4 9AL,53.4865,-2.6382
Costa Coffee - Ashton in Makerfield,WN4 9AN,53.4865,-2.6369
Green Cardamom ,WN4 9BJ,53.4894,-2.6387
The Old Band House Ltd,WN4 9BJ,53.4894,-2.6387
Market Kitchen Limited,WN4 9PL,53.4857,-2.6395
The coffee shop ,WN5 0DU,53.5367,-2.6846
Computionics Ltd,WN5 0LD,53.5522,-2.6718
Heinz,WN5 0LR,53.5537,-2.6754
ISTANBUL BBQ LTD,WN5 0PS,53.5519,-2.6661
KFC - ROBIN PARK,WN5 0UH,53.5452,-2.6532
Subway,WN5 0UH,53.5452,-2.6532
Nutri Licious Restaurant,WN5 0UJ,53.5463,-2.6569
Holts arms,WN5 7DT,53.5186,-2.7149
THE VILLAGE KITCHEN,WN5 7HR,53.5025,-2.7043
Billinge Arms,WN5 7PB,53.4938,-2.7107
Subway,WN5 8BA,53.5361,-2.6828
KFC - PEMBERTON,WN5 8EY,53.5368,-2.6873
La Mamma Pizzeria ,WN5 8EY,53.5368,-2.6873
The Lean Kitchen (Wigan) Ltd,WN5 8JG,53.5347,-2.6865
Pipsqueaks Play Cafe Limited,WN5 8QZ,53.5402,-2.7134
Raj gate limited ,WN5 8QZ,53.5402,-2.7134
The old bank coffee and wine bar,WN5 8TG,53.5328,-2.7113
Gelato House,WN5 8TQ,53.5311,-2.7098
Boars head,WN6 0AD,53.5734,-2.6446
Ajmeer Manzil Indian Restaurant ,WN6 0HA,53.5858,-2.6635
LAMAMA BAR AND RESTAURANT,WN6 0HA,53.5858,-2.6635
Subway,WN6 0HA,53.5858,-2.6635
Fifteens at Standish,WN6 0HD,53.5845,-2.6607
Asylum ,WN6 0HW,53.5866,-2.6629
Secret garden coffee lounge,WN6 0JH,53.5877,-2.6657
Foresters arms,WN6 0SQ,53.5900,-2.6884
Britannia Wigan Hotel,WN6 0SR,53.5894,-2.6850
DISH BAR & RESTAURANT,WN6 0SS,53.5888,-2.6803
Alberts Bar and Restaurant ,WN6 0TD,53.5858,-2.6662
THE OWLS AT STANDISH,WN6 0XD,53.5890,-2.6464
The Raj ,WN6 7LW,53.5511,-2.6483
Aster,WN6 7NQ,53.5534,-2.6568
Gathurst golf club,WN6 8EW,53.5714,-2.7012
Crooke Hall Inn Limited,WN6 8LR,53.5608,-2.6779
The Boathouse Pub & Kitchen,WN6 9DA,53.5779,-2.7202
Pesto at the Dicconson Arms,WN6 9DY,53.5905,-2.7246
Wrightington Hotel & Health Club,WN6 9PB,53.5954,-2.7062
The Rigbye Arms,WN6 9QB,53.6017,-2.7470
YM Roof Ltd,WN6 9RB,53.5915,-2.6951
THE PADDOCK COFFEE HOUSE & RESTAURANT,WN6 9RE,53.5984,-2.6974
The White Lion,WN6 9RE,53.5984,-2.6974
Rivaj of India ,WN6 9RN,53.6084,-2.7017
Cornerhouse,WN6 9SE,53.6163,-2.7042
The Coal Room Ltd,WN7 1DR,53.4970,-2.5186
The Bowling Green ,WN7 2LD,53.4942,-2.4955
Leigh Cricket Tennis & Bowling Club,WN7 3LH,53.4850,-2.5227
Robin Hood,WN7 3PA,53.4798,-2.5390
The Greyhound Hotel,WN7 3XQ,53.4808,-2.5013
Maximillians ,WN7 4AA,53.4967,-2.5207
Uncle stes diner,WN7 4AA,53.4967,-2.5207
Perola Do Mar,WN7 4AN,53.4981,-2.5252
Pitch Side Brasserie at Leigh Sports Village,WN7 4JY,53.4895,-2.5311
Bradshawgate Cafe,WN7 4LA,53.4961,-2.5170
SCRUMPTIOUS,WN7 4LP,53.4962,-2.5191
BJs Bingo,WN7 4LQ,53.4944,-2.5183
All or Muffin,WN7 4LZ,53.4959,-2.5163
McDonald's Leigh Town Centre,WN7 4NB,53.4965,-2.5172
Subway,WN7 4NB,53.4965,-2.5172
Health Shack,WN7 4ND,53.4962,-2.5138
Twentymans ,WN7 4ND,53.4962,-2.5138
Coffee Bar,WN7 4NP,53.4959,-2.5145
Caffe dolce,WN7 4PG,53.4954,-2.5166
Costa Coffee - Leigh Spinning Gate,WN7 4PG,53.4954,-2.5166
Kathryn's Cafe,WN7 4PG,53.4954,-2.5166
Spinning Slots,WN7 4PG,53.4954,-2.5166
nevison country inn,WN7 4QE,53.4942,-2.5505
McDonald's ASDA Leigh,WN7 5RZ,53.5038,-2.5250
KFC - LEIGH,WN7 5SJ,53.4994,-2.5278
McDonald's Parsonage Way,WN7 5SJ,53.4994,-2.5278
Subway Parsonage,WN7 5SJ,53.4994,-2.5278
The Fox,WN8 0QF,53.5603,-2.7291
Leisuretime,WN8 6LB,53.5499,-2.7743
Siesta Coffee,WN8 6LN,53.5499,-2.7743
Subway,WN8 6LN,53.5499,-2.7743
McDonald,WN8 6LQ,53.5499,-2.7743
McDonalds,WN8 6LQ,53.5499,-2.7743
WAYFARER RESTAURANT LTD,WN8 7NL,53.5872,-2.7699
Coffee Etc Cafe,WN8 7NU,53.5899,-2.7700
The Windmill Pub,WN8 7NW,53.5880,-2.7697
YOURS IS THE EARTH LTD,WN8 7NW,53.5880,-2.7697
eden tearoom and galleries,WN8 7UB,53.5871,-2.7907
Mellors Catering Services Ltd,WN8 9PG,53.5310,-2.7652
BALCONY RESTAURANT,WN8 9QD,53.5315,-2.7454
Balcony Restaurant,WN8 9QD,53.5315,-2.7454
LANCASHIRE MANOR HOTEL,WN8 9QD,53.5315,-2.7454
