name,postcode,lat,lon
worm lizard and Songlark,BL1 1AR,53.577472762721400,-2.430419472040580
Maya and Flameback,BL1 1ES,53.577290190000000,-2.424799105000000
green turtle and Badger,BL1 1LL,53.577342930000000,-2.427805000000000
Asiatic leopard and Gila monster,BL1 1PT,53.578108800000000,-2.424610977000000
blindworm and Vole,BL1 1SE,53.577383790000000,-2.431294229000000
Mockingbird and mamba,BL1 1TS,53.580070840000000,-2.426412888000000
elapid and Petrel,BL1 2DJ,53.582534750000000,-2.431120124000000
king snake and Nukupuʻu,BL1 2EF,53.581995760000000,-2.428531784000000
Fulmarine petrel and diamond python,BL1 2JX,53.578947000000000,-2.434332090000000
Argus and king snake,BL1 2LD,53.581815110000000,-2.436233168000000
deaf adder and bushmaster,BL1 2LH,53.584629230000000,-2.430779000000000
cobra and Quetzal,BL1 2LQ,53.584534170000000,-2.434977231000000
dukite and sidewinder,BL1 2NP,53.585204350000000,-2.431101991000000
turtle and Mamo,BL1 2NQ,53.584207010000000,-2.431001205000000
Magpie and galliwasp,BL1 2QQ,53.584137780000000,-2.442571059000000
Parrotlet and Kākāriki,BL1 2QW,53.586394210000000,-2.440041736000000
tree snake and Puffleg,BL1 2RF,53.584855980000000,-2.435463911000000
constrictor and cobra de capello,BL1 2RZ,53.581641150000000,-2.424631293000000
Elephant and slowworm,BL1 2SS,53.583523860000000,-2.425994514000000
Lemming and Old World quail,BL1 2TT,53.585336240000000,-2.419290763000000
constrictor and rock python,BL1 2XW,53.582671950000000,-2.435426345000000
bearded dragon and Hawaiian honeycreeper,BL1 3AH,53.582611660000000,-2.442056656000000
monitor and bicycle lizard,BL1 3AX,53.585436560000000,-2.446209988000000
Thicketbird and loggerhead,BL1 3BD,53.584808990000000,-2.448182184000000
Dolphin and bull snake,BL1 3BR,53.586038760000000,-2.448618165000000
Boto and frilled lizard,BL1 3DW,53.588488910000000,-2.439927549000000
Myna and terrapin,BL1 3HX,53.588419460000000,-2.444126489000000
swift and Stint,BL1 3JD,53.592978390000000,-2.446047756000000
slowworm and Magpie,BL1 3NA,53.590876500000000,-2.438381174000000
White ibis and Thrasher,BL1 3QD,53.592443900000000,-2.437445595000000
Komodo dragon and Moluccan boobook,BL1 3QH,53.589823000000000,-2.431481383000000
gecko and Hawaiian honeycreeper,BL1 3SE,53.589067510000000,-2.431609645000000
Stint and boomslang,BL1 3SP,53.591507770000000,-2.437813616000000
Gila monster and agama,BL1 3ST,53.587384540000000,-2.437151615000000
frilled lizard and hoop snake,BL1 3TT,53.590426220000000,-2.438618230000000
Prion and giant tortoise,BL1 3UH,53.591704310000000,-2.433207749000000
carpet snake and blue tongue,BL1 4AW,53.581021130000000,-2.437055712000000
Piping shrike and Jackal,BL1 4DS,53.582429160000000,-2.452401378000000
gecko and cobra,BL1 4ET,53.585791585757000,-2.460564513572860
Eagle and gaboon viper,BL1 4GQ,53.587192151375700,-2.458646146321510
White ibis and sand viper,BL1 4HJ,53.582803660000000,-2.450819385000000
cerastes and rock snake,BL1 4JG,53.586946950000000,-2.450908822000000
Magpie and Coati,BL1 4RU,53.577459880000000,-2.444872411000000
Cloud rat and gecko,BL1 4TP,53.577323000000000,-2.433408000000000
Magpie and blue tongue,BL1 4UE,53.584393740000000,-2.451047789000000
tuatara and bandy-bandy,BL1 5AJ,53.581083660000000,-2.479378026000000
White ibis and boomslang,BL1 5BB,53.582044590000000,-2.481820721000000
kabaragoya and python,BL1 5BJ,53.578058150000000,-2.464814672000000
Thicketbird and River dolphin,BL1 5BW,53.580281010000000,-2.473282102000000
hoop snake and Pitohui,BL1 5BX,53.575318330000000,-2.464391952000000
ringhals and Night heron,BL1 5DH,53.579454920000000,-2.477592477000000
goanna and Black cockatoo,BL1 5DL,53.576084000000000,-2.486767000000000
diamondback terrapin and diamondback,BL1 5ED,53.584385980000000,-2.471696614000000
snapping turtle and Siskin,BL1 5HP,53.581252110000000,-2.464019001000000
bull snake and leathery turtle,BL1 5LU,53.586742540000000,-2.464396401000000
king snake and rock snake,BL1 5RN,53.591300910000000,-2.464068714000000
cerastes and leathery turtle,BL1 5RU,53.591784460000000,-2.462215742000000
Kākāriki and Schneider python,BL1 5RY,53.592079080000000,-2.483188895000000
sidewinder and New World blackbird,BL1 5SJ,53.590169040000000,-2.473075388000000
Perching duck and Viscacha,BL1 5SP,53.590676480000000,-2.476570897000000
dukite and Quetzal,BL1 5SX,53.591441560000000,-2.480794586000000
mud turtle and Old World quail,BL1 5UL,53.597210010000000,-2.472292826000000
tree snake and Coati,BL1 5UR,53.593936610000000,-2.475111000000000
Diving bird and puff adder,BL1 6BW,53.589609430000000,-2.452780250000000
death adder and American sparrow,BL1 6EL,53.591417000000000,-2.455232000000000
rat snake and hawksbill,BL1 6HH,53.592702660000000,-2.457179617000000
sand viper and Wader,BL1 6HR,53.593534840000000,-2.458155552000000
Ice seal and Marsh harrier,BL1 6JL,53.597812130000000,-2.453744388000000
tiger snake and Perching duck,BL1 6JY,53.599517040000000,-2.456860355000000
garter snake and anaconda,BL1 6LJ,53.599942090000000,-2.460869311000000
alligator and python,BL1 6LL,53.600138780000000,-2.461143450000000
massasauga and milk snake,BL1 6QN,53.602274390000000,-2.438197020000000
taipan and Wallaby,BL1 7DQ,53.610397460000000,-2.441288958000000
horned viper and Francolin,BL1 7DU,53.611891690000000,-2.443133471000000
rock snake and Vole,BL1 7DX,53.608398930000000,-2.439696272000000
Eagle and adder,BL1 7EQ,53.605957520000000,-2.433837298000000
glass snake and tuatara,BL1 7ES,53.607616730000000,-2.432358073000000
python and Shearwater,BL1 7JL,53.609219920000000,-2.431452497000000
sand lizard and Elephant,BL1 7LB,53.612428990000000,-2.428885407000000
Tit-tyrant and Peafowl,BL1 7LE,53.612238780000000,-2.429291588000000
milk snake and leathery turtle,BL1 7QT,53.595595000000000,-2.493743000000000
Recurvebill and galliwasp,BL1 7RW,53.611307810000000,-2.423175737000000
asp and Logrunners,BL1 7SL,53.603860000000000,-2.456801000000000
mamba and Partridge,BL1 8DQ,53.594424360000000,-2.441515233000000
diamondback and thorn lizard,BL1 8FH,53.588487400000000,-2.425440191000000
frilled lizard and Hawaiian honeycreeper,BL1 8FU,53.594496000000000,-2.419306000000000
diamond python and Partridge,BL1 8HJ,53.591521420000000,-2.426573554000000
saltwater crocodile and New World blackbird,BL1 8LJ,53.595066490000000,-2.430567858000000
Meadowlark and Philippine hawk-owl,BL1 8NB,53.597375030000000,-2.433462224000000
black snake and Hawk,BL1 8NJ,53.597619180000000,-2.433056755000000
whip snake and Shearwater,BL1 8NL,53.598052570000000,-2.432517225000000
snapping turtle and Ground sloth,BL1 8PD,53.600013050000000,-2.432235047000000
leguaan and Night heron,BL1 8PE,53.598897120000000,-2.432616520000000
Treepie and Booted eagles,BL1 8QN,53.600701170000000,-2.435808290000000
sidewinder and Kangaroo,BL1 8RX,53.605595930000000,-2.421698000000000
Boto and cycling lizard,BL1 8RZ,53.605152960000000,-2.422570115000000
snake and cobra de capello,BL1 8TE,53.601556930000000,-2.427823183000000
fer-de-lance and chameleon,BL1 8TG,53.600466970000000,-2.425968623000000
Skunk and Snipe,BL1 8WD,53.594426310000000,-2.423581065000000
Puffleg and Rabbit,BL1 8XP,53.595225690000000,-2.416064727000000
anole and glass snake,BL1 9PT,53.588487400000000,-2.425440191000000
Tahr and Jerboa,BL1 9SJ,53.578230570000000,-2.430774245000000
Masked owl and Maya,BL1 9UN,53.588492317668400,-2.425440538777890
boa and ringhals,BL1 9YG,53.588504000000000,-2.425423000000000
diamond snake and Chickadee,BL1 9YP,53.588504000000000,-2.425423000000000
copperhead and king cobra,BL2 1DG,53.574711740000000,-2.422205000000000
tuatara and habu,BL2 1ET,53.571776000000000,-2.421331000000000
Nukupuʻu and milk snake,BL2 1HY,53.574147000000000,-2.419240000000000
Hawaiian honeycreeper and agamid,BL2 1LR,53.571603930000000,-2.413582668000000
jew lizard and Thicketbird,BL2 1NN,53.573311470000000,-2.421150000000000
Black cockatoo and tokay,BL2 2AL,53.581439710000000,-2.418028738000000
leathery turtle and Piping shrike,BL2 2DN,53.587670430000000,-2.414933020000000
Old World vulture and Myna,BL2 2ES,53.585850900000000,-2.410851736000000
amethystine python and worm lizard,BL2 2EZ,53.584267080000000,-2.411395259000000
Goose and Flameback,BL2 2HB,53.584744020000000,-2.411233734000000
blue tongue and frill-necked lizard,BL2 2HW,53.594710130000000,-2.409185097000000
massasauga and diamond python,BL2 2JG,53.591632950000000,-2.412720796000000
galliwasp and Solitaire,BL2 2JQ,53.591667550000000,-2.413113937000000
turtle and Ice seal,BL2 2JS,53.594799400000000,-2.411981117000000
Triller and Ground sloth,BL2 2JZ,53.592996030000000,-2.411026848000000
gaboon viper and Grackle,BL2 2NJ,53.593106070000000,-2.407764513000000
Schneider python and slowworm,BL2 2QL,53.587951070000000,-2.409134869000000
bicycle lizard and Rat,BL2 2RJ,53.580729940000000,-2.407524493000000
diamondback and king cobra,BL2 2SW,53.583380480000000,-2.402520079000000
whip snake and gavial,BL2 2SX,53.581752680000000,-2.405449943000000
monitor and king cobra,BL2 2UJ,53.588997140000000,-2.415958186000000
Capuchin and Francolin,BL2 3DB,53.603214170000000,-2.406229833000000
Flameback and Recurvebill,BL2 3DL,53.601832320000000,-2.405536550000000
Parrotlet and mud turtle,BL2 3EA,53.606734700000000,-2.407079752000000
Recurvebill and carpet snake,BL2 3EN,53.608337670000000,-2.400853185000000
Condor and Old World warbler,BL2 6BF,53.580406580000000,-2.412701993000000
asp and Solitaire,BL2 6BR,53.578524630000000,-2.403153563000000
Puffleg and Condor,BL2 6BS,53.578581610000000,-2.402247916000000
amethystine python and Hawaiian honeycreeper,BL3 2AX,53.564613730000000,-2.423071592000000
Meadowlark and Treepie,BL3 2BS,53.563798050000000,-2.427487137000000
bull snake and mud turtle,BL3 2ED,53.560680920000000,-2.426972594000000
wall lizard and Komodo dragon,BL3 2EJ,53.558075410000000,-2.426659522000000
Mole and dukite,BL3 2ES,53.558585240000000,-2.422301894000000
Chickadee and rock python,BL3 2HY,53.558479760000000,-2.419070295000000
gaboon viper and Wallaby,BL3 2JF,53.557514230000000,-2.417581371000000
Rabbit and rattlesnake,BL3 2JJ,53.567964750000000,-2.426064538000000
Black jay and Darwin's finches,BL3 2LB,53.560251450000000,-2.416219452000000
anole and Linsang,BL3 2LP,53.557756280000000,-2.412587061000000
American sparrow and elapid,BL3 2NT,53.564352010000000,-2.415686004000000
Philippine hawk-owl and deaf adder,BL3 2QY,53.568038110000000,-2.415435283000000
swift and Myna,BL3 3AB,53.564921140000000,-2.439999877000000
diamondback and cobra,BL3 3JS,53.559933590000000,-2.446998180000000
Parrotbill and Nukupuʻu,BL3 3PZ,53.561242680000000,-2.454998312000000
mountain devil and Myna,BL3 3QF,53.558616040000000,-2.457883657000000
boa constrictor and leathery turtle,BL3 3RD,53.558786360000000,-2.455651267000000
anaconda and Buzzard,BL3 3RP,53.560564260000000,-2.456228000000000
Jerboa and Gull,BL3 3RU,53.556198140000000,-2.457887727000000
tokay and blind snake,BL3 3SG,53.556502200000000,-2.465272632000000
gavial and Chipmunk,BL3 3SS,53.555408000000000,-2.469502000000000
Grosbeak and Coati,BL3 4BE,53.566083630000000,-2.453631014000000
habu and jew lizard,BL3 4EP,53.563865110000000,-2.457925278000000
Vulture and Condor,BL3 4HQ,53.566465610000000,-2.459523668000000
Zebra and Guillemot,BL3 4HS,53.565378160000000,-2.457141410000000
Boto and Duck,BL3 4HY,53.564122460000000,-2.458788648000000
tiger snake and Perching duck,BL3 4JY,53.562494670000000,-2.463677703000000
goanna and dukite,BL3 4LQ,53.558394200000000,-2.464131009000000
Duck and Pratincole,BL3 4PN,53.573373860000000,-2.476572527000000
Pitohui and hawksbill,BL3 4QN,53.564908220000000,-2.469396186000000
alligator and Greenbul,BL3 4QU,53.562414170000000,-2.468190958000000
Peafowl and Wader,BL3 4TL,53.559681260000000,-2.466001971000000
turtle and Mamo,BL3 4TT,53.569803220000000,-2.477136362000000
Maya and boa constrictor,BL3 4XP,53.564388090000000,-2.475912827000000
gavial and Hawaiian honeycreeper,BL3 4XT,53.563942930000000,-2.477100569000000
cobra de capello and harlequin snake,BL3 4XX,53.560013690000000,-2.470625184000000
chuckwalla and Pitohui,BL3 5BS,53.571365560000000,-2.437727000000000
Gila monster and elapid,BL3 5DR,53.574281220000000,-2.441577066000000
brown snake and taipan,BL3 5DW,53.573758350000000,-2.441994457000000
Francolin and Tattler,BL3 5EB,53.573238710000000,-2.443967303000000
python and loggerhead,BL3 5ER,53.573495740000000,-2.447836000000000
Masked owl and diamond snake,BL3 5JE,53.571725130000000,-2.444917887000000
king cobra and dukite,BL3 5JN,53.570938000000000,-2.446691000000000
Vulture and Ibex,BL3 5LS,53.568669870000000,-2.444704605000000
Elephant and Chicken,BL3 5PH,53.570619210000000,-2.449813888000000
Treepie and goanna,BL3 6AP,53.569316687774700,-2.438837837546400
Parrotlet and indigo snake,BL3 6BH,53.570943290000000,-2.425112966000000
Moluccan boobook and saltwater crocodile,BL3 6BN,53.569732000000000,-2.427290000000000
Mole and New World blackbird,BL3 6DF,53.573655927959900,-2.427013066333180
saltwater crocodile and Nukupuʻu,BL3 6DP,53.571215770000000,-2.423696000000000
swift and Kangaroo,BL3 6LQ,53.567326550000000,-2.445792745000000
Parrotlet and turtle,BL3 6LR,53.566823160000000,-2.443282000000000
Badger and Mole,BL3 6NJ,53.566736500000000,-2.427697973000000
American sparrow and tuatara,BL3 6PB,53.566990870000000,-2.429286000000000
habu and Parrotbill,BL3 6RH,53.567439850000000,-2.432068746000000
Fox and Myna,BL3 6RN,53.565712670000000,-2.432458795000000
bearded lizard and Darwin's finches,BL3 6TP,53.566199000000000,-2.442384000000000
worm lizard and whip snake,BL3 6TT,53.565714230000000,-2.441865241000000
Petrel and alligator,BL3 6TW,53.566536100000000,-2.443232714000000
swift and Treepie,BL3 6UR,53.564789000000000,-2.437220000000000
Francolin and Coati,BL3 6UX,53.565066420000000,-2.434686758000000
Guillemot and Maya,BL3 6UY,53.565073260000000,-2.435275665000000
Ice seal and Greenbul,BL3 6XB,53.571127520000000,-2.436349608000000
chameleon and Fish eagle,BL4 0AH,53.546709180000000,-2.415286629000000
boomslang and milk snake,BL4 0DB,53.551128898865300,-2.451691000000000
anole and chameleon,BL4 0DP,53.551794800000000,-2.418385365000000
Fox and bull snake,BL4 0EB,53.553727130000000,-2.418434627000000
Pratincole and Stint,BL4 0EF,53.552707720000000,-2.419496235000000
Eagle and blind snake,BL4 0EH,53.550829530000000,-2.419387089000000
Rat and Elephant,BL4 0EP,53.551162390000000,-2.416733941000000
worm lizard and Puffleg,BL4 0EW,53.549338880000000,-2.418979930000000
jew lizard and cobra,BL4 0HN,53.553127560000000,-2.422790907000000
Chickadee and milk snake,BL4 0HW,53.553707340000000,-2.424049518000000
sea snake and death adder,BL4 0LS,53.588202000000000,-2.538918000000000
viper and leguaan,BL4 0NS,53.546397380000000,-2.432383000000000
Ibex and Rat,BL4 0PD,53.548276430000000,-2.432114902000000
boomslang and Snipe,BL4 0PH,53.548143390000000,-2.439025842000000
sand lizard and Vulture,BL4 0PQ,53.547621490000000,-2.436726428000000
perentie and Chipmunk,BL4 0QG,53.545078990000000,-2.428943335000000
rat snake and sea snake,BL4 7ES,53.550461370000000,-2.406267490000000
Buzzard and horned toad,BL4 7ET,53.551494360000000,-2.401145593000000
Civet and gopher snake,BL4 7HJ,53.554105610000000,-2.410377922000000
B and Bronzewing pigeon,BL4 7HR,53.555152560000000,-2.414342904000000
Black cockatoo and Towhee,BL4 7HT,53.555581370000000,-2.415101846000000
black snake and fer-de-lance,BL4 7JA,53.554941500000000,-2.405117947000000
indigo snake and Flameback,BL4 7JW,53.554310220000000,-2.400402422000000
Myna and River dolphin,BL4 7NJ,53.554720040000000,-2.406806434000000
cobra and tokay,BL4 9LX,53.540010230000000,-2.400237212000000
Pheasant and flying lizard,BL4 9QA,53.543939140000000,-2.407925351000000
Duck and River dolphin,BL4 9QY,53.543636720000000,-2.401674880000000
Maya and Schneider python,BL4 9RE,53.543629000000000,-2.414728000000000
caiman and perentie,BL4 9SP,53.540367090000000,-2.408992528000000
Puffleg and Zebra,BL4 9TA,53.540901930000000,-2.412905933000000
hoop snake and cayman,BL4 9TF,53.540980960000000,-2.410839402000000
blind snake and Booted eagles,BL5 1AH,53.550003620000000,-2.465261682000000
tortoise and Shearwater,BL5 1BP,53.544856820000000,-2.464345009000000
Greenbul and death adder,BL5 2AP,53.534126460000000,-2.536873397000000
New World blackbird and alligator,BL5 2DD,53.542933600000000,-2.556859163000000
Argus and Fulmarine petrel,BL5 2EE,53.541384440000000,-2.543876495000000
Tattler and Puffleg,BL5 2ES,53.540283760000000,-2.522631290000000
Masked owl and Polecat,BL5 2HA,53.538693640000000,-2.520378519000000
diamondback and Rat,BL5 2JE,53.545233450000000,-2.517108486000000
Cuscus and tortoise,BL5 2JG,53.542676630000000,-2.515975706000000
Wallaby and goanna,BL5 2JX,53.535990150000000,-2.517840732000000
Boto and diamond python,BL5 2JY,53.537882590000000,-2.516717090000000
Thrasher and Tree warbler,BL5 2LG,53.545628480000000,-2.519286480000000
python and kabaragoya,BL5 2LQ,53.545844590000000,-2.519198577000000
bearded lizard and Viscacha,BL5 2PE,53.541238730000000,-2.524182233000000
Magpie and Grosbeak,BL5 2PQ,53.543074370000000,-2.525774345000000
cayman and Warbler,BL5 2QJ,53.541910560000000,-2.514366826000000
Mockingbird and kabaragoya,BL5 2RB,53.533704410000000,-2.530742621000000
black snake and thorny devil,BL5 2RE,53.533182350000000,-2.528880378000000
deaf adder and glass snake,BL5 2RG,53.532018590000000,-2.523721315000000
Grouse and boomslang,BL5 2RZ,53.536672860000000,-2.532258418000000
Grosbeak and cobra,BL5 2TA,53.533983250000000,-2.524590462000000
Komodo dragon and New World blackbird,BL5 3AW,53.548831480000000,-2.520638768000000
agama and Marmoset,BL5 3BP,53.550963500000000,-2.522295038000000
habu and Mamo,BL5 3BZ,53.548622170000000,-2.517089444000000
bearded dragon and taipan,BL5 3DL,53.549445800000000,-2.517854132000000
green turtle and bull snake,BL5 3DP,53.554862750000000,-2.516486300000000
Kestrel and blue racer,BL5 3EL,53.555331130000000,-2.505744400000000
king cobra and mamba,BL5 3ES,53.555735420000000,-2.510021135000000
Snipe and Perching duck,BL5 3FB,53.549877000000000,-2.494480000000000
Chickadee and habu,BL5 3HU,53.550094760000000,-2.500550285000000
milk snake and sea snake,BL5 3LR,53.564310300000000,-2.518398124000000
tokay and Fulmarine petrel,BL5 3LW,53.548710470000000,-2.529768311000000
viper and turtle,BL5 3NW,53.565820190000000,-2.552554771000000
kabaragoya and Capuchin,BL5 3PE,53.561166780000000,-2.528112360000000
gavial and Mockingbird,BL5 3PS,53.560859560000000,-2.524394686000000
Bronzewing pigeon and cycling lizard,BL5 3RE,53.547760490000000,-2.529137658000000
harlequin snake and Schneider python,BL5 3RT,53.549648810000000,-2.524889921000000
wall lizard and Tahr,BL5 3SG,53.552141320000000,-2.524271746000000
Vulture and racer,BL5 3SP,53.553953110000000,-2.525154538000000
Snipe and amphisbaena,BL5 3ST,53.554638510000000,-2.524634714000000
constrictor and carpet snake,BL5 3TQ,53.551510740000000,-2.526633644000000
boa and Stilt,BL5 3XA,53.559491000000000,-2.535277000000000
sand viper and Fish eagle,BL5 3XX,53.557051940000000,-2.535774932000000
agama and Komodo dragon,BL6 4DN,53.580659410000000,-2.501727089000000
Meadowlark and carpet snake,BL6 4EA,53.573374640000000,-2.496264714000000
massasauga and sea snake,BL6 4HG,53.562190560000000,-2.501176260000000
Capuchin and Snipe,BL6 4JX,53.578189460000000,-2.494810820000000
hognose snake and worm lizard,BL6 4LN,53.583067840000000,-2.518688144000000
Lemming and glass snake,BL6 5AF,53.593289550000000,-2.584535404000000
whip snake and terrapin,BL6 5AH,53.593418180000000,-2.582119808000000
swift and Dorcopsis,BL6 5AL,53.592285930000000,-2.582058914000000
Bunting and Hawk,BL6 5AR,53.592662360000000,-2.580432392000000
python and dugite,BL6 5BA,53.590598080000000,-2.576083326000000
chameleon and Ground sloth,BL6 5BS,53.588270540000000,-2.572244759000000
frill-necked lizard and python,BL6 5DB,53.591917370000000,-2.583912136000000
Greenbul and tuatara,BL6 5DL,53.593744240000000,-2.581610596000000
agamid and tuatara,BL6 5DP,53.594339430000000,-2.583054120000000
giant tortoise and Wallaby,BL6 5DT,53.594308380000000,-2.580198111000000
Schneider python and chuckwalla,BL6 5EL,53.595001880000000,-2.583607174000000
soft-shelled turtle and bearded lizard,BL6 5GG,53.577520000000000,-2.561150000000000
Eagle and Greenbul,BL6 5GJ,53.588220000000000,-2.564268000000000
skink and king snake,BL6 5HQ,53.595174690000000,-2.562547333000000
blue racer and diamondback turtle,BL6 5NN,53.594135450000000,-2.544327402000000
Night heron and leguaan,BL6 5NX,53.593553000000000,-2.544093000000000
diamondback terrapin and Dorcopsis,BL6 5PP,53.592913720000000,-2.542196521000000
Rat and blind snake,BL6 5QE,53.598100340000000,-2.549999397000000
iguana and Ice seal,BL6 5RN,53.596215240000000,-2.559161511000000
Flameback and soft-shelled turtle,BL6 5SG,53.578780780000000,-2.568053735000000
soft-shelled turtle and worm lizard,BL6 5TP,53.589271700000000,-2.577137882000000
Warbler and king snake,BL6 5TR,53.589480770000000,-2.578062000000000
harlequin snake and frilled lizard,BL6 5UA,53.593896550000000,-2.543493351000000
kabaragoya and Chickadee,BL6 5UJ,53.592941000000000,-2.591011000000000
Mamo and Ground sloth,BL6 6BR,53.598005000000000,-2.537578000000000
lizard and bushmaster,BL6 6EU,53.587111690000000,-2.527121670000000
Mockingbird and constrictor,BL6 6FZ,53.589322000000000,-2.535534000000000
Chickadee and wall lizard,BL6 6GB,53.589525000000000,-2.536034000000000
bearded dragon and habu,BL6 6GG,53.596485000000000,-2.508956000000000
Mouse and Scimitar babbler,BL6 6JQ,53.588836570000000,-2.523230458000000
adder and tiger snake,BL6 6JY,53.590022190000000,-2.533593630000000
Parrotlet and Thrasher,BL6 6NJ,53.590693600000000,-2.528133153000000
king snake and Mamo,BL6 6NN,53.591234860000000,-2.525647125000000
Black jay and Ice seal,BL6 6PP,53.599890040000000,-2.519619620000000
Peafowl and Prion,BL6 6PZ,53.595708920000000,-2.498868490000000
Tahr and Flameback,BL6 6RA,53.596540760000000,-2.521360000000000
Night heron and Peafowl,BL6 6SX,53.586200050000000,-2.542050124000000
Egret and moloch,BL6 6TF,53.590489860000000,-2.525411263000000
goanna and Chicken,BL6 7AS,53.601382450000000,-2.547745120000000
sidewinder and bearded lizard,BL6 7AW,53.601679950000000,-2.547552521000000
River dolphin and crocodile,BL6 7DT,53.604132200000000,-2.543957283000000
Egret and Jay,BL6 7EP,53.603894400000000,-2.538906722000000
Goose and Civet,BL6 7EU,53.602622480000000,-2.539918129000000
slowworm and Parrotbill,BL6 7HY,53.600817170000000,-2.549385000000000
Mamo and Lemming,BL6 7JY,53.603293090000000,-2.552499932000000
chameleon and Parakeet,BL6 7NT,53.598801000000000,-2.548134803000000
Kangaroo and hognose snake,BL6 7PN,53.597954350000000,-2.548516703000000
dugite and puff adder,BL6 7QQ,53.602546080000000,-2.554651168000000
horned toad and Ground sloth,BL6 7QT,53.596594080000000,-2.560798363000000
Scimitar babbler and Parrotbill,BL6 9DJ,53.588200640000000,-2.538918439000000
iguana and Asiatic leopard,BL6 9ED,53.588200640000000,-2.538918439000000
Puffleg and cycling lizard,BL6 9HW,53.588205738676300,-2.538918819449460
boa constrictor and Egret,BL6 9JU,53.588218000000000,-2.538918000000000
rock python and American sparrow,BL7 0EL,53.635596370000000,-2.404348140000000
Asiatic leopard and copperhead,BL7 0EZ,53.638075000000000,-2.405310000000000
Wader and dukite,BL7 0FA,53.638381670000000,-2.404662159000000
snapping turtle and Pheasant,BL7 8BT,53.637609000000000,-2.490725000000000
saltwater crocodile and blue tongue,BL7 9BD,53.620024450000000,-2.431290610000000
Black cockatoo and Recurvebill,BL7 9BT,53.616291910000000,-2.421880228000000
Jerboa and Eagle,BL7 9DQ,53.614672950000000,-2.429754661000000
Dolphin and blind snake,BL7 9DT,53.616439390000000,-2.430936597000000
sidewinder and thorn lizard,BL7 9ET,53.622242790000000,-2.431781919000000
Jay and rock snake,BL7 9GL,53.618558020000000,-2.426649714000000
tiger snake and Stilt,BL7 9GX,53.620929000000000,-2.422395000000000
Black jay and Grackle,BL7 9HY,53.619789710000000,-2.429081004000000
hawksbill and krait,BL7 9JU,53.616566460000000,-2.417922383000000
Mamo and Linsang,BL7 9NB,53.616405850000000,-2.412403210000000
Peafowl and agama,BL7 9ND,53.619528540000000,-2.411314949000000
constrictor and Wader,BL7 9SL,53.629102460000000,-2.441196901000000
Solitaire and Chicken,BL7 9SQ,53.628445830000000,-2.436426936000000
White ibis and constrictor,BL7 9XJ,53.630821210000000,-2.443089949000000
cobra de capello and turtle,BL7 9YG,53.613848620000000,-2.408493525000000
Eagle and New World blackbird,BL7 9ZD,53.623682063888800,-2.435304591486370
diamond snake and taipan,BL78 1AA,53.554956000000000,-2.403487852000000
New World blackbird and Towhee,L34 1LU,53.425713358183100,-2.812321000000000
bull snake and terrapin,L34 1QH,53.426217521180700,-2.805375000000000
dukite and Recurvebill,L34 2RJ,53.429832446624100,-2.786616274159200
Eagle and dukite,L34 2RZ,53.432112979094700,-2.784280260838320
constrictor and rock python,L34 2SL,53.430973957272700,-2.796119550213300
mud turtle and Snipe,L34 2SX,53.429078817694400,-2.793194442803400
iguana and Shearwater,L34 2TH,53.430411423085000,-2.786055033678490
sidewinder and Magpie,L34 2TS,53.435575897934900,-2.783937617508990
Diving bird and boa constrictor,L34 3LJ,53.429581000000000,-2.806992858357060
Parakeet and Wader,L34 3NA,53.431461000000000,-2.812034587838460
Bronzewing pigeon and Tahr,L34 5QL,53.429514029524700,-2.802052294748320
dugite and Skunk,L34 5RU,53.429495651811700,-2.800772648752100
diamondback and viper,L34 6HU,53.431805000000000,-2.802391874568310
monitor and king cobra,L34 6JA,53.430128801924400,-2.798842998740820
Moluccan boobook and Nukupuʻu,L34 6JF,53.431109324480600,-2.797386377480720
turtle and snapping turtle,L34 6JL,53.431510496097700,-2.800569712308860
monitor and Philippine hawk-owl,L35 7JT,53.429387938100300,-2.783131391625800
Old World vulture and blue tongue,L35 7JX,53.428997000000000,-2.783967000000000
fer-de-lance and Thicketbird,L35 7LG,53.428719066509600,-2.786430158129930
Marsh harrier and Minke whale,L35 7LZ,53.428377953576600,-2.782254961474790
goanna and mud turtle,L40 2QP,53.626989290230000,-2.768416000000000
turtle and skink,L40 2QT,53.629060036272600,-2.769404995787310
Darwin's finches and slowworm,L40 2QX,53.630415808268500,-2.744055032297950
Meadowlark and tortoise,L40 2RA,53.639647369627600,-2.745427564130020
Masked owl and sand viper,L40 2RQ,53.637459588167100,-2.748882730307450
harlequin snake and Badger,L40 3AB,53.615729615846200,-2.775058031354330
Parakeet and Wader,L40 3SJ,53.614468000000000,-2.764514000000000
Pratincole and Diving bird,M28 0HF,53.524378797197900,-2.423861957040700
Recurvebill and adder,M28 0HU,53.522303118723200,-2.418577203631810
Mockingbird and goanna,M28 0JN,53.522738512795300,-2.427616400876260
Fox and smooth snake,M28 0JX,53.524040992623000,-2.420253561267110
lizard and Skunk,M28 0SP,53.523944152809300,-2.406677242782470
Buzzard and Francolin,M28 1AY,53.507307414475400,-2.429541717743240
Ibex and Polecat,M28 1BT,53.506007830785600,-2.426166000000000
Marsh harrier and racer,M28 1DW,53.504475203383000,-2.434744728593490
River dolphin and copperhead,M28 1EJ,53.508844928587000,-2.429406488836620
Magpie and boomslang,M28 1HH,53.504684444350100,-2.413789978904040
black snake and massasauga,M28 1PP,53.505250351543100,-2.426671336287260
Tattler and box turtle,M28 1SA,53.508589844242600,-2.432841759212440
Scimitar babbler and horned toad,M28 1SB,53.505734072022700,-2.432134170758550
Chickadee and adder,M28 1UX,53.499413418225100,-2.420024908252710
Wallaby and Towhee,M28 1YA,53.498682431573200,-2.425926989295020
saltwater crocodile and Wader,M28 1YD,53.498774783382900,-2.425234474401750
dugite and Treepie,M28 1YP,53.500724781161900,-2.412560433936440
anaconda and Elephant,M28 1ZN,53.509766720652600,-2.415287067030200
Viscacha and Elephant,M28 3FJ,53.531309212806500,-2.400305976867310
New World blackbird and Stilt,M28 3GQ,53.534350902545300,-2.404574249013020
Petrel and Black jay,M28 3QZ,53.527110340585600,-2.403358753366990
Condor and milk snake,M28 3RF,53.532182092825100,-2.402682818665660
Chicken and bicycle lizard,M28 3RH,53.531618886857700,-2.401772285094640
taipan and whip snake,M28 3RS,53.533531152038900,-2.407749815836310
cerastes and Stilt,M28 3SL,53.520840655459300,-2.404762173104370
Linsang and chuckwalla,M28 7DL,53.515389276321300,-2.400728885153720
goanna and Chicken,M28 7EY,53.516489295812500,-2.402383108365520
Petrel and kabaragoya,M28 7GG,53.515071399121200,-2.401706121448580
jew lizard and Jay,M28 7HD,53.515410005428200,-2.402584006366030
glass snake and rat snake,M28 7LH,53.511454908530900,-2.402636973575720
Bunting and Crow,M28 7UD,53.512699153640500,-2.406810781871900
Skunk and pit viper,M28 7US,53.516186764118900,-2.406783884273320
blue racer and constrictor,M28 7UW,53.514538802683100,-2.410311982743230
krait and Dolphin,M29 7AQ,53.504917434912600,-2.460651537032960
Old World vulture and Grouse,M29 7BB,53.511160382925500,-2.466328742517000
water snake and turtle,M29 7DU,53.498599886615600,-2.457960010062280
bull snake and Civet,M29 7DW,53.505335029536600,-2.471119613538960
harlequin snake and Dolphin,M29 7EG,53.508575080516500,-2.463148982188020
loggerhead and slowworm,M29 7EY,53.509482490425400,-2.444190000000000
tokay and Black jay,M29 7FY,53.511336639870400,-2.448461730318440
anaconda and whip snake,M29 7GA,53.506006729189300,-2.457874036575380
Polecat and Badger,M29 7GN,53.506872614379900,-2.459436376346490
Marmoset and black snake,M29 7JP,53.497842748868000,-2.449042822920390
Mouse and frill-necked lizard,M29 7JU,53.505346000000000,-2.445229132819160
crocodile and pit viper,M29 7LJ,53.468570031934400,-2.455407033079830
blue racer and Pitohui,M29 7NH,53.509815758486600,-2.453708144824470
gecko and boa,M29 7PD,53.510290467023500,-2.454150506078830
Chipmunk and leguaan,M29 7QG,53.498122117389600,-2.448729000000000
asp and diamond snake,M29 7QS,53.494271680786900,-2.449743662207590
garter snake and fer-de-lance,M29 7SH,53.491110446727100,-2.476855066274000
rock snake and Stint,M29 7SZ,53.508674000000000,-2.441722000000000
Kestrel and whip snake,M29 7TB,53.508915888189400,-2.465655718511460
Wader and Zebra,M29 8AY,53.516376972126100,-2.470080913958760
Hawk and alligator,M29 8ER,53.516740656616800,-2.473583782021320
garter snake and garter snake,M29 8FL,53.514160235272500,-2.469317000000000
Chipmunk and Solitaire,M29 8FZ,53.513702463300000,-2.468030865500000
diamondback terrapin and agama,M29 8GQ,53.514879407830700,-2.473624000000000
skink and diamond snake,M29 8GR,53.516310730397200,-2.471091000000000
horned viper and Pitohui,M29 8HL,53.512700103684500,-2.474775248763040
anaconda and rock python,M29 8JG,53.514086986724400,-2.471835027006900
Snipe and mountain devil,M29 8JL,53.513325490644800,-2.475732282729930
Pheasant and Night heron,M29 8NX,53.513310954763900,-2.456414655904630
Grackle and Fulmarine petrel,M29 8NY,53.513242516054000,-2.453141569611030
rock snake and New World blackbird,M29 8PS,53.513682157180300,-2.436452584913660
sand viper and Shearwater,M29 8RE,53.514390731025600,-2.436867039810590
goanna and Tree warbler,M29 8RH,53.513662721142700,-2.434386412234090
rat snake and Macaw,M29 8WR,53.513925259483700,-2.446257000000000
tuatara and agamid,M31 4NW,53.432602433110500,-2.409461697766550
dugite and mud turtle,M38 0BQ,53.528597738801100,-2.427962076128870
harlequin snake and blue racer,M38 0DE,53.530587703955600,-2.431979967554360
amethystine python and hoop snake,M38 0DL,53.530765235564500,-2.435074439679970
Schneider python and bicycle lizard,M38 0FL,53.524772541754000,-2.429386646783740
deaf adder and Elephant,M38 0FN,53.525541169084600,-2.435563908040190
Snipe and Jay,M38 9AB,53.537019312200000,-2.419371522900000
kabaragoya and Coati,M38 9AJ,53.525098377428200,-2.405587163240890
python and Piping shrike,M38 9AQ,53.536104000000000,-2.422589000000000
Tree warbler and tiger snake,M38 9ER,53.536712728043300,-2.415671567351230
cerastes and Fish eagle,M38 9LA,53.539483470444400,-2.425235136362080
Parrotbill and massasauga,M38 9LY,53.528834422573800,-2.411762664749510
turtle and habu,M38 9PD,53.530298206180400,-2.417328516966850
python and River dolphin,M38 9RU,53.534309523583000,-2.421743333717300
mountain devil and Piping shrike,M38 9SE,53.537611973402900,-2.423239766027230
rock snake and sand viper,M38 9SS,53.534541964970400,-2.429954000000000
Pheasant and horned viper,M38 9UW,53.534149914943100,-2.433690941821450
Tattler and terrapin,M38 9WA,53.532357383591500,-2.409292465223790
garter snake and Stint,M38 9XF,53.535075272516300,-2.438739695338210
Zebra and mud turtle,M41 6NJ,53.448272532162200,-2.403288574265390
chuckwalla and anaconda,M44 5BH,53.436392382556500,-2.428314044583060
horned viper and cobra,M44 5FN,53.426919822700200,-2.442711314749620
anole and Jay,M44 5HN,53.427216279021800,-2.449968250018580
tiger snake and blind snake,M44 5JD,53.431789858850500,-2.438442000000000
caiman and Treepie,M44 5LR,53.456086843128900,-2.447773658205260
Vulture and python,M44 5UB,53.425198263257600,-2.439126859638400
taipan and adder,M44 5YG,53.429039866063100,-2.452636343332190
Mole and python,M44 5YX,53.431801220738800,-2.442551352752030
gaboon viper and Parrotbill,M44 5ZA,53.437088000000000,-2.430263000000000
Siskin and chuckwalla,M44 6AG,53.443763233067000,-2.425738484980890
puff adder and Pratincole,M44 6AN,53.444153195949500,-2.422234463791920
frilled lizard and brown snake,M44 6DJ,53.448514163902200,-2.414101786154780
glass snake and Towhee,M44 6ET,53.454535354931300,-2.406585655583020
thorny devil and Triller,M44 6GG,53.440910000000000,-2.414223000000000
Flameback and thorn lizard,M44 6HU,53.454138609826600,-2.414789010227040
mud turtle and bicycle lizard,M44 6HX,53.456337166441100,-2.415834512013580
carpet snake and Rat,M44 6JP,53.451973932782700,-2.416921231255520
Chickadee and indigo snake,M44 6ND,53.448731811892600,-2.423800661667750
Tree warbler and blue tongue,M44 6NQ,53.447173192714100,-2.422279485883180
Snipe and bearded lizard,M44 6NW,53.450069189177400,-2.419251544425780
White ibis and Thrasher,M44 6PA,53.455469426342500,-2.419786667375310
Lemming and chuckwalla,M44 6RF,53.441807382665100,-2.417062508480730
Lemming and alligator,M44 6WT,53.451207907932800,-2.425135367373310
Kākāriki and Argus,M44 6ZH,53.441158312622600,-2.427759827202850
diamond snake and milk snake,M44 6ZZ,53.438436814166400,-2.427190554103110
Schneider python and bicycle lizard,M46 0BN,53.519116454734400,-2.501527188759330
diamondback and copperhead,M46 0BQ,53.522290269183100,-2.488291482572820
frill-necked lizard and puff adder,M46 0DA,53.523866147743600,-2.494147027018200
hoop snake and krait,M46 0DJ,53.523816868409800,-2.497359289334620
Capuchin and Armadillo,M46 0DU,53.525022000000000,-2.490840714839630
Zebra and kabaragoya,M46 0GH,53.521479825109000,-2.512263985958130
bearded lizard and bearded dragon,M46 0GQ,53.523837541587100,-2.492366812200690
Pitohui and Capuchin,M46 0JQ,53.524150867197000,-2.499173266754710
Schneider python and Cloud rat,M46 0NR,53.523740222807800,-2.500646640422830
python and Old World warbler,M46 0PT,53.518552734472700,-2.509423430168890
Booted eagles and Peafowl,M46 0SP,53.521697767796500,-2.507530556240270
Schneider python and Zebra,M46 0TQ,53.517725000000000,-2.501087000000000
wall lizard and boomslang,M46 9AF,53.520181000000000,-2.481178000000000
rock python and jew lizard,M46 9AU,53.516958532576000,-2.475305479690470
Night heron and cerastes,M46 9BW,53.520514698829000,-2.487275605687350
kabaragoya and slowworm,M46 9DU,53.525298208326400,-2.484660619269910
Asiatic leopard and Prion,M46 9EQ,53.521688523128100,-2.481527386649480
Old World warbler and blue tongue,M46 9FE,53.521997820657400,-2.480610827999720
gopher snake and gopher snake,M46 9FL,53.524813281969500,-2.484549492234520
skink and garter snake,M46 9HR,53.528477684239300,-2.476324548755350
White ibis and Fulmarine petrel,M46 9HY,53.537266475827300,-2.469995538475420
American sparrow and grass snake,M46 9JX,53.529221150855100,-2.483679605733670
Recurvebill and Wallaby,M46 9LP,53.532345549500500,-2.475613637983360
rattlesnake and Egret,M46 9QJ,53.531447890185000,-2.497403484912120
carpet snake and bull snake,M46 9RH,53.530646227338900,-2.477993285726520
Capuchin and diamondback terrapin,M46 9RJ,53.531005145749500,-2.478148192342100
Chipmunk and thorny devil,M46 9RN,53.531607809048200,-2.475786405146180
Siskin and chuckwalla,M46 9RX,53.531892782229700,-2.476453411294190
turtle and gaboon viper,M46 9SF,53.534306113653800,-2.495264403011620
River dolphin and loggerhead,M46 9SQ,53.533268885619800,-2.485174115704250
puff adder and Herring gull,PR6 0LH,53.648674624113900,-2.622214608481210
Maya and Komodo dragon,PR6 0LY,53.647593039963400,-2.617584649023140
Peafowl and racer,PR6 0NT,53.647932601063400,-2.616228084749120
harlequin snake and Rabbit,PR6 9DT,53.621907599127500,-2.590222474398750
Old World warbler and Rabbit,PR6 9DU,53.645871128377500,-2.611584177338760
Vulture and Francolin,PR6 9EJ,53.628712882756400,-2.595443560615980
horned viper and anole,PR6 9JP,53.624588004528800,-2.606029758898320
Crow and Mamo,PR6 9JT,53.623537000000000,-2.605937551401570
gopher snake and taipan,PR6 9LJ,53.620613570976700,-2.602782840448160
Parrotbill and Pheasant,PR6 9NX,53.619717215533800,-2.595105247566290
Gull and Quetzal,PR7 2EG,53.643867745779500,-2.652245858821080
lizard and flying lizard,PR7 2FX,53.644237764825500,-2.647169000000000
Chipmunk and Linsang,PR7 2HR,53.646881327596200,-2.638450501052900
perentie and wall lizard,PR7 2JN,53.642245083364800,-2.643160291585320
Gila monster and Condor,PR7 2JU,53.641318651236100,-2.641603366003540
horned toad and bull snake,PR7 2JW,53.641916034710500,-2.642504867394550
Black jay and Perching duck,PR7 2JZ,53.643747000000000,-2.649914000000000
copperhead and boomslang,PR7 2PD,53.648066973668400,-2.645110000000000
leathery turtle and gopher snake,PR7 2PG,53.648497256658200,-2.640502114074610
Grackle and Chicken,PR7 2PN,53.646969838412300,-2.642067374042090
bearded dragon and Viscacha,PR7 2PU,53.648978537839100,-2.641265834782850
Old World quail and adder,PR7 2WB,53.645103580753600,-2.653081799296320
Macaw and Tattler,PR7 2WF,53.644194346871400,-2.653340028451370
Recurvebill and snapping turtle,PR7 3AG,53.648398519887900,-2.628806000000000
Tit-tyrant and Grosbeak,PR7 3EN,53.645173834417600,-2.626489407452900
Ibex and asp,PR7 3EY,53.643074450059800,-2.622298533819260
garter snake and Stint,PR7 3FT,53.637553000000000,-2.624347000000000
massasauga and diamondback,PR7 3JY,53.639869960004600,-2.630055955230530
Dolphin and Dorcopsis,PR7 3NQ,53.642160061707100,-2.635247000000000
Piping shrike and moloch,PR7 3PB,53.640043056506400,-2.641192000000000
cobra de capello and Schneider python,PR7 3PP,53.638980899108500,-2.645091978992290
bicycle lizard and box turtle,PR7 3QG,53.638856985755900,-2.637891000000000
deaf adder and garter snake,PR7 4AN,53.611041403200000,-2.610808811400000
Mole and Scimitar babbler,PR7 4AZ,53.632617483576800,-2.612526605242800
frill-necked lizard and Maya,PR7 4BB,53.622410594303000,-2.610005076231930
caiman and Duck,PR7 4BX,53.622887665650300,-2.625539305774390
Maya and Asiatic leopard,PR7 4BY,53.624843595720300,-2.622771071025640
tuatara and boa constrictor,PR7 4DD,53.631609000000000,-2.614792432940760
Moluccan boobook and snapping turtle,PR7 4EL,53.609336029436500,-2.616330806566880
amphisbaena and tokay,PR7 4EP,53.622202828570300,-2.611967533708620
tuatara and Ice seal,PR7 4HH,53.611605264082000,-2.601384809175400
Darwin's finches and Bronzewing pigeon,PR7 4HR,53.609688115109200,-2.605468675030310
Parrotlet and flying dragon,PR7 4LR,53.620047384730900,-2.645831181177420
galliwasp and Quetzal,PR7 4NS,53.629836674140400,-2.658849233908430
Linsang and Hawk,PR7 4NY,53.627122457925700,-2.655525751872820
Armadillo and goanna,PR7 4NZ,53.627574240490200,-2.655094251985480
Cuscus and mamba,PR7 4PX,53.625831524716200,-2.658182016742280
hawksbill and Linsang,PR7 4QG,53.619822000000000,-2.656093000000000
death adder and Old World vulture,PR7 5AZ,53.622790033524000,-2.660432785761010
constrictor and elapid,PR7 5DR,53.616076000000000,-2.673375549896510
Recurvebill and Thicketbird,PR7 5DY,53.610024082337400,-2.673761040094710
diamondback turtle and rock snake,PR7 5JZ,53.646392440011000,-2.676715871668570
soft-shelled turtle and Hawaiian honeycreeper,PR7 5LB,53.644341321112000,-2.684927161139900
krait and anole,PR7 5LE,53.631747766675800,-2.685070921647660
Coati and tuatara,PR7 5NL,53.632940715322100,-2.669739000000000
Prion and Civet,PR7 5NT,53.620230293016000,-2.705640000000000
Mamo and Chickadee,PR7 5PQ,53.641376973834400,-2.725794464374650
skink and Buzzard,PR7 5PZ,53.620941702089800,-2.723584141649270
Viscacha and Grackle,PR7 5TP,53.642385315791900,-2.721062155436650
Old World quail and Stint,WA10 1BZ,53.452094204752700,-2.732003830411240
Asiatic leopard and Old World vulture,WA10 1DB,53.452401633381700,-2.731707946379240
milk snake and deaf adder,WA10 1DS,53.453367438449500,-2.733983397062140
Skunk and blind snake,WA10 1DU,53.454014000000000,-2.731266044800370
blue tongue and ringhals,WA10 1EB,53.452719766018400,-2.733913000000000
Thrasher and Schneider python,WA10 1ET,53.457214077212100,-2.729667202071920
agamid and python,WA10 1FZ,53.459764418522400,-2.732422309152270
Prion and diamondback,WA10 1GB,53.453444763570800,-2.737101000000000
gaboon viper and amethystine python,WA10 1LE,53.455224923458200,-2.733036563118290
sand lizard and Mouse,WA10 1LL,53.455055000000000,-2.730112000000000
smooth snake and bicycle lizard,WA10 1LN,53.456003318362600,-2.732161439873600
diamondback terrapin and diamondback turtle,WA10 1PX,53.451892795763800,-2.739890987528500
Tattler and tree snake,WA10 1TG,53.456045000000000,-2.737219778283260
diamondback and gaboon viper,WA10 2AQ,53.458358047847900,-2.748166335605610
king snake and Linsang,WA10 2AX,53.461285272485700,-2.747223738752080
blind snake and Kangaroo,WA10 2DU,53.457371661253800,-2.744911007141570
Capuchin and Jerboa,WA10 2EG,53.455405000000000,-2.746142000000000
Warbler and Parrotbill,WA10 2JG,53.456301580493700,-2.743536872200720
Cloud rat and Nukupuʻu,WA10 2LS,53.454396762838200,-2.750596534126630
Grosbeak and bearded dragon,WA10 2LY,53.455957953627100,-2.748048000000000
Skunk and Jerboa,WA10 2NL,53.456356524503500,-2.747694399801110
Greenbul and River dolphin,WA10 2NP,53.457907641068800,-2.749754836641020
Condor and rattlesnake,WA10 2PF,53.451497785891700,-2.748694000000000
frilled lizard and Thrasher,WA10 2PX,53.450712000000000,-2.752173000000000
Treepie and Coati,WA10 2RZ,53.461527000000000,-2.735992000000000
skink and harlequin snake,WA10 2SZ,53.453739755312700,-2.739050000000000
moloch and Jerboa,WA10 2TW,53.456425593652700,-2.739487886601030
leathery turtle and Herring gull,WA10 3BQ,53.438750513686700,-2.772660532282080
B and Masked owl,WA10 3DT,53.442452656372000,-2.758831840651050
constrictor and carpet snake,WA10 3EF,53.442319458919400,-2.757158353098230
Kite and sidewinder,WA10 3HY,53.444771000000000,-2.763330000000000
bearded dragon and chuckwalla,WA10 3JR,53.444412257953200,-2.757406359356920
Petrel and Civet,WA10 3NL,53.440365595354400,-2.759095727999770
Boto and sand viper,WA10 3PE,53.434749456400400,-2.775598414024460
Kestrel and Parrotbill,WA10 3PG,53.434640657898400,-2.768792759022590
pit viper and moloch,WA10 3PY,53.436519182754800,-2.768811623095560
frill-necked lizard and thorn lizard,WA10 3QR,53.440653295798900,-2.757670681655470
Dolphin and Guillemot,WA10 3SS,53.448128996634000,-2.748152139868360
leguaan and Puffleg,WA10 3SY,53.450022000000000,-2.747448000000000
Argus and ringhals,WA10 3XN,53.446995189359600,-2.746912616122160
amethystine python and brown snake,WA10 4AU,53.448838293012100,-2.761204000000000
Parrotbill and Black jay,WA10 4BA,53.447417015115500,-2.759838815062080
diamond python and goanna,WA10 4BU,53.446895512428400,-2.761274947928570
copperhead and American sparrow,WA10 4DR,53.458015021417900,-2.765419779832850
Magpie and Jerboa,WA10 4EQ,53.453721684866200,-2.763505339296890
constrictor and Gull,WA10 4HE,53.454280000000000,-2.752221000000000
Recurvebill and Quetzal,WA10 4HU,53.453723553692900,-2.754725912329350
habu and Ice seal,WA10 4JA,53.454642620882800,-2.756264000000000
Mink and B,WA10 4JJ,53.456408919660500,-2.757921096322230
bushmaster and Chickadee,WA10 4NA,53.455842983228500,-2.753603896764290
Capuchin and Ice seal,WA10 4NE,53.457403420050700,-2.754173710011530
thorn lizard and Thrasher,WA10 4PJ,53.452182899950000,-2.753569000000000
flying dragon and Kite,WA10 4QN,53.453548242066500,-2.768125356790130
Civet and Old World quail,WA10 5AY,53.451253905318800,-2.785054595843680
Kākāriki and Marsh harrier,WA10 5BF,53.458916186363200,-2.778433954837420
Crow and Kestrel,WA10 5DB,53.456101317730700,-2.775038788940710
Gull and Elephant,WA10 5DE,53.456589261495400,-2.777412119057920
Parrotbill and worm lizard,WA10 5HZ,53.456868798313400,-2.785519638233710
Parrotlet and Vole,WA10 5LB,53.459676113698300,-2.782226000000000
rock python and cycling lizard,WA10 5QF,53.467906200294400,-2.788359704810100
Jackal and fer-de-lance,WA10 5QR,53.468314228198300,-2.809336794050320
elapid and Cuscus,WA10 6AS,53.461471085452300,-2.759095736087790
Towhee and Stint,WA10 6DD,53.465422665704200,-2.763865991055940
mountain devil and Coati,WA10 6HN,53.467128316553500,-2.767014842889090
brown snake and racer,WA10 6LZ,53.463467799571000,-2.751795903948970
Civet and Buzzard,WA10 6NH,53.466872564062300,-2.746372879023990
rock snake and coral snake,WA10 6PH,53.467783143590900,-2.745832000000000
Gull and chuckwalla,WA10 6RN,53.458310455615900,-2.755725982511510
hawksbill and Rabbit,WA10 6UR,53.467486737851300,-2.745901610079090
Kākāriki and Marmoset,WA10 9ER,53.450723000000000,-2.741738000000000
Marsh harrier and Gila monster,WA10 9SG,53.454152618353900,-2.734930613368120
sidewinder and flying dragon,WA10 9SL,53.454152618353900,-2.734930613368120
bearded dragon and mountain devil,WA10 9SU,53.454152618353900,-2.734930613368120
moloch and mamba,WA11 0AQ,53.465022082201900,-2.697084166082960
mud turtle and green turtle,WA11 0AR,53.466769802636800,-2.694868324493890
Gila monster and boomslang,WA11 0BG,53.467544998757400,-2.688282985973570
Dorcopsis and Masked owl,WA11 0DB,53.463182237856600,-2.699674872062460
pit viper and sea snake,WA11 0DE,53.462600589033500,-2.699228501358790
Crow and diamond python,WA11 0DS,53.462564765393800,-2.691485954077440
worm lizard and smooth snake,WA11 0EP,53.466401496477400,-2.687059398667870
bicycle lizard and death adder,WA11 0GP,53.470443573461200,-2.665325722496690
turtle and frill-necked lizard,WA11 0HU,53.467387505681400,-2.681260672137200
alligator and Maya,WA11 0JA,53.464008066489700,-2.684354644034540
bushmaster and taipan,WA11 0JL,53.465090325161900,-2.674234620865630
hoop snake and gavial,WA11 0JW,53.467077138408100,-2.683665902487360
rock snake and water snake,WA11 0JY,53.469429849877600,-2.663639000000000
grass snake and Skunk,WA11 0NB,53.468425739686700,-2.658003071823680
cycling lizard and Greenbul,WA11 0NJ,53.468213289050200,-2.659039210601450
diamondback and Mockingbird,WA11 0PX,53.471394884965400,-2.657476534816180
Boto and bicycle lizard,WA11 0PY,53.471129840089700,-2.658270891124150
diamond snake and agamid,WA11 0QB,53.470460064855800,-2.657477146471910
diamond python and American sparrow,WA11 0RF,53.469762574877200,-2.646936147665200
Mouse and caiman,WA11 0RG,53.470378886625900,-2.645996435018040
elapid and Shearwater,WA11 0RZ,53.470245145324500,-2.647455693970880
New World blackbird and smooth snake,WA11 0SH,53.465285250880400,-2.674734793759320
diamondback turtle and bearded dragon,WA11 0SN,53.467177171376000,-2.675563189105520
milk snake and water snake,WA11 0TF,53.466200446497300,-2.668633555276560
Mockingbird and Condor,WA11 0TR,53.466976166503400,-2.663313196787640
turtle and fer-de-lance,WA11 0UJ,53.468762129070400,-2.689206545858660
leguaan and goanna,WA11 0WE,53.467123288665000,-2.678725725566280
Thrasher and carpet snake,WA11 0YN,53.461650947996100,-2.689407626539070
racer and Fulmarine petrel,WA11 7AE,53.472895528103100,-2.733220620628690
diamondback turtle and dugite,WA11 7AZ,53.479188691903000,-2.724197889266290
wall lizard and dugite,WA11 7BD,53.480388678883600,-2.727895049965010
snake and tree snake,WA11 7DN,53.475362689780000,-2.736909317787860
Nukupuʻu and green turtle,WA11 7HB,53.475680971781800,-2.723068395747800
saltwater crocodile and diamond python,WA11 7JW,53.487158000000000,-2.781995000000000
leguaan and blue tongue,WA11 7PB,53.479367971767900,-2.721534000000000
jew lizard and Darwin's finches,WA11 7PN,53.472409359502000,-2.733347828972910
diamondback and Black cockatoo,WA11 7PY,53.476339000000000,-2.764861000000000
Komodo dragon and agama,WA11 7QP,53.479523285415500,-2.769875399514830
giant tortoise and frilled lizard,WA11 7QQ,53.476155476499800,-2.768021436809490
indigo snake and deaf adder,WA11 7RY,53.489083935128600,-2.746310766257200
deaf adder and monitor,WA11 7TQ,53.528175000000000,-2.787231000000000
Macaw and River dolphin,WA11 8AB,53.505252113327700,-2.798144405284020
Mink and Booted eagles,WA11 8AW,53.502929509722500,-2.779616882296720
milk snake and swift,WA11 8BS,53.502700588787900,-2.788477655626880
pit viper and rock python,WA11 8DS,53.501427091885900,-2.790611000000000
snake and Stint,WA11 8DW,53.504743382438900,-2.793551368935370
Pitohui and Chickadee,WA11 8DY,53.502499877886800,-2.788926222599070
Night heron and blindworm,WA11 8EP,53.497284262069800,-2.781050891713540
Schneider python and monitor,WA11 8ES,53.496336821624100,-2.781606295040790
Elephant and kabaragoya,WA11 8EU,53.497734345624100,-2.782325442972870
rock python and hognose snake,WA11 8EX,53.498734037894200,-2.782027275574130
Minke whale and monitor,WA11 8JA,53.507893522777100,-2.790217603328430
Solitaire and gavial,WA11 8JF,53.506795148593200,-2.790483647546390
puff adder and python,WA11 8JU,53.506203480670700,-2.784788329259040
Kangaroo and Black cockatoo,WA11 8QH,53.495878849656400,-2.781537573813320
viper and Rabbit,WA11 8QN,53.497935295927500,-2.785947094747640
Parakeet and agamid,WA11 8QY,53.498636943045400,-2.740840525652070
goanna and Marsh harrier,WA11 9AJ,53.468523271661200,-2.723519140827000
Stint and Bunting,WA11 9AN,53.467604371766200,-2.722373709700470
worm lizard and racer,WA11 9BD,53.459755060213800,-2.709242606045830
harlequin snake and iguana,WA11 9BH,53.460905889505300,-2.710707706414550
Wader and alligator,WA11 9EB,53.470414299301300,-2.715491550195580
Boto and king snake,WA11 9EL,53.471655539256600,-2.712348697979650
blue tongue and caiman,WA11 9HT,53.467908181312900,-2.713701954610080
Goose and Diving bird,WA11 9JZ,53.465203109745000,-2.718115250352030
Fulmarine petrel and king snake,WA11 9LE,53.461637707235000,-2.719094330355820
Bronzewing pigeon and monitor,WA11 9LH,53.470915669712100,-2.730670600775290
kabaragoya and Elephant,WA11 9LW,53.468767084954500,-2.729247761138580
Schneider python and boomslang,WA11 9NE,53.471301680867400,-2.730752559776610
Recurvebill and Polecat,WA11 9NS,53.463833189843400,-2.729102920999700
Siskin and cobra,WA11 9PP,53.470027635756800,-2.730369110881610
bull snake and viper,WA11 9RS,53.473230108084400,-2.689098171616920
lizard and tiger snake,WA11 9SE,53.473447173109000,-2.638720982462060
kabaragoya and copperhead,WA11 9WB,53.476513973264000,-2.655009359012080
Tit-tyrant and turtle,WA11 9WG,53.473859332018600,-2.646923000000000
anole and Logrunners,WA12 0AE,53.460493195754800,-2.625392938694620
amethystine python and Quetzal,WA12 0AJ,53.462768672559700,-2.628559328630270
Fish eagle and Fish eagle,WA12 0AT,53.461928671924500,-2.629330134658130
Mamo and giant tortoise,WA12 0AU,53.463629499612100,-2.634054798002880
water snake and diamond python,WA12 0BB,53.460170169637900,-2.626999745440840
Tattler and Treepie,WA12 0DT,53.456630981101400,-2.635064937405800
chameleon and Francolin,WA12 0JF,53.479036778240100,-2.635595486779410
amphisbaena and boomslang,WA12 0JH,53.459527665638800,-2.636313062445310
Coati and Recurvebill,WA12 0JT,53.457944829951800,-2.636470114271320
Darwin's finches and Mouse,WA12 0NR,53.456379000000000,-2.638706000000000
worm lizard and diamond python,WA12 2DG,53.452704000000000,-2.639688000000000
hoop snake and Hawaiian honeycreeper,WA12 8BG,53.452018661645000,-2.612920513902800
Thrasher and Diving bird,WA12 8BW,53.452218344644100,-2.614293708469510
puff adder and blue tongue,WA12 8HN,53.450366912503300,-2.628271000000000
Pratincole and brown snake,WA12 8LP,53.450969368490300,-2.626322084496220
Booted eagles and Black jay,WA12 8LR,53.450448225713800,-2.626284298754810
diamondback terrapin and cobra,WA12 8NB,53.446824183771200,-2.631711553562020
Wallaby and Zebra,WA12 8NN,53.444040412050700,-2.623645953242230
Komodo dragon and Puffleg,WA12 8PZ,53.451353082844000,-2.616494764160120
thorny devil and agamid,WA12 8RD,53.446649554245900,-2.634133056529230
Komodo dragon and Civet,WA12 8RT,53.444826694644400,-2.628685795035710
thorny devil and Diving bird,WA12 8RY,53.440353100801200,-2.624735729089060
leguaan and Hawaiian honeycreeper,WA12 8SG,53.443124175999000,-2.631084543455480
Ice seal and Egret,WA12 8TB,53.441067000000000,-2.625468000000000
rock snake and rock snake,WA12 9BU,53.454551291635900,-2.645741052839440
death adder and diamondback turtle,WA12 9DD,53.455338408870800,-2.648117351900450
skink and puff adder,WA12 9ET,53.457218088603800,-2.652874902154520
sea snake and jew lizard,WA12 9GY,53.450006000000000,-2.648351000000000
Snipe and Magpie,WA12 9HE,53.456024753263600,-2.655763136827150
water snake and Night heron,WA12 9HF,53.455983175050700,-2.656786563185440
Wallaby and amethystine python,WA12 9HP,53.453583000000000,-2.648859000000000
Bronzewing pigeon and ringhals,WA12 9HS,53.454224929895100,-2.651217642435600
Recurvebill and Fox,WA12 9JY,53.451285947427200,-2.657722960591490
Logrunners and Old World warbler,WA12 9LF,53.452743939508900,-2.654116357817880
Songlark and mud turtle,WA12 9PB,53.451534009258600,-2.637820145804360
Coati and anole,WA12 9PH,53.451699044311600,-2.647926396798180
loggerhead and White ibis,WA12 9PS,53.452759102782400,-2.643048472740820
whip snake and diamondback turtle,WA12 9PZ,53.454592000000000,-2.639959000000000
Black cockatoo and alligator,WA12 9QX,53.451686250162700,-2.638620184900680
Solitaire and skink,WA12 9SB,53.453367021629100,-2.614656645078480
sand viper and elapid,WA12 9TS,53.456166000000000,-2.634862000000000
rock python and tokay,WA12 9UF,53.454094327409800,-2.626910210363240
sand lizard and cerastes,WA12 9WQ,53.456676276277400,-2.640050486952980
hoop snake and Quetzal,WA2 8NE,53.429261000327200,-2.593027526191940
Marsh harrier and Cloud rat,WA2 8WA,53.429516000000000,-2.606862000000000
caiman and Jay,WA2 8XE,53.428578672773400,-2.600061459401770
Fox and Siskin,WA2 8XJ,53.426564040737200,-2.602079789420220
Black jay and Piping shrike,WA3 1AE,53.473445434092700,-2.552543761594570
soft-shelled turtle and Hawk,WA3 1BG,53.483100000000000,-2.556512000000000
Solitaire and smooth snake,WA3 1ES,53.475167736989300,-2.543392000000000
Warbler and Old World quail,WA3 1EX,53.474541316443600,-2.544874193254130
Asiatic leopard and ringhals,WA3 1JP,53.464367927684000,-2.588109383032780
Treepie and Bronzewing pigeon,WA3 1JQ,53.462221355500700,-2.587763402707710
Black cockatoo and Francolin,WA3 1LB,53.466658000000000,-2.568363000000000
Greenbul and Logrunners,WA3 1PG,53.455474000000000,-2.598137000000000
Old World quail and loggerhead,WA3 2BL,53.471348492000800,-2.560817420973270
Quetzal and caiman,WA3 2FX,53.452777135348500,-2.639690663097550
Warbler and anole,WA3 2GT,53.474006976894600,-2.572634192081460
rattlesnake and cerastes,WA3 2JT,53.473866779484400,-2.577483580316070
White ibis and Bunting,WA3 2JU,53.477436559532700,-2.573478956187060
boomslang and Parrotbill,WA3 2NB,53.473735600446400,-2.563545724613300
Tit-tyrant and Bunting,WA3 2QY,53.470336050220400,-2.575251230628120
taipan and diamondback terrapin,WA3 2RQ,53.471119002022500,-2.576918983981380
gecko and Cuscus,WA3 2RZ,53.473883601444900,-2.579577994543220
terrapin and adder,WA3 3AW,53.475861000000000,-2.596269000000000
Solitaire and Eagle,WA3 3BP,53.477158435926500,-2.599014194190740
brown snake and caiman,WA3 3EA,53.478805958614200,-2.589454262413950
massasauga and boomslang,WA3 3GS,53.479089000000000,-2.596088000000000
chameleon and diamond snake,WA3 3HY,53.480709013890600,-2.582639549061110
Chipmunk and tree snake,WA3 3HZ,53.477560550609400,-2.586815267452870
Bunting and Boto,WA3 3JS,53.473374402013800,-2.588128489453030
Peafowl and thorny devil,WA3 3LH,53.474826431207100,-2.590785199788150
ringhals and American sparrow,WA3 3LQ,53.474764197668400,-2.588825702351340
whip snake and chuckwalla,WA3 3LX,53.475870562369500,-2.592306388694770
cycling lizard and Thrasher,WA3 3NH,53.476249153254700,-2.604651485502090
Schneider python and cerastes,WA3 3NR,53.476545752799700,-2.602877792219920
Pitohui and Guillemot,WA3 3NW,53.476553271031900,-2.601386261001820
Buzzard and Gila monster,WA3 3PP,53.471581129677700,-2.605232913007700
River dolphin and hawksbill,WA3 3QF,53.470777429451900,-2.600626647805220
viper and goanna,WA3 3QR,53.479188000000000,-2.610194895792900
blue racer and Kite,WA3 3QZ,53.478619000000000,-2.607337000000000
Mouse and Gila monster,WA3 3RF,53.479461922080800,-2.609202539231280
hognose snake and sand viper,WA3 3RR,53.478163000000000,-2.603142000000000
Snipe and chuckwalla,WA3 3RS,53.477145282509300,-2.603413648133520
Shearwater and Nukupuʻu,WA3 3SB,53.478557000000000,-2.601821000000000
hognose snake and Pitohui,WA3 3SL,53.480694663748600,-2.601851700375650
Old World warbler and blind snake,WA3 3TH,53.478548526086400,-2.592434106713770
dugite and bandy-bandy,WA3 3TJ,53.479690828316900,-2.594092455151920
garter snake and Francolin,WA3 3TQ,53.484760650894200,-2.604787638128000
Grouse and taipan,WA3 3UH,53.492270555424900,-2.591329171894580
horned viper and galliwasp,WA3 3XG,53.484929710931900,-2.606899846623180
cycling lizard and Flameback,WA3 3YE,53.471238146781900,-2.603872000000000
frilled lizard and Magpie,WA3 4DL,53.461548436494800,-2.527838655879120
goanna and kabaragoya,WA3 4EB,53.452478384426600,-2.523886223042100
Gull and Zebra,WA3 4HS,53.463390181177800,-2.536115671389710
Komodo dragon and Grackle,WA3 4HX,53.458016000000000,-2.530210187642030
smooth snake and Francolin,WA3 4LA,53.457779574775100,-2.516452000000000
Kangaroo and Thrasher,WA3 4LB,53.456476689841300,-2.515998901399980
black snake and Schneider python,WA3 4NN,53.454151905294500,-2.527596299115680
Asiatic leopard and rat snake,WA3 5DF,53.451879793354500,-2.516861706980340
diamond snake and blue tongue,WA3 5EL,53.448731415860000,-2.506930929735950
bandy-bandy and python,WA3 5EQ,53.447464944823900,-2.508828042271430
Meadowlark and skink,WA3 5HX,53.456235000000000,-2.496826116867290
perentie and Magpie,WA3 5LB,53.462281237507900,-2.493084822029720
Warbler and Towhee,WA3 5PS,53.461284000000000,-2.475451000000000
moloch and puff adder,WA3 5PW,53.457968252719700,-2.477221424943150
Fox and box turtle,WA3 5QY,53.450792411589100,-2.520944238847260
Piping shrike and mamba,WA3 5RU,53.448548328218400,-2.515977000000000
Thrasher and cobra de capello,WA3 6BN,53.442730705757100,-2.522757554174730
Jerboa and grass snake,WA3 6TA,53.425934221940600,-2.505305127557420
New World blackbird and White ibis,WA3 6TN,53.427112747036600,-2.507185247256540
gavial and Tit-tyrant,WA3 6UN,53.428322181436600,-2.508132745883970
Perching duck and tokay,WA3 6UX,53.429454177088200,-2.508266655643890
Elephant and American sparrow,WA3 6WX,53.427114000000000,-2.529549000000000
asp and cobra de capello,WA3 7DQ,53.441239302913600,-2.556416164521460
Magpie and Zebra,WA3 7EL,53.440305855013600,-2.552249008464970
Night heron and krait,WA3 7LG,53.435740451332000,-2.548170754073990
brown snake and B,WA3 7NB,53.425719563153200,-2.533970938407600
Coati and cobra,WA3 9DT,53.431288000000000,-2.514399000000000
Fox and cobra de capello,WA5 4DQ,53.425577073760900,-2.659583273771560
Bunting and Peafowl,WA5 4DS,53.441749271972900,-2.665780461325930
Guillemot and snake,WA5 4EU,53.437840063261400,-2.662392527733160
milk snake and cycling lizard,WA5 4EX,53.435344681481000,-2.661766659472320
flying dragon and Goose,WA5 4HX,53.432301961561200,-2.656196000000000
fer-de-lance and cerastes,WA5 4JD,53.428078000000000,-2.662582917455440
Triller and Mole,WA5 4LA,53.431390379630700,-2.651831677211860
python and Snipe,WA5 4NB,53.432012305550600,-2.649869472391400
Komodo dragon and Asiatic leopard,WA9 1BX,53.450141000000000,-2.705467000000000
bearded dragon and Old World warbler,WA9 1DR,53.455723516405500,-2.716042658495890
gaboon viper and alligator,WA9 1EH,53.456500519563800,-2.721356872924440
slowworm and Ice seal,WA9 1NX,53.450865551100600,-2.715223072683750
krait and Tree warbler,WA9 1PB,53.450596635971700,-2.710580702318390
bicycle lizard and Elephant,WA9 1PN,53.448155000000000,-2.708718000000000
Duck and Peafowl,WA9 1RL,53.446915620758700,-2.712868084590720
Pitohui and Bunting,WA9 1RU,53.453183238750700,-2.707913298247290
leguaan and king cobra,WA9 1SY,53.449801261168300,-2.706636000000000
chuckwalla and Black cockatoo,WA9 1UA,53.458394000000000,-2.725034000000000
mud turtle and amethystine python,WA9 2BB,53.449362877057200,-2.698785127344510
massasauga and anole,WA9 2BG,53.450409865893300,-2.698049424873050
crocodile and Masked owl,WA9 2DT,53.454316271966100,-2.701742789931890
Magpie and Mole,WA9 2EJ,53.454061739046500,-2.699163473914030
Mamo and taipan,WA9 2EN,53.453867147339200,-2.701690205838100
Lemming and White ibis,WA9 2LX,53.447704000000000,-2.687480000000000
River dolphin and Logrunners,WA9 2NU,53.448268253165700,-2.689160714768630
frilled lizard and Ice seal,WA9 3DQ,53.443918188625700,-2.712065106350920
B and iguana,WA9 3FA,53.432247822791500,-2.717077762570760
Perching duck and Petrel,WA9 3GF,53.440608373751500,-2.697166089544140
garter snake and glass snake,WA9 3HF,53.442020441203400,-2.700094812527600
Old World warbler and Hawk,WA9 3HJ,53.440060695890300,-2.695516211294660
diamondback terrapin and Parrotlet,WA9 3LP,53.437718962920200,-2.700927284399680
Condor and Mouse,WA9 3ND,53.439264298724400,-2.714696978224500
elapid and adder,WA9 3NE,53.440483000000000,-2.712565000000000
Petrel and hawksbill,WA9 3PA,53.436514302117000,-2.714605659105710
cayman and bandy-bandy,WA9 3QR,53.445114047961300,-2.695222380399260
B and fer-de-lance,WA9 3QW,53.445770597473300,-2.695157822943910
milk snake and Chicken,WA9 3RA,53.444651498875600,-2.699008897347500
Greenbul and Maya,WA9 3RJ,53.444063173179200,-2.695084771832300
bandy-bandy and fer-de-lance,WA9 3RX,53.445243385555500,-2.689969933099880
Marsh harrier and tokay,WA9 3TE,53.434766807997100,-2.719709188692260
sand lizard and Ibex,WA9 3TF,53.434111333872700,-2.719592745241310
tokay and blindworm,WA9 3TT,53.432707760916600,-2.722639000000000
puff adder and Francolin,WA9 3UH,53.434746371181100,-2.718625073386530
Ground sloth and Cuscus,WA9 3XW,53.432949000000000,-2.717195000000000
worm lizard and bicycle lizard,WA9 4EX,53.425663604073000,-2.722294315565220
leathery turtle and blindworm,WA9 4JY,53.426412521120000,-2.724790169353470
carpet snake and Skunk,WA9 4ST,53.429833000000000,-2.671885000000000
krait and amethystine python,WA9 4SX,53.427376552849600,-2.684819408554900
python and monitor,WA9 4ZG,53.432765462743600,-2.684002969735900
Wallaby and Eagle,WA9 5AA,53.441952057689200,-2.726590313602150
Lemming and Wallaby,WA9 5AD,53.442639247956400,-2.725924560698220
viper and Kestrel,WA9 5AF,53.426922358491200,-2.725205184068070
anole and Lemming,WA9 5BQ,53.427915678992700,-2.747781991255940
Chicken and Egret,WA9 5EG,53.434318933459300,-2.752982088662200
cycling lizard and amphisbaena,WA9 5EJ,53.437077109470100,-2.747476229017560
diamond snake and snake,WA9 5EQ,53.433998600918800,-2.752464652004100
fer-de-lance and Chipmunk,WA9 5ES,53.435819000000000,-2.744747296781180
amphisbaena and Hawaiian honeycreeper,WA9 5EU,53.436015992237400,-2.743227755174780
B and alligator,WA9 5GN,53.429527000000000,-2.743310000000000
blind snake and monitor,WA9 5HS,53.432351381659000,-2.748537196600100
Nukupuʻu and Fulmarine petrel,WA9 5QW,53.435559744492100,-2.757188676057960
blindworm and gaboon viper,WA9 5SD,53.434468995747000,-2.749131355273420
tree snake and viper,WA9 5SS,53.428225868191300,-2.758457950180310
Bunting and Civet,WA9 5SX,53.428405887580000,-2.744133412428280
diamondback and Guillemot,WA9 5UU,53.429476000000000,-2.752815475680860
blind snake and Mole,WA9 5XN,53.426269000000000,-2.746412000000000
Grouse and python,WN1 1BE,53.544479408999400,-2.632772884322070
blind snake and Philippine hawk-owl,WN1 1JP,53.553196144837900,-2.628057711261290
flying dragon and Recurvebill,WN1 1NL,53.546175464042400,-2.633296220834980
king cobra and blind snake,WN1 1QF,53.548141749355800,-2.632012540163690
diamondback and frilled lizard,WN1 1RU,53.550640239308000,-2.637151344712620
tokay and Armadillo,WN1 1TD,53.552103800092200,-2.634229000000000
Kangaroo and adder,WN1 1UF,53.547316081309900,-2.630068433250030
Piping shrike and Parrotbill,WN1 1XF,53.551082032358800,-2.628237000000000
Rat and Meadowlark,WN1 1XS,53.552863993192300,-2.627977319928920
Buzzard and brown snake,WN1 2EH,53.556743054030300,-2.632140772891880
Vole and Wallaby,WN1 2HR,53.558394831356700,-2.637615112886060
Francolin and Wader,WN1 2LF,53.553546589152300,-2.628077997266340
giant tortoise and water snake,WN1 2PF,53.564196841931800,-2.636781413506490
rat snake and Tree warbler,WN1 2QQ,53.561388318353200,-2.637554465681680
Night heron and Kite,WN1 2SA,53.562721173700300,-2.627279000000000
whip snake and box turtle,WN1 2SH,53.565241588200900,-2.627888952040680
Ground sloth and water snake,WN1 2SR,53.575873288781300,-2.636700184337020
Rabbit and agamid,WN1 2TB,53.562186638985100,-2.629383635383350
Masked owl and Bunting,WN1 2UR,53.584563628586000,-2.635290080636010
dukite and Hawaiian honeycreeper,WN1 2UY,53.586224000000000,-2.637656000000000
milk snake and dugite,WN1 2XD,53.595735570126200,-2.645490415509030
Kestrel and mamba,WN1 2XQ,53.604137000000000,-2.647931000000000
Komodo dragon and diamond python,WN1 3AA,53.552646032387900,-2.619068909744190
leathery turtle and Komodo dragon,WN1 3AB,53.541696897646700,-2.624340000000000
Vulture and amethystine python,WN1 3AS,53.554904000000000,-2.619116000000000
Komodo dragon and Perching duck,WN1 3AT,53.543159640649500,-2.622204784940310
crocodile and agama,WN1 3DB,53.544000118740300,-2.616120349666240
mountain devil and frill-necked lizard,WN1 3JA,53.545027528705400,-2.615591986894190
thorny devil and rock python,WN1 3JG,53.545141765074700,-2.619577777339480
Darwin's finches and snapping turtle,WN1 3NR,53.551157801823100,-2.620782609876930
deaf adder and tokay,WN1 3PQ,53.551083000000000,-2.617989000000000
Schneider python and Marmoset,WN1 3PR,53.550970614579500,-2.617006497992640
Thicketbird and Asiatic leopard,WN1 3PS,53.551096599657300,-2.616978144329130
Kite and Triller,WN1 3PZ,53.550982949925300,-2.616357657547220
Diving bird and slowworm,WN1 3SE,53.546972017342200,-2.626411369660220
monitor and Chipmunk,WN1 3TE,53.549273154675500,-2.621947355060200
diamondback turtle and Ice seal,WN1 3XH,53.557181826773300,-2.618712142281600
gaboon viper and swift,WN1 3YG,53.550818167160100,-2.615193068143950
B and puff adder,WN1 3YQ,53.553003000000000,-2.613564000000000
skink and Vole,WN1 9BQ,53.546965930396300,-2.635088890409610
frill-necked lizard and Stilt,WN1 9QP,53.546967000000000,-2.635089000000000
Rat and box turtle,WN1 9RN,53.546982000000000,-2.635088000000000
Wader and harlequin snake,WN1 9RY,53.546982000000000,-2.635088000000000
mountain devil and Songlark,WN1 9SQ,53.545096494276700,-2.629959998967720
Thrasher and Lemming,WN1 9SX,53.545096494276700,-2.629959998967720
Francolin and agamid,WN1 9TW,53.546982000000000,-2.635088000000000
diamond snake and Parrotbill,WN2 1AY,53.555020619497600,-2.605442354231080
blindworm and Petrel,WN2 1BQ,53.555846204307800,-2.611009183132440
moloch and bearded lizard,WN2 1ES,53.557510484903400,-2.601870020661290
death adder and Gull,WN2 1EY,53.559090943260400,-2.600382826496520
Skunk and Puffleg,WN2 1LB,53.577062899123900,-2.594173550253340
Black jay and Hawaiian honeycreeper,WN2 1PE,53.572986000000000,-2.609701000000000
mamba and swift,WN2 1RH,53.571742000000000,-2.588874000000000
amethystine python and Armadillo,WN2 1RS,53.570925184530100,-2.588439857400150
terrapin and chameleon,WN2 1SB,53.567308408188800,-2.590956506534050
grass snake and Philippine hawk-owl,WN2 1SD,53.568115633155200,-2.587660960123870
wall lizard and Piping shrike,WN2 1YR,53.572428817735000,-2.578705433753080
milk snake and diamondback turtle,WN2 1ZH,53.571572480119600,-2.584749153310770
Prion and Masked owl,WN2 2AJ,53.542977309671500,-2.605194962432760
Wader and Moluccan boobook,WN2 2EH,53.541891935034300,-2.599399912495160
Black jay and king snake,WN2 2LJ,53.541530396380800,-2.594399977196430
Cloud rat and Kite,WN2 2LR,53.543068745362100,-2.594134815059790
Grackle and carpet snake,WN2 2LT,53.544420521622100,-2.593429378570510
krait and Argus,WN2 2NA,53.546860915886500,-2.596134814407200
anole and Wader,WN2 2NR,53.545200000000000,-2.599601376927680
bandy-bandy and horned viper,WN2 2NS,53.544940606221900,-2.600876677840020
grass snake and Minke whale,WN2 2NZ,53.543802801970700,-2.598340373431350
habu and Triller,WN2 2PE,53.544304115334700,-2.595148134268050
whip snake and Piping shrike,WN2 2PY,53.541986494161200,-2.574759000000000
Parrotlet and harlequin snake,WN2 2QR,53.541061962139100,-2.572513012248190
Jerboa and diamond snake,WN2 2RU,53.538374240262000,-2.578150187373330
tiger snake and bandy-bandy,WN2 2RX,53.538443953238300,-2.578603807447240
boa and Nukupuʻu,WN2 2SU,53.554282398831400,-2.576585952983410
cerastes and frilled lizard,WN2 3DA,53.539194000000000,-2.585281750170270
adder and Siskin,WN2 3DD,53.537742483969600,-2.589714648782870
sidewinder and Skunk,WN2 3DN,53.537011749451000,-2.585827070219710
boa and Perching duck,WN2 3ES,53.531107859074200,-2.578911092437630
Gila monster and Piping shrike,WN2 3HJ,53.531614887389100,-2.583700453488180
caiman and Armadillo,WN2 3JU,53.529209786092000,-2.581072624706120
tiger snake and Wallaby,WN2 3JX,53.530540462056100,-2.584681361293170
Kangaroo and bull snake,WN2 3LA,53.536984107423700,-2.577512613123000
Partridge and Old World quail,WN2 3LQ,53.536916596674500,-2.574735418970240
kabaragoya and Black cockatoo,WN2 3NG,53.528482602293500,-2.582737152505050
whip snake and kabaragoya,WN2 3QS,53.534543895300700,-2.569045422327950
Skunk and dukite,WN2 3RA,53.533796172814900,-2.576895896844240
worm lizard and king snake,WN2 3TP,53.525299734873000,-2.599286213552730
Hawk and Guillemot,WN2 3TQ,53.524202885314600,-2.601126051166220
Gila monster and horned viper,WN2 3UL,53.521271503422600,-2.597766294308280
Civet and lizard,WN2 4AH,53.513084290476300,-2.558473216171450
glass snake and box turtle,WN2 4DA,53.540103692170500,-2.564215898778350
Black jay and Mink,WN2 4DT,53.535652609629700,-2.563945000000000
hognose snake and Ibex,WN2 4EG,53.537991157571100,-2.573708849044900
amphisbaena and Rabbit,WN2 4ET,53.531360590855500,-2.546222169155580
Puffleg and ringhals,WN2 4HB,53.527970273783300,-2.538666073230570
Cuscus and giant tortoise,WN2 4PR,53.526266718580400,-2.553472652678470
Mouse and amethystine python,WN2 4QT,53.529125583374100,-2.553359086434280
Cuscus and Asiatic leopard,WN2 4RH,53.530745575547200,-2.550966416029030
crocodile and Parrotbill,WN2 4SU,53.522906461344700,-2.547304948631200
perentie and horned viper,WN2 4XH,53.515337142860200,-2.547524054536080
slowworm and Ibex,WN2 5AP,53.521976425422500,-2.602376586272420
thorn lizard and box turtle,WN2 5BP,53.521954807057700,-2.599525563395750
Kangaroo and Tahr,WN2 5DF,53.519214385440700,-2.601100650741080
king cobra and Vulture,WN2 5DJ,53.518219384066400,-2.600558697100910
Thrasher and horned viper,WN2 5DS,53.517523388675100,-2.604892346018960
Booted eagles and dugite,WN2 5DZ,53.518836229336700,-2.604790397447340
Tattler and diamondback terrapin,WN2 5HP,53.516435244649300,-2.604997490789850
Songlark and blind snake,WN2 5JY,53.509407098146000,-2.622328339255130
elapid and Dolphin,WN2 5NB,53.521821403654000,-2.592027377249560
tree snake and Capuchin,WN2 5PT,53.514421956336300,-2.588772370317770
elapid and Grouse,WN2 5PU,53.513027790005400,-2.588964156260980
puff adder and Macaw,WN2 5QR,53.513567822302100,-2.592455166269130
Fox and amphisbaena,WN2 5TR,53.514046453259800,-2.571696230702540
Pitohui and agama,WN3 4BA,53.536427721275500,-2.619662064169190
Dolphin and lizard,WN3 4DH,53.540055000000000,-2.631137000000000
mud turtle and Rabbit,WN3 4JA,53.531154121665600,-2.612901424595000
Triller and Maya,WN3 4JR,53.539258333466000,-2.620532999209320
Crow and blue racer,WN3 4LH,53.535459829157900,-2.621563770026570
thorn lizard and bushmaster,WN3 4NW,53.534920648589100,-2.614585318084610
Schneider python and Kestrel,WN3 4RF,53.537993000000000,-2.611567000000000
flying dragon and Triller,WN3 4RT,53.536012781653000,-2.617044000000000
Siskin and loggerhead,WN3 4TU,53.528016629131700,-2.614018004395000
saltwater crocodile and Shearwater,WN3 5DY,53.532806614779600,-2.640594911569660
Hawaiian honeycreeper and Diving bird,WN3 5DZ,53.535812000000000,-2.638014000000000
goanna and cerastes,WN3 5EJ,53.533893815032500,-2.642346381684670
blind snake and Mouse,WN3 5HE,53.538582431602300,-2.639838000000000
sidewinder and diamond snake,WN3 5HH,53.537815319747800,-2.640202793404040
Parrotlet and smooth snake,WN3 5HW,53.528326609656300,-2.644630522367990
Recurvebill and Old World vulture,WN3 5PN,53.519258597820600,-2.641023893745750
Buzzard and ringhals,WN3 5PS,53.519959323675800,-2.641094805627200
Treepie and Black jay,WN3 5PU,53.521872094856300,-2.646432968599480
dukite and blind snake,WN3 5QA,53.523866243879200,-2.646674515428920
Chipmunk and king cobra,WN3 5QL,53.521365617005100,-2.643680152467340
python and Eagle,WN3 5TH,53.532676318335200,-2.646431612990970
milk snake and monitor,WN3 5UG,53.531696217597800,-2.644832582128910
Chickadee and bicycle lizard,WN3 5WA,53.531465370798400,-2.650939135699620
Mamo and Mink,WN3 5XD,53.533430393985800,-2.648268662058720
snapping turtle and horned toad,WN3 6AA,53.526842645748600,-2.674114122684590
harlequin snake and boomslang,WN3 6BP,53.528483692758000,-2.671605821808060
box turtle and Grackle,WN3 6BT,53.527275655253800,-2.669037320797320
turtle and diamondback turtle,WN3 6DL,53.513988000000000,-2.683938000000000
Chicken and Crow,WN3 6JT,53.515272539985200,-2.671246007834640
bicycle lizard and leathery turtle,WN3 6JW,53.517762004854400,-2.663261895005070
Piping shrike and leathery turtle,WN3 6LW,53.517867203950900,-2.676565651633090
Siskin and blindworm,WN3 6ND,53.516541173228200,-2.662971358358030
Peafowl and Shearwater,WN3 6NH,53.515991038108400,-2.665873753491610
water snake and Capuchin,WN3 6PA,53.533419850850800,-2.655148296384520
amethystine python and gecko,WN3 6QD,53.527117000000000,-2.654014816644180
cerastes and gavial,WN3 6RP,53.523347289942500,-2.657768205397650
carpet snake and goanna,WN3 6SG,53.521959518130800,-2.658410359890440
hoop snake and alligator,WN3 6TA,53.521098477201800,-2.662952039534490
pit viper and Stint,WN4 0BA,53.499605744505800,-2.650058873241040
chameleon and garter snake,WN4 0BL,53.511505404092800,-2.651251696454800
blind snake and constrictor,WN4 0BW,53.510691103960500,-2.648148000000000
Skunk and Masked owl,WN4 0BY,53.509401000000000,-2.650618681616130
snake and Kestrel,WN4 0DZ,53.508302049440700,-2.645939893152960
turtle and chuckwalla,WN4 0ER,53.503668359748000,-2.651749334510460
tortoise and Cuscus,WN4 0ET,53.504247219160000,-2.652738216376680
tortoise and boa constrictor,WN4 0QX,53.497339039735500,-2.673073048950530
Mink and Philippine hawk-owl,WN4 0RF,53.495996959583300,-2.667157853466920
Cloud rat and agamid,WN4 0RL,53.492731620575000,-2.665991192249250
Solitaire and chameleon,WN4 0SJ,53.492604170355800,-2.672696588355820
Rat and Stilt,WN4 0SR,53.493194566587100,-2.671605605919070
lizard and Ground sloth,WN4 0UE,53.493867497400700,-2.668616667157700
glass snake and Eagle,WN4 0UU,53.499614593073100,-2.680752274524290
diamondback terrapin and Recurvebill,WN4 8BH,53.493332873310900,-2.636487609192250
Mamo and flying lizard,WN4 8BZ,53.497772955241200,-2.636539056176490
rock snake and gavial,WN4 8DN,53.498136793060200,-2.640780507087270
bandy-bandy and Grackle,WN4 8PH,53.488606824904800,-2.629167000000000
Buzzard and New World blackbird,WN4 8TA,53.495678191266200,-2.619519442756810
king snake and Wader,WN4 8TZ,53.494088480513600,-2.626173726069020
Tahr and Stint,WN4 8XE,53.495358742125100,-2.616982398301710
slowworm and mamba,WN4 8XS,53.489140377699600,-2.621850641972720
Linsang and bull snake,WN4 9AA,53.487315653751500,-2.637211315314350
Elephant and loggerhead,WN4 9AG,53.486452336013100,-2.637288794763760
harlequin snake and bearded dragon,WN4 9DB,53.487742892291700,-2.634625502071920
Grackle and coral snake,WN4 9DE,53.487171315804700,-2.630532770015710
snake and Petrel,WN4 9DL,53.485805932698600,-2.637143468838000
whip snake and Viscacha,WN4 9EA,53.485175817187000,-2.637314864327070
Puffleg and cerastes,WN4 9EN,53.482873240286600,-2.635909031652440
White ibis and Shearwater,WN4 9JE,53.485065172192400,-2.627653277485300
Tattler and habu,WN4 9JW,53.484217965863800,-2.626374904528310
blindworm and Macaw,WN4 9LU,53.485526213317300,-2.645714254052470
elapid and Mink,WN4 9PF,53.482287000000000,-2.639852004856230
Herring gull and Pitohui,WN4 9PJ,53.483803868089500,-2.638379307357650
crocodile and blue tongue,WN4 9PR,53.481599927689000,-2.635332434719420
goanna and saltwater crocodile,WN4 9PS,53.483392964074300,-2.632827559927590
caiman and Kangaroo,WN4 9RU,53.495403617644200,-2.654170011697940
New World blackbird and Chipmunk,WN4 9TE,53.494751699431800,-2.641784599720750
king cobra and Night heron,WN4 9TU,53.493642576179900,-2.649093393517010
frill-necked lizard and Gull,WN5 0AY,53.540528903554300,-2.684185270354710
cobra and goanna,WN5 0DY,53.544834006783300,-2.685824222688540
carpet snake and flying lizard,WN5 0EJ,53.548688352991900,-2.678130000000000
blue racer and mountain devil,WN5 0HG,53.547562419335600,-2.673900134236240
snapping turtle and hoop snake,WN5 0HS,53.549277560463600,-2.685262186922070
Fish eagle and blindworm,WN5 0LS,53.554681000000000,-2.674089000000000
Linsang and Grackle,WN5 0PR,53.551645917768200,-2.665391775555920
Marmoset and jew lizard,WN5 0QP,53.549866000000000,-2.670511000000000
Siskin and giant tortoise,WN5 0QQ,53.548356998763900,-2.665234517540610
Prion and gecko,WN5 0RH,53.547765241186700,-2.669798227297280
adder and king snake,WN5 0TQ,53.540589294953200,-2.652482501905760
bull snake and gaboon viper,WN5 0TS,53.539820047256100,-2.655081160667310
Jackal and king snake,WN5 7AB,53.527760499588400,-2.714180168468520
New World blackbird and diamondback,WN5 7AF,53.525885140249000,-2.713635731311410
fer-de-lance and Old World vulture,WN5 7DT,53.518605730450500,-2.714915985050760
slowworm and Solitaire,WN5 7GL,53.520447000000000,-2.713759378813910
sea snake and terrapin,WN5 7HB,53.499320981130600,-2.706556310865900
Flameback and Asiatic leopard,WN5 7HQ,53.503306229028600,-2.709034862878880
Gull and coral snake,WN5 7HY,53.498095588884100,-2.708571025538800
gecko and terrapin,WN5 7QL,53.491340438190000,-2.719883249904170
Wader and blue racer,WN5 7QQ,53.492416750808000,-2.714279340038450
Duck and Capuchin,WN5 7TB,53.496769291260000,-2.691002419959220
cayman and alligator,WN5 7TP,53.491641660974000,-2.713120801651650
Logrunners and Old World vulture,WN5 7TQ,53.495680150057300,-2.706631427421590
python and deaf adder,WN5 7UE,53.492220551787100,-2.711005266328600
massasauga and jew lizard,WN5 8AY,53.535823401104100,-2.683024000000000
Warbler and Hawk,WN5 8DW,53.532015102384800,-2.673396699065700
Siskin and hawksbill,WN5 8EY,53.536779963771400,-2.687309000000000
skink and wall lizard,WN5 8JT,53.534101310611700,-2.684323013078690
Jerboa and cycling lizard,WN5 8NT,53.542404560095500,-2.701750690942160
Duck and Night heron,WN5 8PU,53.543656894335000,-2.702782506061840
Vulture and moloch,WN5 8ST,53.532097783148400,-2.711869447696820
Lemming and bandy-bandy,WN5 8SX,53.531809722115400,-2.713448724006120
constrictor and Chicken,WN5 8UT,53.534087739798400,-2.712793002359500
coral snake and Eagle,WN5 8UY,53.532342776421000,-2.705416347809880
Prion and blue tongue,WN5 9AB,53.539983496239500,-2.652458427158270
Treepie and swift,WN5 9BL,53.537613685348300,-2.654322000000000
krait and Macaw,WN5 9DU,53.538978260125400,-2.657784225795770
Marmoset and Mamo,WN5 9JW,53.536126971583900,-2.661391368669470
Gull and Parrotlet,WN5 9JX,53.535499894302700,-2.672290233490640
gaboon viper and bearded dragon,WN5 9LW,53.538860606759300,-2.674063667224500
iguana and grass snake,WN5 9QB,53.539814536730800,-2.665839926151260
Wader and carpet snake,WN5 9QZ,53.540935712651300,-2.667879580409010
Quetzal and tortoise,WN5 9RJ,53.543267158386600,-2.667267390289590
Goose and kabaragoya,WN5 9RW,53.544535407458400,-2.662261963169090
thorny devil and Parrotbill,WN5 9SL,53.545314606136600,-2.664386942725250
Hawk and Booted eagles,WN5 9UG,53.539007551121500,-2.679860285754680
grass snake and Skunk,WN6 0AF,53.574212005415500,-2.643123675377790
taipan and Cloud rat,WN6 0EZ,53.578188364988000,-2.644150652875580
Puffleg and whip snake,WN6 0GG,53.589229334395700,-2.680258869102310
frill-necked lizard and Quetzal,WN6 0HS,53.587800715395700,-2.666443205182620
cycling lizard and Greenbul,WN6 0JF,53.589285843284100,-2.667690262327270
swift and Piping shrike,WN6 0JG,53.590489599238400,-2.667814998922040
Parrotbill and Gila monster,WN6 0NW,53.589744743200200,-2.665990369581190
loggerhead and leguaan,WN6 0PN,53.595229656466300,-2.687879388925650
Wallaby and box turtle,WN6 0QG,53.595426070105900,-2.672304810392940
Eagle and Chipmunk,WN6 0RP,53.586679389480700,-2.672468056822490
Nukupuʻu and Bunting,WN6 0RU,53.589375612265200,-2.689884183806990
Rat and rock python,WN6 0TW,53.583675114911800,-2.663191087778100
black snake and diamondback terrapin,WN6 0UL,53.585036617271100,-2.667275832413350
Pheasant and Jay,WN6 0XU,53.589410305247700,-2.656573313333820
Chipmunk and Rat,WN6 0XY,53.591190732992800,-2.654803090398020
Nukupuʻu and Pitohui,WN6 0YA,53.570860552893800,-2.661027409696250
Stilt and alligator,WN6 0YQ,53.576185944352200,-2.673162308202750
thorny devil and skink,WN6 0ZN,53.589699000000000,-2.675566000000000
Mamo and giant tortoise,WN6 7HF,53.557201134056500,-2.642322117901160
Fulmarine petrel and Partridge,WN6 7HY,53.556623321920300,-2.642796419155110
glass snake and Treepie,WN6 7QB,53.560511908753900,-2.646765488954790
Nukupuʻu and saltwater crocodile,WN6 7QH,53.554809673657800,-2.658935534047000
horned viper and Kākāriki,WN6 8AF,53.578226493401500,-2.684220105107530
flying dragon and Chickadee,WN6 8BQ,53.573780946758000,-2.691382003779450
Recurvebill and Zebra,WN6 8BW,53.577209411005100,-2.689157424062200
Mink and Chicken,WN6 8DD,53.576165377421400,-2.683129637433820
dukite and tiger snake,WN6 8DL,53.573320963907900,-2.683838846503370
Lemming and Fulmarine petrel,WN6 8DY,53.573038957143500,-2.710624200930280
caiman and leathery turtle,WN6 8JY,53.561701124429400,-2.662681130379010
Thrasher and Jackal,WN6 8LA,53.560811533620700,-2.664252409369630
Perching duck and kabaragoya,WN6 8LD,53.561553619581800,-2.668189335783270
Egret and bushmaster,WN6 8LH,53.562343228395900,-2.671644032161320
Prion and Stint,WN6 8NQ,53.561188251411600,-2.649674461945800
black snake and Nukupuʻu,WN6 8NR,53.561591181604400,-2.653258696787760
whip snake and elapid,WN6 8QJ,53.564398266220200,-2.649467000031670
iguana and king snake,WN6 8RS,53.587327364468800,-2.700516004722960
Scimitar babbler and whip snake,WN6 9AZ,53.578590754988800,-2.720156968721490
Treepie and cerastes,WN6 9BE,53.582945000000000,-2.717919000000000
soft-shelled turtle and Minke whale,WN6 9HA,53.591786108410400,-2.726062054606880
diamondback turtle and bull snake,WN6 9PA,53.592918711562300,-2.700427218067550
Francolin and Grosbeak,WN6 9QE,53.600551191633800,-2.746295277370200
goanna and Piping shrike,WN6 9RT,53.607425819260800,-2.700470860598860
Kangaroo and taipan,WN6 9SA,53.609625878642400,-2.703892924989620
harlequin snake and Ibex,WN7 1AQ,53.497515526547500,-2.516663091346500
Siskin and Kestrel,WN7 1BW,53.495183227524200,-2.513484346350180
sand lizard and taipan,WN7 1DG,53.496954000000000,-2.517454000000000
turtle and whip snake,WN7 1EG,53.498261508361000,-2.518752470727400
Dolphin and boa,WN7 1ET,53.500165955641000,-2.516936536212720
Linsang and moloch,WN7 1HT,53.498997512705200,-2.510651141570910
River dolphin and Pratincole,WN7 1LP,53.498997184254600,-2.516997687001730
Songlark and snake,WN7 1NB,53.501336617201000,-2.516438207920380
bicycle lizard and tiger snake,WN7 1PP,53.505012840711200,-2.514372122346510
brown snake and blue racer,WN7 1RG,53.500605088078500,-2.521374081591470
Buzzard and puff adder,WN7 1RH,53.503007062246400,-2.520906047912780
Asiatic leopard and diamondback,WN7 1SP,53.508179494384500,-2.517908623296230
Mole and horned viper,WN7 1TJ,53.507292000000000,-2.519752000000000
Old World quail and Crow,WN7 1TX,53.511419228508400,-2.514932271905800
green turtle and Recurvebill,WN7 1UB,53.509022167147100,-2.516350737654760
Parrotlet and Snipe,WN7 1XH,53.498262538092100,-2.524691908808900
Gila monster and harlequin snake,WN7 1XT,53.498067500508100,-2.522021292680570
sidewinder and alligator,WN7 1XW,53.499136957426700,-2.523708000000000
python and Philippine hawk-owl,WN7 1XX,53.497646050504600,-2.521789996516310
Jackal and Towhee,WN7 1YE,53.498463039920900,-2.522011078812540
Darwin's finches and Coati,WN7 2AB,53.500922726159000,-2.492176818093370
dukite and slowworm,WN7 2BJ,53.494330189462200,-2.500571308970320
turtle and indigo snake,WN7 2BX,53.493997188099600,-2.502813285801750
anaconda and Greenbul,WN7 2DX,53.492259126043700,-2.503591561002540
blue tongue and king cobra,WN7 2HR,53.500520122874800,-2.501322653278630
monitor and tiger snake,WN7 2HW,53.498238367498400,-2.505275434271810
Fish eagle and dugite,WN7 2JB,53.498004000000000,-2.497012000000000
Armadillo and Ice seal,WN7 2NE,53.493068077780600,-2.486237256959690
Booted eagles and turtle,WN7 2PQ,53.495056000000000,-2.509911874603330
Ibex and Warbler,WN7 2PR,53.494221336570800,-2.509312505121890
Triller and Maya,WN7 2TD,53.496237173619000,-2.493750207011660
Mink and Peafowl,WN7 2TW,53.501752000000000,-2.492730199975500
Kite and Partridge,WN7 2XA,53.503744264453800,-2.486766553445230
massasauga and Night heron,WN7 2XN,53.507315422551100,-2.483882383123120
Grouse and diamond snake,WN7 2XW,53.506984145597200,-2.483561975271030
Perching duck and Marmoset,WN7 2YN,53.507338185903000,-2.478228438715980
Philippine hawk-owl and diamondback turtle,WN7 3AL,53.488763591317500,-2.503354206094180
Grosbeak and Pitohui,WN7 3EF,53.487047721054400,-2.496552000000000
diamondback and Mamo,WN7 3EG,53.487473479388700,-2.495893927731720
bicycle lizard and Mole,WN7 3HT,53.489503586853300,-2.517394603910520
Fulmarine petrel and Mole,WN7 3LR,53.483036433503700,-2.526628690997010
Piping shrike and garter snake,WN7 3NL,53.480039287660600,-2.516992000000000
cycling lizard and loggerhead,WN7 3NS,53.481893954216900,-2.526840568615490
Komodo dragon and cobra de capello,WN7 3PA,53.479844294414500,-2.538990239436010
Crow and moloch,WN7 3QH,53.476854684343600,-2.540187837588060
Old World quail and Kestrel,WN7 3QX,53.476216387895100,-2.544172451257550
cycling lizard and tortoise,WN7 3RA,53.480826000000000,-2.516275380845160
slowworm and tuatara,WN7 3SB,53.483382413893900,-2.498092000000000
Crow and diamondback terrapin,WN7 3TX,53.486143420626400,-2.523231143675580
Vole and Tattler,WN7 3XD,53.485051776132800,-2.501110023447700
Towhee and Gila monster,WN7 4BD,53.494099000000000,-2.529404000000000
Pheasant and python,WN7 4BJ,53.493113271318500,-2.553658000000000
flying dragon and coral snake,WN7 4BT,53.495916159515400,-2.520668357379670
moloch and Macaw,WN7 4ER,53.497890123199700,-2.529646837616500
Old World warbler and king cobra,WN7 4EU,53.496118018264700,-2.521786301743670
Mink and skink,WN7 4EY,53.496009898464900,-2.521845269284330
Scimitar babbler and Rat,WN7 4FP,53.494068000000000,-2.553504000000000
Fulmarine petrel and Tit-tyrant,WN7 4GF,53.494865000000000,-2.558142000000000
rat snake and mountain devil,WN7 4HA,53.491229575930200,-2.521485112216750
coral snake and soft-shelled turtle,WN7 4JE,53.491851292875800,-2.523195925369430
Dolphin and whip snake,WN7 4LE,53.493826866557200,-2.519693000000000
alligator and whip snake,WN7 4LR,53.495748734356300,-2.519897542012990
Mamo and Solitaire,WN7 4PF,53.494082744026500,-2.512295336047300
Perching duck and death adder,WN7 4QX,53.494704879123700,-2.542404470346010
Komodo dragon and chuckwalla,WN7 4XQ,53.497980569850900,-2.543531666935090
horned viper and Tattler,WN7 5BJ,53.501337949184200,-2.534966000000000
Grosbeak and Old World warbler,WN7 5BL,53.501029455068400,-2.535173528998850
chuckwalla and Old World vulture,WN7 5BW,53.500265150326900,-2.539234258464730
Kangaroo and adder,WN7 5BY,53.502683181521900,-2.535209443193870
sand viper and River dolphin,WN7 5DD,53.502142000000000,-2.529367000000000
snapping turtle and green turtle,WN7 5DJ,53.504919489465200,-2.537619800975800
Pheasant and Asiatic leopard,WN7 5DU,53.509151560627700,-2.533948979246030
Petrel and Old World warbler,WN7 5EG,53.504584000000000,-2.532519000000000
wall lizard and Buzzard,WN7 5HJ,53.509910969127900,-2.540970184202990
Booted eagles and giant tortoise,WN7 5HN,53.510850061732200,-2.542007532278750
kabaragoya and deaf adder,WN7 5HR,53.510621702825700,-2.540828448683470
turtle and coral snake,WN7 5HX,53.513717622532800,-2.525863110610050
Peafowl and Gila monster,WN7 5LN,53.507591510499100,-2.535075290949700
New World blackbird and Puffleg,WN7 5NB,53.510374153564800,-2.531898532193200
blue racer and Solitaire,WN7 5ND,53.511445201020900,-2.527523853858330
Scimitar babbler and New World blackbird,WN7 5PB,53.514178276020200,-2.533469306914790
chameleon and Recurvebill,WN7 5RW,53.511022031263900,-2.523598000424630
Pheasant and cerastes,WN7 5RX,53.506253920901300,-2.526599945118290
chameleon and Lemming,WN7 5SY,53.512588217549600,-2.537279590804680
American sparrow and Partridge,WN7 9AW,53.490967600000000,-2.509710000000000
gaboon viper and Parrotbill,WN7 9BT,53.490968000000000,-2.509530000000000
loggerhead and Peafowl,WN8 0AN,53.540154557958500,-2.738049532164450
Mamo and Ground sloth,WN8 0AQ,53.541151676976800,-2.732302464642580
rock python and Skunk,WN8 0BA,53.543680833818400,-2.740510363141380
slowworm and Marmoset,WN8 0BD,53.542777011063200,-2.739860774504540
Viscacha and flying dragon,WN8 0BX,53.533624000000000,-2.741587000000000
cobra de capello and Fulmarine petrel,WN8 0EN,53.543173108990300,-2.726572676173710
American sparrow and tree snake,WN8 0JF,53.542355708909200,-2.756905734816590
massasauga and perentie,WN8 0JL,53.543427905844800,-2.737804673998690
smooth snake and king snake,WN8 0LG,53.546253000000000,-2.724241000000000
Parakeet and Perching duck,WN8 0LJ,53.545725373381000,-2.723688609286810
Polecat and puff adder,WN8 0NP,53.541424172317800,-2.724942000000000
dukite and tuatara,WN8 0PE,53.541715452225900,-2.728298180105030
Stint and diamondback terrapin,WN8 0QG,53.560731278280200,-2.731885845193850
Grouse and king snake,WN8 0QQ,53.563490577377600,-2.724535454269120
gopher snake and leathery turtle,WN8 6AA,53.544653082299000,-2.757490024137240
racer and gavial,WN8 6AD,53.545809890655600,-2.756499537088620
Old World vulture and Polecat,WN8 6AQ,53.546319697807700,-2.756901022063980
python and Scimitar babbler,WN8 6AR,53.548959839082100,-2.757295283130680
Grackle and diamondback turtle,WN8 6EA,53.548496524094300,-2.767927389498980
Zebra and Masked owl,WN8 6ER,53.550716919841800,-2.783136611280100
leguaan and Tree warbler,WN8 6ES,53.551513147338000,-2.783709789203980
Kangaroo and Guillemot,WN8 6EZ,53.567719000000000,-2.771204000000000
frill-necked lizard and Recurvebill,WN8 6JG,53.555001210742700,-2.778128709889310
mud turtle and anole,WN8 6NS,53.549872791875600,-2.770563443240560
Linsang and skink,WN8 6QS,53.563206864993400,-2.772723294522020
agamid and thorn lizard,WN8 6RS,53.555355507460800,-2.774784079732650
Kākāriki and Boto,WN8 6RT,53.564134559449900,-2.777979325285960
diamondback turtle and cayman,WN8 6RX,53.564983210898700,-2.782917056204620
adder and Tit-tyrant,WN8 6SP,53.559352375049600,-2.762674169804260
cerastes and green turtle,WN8 6TE,53.562609570076000,-2.776124501801140
blindworm and Fish eagle,WN8 6TN,53.564675000000000,-2.772448000000000
Grosbeak and king snake,WN8 6UZ,53.560478221355000,-2.762317002177040
constrictor and Grouse,WN8 7BA,53.607683269188800,-2.762728882254480
water snake and krait,WN8 7DQ,53.593162644791100,-2.770399297603530
sand lizard and smooth snake,WN8 7EB,53.593934689803600,-2.770549327423180
gecko and Jackal,WN8 7HG,53.592721088433800,-2.767777491796980
Jackal and Darwin's finches,WN8 7PG,53.590332029026400,-2.773067170099560
Schneider python and Mockingbird,WN8 7RP,53.571728000000000,-2.764452000000000
blue racer and Chickadee,WN8 7RU,53.558584000000000,-2.749255000000000
Ice seal and swift,WN8 8AB,53.547979601497000,-2.790346000000000
Thrasher and thorny devil,WN8 8BQ,53.545062546856600,-2.807540875646070
thorny devil and Crow,WN8 8DN,53.548533334724700,-2.797992859252080
agama and gavial,WN8 8DT,53.551467194236200,-2.798802765292150
blind snake and lizard,WN8 8HS,53.550553848926000,-2.806317221862690
gaboon viper and Stilt,WN8 8JE,53.552310615907400,-2.808388339119800
Fox and carpet snake,WN8 8NH,53.549843999698400,-2.790123754206370
Flameback and Asiatic leopard,WN8 8NJ,53.548721043381600,-2.788669010015340
Songlark and Gila monster,WN8 8QA,53.553351040153900,-2.795321238391780
thorn lizard and Armadillo,WN8 8QL,53.553208014130500,-2.791137393618250
Partridge and Nukupuʻu,WN8 9AF,53.540976007377900,-2.750482931803180
Lemming and ringhals,WN8 9AL,53.543483142311900,-2.764773150414120
Mockingbird and cerastes,WN8 9BB,53.540790801335300,-2.759880718440320
Ground sloth and skink,WN8 9BS,53.537589244365000,-2.757303531292250
Mamo and Zebra,WN8 9DU,53.537235002600500,-2.749330361771980
bull snake and iguana,WN8 9ET,53.540439139119100,-2.762877302973430
smooth snake and Viscacha,WN8 9EU,53.540421671248400,-2.764204897095040
Wallaby and Hawaiian honeycreeper,WN8 9HD,53.538749672540700,-2.762816741255440
flying lizard and pit viper,WN8 9HU,53.539907000000000,-2.761660000000000
soft-shelled turtle and python,WN8 9JZ,53.544009550089200,-2.772373489998720
Fox and Linsang,WN8 9LX,53.538171701963000,-2.766050497746390
Chipmunk and Ground sloth,WN8 9NG,53.542937189360100,-2.768611451234310
tokay and Komodo dragon,WN8 9PD,53.529877000000000,-2.761677000000000
