name,postcode,lat,lon
Dorcopsis and massasauga,BL1 1UA,53.578587000000000,-2.431895000000000
rat snake and asp,BL1 1UG,53.581044270000000,-2.420381000000000
tiger snake and Coati,BL1 2AA,53.579895960000000,-2.432558314000000
rat snake and moloch,BL1 2BX,53.581688070000000,-2.431609946000000
Parrotbill and green turtle,BL1 2DQ,53.583221640000000,-2.430069779000000
constrictor and frill-necked lizard,BL1 2HT,53.587111710000000,-2.433085222000000
horned toad and harlequin snake,BL1 2JH,53.586379570000000,-2.434210680000000
Triller and Stilt,BL1 2JR,53.579144650000000,-2.434015668000000
perentie and Quetzal,BL1 2LP,53.583434550000000,-2.435811810000000
Duck and Siskin,BL1 2XB,53.585510180000000,-2.435999337000000
Darwin's finches and Parakeet,BL1 3AB,53.583083110000000,-2.440958928000000
Parakeet and Piping shrike,BL1 3AQ,53.585325790000000,-2.444577416000000
Moluccan boobook and Coati,BL1 3AT,53.584286940000000,-2.445971295000000
swift and cycling lizard,BL1 3DQ,53.587740290000000,-2.440629773000000
rock python and Fox,BL1 3ET,53.591666720000000,-2.448285005000000
Fulmarine petrel and leguaan,BL1 3HJ,53.592695760000000,-2.447117461000000
Thicketbird and horned toad,BL1 3HP,53.593726640000000,-2.443033922000000
Herring gull and leathery turtle,BL1 3LS,53.597276200000000,-2.450474912000000
Parakeet and Gull,BL1 3QN,53.591170510000000,-2.434169177000000
tortoise and Myna,BL1 3RG,53.588321020000000,-2.431737994000000
Stilt and loggerhead,BL1 3SH,53.588619580000000,-2.431092000000000
White ibis and amethystine python,BL1 3ST,53.587384540000000,-2.437151615000000
rock python and Duck,BL1 3TJ,53.589786380000000,-2.436617452000000
Pratincole and Vulture,BL1 3UD,53.592201330000000,-2.434950261000000
mountain devil and copperhead,BL1 3UF,53.591826800000000,-2.434130585000000
Boto and adder,BL1 3US,53.588913820000000,-2.436804842000000
Eagle and death adder,BL1 4AA,53.578852000000000,-2.434992000000000
Viscacha and Fulmarine petrel,BL1 4AP,53.582157680000000,-2.443290483000000
River dolphin and Gila monster,BL1 4BB,53.582266890000000,-2.445345839000000
deaf adder and galliwasp,BL1 4DR,53.581247310000000,-2.451180420000000
Francolin and Piping shrike,BL1 4DU,53.581831490000000,-2.453573133000000
agamid and Guillemot,BL1 4HJ,53.582803660000000,-2.450819385000000
Rat and king snake,BL1 4LX,53.578483500000000,-2.459412406000000
B and Mole,BL1 4NE,53.581339240000000,-2.457736614000000
Pratincole and Marsh harrier,BL1 4NJ,53.581865740000000,-2.456382912000000
horned toad and boa,BL1 4PA,53.579850000000000,-2.454866000000000
rock snake and Mole,BL1 4PQ,53.582980440000000,-2.461032091000000
Badger and pit viper,BL1 4RY,53.576653920000000,-2.446479913000000
tiger snake and Darwin's finches,BL1 4RZ,53.576814860000000,-2.446708149000000
Asiatic leopard and Viscacha,BL1 5BU,53.576608240000000,-2.463212997000000
Boto and cobra,BL1 5DB,53.578597000000000,-2.483303528000000
anole and Dolphin,BL1 5DE,53.577670230000000,-2.476590664000000
Chicken and terrapin,BL1 5FA,53.581440720000000,-2.470953907000000
Polecat and Quetzal,BL1 5FS,53.588487400000000,-2.425440191000000
Fulmarine petrel and Wader,BL1 5GW,53.581038570000000,-2.461238000000000
leathery turtle and Mockingbird,BL1 5HQ,53.582835460000000,-2.463658733000000
cayman and sand lizard,BL1 5JF,53.581306990000000,-2.467388000000000
tokay and milk snake,BL1 5ND,53.587308190000000,-2.464553669000000
Polecat and Mink,BL1 5NU,53.587578080000000,-2.471384730000000
American sparrow and Eagle,BL1 5RH,53.591871880000000,-2.467671000000000
hognose snake and Booted eagles,BL1 5SG,53.593053750000000,-2.484438908000000
alligator and Partridge,BL1 5UU,53.594477000000000,-2.476823000000000
Pitohui and tokay,BL1 5UW,53.595861660000000,-2.474589514000000
Petrel and Fulmarine petrel,BL1 5XD,53.575875950000000,-2.489105344000000
cobra and New World blackbird,BL1 5XH,53.575219840000000,-2.491287561000000
dukite and gecko,BL1 5XP,53.579128880000000,-2.469130893000000
harlequin snake and Capuchin,BL1 6AL,53.589905960000000,-2.459868716000000
Fish eagle and Peafowl,BL1 6BB,53.590070900000000,-2.463707762000000
Cuscus and tree snake,BL1 6BP,53.587812460605300,-2.456266040298670
wall lizard and viper,BL1 6DX,53.590172560000000,-2.451230219000000
Towhee and monitor,BL1 6EU,53.592151270000000,-2.457989496000000
Kākāriki and Hawk,BL1 6HA,53.590215220000000,-2.451834967000000
garter snake and coral snake,BL1 6HT,53.593564580000000,-2.457430664000000
Night heron and diamondback turtle,BL1 6HY,53.594123280000000,-2.452329947000000
Bronzewing pigeon and agamid,BL1 6LL,53.600138780000000,-2.461143450000000
Black jay and swift,BL1 6NR,53.596674000000000,-2.438624860000000
Night heron and Triller,BL1 6NX,53.599173760000000,-2.438210000000000
Old World warbler and tree snake,BL1 6PB,53.588487400000000,-2.425440191000000
Herring gull and Jackal,BL1 7AR,53.605186730000000,-2.435703366000000
American sparrow and Linsang,BL1 7AT,53.605139640000000,-2.436292275000000
rat snake and Kangaroo,BL1 7BA,53.607770900000000,-2.441820763000000
snake and green turtle,BL1 7BY,53.612078520000000,-2.446067767000000
Fox and sidewinder,BL1 7DQ,53.610397460000000,-2.441288958000000
sidewinder and diamondback terrapin,BL1 7DU,53.611891690000000,-2.443133471000000
River dolphin and krait,BL1 7GD,53.606062000000000,-2.446652000000000
Piping shrike and agama,BL1 7LA,53.612592400000000,-2.428433604000000
Kite and Vole,BL1 7LG,53.613442590000000,-2.434443119000000
diamondback terrapin and indigo snake,BL1 7PN,53.606105390000000,-2.430226807000000
coral snake and asp,BL1 7QU,53.603854000000000,-2.455439000000000
Kestrel and New World blackbird,BL1 8BE,53.596722970000000,-2.444591364000000
Egret and Chickadee,BL1 8BN,53.595323000000000,-2.446617620000000
Chicken and diamond snake,BL1 8BR,53.595508430000000,-2.447298267000000
green turtle and terrapin,BL1 8EN,53.593267450000000,-2.433435266000000
Francolin and Elephant,BL1 8GL,53.595068000000000,-2.442079000000000
cayman and Fulmarine petrel,BL1 8HD,53.592016400000000,-2.431413094000000
Fulmarine petrel and Rat,BL1 8HE,53.591181600000000,-2.431102432000000
Chicken and Parakeet,BL1 8JQ,53.590943930000000,-2.429710113000000
hoop snake and Dorcopsis,BL1 8LA,53.593389150000000,-2.427090957000000
Mamo and Snipe,BL1 8NR,53.601191200000000,-2.434528880000000
hawksbill and Chickadee,BL1 8PE,53.598897120000000,-2.432616520000000
Flameback and black snake,BL1 8PL,53.597167560000000,-2.431178517000000
Skunk and horned toad,BL1 8PP,53.597958810000000,-2.428602752000000
Meadowlark and frilled lizard,BL1 8QP,53.602611730000000,-2.431944246000000
Booted eagles and Warbler,BL1 8RZ,53.605152960000000,-2.422570115000000
anaconda and blind snake,BL1 8SA,53.604519090000000,-2.423893678000000
Hawk and Vulture,BL1 8SQ,53.604721150000000,-2.425210491000000
Guillemot and Vole,BL1 8TD,53.602064100000000,-2.429263910000000
frilled lizard and White ibis,BL1 8TH,53.601589390000000,-2.431299131000000
Ibex and diamondback terrapin,BL1 9NT,53.588487400000000,-2.425440191000000
Cuscus and coral snake,BL1 9UJ,53.588492317668400,-2.425440538777890
Mockingbird and Rabbit,BL1 9WN,53.588492317668400,-2.425440538777890
Bunting and Chickadee,BL1 9YQ,53.588504000000000,-2.425423000000000
dukite and Myna,BL1 9ZD,53.588504000000000,-2.425423000000000
loggerhead and Dolphin,BL11 1AW,53.572026719678200,-2.425139238112670
Partridge and bandy-bandy,BL2 1JJ,53.576750430000000,-2.417272633000000
Mink and garter snake,BL2 1JY,53.578203760000000,-2.415489691000000
cycling lizard and bull snake,BL2 1LL,53.572323340000000,-2.413483985000000
swift and Parrotbill,BL2 1LU,53.572907110000000,-2.411013095000000
habu and Fox,BL2 1NG,53.571265200000000,-2.407524033000000
blind snake and moloch,BL2 1PP,53.570900710000000,-2.403685017000000
rattlesnake and sea snake,BL2 2AD,53.589505170000000,-2.409391603000000
crocodile and Coati,BL2 2BD,53.579292890000000,-2.415047274000000
Recurvebill and Francolin,BL2 2BN,53.579462130000000,-2.418069630000000
hognose snake and horned viper,BL2 2DY,53.587532880000000,-2.415717203000000
Fox and king cobra,BL2 2ER,53.586018490000000,-2.409161510000000
New World blackbird and dugite,BL2 2HF,53.589433000000000,-2.417624000000000
Black cockatoo and mud turtle,BL2 2JN,53.593247090000000,-2.413809233000000
Zebra and American sparrow,BL2 2LB,53.590380770000000,-2.410925916000000
Parrotlet and thorny devil,BL2 2LZ,53.588562180000000,-2.406527311000000
Pheasant and milk snake,BL2 2NE,53.591913230000000,-2.406997625000000
rock python and Marsh harrier,BL2 2PD,53.592392170000000,-2.406246826000000
ringhals and Fulmarine petrel,BL2 2PR,53.581590530000000,-2.408197362000000
Bunting and Capuchin,BL2 2QE,53.583881240000000,-2.408581968000000
dukite and swift,BL2 2RE,53.586174640000000,-2.405537608000000
Elephant and sand lizard,BL2 2RS,53.585764000000000,-2.405156000000000
Jay and Bunting,BL2 2RX,53.588817640000000,-2.405411860000000
sea snake and blue racer,BL2 2SN,53.584627480000000,-2.403226779000000
Kākāriki and Herring gull,BL2 2SW,53.583380480000000,-2.402520079000000
Jackal and Nukupuʻu,BL2 2UB,53.588292550000000,-2.416963407000000
alligator and green turtle,BL2 2UF,53.589076040000000,-2.416533024000000
bearded lizard and bearded lizard,BL2 2UJ,53.588997140000000,-2.415958186000000
whip snake and Masked owl,BL2 2UL,53.588430060000000,-2.416194320000000
Jerboa and Prion,BL2 2UR,53.589182990000000,-2.414207605000000
American sparrow and Night heron,BL2 3EN,53.608337670000000,-2.400853185000000
mamba and horned toad,BL2 6BS,53.578581610000000,-2.402247916000000
sea snake and Rat,BL2 6GF,53.579587080892200,-2.406713302915560
blue racer and thorn lizard,BL3 2AH,53.567154120000000,-2.421466257000000
snake and sand lizard,BL3 2DQ,53.563591600000000,-2.429915807000000
Schneider python and Night heron,BL3 2DZ,53.561149420000000,-2.424139084000000
Schneider python and Kangaroo,BL3 2EF,53.559587880000000,-2.425980314000000
swift and anaconda,BL3 2EH,53.560656300000000,-2.428829252000000
Mamo and flying dragon,BL3 2JA,53.556858200000000,-2.420110942000000
black snake and tokay,BL3 2JF,53.557514230000000,-2.417581371000000
rock snake and Guillemot,BL3 2LT,53.558734840000000,-2.410317076000000
rattlesnake and agamid,BL3 2PP,53.562004590000000,-2.400309056000000
galliwasp and gaboon viper,BL3 2RA,53.568274680000000,-2.414607130000000
flying lizard and python,BL3 2RW,53.567659900000000,-2.420776721000000
giant tortoise and Linsang,BL3 2SB,53.565951720000000,-2.423432223000000
Rat and Parrotlet,BL3 2TF,53.563482330000000,-2.432798379000000
amphisbaena and krait,BL3 3FD,53.558302470000000,-2.433500278000000
tree snake and Flameback,BL3 3HE,53.557231240000000,-2.443603000000000
tortoise and bearded lizard,BL3 3HF,53.556308040000000,-2.443035175000000
Kestrel and amphisbaena,BL3 3HR,53.557836510000000,-2.440484867000000
Wallaby and Wallaby,BL3 3HY,53.559015790000000,-2.447260232000000
leathery turtle and Triller,BL3 3JD,53.560362030000000,-2.452573383000000
Egret and Komodo dragon,BL3 3LF,53.556935280000000,-2.450770620000000
Parrotlet and slowworm,BL3 3LZ,53.563965340000000,-2.450467954000000
frilled lizard and puff adder,BL3 3QW,53.558051140000000,-2.452805336000000
Bronzewing pigeon and Lemming,BL3 3RR,53.559532760000000,-2.457908658000000
lizard and Fulmarine petrel,BL3 3RW,53.556641810000000,-2.459386963000000
amphisbaena and leathery turtle,BL3 3SS,53.555408000000000,-2.469502000000000
leathery turtle and Mockingbird,BL3 4AG,53.566658220000000,-2.449047085000000
Jay and Asiatic leopard,BL3 4AR,53.565400290000000,-2.448928064000000
Mink and indigo snake,BL3 4BZ,53.568021500000000,-2.449831606000000
Francolin and Chicken,BL3 4DB,53.567710220000000,-2.451338233000000
Lemming and Booted eagles,BL3 4DE,53.568011550000000,-2.450088190000000
pit viper and krait,BL3 4DT,53.564407640000000,-2.459425858000000
White ibis and crocodile,BL3 4DU,53.563879100000000,-2.454121000000000
snake and Ice seal,BL3 4ET,53.564967780000000,-2.461017259000000
alligator and box turtle,BL3 4EW,53.565350800000000,-2.459587070000000
blind snake and gecko,BL3 4HN,53.565979720000000,-2.457313986000000
Vole and lizard,BL3 4HY,53.564122460000000,-2.458788648000000
tiger snake and Ground sloth,BL3 4JD,53.564845080000000,-2.464850895000000
New World blackbird and Gila monster,BL3 4JE,53.566021000000000,-2.463142000000000
Magpie and giant tortoise,BL3 4JP,53.564017460000000,-2.467332988000000
turtle and Towhee,BL3 4JS,53.564830270000000,-2.466345464000000
anaconda and caiman,BL3 4JY,53.562494670000000,-2.463677703000000
boomslang and blue tongue,BL3 4LR,53.557371220000000,-2.466006763000000
blue tongue and Stint,BL3 4LS,53.567223850000000,-2.465662149000000
terrapin and Quetzal,BL3 4LW,53.563194160000000,-2.464092995000000
giant tortoise and skink,BL3 4LZ,53.567724290000000,-2.466407517000000
amethystine python and rock python,BL3 4NR,53.569793050000000,-2.472908226000000
cycling lizard and snapping turtle,BL3 4NW,53.570440250000000,-2.472900350000000
Pitohui and Chickadee,BL3 4PJ,53.571657450000000,-2.478727725000000
thorn lizard and Linsang,BL3 4QX,53.562731880000000,-2.467394298000000
Logrunners and Chipmunk,BL3 4RJ,53.558754370000000,-2.484363793000000
pit viper and Parrotbill,BL3 4SB,53.558206170000000,-2.484342432000000
horned toad and Linsang,BL3 4TG,53.560624780000000,-2.468367448000000
mountain devil and blind snake,BL3 4TR,53.569188160000000,-2.475845947000000
Zebra and saltwater crocodile,BL3 5AG,53.573296550000000,-2.440479507000000
Grouse and Gull,BL3 5BB,53.571478290000000,-2.441185432000000
Songlark and skink,BL3 5BD,53.571534000000000,-2.440702790000000
Partridge and Jay,BL3 5BG,53.574721000000000,-2.437080169371910
rock python and Argus,BL3 5ET,53.569093600000000,-2.444361757000000
blind snake and gecko,BL3 5EU,53.569613980000000,-2.442192816000000
mud turtle and grass snake,BL3 5PE,53.570017070000000,-2.449792395000000
horned toad and Francolin,BL3 5PH,53.570619210000000,-2.449813888000000
mamba and krait,BL3 5PT,53.572702540000000,-2.452720321000000
Fish eagle and Logrunners,BL3 5QW,53.570378630000000,-2.461061040000000
blue racer and hognose snake,BL3 5RA,53.568618260000000,-2.458369243000000
Petrel and swift,BL3 5RW,53.569260290000000,-2.455008917000000
Argus and Treepie,BL3 6BT,53.569497180000000,-2.424826655000000
moloch and Tree warbler,BL3 6DY,53.573899898387400,-2.426653089523330
glass snake and bushmaster,BL3 6LJ,53.568234680000000,-2.445711703000000
Philippine hawk-owl and bushmaster,BL3 6NG,53.568314000000000,-2.429329000000000
Moluccan boobook and sand viper,BL3 6PF,53.565780000000000,-2.435975000000000
blindworm and Fulmarine petrel,BL3 6SW,53.567101480000000,-2.436142052000000
Skunk and lizard,BL3 6TG,53.566666000000000,-2.439988000000000
black snake and Condor,BL3 6TS,53.565946300000000,-2.442305524000000
Old World quail and glass snake,BL3 6UF,53.564659300000000,-2.445175851000000
garter snake and Fox,BL3 6UL,53.567544760000000,-2.437822632000000
New World blackbird and diamond snake,BL3 6UP,53.564493850000000,-2.436417173000000
Scimitar babbler and frill-necked lizard,BL3 6YQ,53.568467600000000,-2.431218552000000
Prion and water snake,BL4 0AX,53.547073020000000,-2.416633377000000
Siskin and Partridge,BL4 0AZ,53.547996570000000,-2.414695548000000
flying dragon and Armadillo,BL4 0BX,53.549231030000000,-2.413817153000000
diamond snake and mamba,BL4 0DB,53.551128898865300,-2.451691000000000
frilled lizard and frilled lizard,BL4 0DU,53.553290200000000,-2.414852995000000
Chicken and king cobra,BL4 0EL,53.550281790000000,-2.419230739000000
bandy-bandy and diamondback,BL4 0HT,53.555362650000000,-2.423643421000000
Zebra and Minke whale,BL4 0JB,53.555735170000000,-2.419963955000000
Snipe and Crow,BL4 0NH,53.549649970000000,-2.422529831000000
Moluccan boobook and Schneider python,BL4 0PQ,53.547621490000000,-2.436726428000000
blue tongue and Old World warbler,BL4 0QB,53.545966880000000,-2.431985723000000
perentie and Linsang,BL4 7EE,53.549871700000000,-2.407861692000000
hognose snake and giant tortoise,BL4 7EY,53.552662200000000,-2.403904000000000
loggerhead and Snipe,BL4 7HW,53.554652160000000,-2.413492712000000
saltwater crocodile and rattlesnake,BL4 7JE,53.553756240000000,-2.404759449000000
Pratincole and Jackal,BL4 7TR,53.557296220000000,-2.405185743000000
coral snake and chuckwalla,BL4 7TZ,53.555858600000000,-2.407677781000000
harlequin snake and Armadillo,BL4 7UF,53.548655280000000,-2.406099257000000
Chicken and perentie,BL4 9NB,53.540186030000000,-2.404086693000000
Warbler and Gull,BL4 9QT,53.545303930000000,-2.410971837000000
Maya and terrapin,BL4 9QX,53.546614480000000,-2.411482570000000
flying dragon and Argus,BL4 9SR,53.539327760000000,-2.402720488000000
amethystine python and boa,BL5 1AB,53.551794290000000,-2.469356624000000
Rabbit and Piping shrike,BL5 1DQ,53.538186131342600,-2.442287868908740
Badger and garter snake,BL5 1YY,53.588200640000000,-2.538918439000000
amethystine python and whip snake,BL5 2AX,53.540869690000000,-2.538452645000000
frill-necked lizard and Myna,BL5 2BH,53.542836150000000,-2.538900147000000
green turtle and Greenbul,BL5 2BJ,53.543106690000000,-2.532686248000000
Grouse and Maya,BL5 2BT,53.536224940000000,-2.541924319000000
Prion and snake,BL5 2DS,53.532727620000000,-2.538122998000000
Perching duck and Old World warbler,BL5 2HD,53.537816680000000,-2.521544681000000
gavial and Elephant,BL5 2HS,53.538686470000000,-2.522023136000000
amethystine python and Puffleg,BL5 2JQ,53.540969180000000,-2.515894573000000
bearded dragon and snake,BL5 2JU,53.534889820000000,-2.520769399000000
Tattler and fer-de-lance,BL5 2NR,53.541857920000000,-2.518229270000000
monitor and harlequin snake,BL5 2NS,53.541175620000000,-2.518039853000000
Badger and galliwasp,BL5 2PR,53.543076990000000,-2.516931284000000
Polecat and galliwasp,BL5 2PY,53.546977920000000,-2.519470000000000
tokay and Myna,BL5 2QL,53.541558020000000,-2.514830342000000
Tahr and American sparrow,BL5 2RS,53.541364200000000,-2.536421773000000
blindworm and rat snake,BL5 2TE,53.536196281996000,-2.514991899453630
Hawk and Meadowlark,BL5 3BU,53.555379350000000,-2.496386097000000
krait and Civet,BL5 3DF,53.547670520000000,-2.518903998000000
Myna and hognose snake,BL5 3LG,53.562591200000000,-2.527148770000000
Chipmunk and taipan,BL5 3NT,53.562897000000000,-2.547414000000000
constrictor and Dolphin,BL5 3QF,53.559728470000000,-2.524063664000000
Masked owl and blind snake,BL5 3QG,53.558687260000000,-2.523733770000000
hawksbill and Duck,BL5 3SB,53.551670110000000,-2.525141351000000
Fulmarine petrel and wall lizard,BL5 3SJ,53.551960370000000,-2.524541196000000
Bunting and agama,BL5 3SZ,53.552417830000000,-2.522705397000000
swift and Komodo dragon,BL5 3TB,53.551479570000000,-2.521441061000000
constrictor and ringhals,BL5 3TE,53.550913810000000,-2.523381150000000
galliwasp and wall lizard,BL5 3XH,53.562692000000000,-2.534940000000000
snapping turtle and Capuchin,BL5 3ZB,53.557163000000000,-2.510670798000000
dukite and Linsang,BL5 3ZP,53.558554480000000,-2.510794767000000
goanna and taipan,BL6 4BH,53.581683580000000,-2.524879076000000
Tattler and black snake,BL6 4DB,53.572403070000000,-2.496464746000000
sand viper and Shearwater,BL6 4DP,53.580539230000000,-2.504655827000000
Fox and blue tongue,BL6 4EE,53.572417210000000,-2.490862431000000
Old World quail and moloch,BL6 4JZ,53.580552000000000,-2.497598838000000
frilled lizard and Kestrel,BL6 4RW,53.571725990000000,-2.484028870000000
Kangaroo and Boto,BL6 4SD,53.578541000000000,-2.534506000000000
smooth snake and giant tortoise,BL6 4WT,53.588200640000000,-2.538918439000000
rock python and Scimitar babbler,BL6 5DW,53.594976450000000,-2.581446217000000
Chicken and worm lizard,BL6 5ER,53.592934180000000,-2.539658576000000
Triller and Elephant,BL6 5GQ,53.595909390000000,-2.549517644000000
box turtle and bicycle lizard,BL6 5GU,53.595407260000000,-2.568488369000000
Cloud rat and Dorcopsis,BL6 5HF,53.593990930000000,-2.586312817000000
tortoise and Meadowlark,BL6 5HQ,53.595174690000000,-2.562547333000000
milk snake and Peafowl,BL6 5JA,53.592530510000000,-2.570474243000000
Triller and snake,BL6 5JG,53.594203130000000,-2.590682218000000
turtle and Capuchin,BL6 5JJ,53.594192000000000,-2.596710000000000
Vulture and gopher snake,BL6 5NJ,53.591400740000000,-2.543748000000000
Partridge and Rabbit,BL6 5NN,53.594135450000000,-2.544327402000000
Ground sloth and Masked owl,BL6 5NR,53.594882740000000,-2.544049940000000
Kestrel and leathery turtle,BL6 5RA,53.596619880000000,-2.555268554000000
rock python and Guillemot,BL6 5RH,53.596681590000000,-2.557460273000000
boomslang and mud turtle,BL6 5RZ,53.579666960000000,-2.566932846000000
turtle and Skunk,BL6 5SY,53.584536000000000,-2.571484000000000
anole and Parrotlet,BL6 5UT,53.593489000000000,-2.592892000000000
adder and swift,BL6 5WH,53.600489000000000,-2.573058000000000
Grackle and Mole,BL6 6AW,53.603676520000000,-2.533372880000000
Tahr and bearded dragon,BL6 6BA,53.597416560000000,-2.530241776000000
gaboon viper and Tree warbler,BL6 6BQ,53.598639470000000,-2.536180376000000
Ibex and Petrel,BL6 6BT,53.598351140000000,-2.540332057000000
sand lizard and Argus,BL6 6DG,53.595689350000000,-2.536611394000000
Black jay and soft-shelled turtle,BL6 6EF,53.588394850000000,-2.533693975000000
mud turtle and Armadillo,BL6 6GG,53.596485000000000,-2.508956000000000
bearded dragon and Siskin,BL6 6HG,53.585595000000000,-2.526770000000000
blind snake and Capuchin,BL6 6HR,53.585968490000000,-2.525460897000000
sand lizard and Parakeet,BL6 6JX,53.590122140000000,-2.533353172000000
alligator and taipan,BL6 6LJ,53.588107000000000,-2.529853000000000
rattlesnake and Tit-tyrant,BL6 6NU,53.592704550000000,-2.528687031000000
Greenbul and Kestrel,BL6 6PE,53.584556000000000,-2.540065000000000
Polecat and bearded dragon,BL6 6PX,53.595423590000000,-2.508988316000000
rattlesnake and hoop snake,BL6 6QU,53.595688100000000,-2.518555708000000
Masked owl and cerastes,BL6 6RT,53.605931370000000,-2.525527429000000
Duck and Schneider python,BL6 6SF,53.579861500000000,-2.534447347000000
Marsh harrier and Crow,BL6 7BE,53.601056710000000,-2.542300844000000
bearded lizard and viper,BL6 7BT,53.599435680000000,-2.542990275000000
Rabbit and Chicken,BL6 7EQ,53.603345260000000,-2.543070665000000
loggerhead and rock python,BL6 7FP,53.598976788408200,-2.550116877725190
Thrasher and bearded lizard,BL6 7HH,53.601771960000000,-2.541161534000000
krait and harlequin snake,BL6 7NY,53.598878000000000,-2.547290000000000
pit viper and Ibex,BL6 7RN,53.603595020000000,-2.559092789000000
Chipmunk and amethystine python,BL6 7TG,53.599585700000000,-2.545576138000000
grass snake and sand lizard,BL6 9DS,53.588200640000000,-2.538918439000000
Treepie and blindworm,BL7 0HF,53.629144610000000,-2.419483249000000
Masked owl and perentie,BL7 8AX,53.641975860000000,-2.495738986000000
Komodo dragon and Marsh harrier,BL7 9AB,53.610612000000000,-2.414312000000000
caiman and Rat,BL7 9BR,53.614453390000000,-2.418158473000000
leguaan and Old World warbler,BL7 9DW,53.614134860000000,-2.426907410000000
iguana and Gila monster,BL7 9DX,53.619714990000000,-2.429866374000000
Siskin and rock snake,BL7 9HL,53.620684380000000,-2.430239066000000
frilled lizard and constrictor,BL7 9JR,53.617594690000000,-2.419474489000000
dugite and blindworm,BL7 9JZ,53.618067140000000,-2.418027917000000
boomslang and loggerhead,BL7 9LD,53.617399510000000,-2.421301713000000
green turtle and Treepie,BL7 9LX,53.613501010000000,-2.412873701000000
Myna and grass snake,BL7 9LZ,53.618768550000000,-2.412758838000000
Mamo and leathery turtle,BL7 9ND,53.619528540000000,-2.411314949000000
bearded dragon and deaf adder,BL7 9NJ,53.619559810000000,-2.407429980000000
Prion and blue racer,BL7 9NR,53.621391410000000,-2.408022130000000
Booted eagles and kabaragoya,BL7 9NW,53.619238730000000,-2.427321761000000
Crow and Parrotlet,BL7 9PE,53.616448380000000,-2.438358988000000
Flameback and krait,BL7 9PH,53.621698730000000,-2.415357598000000
diamondback and Towhee,BL7 9QD,53.626261000000000,-2.416672000000000
Marmoset and bandy-bandy,BL7 9RS,53.627583460000000,-2.438746618000000
alligator and Jerboa,BL7 9SA,53.624982000000000,-2.437586000000000
coral snake and Duck,BL7 9SN,53.630170240000000,-2.441691937000000
Shearwater and Old World vulture,BL7 9TS,53.630907450000000,-2.444073775000000
Myna and boa constrictor,BL7 9YU,53.626329210000000,-2.444932897000000
habu and Chicken,BL7 9ZD,53.623682063888800,-2.435304591486370
Diving bird and Rat,L34 1LD,53.427152515470600,-2.809668156987680
Duck and crocodile,L34 1ZZ,53.435392222950100,-2.803457539445550
horned viper and bearded dragon,L34 2TP,53.432670708573600,-2.784215273749340
horned toad and Nukupuʻu,L34 3NB,53.431357000000000,-2.811461345124200
massasauga and Hawaiian honeycreeper,L34 5PF,53.428359769769200,-2.799923533060820
Kestrel and Meadowlark,L34 5QX,53.430136397171100,-2.800393374808360
Ice seal and agamid,L34 5SG,53.427409000000000,-2.798491000000000
Prion and Armadillo,L34 5SW,53.427341000000000,-2.801932207237550
Eagle and Crow,L34 6HW,53.431893936381700,-2.801028463356410
Chicken and horned viper,L34 6HY,53.430965860181900,-2.798678086263260
anaconda and Bunting,L34 6JA,53.430128801924400,-2.798842998740820
Petrel and Flameback,L34 6JU,53.430920030677400,-2.802831327589610
Myna and gaboon viper,L35 7AD,53.425534000000000,-2.785347000000000
Badger and Kākāriki,L35 7JE,53.425466146666800,-2.784910333937620
Zebra and Piping shrike,L35 7JX,53.428997000000000,-2.783967000000000
amethystine python and Tattler,L35 7LN,53.425021560358500,-2.789627525389860
Bunting and Shearwater,L40 2QB,53.625815518073400,-2.783211299885870
Logrunners and Mink,L40 2QF,53.627224965136200,-2.782239000000000
Puffleg and Hawk,L40 2QZ,53.629985067171100,-2.758684000000000
puff adder and Crow,L40 2RB,53.642246665305700,-2.743718776929090
tortoise and sidewinder,L40 2RU,53.628660907808600,-2.764362327926480
Bronzewing pigeon and Wallaby,L40 3AB,53.615729615846200,-2.775058031354330
Pratincole and Wallaby,L40 3AD,53.622298000000000,-2.741280000000000
leathery turtle and coral snake,M28 0BB,53.527111661841100,-2.418654810600200
anaconda and Marsh harrier,M28 0BD,53.527491592010400,-2.417964649739080
American sparrow and monitor,M28 0BE,53.526069144943600,-2.418614355073730
Goose and Myna,M28 0FE,53.527825041561400,-2.422825341815870
Petrel and saltwater crocodile,M28 0GF,53.522340787789200,-2.402378259803960
Capuchin and Condor,M28 0HU,53.522303118723200,-2.418577203631810
anole and Guillemot,M28 0RU,53.525159917538800,-2.413853872545880
tuatara and monitor,M28 0SS,53.525838609285400,-2.409923462677570
giant tortoise and Towhee,M28 0YB,53.524536511816800,-2.425009912603570
Mouse and Perching duck,M28 1AQ,53.508006169213900,-2.435157834076310
Ice seal and death adder,M28 1DJ,53.503713593255400,-2.426595589234230
Wallaby and Dorcopsis,M28 1EZ,53.501528731474500,-2.411227000000000
Stilt and Buzzard,M28 1GA,53.504761363805700,-2.414936574563450
Francolin and chuckwalla,M28 1GJ,53.495915000000000,-2.427993000000000
python and frill-necked lizard,M28 1GN,53.495678000000000,-2.429016000000000
Polecat and Minke whale,M28 1HA,53.502961481209100,-2.412974146937510
Grosbeak and cobra,M28 1HG,53.502177047461700,-2.421394006443230
Chicken and krait,M28 1JE,53.499473819460400,-2.425814325250900
gopher snake and kabaragoya,M28 1LN,53.502235898878800,-2.414851594107530
Black jay and leguaan,M28 1LU,53.503540997567800,-2.419492826623880
Vole and Francolin,M28 1NA,53.504370992843100,-2.416048442047710
Asiatic leopard and crocodile,M28 1PA,53.509402409991900,-2.429351812891730
Minke whale and alligator,M28 1UQ,53.499005781033200,-2.418362639806970
loggerhead and Stilt,M28 1XX,53.511355774678100,-2.418408939996190
Stint and Vole,M28 3AE,53.519400239154900,-2.402772678301920
carpet snake and anole,M28 3AF,53.518609688136400,-2.402644521058340
constrictor and blue tongue,M28 3FL,53.529671297880900,-2.400607000000000
agamid and pit viper,M28 3JH,53.523777298935400,-2.400189666462300
boa constrictor and diamond snake,M28 3RW,53.534050458355700,-2.405702932301780
Kite and moloch,M28 3SG,53.520585303918000,-2.405845680127230
Condor and rat snake,M28 3SN,53.520160261012300,-2.403956317370480
American sparrow and Piping shrike,M28 3UQ,53.517601000000000,-2.408379000000000
Snipe and Duck,M28 3UZ,53.518738000000000,-2.410217000000000
terrapin and Petrel,M28 7DH,53.511502772294900,-2.409709624150250
Chipmunk and Francolin,M28 7DL,53.515389276321300,-2.400728885153720
Recurvebill and soft-shelled turtle,M28 7GG,53.515071399121200,-2.401706121448580
python and bushmaster,M28 7HG,53.514158871482800,-2.403099948958560
Grackle and Triller,M28 7LH,53.511454908530900,-2.402636973575720
tokay and chameleon,M28 7TS,53.515621895829400,-2.406371289860390
Tit-tyrant and frilled lizard,M28 7UA,53.513497000000000,-2.405084000000000
Solitaire and python,M28 7XD,53.508792830618000,-2.410995288842400
Scimitar babbler and Macaw,M28 7XS,53.510189330458200,-2.404766166222410
blindworm and diamondback,M29 2AH,53.514387342300000,-2.465278708300000
jew lizard and Kite,M29 7AS,53.505761980110100,-2.463073067544890
Mouse and skink,M29 7DY,53.499236889876700,-2.460605001323710
Herring gull and Pratincole,M29 7EA,53.495065181631100,-2.460876310969130
Polecat and Francolin,M29 7ED,53.494315267318100,-2.461878082595290
Piping shrike and Kākāriki,M29 7JG,53.493337396929500,-2.470609733435800
Mole and gecko,M29 7JS,53.503074012565400,-2.444243553293500
Greenbul and Masked owl,M29 7NA,53.507038115356600,-2.463132217735130
grass snake and boa constrictor,M29 7PZ,53.508880607699600,-2.460845317844400
Kākāriki and agama,M29 7QE,53.508715853525300,-2.461612525643290
Grackle and viper,M29 7RB,53.504765411854000,-2.453397875608240
Linsang and Minke whale,M29 7RF,53.507090471873000,-2.444617284913720
Tree warbler and Towhee,M29 7SB,53.497058000000000,-2.459571000000000
Badger and puff adder,M29 7SZ,53.508674000000000,-2.441722000000000
boa constrictor and bearded dragon,M29 7TX,53.504459740785600,-2.455776752513850
Mouse and tiger snake,M29 7WF,53.509285803512400,-2.453612010372200
carpet snake and elapid,M29 8AY,53.516376972126100,-2.470080913958760
Goose and Darwin's finches,M29 8EG,53.515330783547900,-2.473251357878490
Towhee and indigo snake,M29 8FE,53.513918241483700,-2.459784069352670
deaf adder and Ice seal,M29 8GR,53.516310730397200,-2.471091000000000
Diving bird and Chicken,M29 8HF,53.512993855600000,-2.468671183170510
Scimitar babbler and worm lizard,M29 8JD,53.513466235553800,-2.476502942441710
python and diamond python,M29 8JL,53.513325490644800,-2.475732282729930
Parrotlet and habu,M29 8JP,53.512929832227900,-2.482498706291070
viper and harlequin snake,M29 8JX,53.513399255443400,-2.475265628585010
agama and Dorcopsis,M29 8LD,53.514553354300400,-2.472096577971220
crocodile and flying dragon,M29 8LG,53.523159253106200,-2.468813608260300
rattlesnake and terrapin,M29 8ND,53.524256880311100,-2.454752000000000
habu and Magpie,M29 8PQ,53.516470562928500,-2.440809529936050
Duck and Partridge,M29 8QR,53.516357108671100,-2.444744507002750
Pheasant and Thicketbird,M29 8WU,53.514385564481000,-2.450363904602040
horned viper and Mockingbird,M31 4YR,53.431420000000000,-2.400721000000000
tortoise and Skunk,M38 0DT,53.531001998715800,-2.434232037671510
hognose snake and puff adder,M38 0EE,53.524605108800200,-2.430953686095610
Gull and sand lizard,M38 0WH,53.527258000000000,-2.410435000000000
Jerboa and indigo snake,M38 9AD,53.526591230435200,-2.410624628963100
Elephant and cerastes,M38 9FH,53.538753000000000,-2.421210553904150
Asiatic leopard and blindworm,M38 9GJ,53.533105310261100,-2.419121311392110
glass snake and iguana,M38 9ND,53.528044194548200,-2.411543802652640
Thicketbird and Petrel,M38 9NE,53.530319916947500,-2.408443077848120
harlequin snake and Petrel,M38 9NT,53.531857684170400,-2.421175841816980
Piping shrike and mud turtle,M38 9NX,53.532737455598400,-2.421486314048560
pit viper and Ibex,M38 9QB,53.533311003158100,-2.409045186640190
puff adder and Badger,M38 9SN,53.534874580227300,-2.416966176371100
python and Bronzewing pigeon,M38 9TL,53.537841862931800,-2.431842607695200
loggerhead and Ibex,M38 9TU,53.539226622346800,-2.424161229880870
bearded lizard and diamondback terrapin,M38 9UQ,53.534478637466900,-2.434750426931080
boa and Black jay,M38 9UU,53.533332779033300,-2.430982000241240
cycling lizard and Boto,M38 9XL,53.537111630981900,-2.439832037948780
American sparrow and diamondback,M41 6NG,53.445501803918400,-2.401289989296870
Tahr and Thicketbird,M41 6QF,53.447611089825600,-2.404848199146640
Towhee and bearded dragon,M41 6WE,53.447502843181800,-2.402302598173050
tree snake and American sparrow,M41 6WJ,53.447879335224400,-2.402607293104990
Songlark and Pratincole,M41 6WU,53.445975021907500,-2.404892858096210
adder and Tit-tyrant,M41 6WZ,53.445632624377500,-2.402480644688720
snake and Flameback,M44 5DL,53.433174803874000,-2.430720030880910
diamond snake and tree snake,M44 5GD,53.432004320436400,-2.431265083192190
Pheasant and mamba,M44 5HF,53.425599331170500,-2.442486902916980
Fish eagle and Ibex,M44 5HZ,53.426660709008800,-2.449510901014610
Piping shrike and rock python,M44 5JQ,53.430748455805700,-2.440418257397750
anaconda and Puffleg,M44 5NA,53.458002677028700,-2.420218297243060
Ground sloth and grass snake,M44 5UB,53.425198263257600,-2.439126859638400
Linsang and Snipe,M44 5XG,53.425018507750600,-2.436672066924880
Snipe and Meadowlark,M44 5XP,53.427122485949900,-2.434029888695770
Moluccan boobook and moloch,M44 5YA,53.426906598921000,-2.446262830434930
Guillemot and Black cockatoo,M44 5ZR,53.435555169108100,-2.431165581931740
puff adder and tuatara,M44 6AF,53.439265053561200,-2.429336496683360
rattlesnake and Fox,M44 6AP,53.442476571598900,-2.426101985915030
Rabbit and B,M44 6BH,53.438449514365300,-2.426151993804520
king snake and Jerboa,M44 6DP,53.449106052321700,-2.417073816342020
Egret and Triller,M44 6GG,53.440910000000000,-2.414223000000000
Mole and Jackal,M44 6HQ,53.455107448214700,-2.412750388134970
Condor and terrapin,M44 6LB,53.452208495858900,-2.419242508965970
Bronzewing pigeon and smooth snake,M44 6LE,53.453278096040900,-2.419253049278070
mamba and giant tortoise,M44 6LZ,53.452588419553000,-2.421113499550560
Mink and giant tortoise,M44 6NR,53.449130550794200,-2.422886142702360
viper and green turtle,M44 6PL,53.455400763311200,-2.416292200872410
Songlark and Fulmarine petrel,M44 6PZ,53.456189807815600,-2.419417283437390
Guillemot and Tit-tyrant,M44 6RA,53.438216851196600,-2.420790667778000
Mockingbird and Egret,M44 6WJ,53.451398623147500,-2.422050378453190
moloch and boa constrictor,M44 6WW,53.449682960845700,-2.424261857792170
boomslang and dugite,M44 6ZL,53.442779000000000,-2.424765000000000
Dolphin and Hawk,M46 0BN,53.519116454734400,-2.501527188759330
thorn lizard and Triller,M46 0BS,53.522662379210700,-2.498311092425060
boa constrictor and habu,M46 0DN,53.523484162704800,-2.490869434187150
Warbler and slowworm,M46 0DR,53.524057041634000,-2.491449245865510
deaf adder and Darwin's finches,M46 0EF,53.524720323564900,-2.498275000000000
viper and Zebra,M46 0EP,53.524849000000000,-2.491305698921560
krait and Meadowlark,M46 0GH,53.521479825109000,-2.512263985958130
Schneider python and carpet snake,M46 0GR,53.520530870450200,-2.509266181574280
diamondback turtle and Ibex,M46 0JG,53.523821835161000,-2.498324706960440
Wader and Shearwater,M46 0JP,53.524211703330100,-2.499671750408650
hawksbill and snapping turtle,M46 0LQ,53.523833114144000,-2.504207500807870
Tree warbler and diamondback turtle,M46 0LR,53.523353548083300,-2.500687329511290
anaconda and snake,M46 0ND,53.526191909781700,-2.492514806777570
brown snake and Mouse,M46 0NP,53.523448748089400,-2.501563302098480
tokay and Shearwater,M46 0PD,53.519731709754100,-2.504837480593870
slowworm and Old World vulture,M46 0PT,53.518552734472700,-2.509423430168890
Jay and White ibis,M46 0PU,53.517620465416900,-2.510935477892810
Cuscus and chuckwalla,M46 0QH,53.521873603075100,-2.510564353305730
Fish eagle and dukite,M46 0QY,53.518897860275000,-2.510694460311000
Old World vulture and Duck,M46 0RH,53.528181469490100,-2.508935612712470
Civet and agamid,M46 0SE,53.513773913206600,-2.510813781887820
Tree warbler and Kākāriki,M46 9AS,53.517329721979000,-2.479140317218880
Tit-tyrant and Logrunners,M46 9BP,53.520242000000000,-2.477122000000000
caiman and Philippine hawk-owl,M46 9DW,53.524273177973100,-2.486956748044790
bearded lizard and Perching duck,M46 9EH,53.521936372352400,-2.484697641677050
cycling lizard and Warbler,M46 9EP,53.523490747506900,-2.480401481405740
diamondback terrapin and Scimitar babbler,M46 9ES,53.521151000000000,-2.483480301152090
New World blackbird and terrapin,M46 9HB,53.536026013884400,-2.472290266950350
Rabbit and Cloud rat,M46 9HN,53.532477581705400,-2.471783070791970
Schneider python and deaf adder,M46 9HU,53.530663938091900,-2.480301667715430
Polecat and Masked owl,M46 9JL,53.527569734941300,-2.485289967560050
racer and bearded lizard,M46 9NA,53.528323262168200,-2.483443090201430
harlequin snake and Mamo,M46 9PD,53.532648650056900,-2.485182109190830
Elephant and grass snake,M46 9QL,53.529641906065600,-2.479641408444300
Thicketbird and boa,M46 9RA,53.528126135763400,-2.485507524974010
rattlesnake and boa constrictor,M46 9SW,53.533545553905500,-2.485660069951670
Stint and leguaan,M46 9SX,53.532228415900500,-2.484634181239350
Eagle and black snake,M46 9TA,53.531470270252800,-2.494175245437910
sea snake and Asiatic leopard,M46 9WA,53.527477303061900,-2.476992144640080
Kestrel and Hawaiian honeycreeper,M46 9XD,53.535278432041500,-2.492710827490850
Wader and Black jay,PR6 0LU,53.647344116355600,-2.617051534633440
Darwin's finches and Grackle,PR6 9EF,53.635700965200300,-2.598370000000000
leathery turtle and Night heron,PR6 9EY,53.623395581077800,-2.583726830456650
amethystine python and racer,PR6 9HP,53.606496294400500,-2.582118360022790
tokay and chuckwalla,PR6 9LT,53.618540226009400,-2.598611077756640
boa constrictor and Chicken,PR6 9NJ,53.617238586060000,-2.596311000000000
cycling lizard and rat snake,PR6 9PD,53.621279351982400,-2.595474956478190
Asiatic leopard and hawksbill,PR6 9PS,53.616741772284800,-2.596968114098080
Tree warbler and death adder,PR6 9QP,53.616772497296800,-2.599810530575950
anole and copperhead,PR6 9SU,53.619838701700000,-2.605962026800000
Coati and Black cockatoo,PR7 2FS,53.645434124049900,-2.650152226839160
leguaan and perentie,PR7 2HT,53.645594041765100,-2.637130104466860
adder and whip snake,PR7 2JP,53.642225590613500,-2.641768396679610
Argus and Meadowlark,PR7 2LR,53.641395000000000,-2.639245000000000
Elephant and mud turtle,PR7 2NW,53.639768301589200,-2.647418152338840
cobra de capello and Tahr,PR7 2RF,53.642884449935300,-2.654545007297370
Prion and Stilt,PR7 2YA,53.641479213864500,-2.645175492905380
leguaan and tree snake,PR7 3AG,53.648398519887900,-2.628806000000000
Elephant and hognose snake,PR7 3AS,53.646455065277000,-2.625555368389610
Egret and taipan,PR7 3AT,53.646463041113200,-2.624027602026440
Chicken and bicycle lizard,PR7 3FQ,53.646502000000000,-2.633677000000000
Goose and milk snake,PR7 3HN,53.643872689046800,-2.634608251948310
Grackle and Shearwater,PR7 3HS,53.643449335152300,-2.631379949973580
Rabbit and Black cockatoo,PR7 3PH,53.639992120245000,-2.639223685102720
amethystine python and Darwin's finches,PR7 3TB,53.632690454659500,-2.634742821675070
Marmoset and smooth snake,PR7 4AN,53.611041403200000,-2.610808811400000
Herring gull and krait,PR7 4DJ,53.627995051916800,-2.616496929920540
Capuchin and adder,PR7 4HT,53.607833000000000,-2.606440000000000
Thrasher and puff adder,PR7 4LQ,53.614441912300000,-2.654467944100000
Cuscus and Chicken,PR7 4NA,53.618333961602400,-2.655132534792960
Cloud rat and rat snake,PR7 4PD,53.628578204455800,-2.655474000000000
Buzzard and Jay,PR7 4PG,53.626619516769500,-2.652161204321300
Vole and Mole,PR7 4PH,53.628896166160600,-2.654797000000000
Fox and Thrasher,PR7 4QL,53.624243126251200,-2.657718823268660
rock python and Fish eagle,PR7 5BQ,53.620273212835000,-2.662071606755100
giant tortoise and mamba,PR7 5BS,53.634019528500000,-2.672147522900000
Gull and skink,PR7 5DT,53.612453971860500,-2.673225351634810
Ibex and Warbler,PR7 5ED,53.617349156257600,-2.673847482959470
viper and Lemming,PR7 5EP,53.634105338266200,-2.665494348506960
slowworm and terrapin,PR7 5FP,53.641620247200000,-2.717646113100000
Bunting and horned toad,PR7 5HD,53.618095000000000,-2.664431417004410
diamond python and chuckwalla,PR7 5HG,53.622408678987900,-2.689787948416770
tree snake and Rabbit,PR7 5JZ,53.646392440011000,-2.676715871668570
New World blackbird and Linsang,PR7 5PF,53.640161000000000,-2.715897000000000
bicycle lizard and fer-de-lance,PR7 5PY,53.622049000000000,-2.735290000000000
jew lizard and carpet snake,PR7 5RG,53.644176783690400,-2.729503249570180
tuatara and carpet snake,PR7 5RU,53.645552566827300,-2.726456151981620
Francolin and Macaw,PR7 5RY,53.635337840002600,-2.668523354639970
carpet snake and Marmoset,PR7 5TA,53.644660746695800,-2.722326271547330
Rat and Skunk,PR7 5TB,53.642686000000000,-2.725000000000000
Mouse and Crow,PR7 5TG,53.643806248376400,-2.720935134607260
indigo snake and Buzzard,PR7 5TL,53.641877367163800,-2.721824915355390
skink and boa,PR7 5TQ,53.643893206576000,-2.721420673792590
amphisbaena and Ground sloth,PR7 5TS,53.642680306441300,-2.722821840190490
Stilt and black snake,PR7 5UJ,53.645730740226200,-2.732616068536490
alligator and Parrotbill,WA10 1BA,53.452650000000000,-2.736743991244220
blue tongue and crocodile,WA10 1BG,53.452624416337300,-2.736410089969800
Black jay and mountain devil,WA10 1DH,53.452979154639700,-2.731341406368890
grass snake and Parakeet,WA10 1DS,53.453367438449500,-2.733983397062140
Siskin and Asiatic leopard,WA10 1ED,53.453556921180300,-2.733866193214220
soft-shelled turtle and Eagle,WA10 1EQ,53.453587000000000,-2.730571083135000
Hawaiian honeycreeper and Songlark,WA10 1EY,53.454726371427300,-2.730784118303590
jew lizard and Mamo,WA10 1HP,53.454152618353900,-2.734930613368120
Zebra and python,WA10 1LU,53.455403951897600,-2.730223487925490
Mink and cobra,WA10 1PA,53.451415989707200,-2.735591090312090
hawksbill and copperhead,WA10 1QN,53.453762429585000,-2.739893377662820
Tit-tyrant and hawksbill,WA10 1UQ,53.455359449545300,-2.737737000000000
Civet and Thrasher,WA10 2BD,53.456566599357700,-2.739942140152600
Nukupuʻu and Wallaby,WA10 2JL,53.456714827855700,-2.743574214108180
dugite and chuckwalla,WA10 2NF,53.459095171857800,-2.742395875931330
taipan and Masked owl,WA10 2NN,53.456799655068500,-2.747265441550120
loggerhead and tuatara,WA10 2RX,53.456908278487900,-2.738472181109750
Macaw and krait,WA10 2TD,53.455299050627200,-2.739965276318380
blind snake and Triller,WA10 2UE,53.463019000000000,-2.743293000000000
Warbler and Bunting,WA10 3AS,53.440922824915000,-2.770336385982960
Vole and Fish eagle,WA10 3BW,53.438938887088900,-2.775494083246760
puff adder and hawksbill,WA10 3HT,53.445022712370600,-2.761768414704680
Komodo dragon and Diving bird,WA10 3JL,53.444278690319300,-2.758623499916880
Armadillo and caiman,WA10 3JU,53.435812934553400,-2.775166201091790
tree snake and Civet,WA10 3PL,53.435591355430900,-2.773748000000000
cycling lizard and glass snake,WA10 3PY,53.436519182754800,-2.768811623095560
agama and Rabbit,WA10 3QS,53.439158275543100,-2.759540874701350
Ibex and Lemming,WA10 3SR,53.436404241632400,-2.772693220828570
Tahr and agamid,WA10 3UR,53.448589852235500,-2.750629635444690
Schneider python and perentie,WA10 3XZ,53.448465115330200,-2.744709941230190
Marmoset and flying dragon,WA10 4AW,53.450012467060200,-2.763017175495220
fer-de-lance and Vole,WA10 4BN,53.449208824269400,-2.757943443176700
Mouse and dugite,WA10 4BP,53.449745696594900,-2.758329446970610
Pheasant and garter snake,WA10 4DB,53.454287536211200,-2.759344063193430
bushmaster and soft-shelled turtle,WA10 4DF,53.454111568749200,-2.761569691681920
Parrotbill and giant tortoise,WA10 4HN,53.453534102056200,-2.759089673683100
dukite and moloch,WA10 4JN,53.455434323554100,-2.757105571489580
amethystine python and tokay,WA10 4LN,53.457721791147900,-2.753576932678120
habu and Prion,WA10 4NW,53.450834732354500,-2.759523383189840
jew lizard and Francolin,WA10 4PT,53.452922843303400,-2.757678299120690
iguana and indigo snake,WA10 4QE,53.452373955192100,-2.767502000000000
frill-necked lizard and Marsh harrier,WA10 4QH,53.455480078040800,-2.769636084897350
snake and whip snake,WA10 4QY,53.458876492538700,-2.771233740939500
rock snake and harlequin snake,WA10 5LP,53.462118562583400,-2.781353998479140
viper and harlequin snake,WA10 5ND,53.463004136413200,-2.779261526629550
horned toad and blue tongue,WA10 5PU,53.451508618925000,-2.795752000000000
agamid and anole,WA10 5QP,53.464899000000000,-2.809453000000000
gopher snake and rattlesnake,WA10 5RE,53.449077000000000,-2.770348000000000
Tahr and Prion,WA10 6BP,53.463774551893800,-2.764363588012780
python and Stint,WA10 6DB,53.465314294578800,-2.762538481917430
Capuchin and cayman,WA10 6DF,53.467620709410300,-2.761706119099030
krait and frill-necked lizard,WA10 6DT,53.463924104179700,-2.770466679958160
tokay and Old World warbler,WA10 6EH,53.466015504534200,-2.770926340782290
White ibis and gopher snake,WA10 6HZ,53.465069177267200,-2.767128342306170
wall lizard and Armadillo,WA10 6JA,53.464408239998200,-2.767869567377220
cerastes and Old World vulture,WA10 6RY,53.460443489960500,-2.755296967522770
Thrasher and horned viper,WA10 6TY,53.464498400902100,-2.746557162718170
bull snake and indigo snake,WA10 9JH,53.450739000000000,-2.741737000000000
Schneider python and tokay,WA10 9SH,53.454152618353900,-2.734930613368120
Hawaiian honeycreeper and monitor,WA10 9TB,53.454158050478800,-2.734931054333120
agama and Flameback,WA11 0HE,53.469147524264100,-2.683141798876600
Maya and Mouse,WA11 0JF,53.465643696654000,-2.681262867321780
Stilt and terrapin,WA11 0NJ,53.468213289050200,-2.659039210601450
skink and asp,WA11 0NY,53.468727192733000,-2.653849983089900
cobra and bearded dragon,WA11 0PY,53.471129840089700,-2.658270891124150
hoop snake and black snake,WA11 0QB,53.470460064855800,-2.657477146471910
asp and Minke whale,WA11 0QD,53.471292523475500,-2.654838536777010
Warbler and Marmoset,WA11 0RA,53.471100802972500,-2.643807889542630
diamond python and Solitaire,WA11 0RF,53.469762574877200,-2.646936147665200
Snipe and bearded dragon,WA11 0SL,53.466581625485800,-2.674378770310050
garter snake and swift,WA11 0TH,53.466368958363600,-2.664207536488760
Badger and Meadowlark,WA11 0YP,53.460784428955100,-2.688474829857480
Flameback and python,WA11 0YR,53.461573098962300,-2.688879201221770
cobra and Shearwater,WA11 0YT,53.461771213339700,-2.693476286290290
coral snake and American sparrow,WA11 7AB,53.473707114779300,-2.735720531427650
Jackal and Bronzewing pigeon,WA11 7AW,53.476756358822800,-2.726567214539710
Capuchin and monitor,WA11 7EU,53.475722753583200,-2.725072999014700
iguana and tiger snake,WA11 7JR,53.498661446989800,-2.810457517324060
Chicken and Scimitar babbler,WA11 7NU,53.483058837221700,-2.729281956185940
blue tongue and Hawk,WA11 7QN,53.477929212724800,-2.768957539673380
Macaw and Herring gull,WA11 7QQ,53.476155476499800,-2.768021436809490
python and Lemming,WA11 7QX,53.483428881880600,-2.773351874247520
Thrasher and Komodo dragon,WA11 7SH,53.493899000000000,-2.742552000000000
thorny devil and Scimitar babbler,WA11 8DE,53.503544155319000,-2.792760047528300
cerastes and Rabbit,WA11 8DL,53.502811162010600,-2.793500194160500
Chipmunk and Ice seal,WA11 8EP,53.497284262069800,-2.781050891713540
Armadillo and B,WA11 8ES,53.496336821624100,-2.781606295040790
Prion and Linsang,WA11 8JA,53.507893522777100,-2.790217603328430
fer-de-lance and garter snake,WA11 8JF,53.506795148593200,-2.790483647546390
sand lizard and hawksbill,WA11 8LL,53.485162847494100,-2.770700917563850
hoop snake and Dolphin,WA11 8LW,53.488839505044900,-2.769260436084180
Logrunners and hognose snake,WA11 8NL,53.501586000000000,-2.777708000000000
Zebra and Zebra,WA11 8NN,53.502041804928900,-2.773751006039210
green turtle and mamba,WA11 8PY,53.493902174190300,-2.781410775681190
Kangaroo and American sparrow,WA11 8QL,53.496332961731700,-2.784937628447510
diamondback and Francolin,WA11 8QZ,53.499471008657300,-2.744035959240180
slowworm and Komodo dragon,WA11 8RD,53.504917863879900,-2.745518478978800
krait and Myna,WA11 9AL,53.467561583798200,-2.723502780781880
Jay and Shearwater,WA11 9DR,53.461396197908400,-2.708366260872820
Vulture and Grosbeak,WA11 9HB,53.467374572031900,-2.711237585333070
boa and saltwater crocodile,WA11 9HR,53.466837962945400,-2.731624879710680
goanna and Coati,WA11 9HW,53.465155406762500,-2.714077530818490
bearded dragon and amethystine python,WA11 9JJ,53.464983845450000,-2.717207765294090
horned viper and Hawaiian honeycreeper,WA11 9JS,53.466306835388300,-2.712424811554410
Dolphin and Old World quail,WA11 9LT,53.469700244635500,-2.729519863069110
moloch and Buzzard,WA11 9NB,53.470745947115400,-2.729025588149570
snapping turtle and Viscacha,WA11 9ND,53.471328401942100,-2.729321814332460
Lemming and Pitohui,WA11 9NN,53.471402155153900,-2.727545369545500
Coati and mamba,WA11 9PS,53.470972129365000,-2.731726133934940
Komodo dragon and anole,WA11 9QQ,53.465331886986400,-2.707076119698480
elapid and Moluccan boobook,WA11 9QU,53.466990878273900,-2.707736377528060
Ice seal and blue racer,WA11 9YP,53.465476565329600,-2.729357039435900
habu and Prion,WA12 0BD,53.459527305190500,-2.626176974313490
green turtle and worm lizard,WA12 0BJ,53.456660423974600,-2.608695278527990
carpet snake and Rat,WA12 0BU,53.455207181982400,-2.606115000000000
Pheasant and Meadowlark,WA12 0DF,53.455092820979800,-2.607633749493390
boa and horned viper,WA12 0DL,53.457818279235700,-2.619510169349410
king snake and Philippine hawk-owl,WA12 0DU,53.457306449827600,-2.615933437822570
Greenbul and Mouse,WA12 0HF,53.465766000000000,-2.631405000000000
terrapin and Stilt,WA12 0HL,53.472161000000000,-2.635719000000000
Bunting and milk snake,WA12 0JQ,53.479779921916300,-2.639795000000000
Partridge and jew lizard,WA12 2DD,53.452704000000000,-2.639688000000000
jew lizard and bearded lizard,WA12 8AA,53.444601000000000,-2.625626000000000
Piping shrike and Eagle,WA12 8AL,53.444717990140200,-2.624709787095160
Meadowlark and diamondback,WA12 8HD,53.447832000000000,-2.628324000000000
Egret and rat snake,WA12 8HH,53.449134481016600,-2.629969077004190
bushmaster and tokay,WA12 8JE,53.448776625878000,-2.626365000000000
cycling lizard and taipan,WA12 8ND,53.447267697380200,-2.631130924875330
boa constrictor and python,WA12 8NE,53.447781044177600,-2.630942797866060
wall lizard and chameleon,WA12 8PB,53.446540599882300,-2.625820273403830
racer and Goose,WA12 8PJ,53.448939483827600,-2.622588116379140
sidewinder and Old World warbler,WA12 8PZ,53.451353082844000,-2.616494764160120
Partridge and chuckwalla,WA12 8QX,53.444408799329600,-2.632925328905820
saltwater crocodile and blue tongue,WA12 8RG,53.447577709141900,-2.633695181096440
python and flying lizard,WA12 9DR,53.454041000000000,-2.643851000000000
Mamo and chuckwalla,WA12 9DT,53.450039000000000,-2.645491000000000
tortoise and Masked owl,WA12 9GT,53.450682000000000,-2.651358000000000
deaf adder and chameleon,WA12 9LQ,53.453354951134100,-2.654155868204010
tuatara and Towhee,WA12 9NR,53.452591439862500,-2.645801663070960
Stilt and glass snake,WA12 9NY,53.449368363164500,-2.654998036947900
Badger and Francolin,WA12 9QX,53.451686250162700,-2.638620184900680
terrapin and Eagle,WA12 9SP,53.456395481073500,-2.616537706616830
gopher snake and indigo snake,WA12 9TX,53.456642865910600,-2.636209676869910
Fox and Petrel,WA12 9WE,53.458048969378200,-2.638851235407510
agamid and python,WA12 9WG,53.456663219703300,-2.639131628232360
Armadillo and milk snake,WA12 9XW,53.453035245063700,-2.631728464110650
puff adder and blue racer,WA2 8LR,53.432065176279800,-2.589454265028020
Coati and wall lizard,WA2 8XF,53.426769886268100,-2.600472409369700
Shearwater and Partridge,WA3 1EB,53.477258773487400,-2.550122293405070
Capuchin and Vulture,WA3 1EH,53.476468240029400,-2.546104247819660
glass snake and constrictor,WA3 1NY,53.459933368805000,-2.583258627787280
Booted eagles and Schneider python,WA3 1PF,53.457858474099400,-2.597507459308490
snake and sand viper,WA3 1PH,53.460918331771200,-2.592882000000000
hawksbill and bearded dragon,WA3 2DB,53.470364409227200,-2.561738461322650
Wader and asp,WA3 2EQ,53.477491581354400,-2.578843678858760
sand lizard and king snake,WA3 2FY,53.476217098625100,-2.574728126781170
Pheasant and Bunting,WA3 2GL,53.476083645219200,-2.576308343150720
thorn lizard and Chipmunk,WA3 2GQ,53.480061630527200,-2.573393824447910
elapid and Parakeet,WA3 2HB,53.479521483374600,-2.573567355417990
wall lizard and Warbler,WA3 2HH,53.481836608385700,-2.576250721596570
soft-shelled turtle and viper,WA3 2HR,53.480474899169400,-2.571561052500620
thorny devil and loggerhead,WA3 2JL,53.474537420486900,-2.576347649326120
Minke whale and glass snake,WA3 2JY,53.477184277336300,-2.567960940308200
Booted eagles and Wader,WA3 2NS,53.475788445568700,-2.566616418853270
Asiatic leopard and Moluccan boobook,WA3 2NZ,53.469134784373000,-2.570836176207290
blind snake and wall lizard,WA3 2PZ,53.473161603697100,-2.576464592257140
cobra de capello and whip snake,WA3 2RD,53.475383000000000,-2.563326000000000
Prion and Nukupuʻu,WA3 2RW,53.472129000000000,-2.583908000000000
frill-necked lizard and flying dragon,WA3 2TY,53.477983421034000,-2.568137359865960
taipan and Perching duck,WA3 3AY,53.475437000000000,-2.596594000000000
Gull and boomslang,WA3 3BE,53.473814766889200,-2.598997218585940
Polecat and terrapin,WA3 3BZ,53.477397830767000,-2.596079435158220
racer and cobra,WA3 3DB,53.477498083354800,-2.597602646129000
rattlesnake and krait,WA3 3DD,53.477413118970400,-2.598415088690080
Ice seal and Argus,WA3 3DX,53.480337353536400,-2.592413832092420
horned viper and Fish eagle,WA3 3EA,53.478805958614200,-2.589454262413950
Jackal and dukite,WA3 3EY,53.479162722986400,-2.584531986063330
Night heron and coral snake,WA3 3HD,53.480811499796500,-2.583740957424330
Chipmunk and horned viper,WA3 3HY,53.480709013890600,-2.582639549061110
Vole and Hawk,WA3 3NA,53.477239288611600,-2.593621244601620
soft-shelled turtle and Flameback,WA3 3PG,53.472356884485400,-2.601131056114800
Kangaroo and gaboon viper,WA3 3QL,53.477429335469100,-2.607666675932290
indigo snake and diamondback,WA3 3RE,53.479039643089000,-2.609031000000000
sidewinder and kabaragoya,WA3 3TQ,53.484760650894200,-2.604787638128000
copperhead and Gull,WA3 3TR,53.485062652924600,-2.605500228714070
wall lizard and Black jay,WA3 3UB,53.485299683090700,-2.594095504922870
Prion and death adder,WA3 3UJ,53.490610488934600,-2.581433000000000
sand lizard and worm lizard,WA3 3UR,53.484579906553100,-2.599631162764110
boa and fer-de-lance,WA3 3XF,53.484038681357700,-2.607128238753980
Asiatic leopard and tuatara,WA3 3YJ,53.482241000000000,-2.588913000000000
grass snake and agama,WA3 4AW,53.479247748808100,-2.502638798089410
monitor and Partridge,WA3 4DA,53.457232675586200,-2.526083309661750
ringhals and Thrasher,WA3 4DQ,53.458782700700100,-2.527216970276750
garter snake and Partridge,WA3 4DW,53.461443107532100,-2.527265006411200
Skunk and flying dragon,WA3 4EG,53.452552634277100,-2.519234063144200
Jerboa and blue racer,WA3 4EW,53.452991605582300,-2.521497000000000
cycling lizard and Myna,WA3 4FS,53.431306596264100,-2.514384410965920
Mamo and Maya,WA3 4HS,53.463390181177800,-2.536115671389710
Lemming and Boto,WA3 4JE,53.455026000000000,-2.512910483524300
Rabbit and Shearwater,WA3 4LE,53.456650457755400,-2.517386523380220
snapping turtle and Mole,WA3 5DL,53.451520073307600,-2.516902511824610
Recurvebill and box turtle,WA3 5DN,53.451256548063700,-2.515483855733290
Black cockatoo and Grackle,WA3 5HX,53.456235000000000,-2.496826116867290
Stilt and harlequin snake,WA3 5JE,53.457726251513200,-2.496887461186080
Boto and glass snake,WA3 5LQ,53.466197820734200,-2.493672511281580
Francolin and frill-necked lizard,WA3 5LX,53.470860008554600,-2.492190014702120
agamid and Old World warbler,WA3 5NU,53.472442195289500,-2.494317502200270
Fish eagle and diamondback turtle,WA3 5QA,53.468514750878300,-2.500659034895960
slowworm and saltwater crocodile,WA3 5RE,53.449199414129800,-2.519343720356600
Duck and New World blackbird,WA3 5RP,53.448846453581400,-2.519896528439640
ringhals and Hawaiian honeycreeper,WA3 6PN,53.426511108967500,-2.515665000000000
Mole and alligator,WA3 6SJ,53.431306596264100,-2.514384410965920
glass snake and perentie,WA3 6TJ,53.426979992695800,-2.502443092155670
Parrotlet and Greenbul,WA3 6UN,53.428322181436600,-2.508132745883970
River dolphin and Wallaby,WA3 6WY,53.427237000000000,-2.528482000000000
cobra and bushmaster,WA3 6XA,53.429847627946400,-2.495929980413760
Pratincole and Chickadee,WA3 6ZH,53.426585887669200,-2.527134359179890
Skunk and Dolphin,WA3 7BE,53.443120153693000,-2.548160402820660
wall lizard and Quetzal,WA3 7HR,53.435683752351900,-2.552565000000000
boa and diamondback turtle,WA5 4AG,53.434228262324100,-2.662095507738450
Mink and Scimitar babbler,WA5 4AN,53.435409672611400,-2.648280597807140
Wader and deaf adder,WA5 4BJ,53.431805622475900,-2.626311116087030
Prion and Shearwater,WA5 4BW,53.440903897948800,-2.642207316664890
Magpie and Mink,WA5 4DS,53.441749271972900,-2.665780461325930
Gull and alligator,WA5 4ED,53.443193874639500,-2.664628742386650
Magpie and chuckwalla,WA5 4LN,53.431775030686300,-2.647216832246910
Francolin and amphisbaena,WA5 4LZ,53.432466263835400,-2.650689180697220
Solitaire and Night heron,WA5 4ND,53.431990416715600,-2.648935956369040
leathery turtle and Snipe,WA5 4QG,53.428716936795200,-2.652528218130960
agama and Greenbul,WA9 1AF,53.453305861234500,-2.721965308535820
Pratincole and death adder,WA9 1AG,53.453958710781000,-2.721027658437760
Civet and Fulmarine petrel,WA9 1AP,53.450969000000000,-2.722136000000000
smooth snake and Thrasher,WA9 1BW,53.453577052102000,-2.720223063406610
Herring gull and black snake,WA9 1EW,53.456325285447500,-2.717619024388180
swift and fer-de-lance,WA9 1HE,53.457680912255400,-2.711888791539030
frill-necked lizard and Triller,WA9 1LA,53.455667327870800,-2.723872787129380
anaconda and constrictor,WA9 1LX,53.454992646502800,-2.722475833210220
blue racer and Kestrel,WA9 1NF,53.454555797205100,-2.721881100575520
Flameback and alligator,WA9 1NU,53.451352513921300,-2.715261000000000
Stilt and massasauga,WA9 1PH,53.448892475861500,-2.711470747616330
Hawaiian honeycreeper and black snake,WA9 1PJ,53.447861045822800,-2.712597836846600
Coati and smooth snake,WA9 1RR,53.451586636245600,-2.710371358453080
iguana and Hawaiian honeycreeper,WA9 1SH,53.452824000000000,-2.706522000000000
Masked owl and Marsh harrier,WA9 1ST,53.449997210269400,-2.707077297722700
Magpie and dugite,WA9 1TE,53.452086639002500,-2.707910114180680
blue tongue and saltwater crocodile,WA9 2HJ,53.451959198225900,-2.685064364805990
Francolin and Myna,WA9 2JT,53.451888618891000,-2.681690149878330
indigo snake and Ground sloth,WA9 2LN,53.447182062403000,-2.687351376573470
death adder and bearded dragon,WA9 2PR,53.449634961796400,-2.687526510885090
Logrunners and Ice seal,WA9 2PS,53.451111392807000,-2.687128736509680
Marsh harrier and gopher snake,WA9 2PW,53.449897777705700,-2.684022316105270
Fulmarine petrel and asp,WA9 2QF,53.447370647870500,-2.685818629363940
Ibex and Hawaiian honeycreeper,WA9 3BY,53.441930798863700,-2.721200295312190
rock python and Fulmarine petrel,WA9 3BZ,53.440797429156500,-2.721331640223020
Parakeet and flying dragon,WA9 3DL,53.443459489700800,-2.716469000000000
mountain devil and amphisbaena,WA9 3EE,53.440968000000000,-2.709502000000000
Mouse and Recurvebill,WA9 3EH,53.445258640278500,-2.720865220864400
cayman and Ice seal,WA9 3GL,53.438058298777200,-2.710431640228720
Lemming and White ibis,WA9 3HA,53.440179939990900,-2.704309848307950
caiman and Tahr,WA9 3JH,53.434714338007200,-2.702864732563340
black snake and Songlark,WA9 3LT,53.438385122198600,-2.700757607831670
puff adder and terrapin,WA9 3LW,53.437324261512000,-2.702320739267970
cobra de capello and Zebra,WA9 3PU,53.435965806194300,-2.704044454217300
cayman and leguaan,WA9 3QP,53.446346606949800,-2.695031722553490
soft-shelled turtle and Civet,WA9 3RG,53.444922003091200,-2.697327074625970
worm lizard and Meadowlark,WA9 3SU,53.434771928973500,-2.714230000000000
Snipe and Mink,WA9 3UN,53.432947643248500,-2.720280512125000
mamba and Darwin's finches,WA9 3UY,53.428879000000000,-2.719912503119800
Kangaroo and adder,WA9 3WH,53.429796716151500,-2.714975000000000
coral snake and adder,WA9 4PW,53.430510187308200,-2.708514669184790
Viscacha and chameleon,WA9 4TP,53.427013594776800,-2.722016215525890
hoop snake and rat snake,WA9 4WH,53.432421174560000,-2.699982145948590
horned viper and wall lizard,WA9 5AN,53.439846614106600,-2.722610000000000
cycling lizard and lizard,WA9 5BW,53.429671000000000,-2.743313430395950
Meadowlark and Minke whale,WA9 5DG,53.434899060220800,-2.740709555678230
Kangaroo and boomslang,WA9 5DQ,53.436425000000000,-2.739712000000000
New World blackbird and Crow,WA9 5EX,53.434995503129000,-2.743992671779200
White ibis and Nukupuʻu,WA9 5HF,53.432834785335900,-2.744541938530120
Argus and Chipmunk,WA9 5HG,53.433606886941900,-2.744690905821310
sand lizard and racer,WA9 5HL,53.430785831355200,-2.745905859209660
agamid and boa,WA9 5JW,53.431889690376200,-2.760434726763490
Magpie and Viscacha,WA9 5LA,53.430559425170900,-2.759011238772310
flying lizard and Moluccan boobook,WA9 5LG,53.431466130917800,-2.757778145552400
snake and Ibex,WA9 5ND,53.433744448032400,-2.762770810626280
dugite and cobra,WA9 5PE,53.436167473726800,-2.759156360089080
Bunting and king cobra,WA9 5QQ,53.435863226769900,-2.757525234141040
thorny devil and tree snake,WA9 5QT,53.436295339850200,-2.754582544869790
snapping turtle and Chipmunk,WA9 5SJ,53.436024507852800,-2.747623332145710
diamondback turtle and cobra,WA9 5SN,53.435736762011900,-2.746203322706190
Jerboa and swift,WA9 5SY,53.427916420466400,-2.744787059691630
Ibex and blind snake,WA9 5TQ,53.442389000000000,-2.728871000000000
Thrasher and Grackle,WA9 5UP,53.430107463874500,-2.748016133682490
anole and swift,WA9 5UR,53.429690691333600,-2.754254814627120
Grosbeak and leguaan,WA9 5UX,53.430609340924400,-2.753970065378950
Ground sloth and racer,WA9 5XG,53.428674000000000,-2.747042000000000
puff adder and Eagle,WN1 1AT,53.547343750511300,-2.631638433623230
Tree warbler and Mole,WN1 1AZ,53.545835083380100,-2.629669137333020
Wallaby and boa,WN1 1DY,53.544215760389700,-2.631503000000000
Black cockatoo and Shearwater,WN1 1HE,53.546204858523800,-2.636224469496470
tiger snake and king snake,WN1 1LL,53.545160000000000,-2.631604163544390
Mockingbird and mud turtle,WN1 1LN,53.544943452584400,-2.631708322253590
diamondback terrapin and Snipe,WN1 1LU,53.544695301094900,-2.631040610324880
lizard and bicycle lizard,WN1 1ND,53.545623382109300,-2.635702631533920
soft-shelled turtle and Civet,WN1 1NH,53.545531170243100,-2.630344075101270
caiman and Ice seal,WN1 1XD,53.549081798386100,-2.627604354865620
anole and blindworm,WN1 1XE,53.551333000000000,-2.625268000000000
horned toad and Polecat,WN1 1XF,53.551082032358800,-2.628237000000000
Masked owl and Kākāriki,WN1 1XP,53.550596136470200,-2.628502184814990
Mockingbird and boa,WN1 2AD,53.550619050104600,-2.630977836952240
milk snake and king cobra,WN1 2AH,53.551024533912600,-2.629082088600460
Crow and Prion,WN1 2BA,53.552216372713900,-2.633175136088100
mamba and whip snake,WN1 2BH,53.553561478373700,-2.630372569004030
cayman and amethystine python,WN1 2HD,53.560011500794800,-2.637850786706290
horned viper and milk snake,WN1 2HJ,53.557363341300100,-2.635516380337110
ringhals and king snake,WN1 2HY,53.556761358918100,-2.638843474424670
tokay and leguaan,WN1 2JA,53.557043768076600,-2.638138234338110
chameleon and Puffleg,WN1 2LA,53.556131103224100,-2.628871055875200
harlequin snake and dugite,WN1 2NR,53.559780984022500,-2.627053225667470
Jackal and mud turtle,WN1 2PP,53.562075655937700,-2.635073725566380
Magpie and Wader,WN1 2PW,53.561224836420800,-2.632796404670040
elapid and asp,WN1 2QG,53.561448276599200,-2.636423075378060
bearded dragon and garter snake,WN1 2QT,53.558590302198200,-2.632968420340090
Coati and Buzzard,WN1 2QU,53.562886398056400,-2.636429573341860
kabaragoya and massasauga,WN1 2UY,53.586224000000000,-2.637656000000000
amphisbaena and Eagle,WN1 3AN,53.541816000000000,-2.623181000000000
rattlesnake and Philippine hawk-owl,WN1 3BD,53.542705971132700,-2.621292696538210
cerastes and Prion,WN1 3BE,53.542878621187700,-2.620933051119510
amphisbaena and Polecat,WN1 3BH,53.543686677728000,-2.619375428854910
Polecat and Lemming,WN1 3BP,53.543868061450600,-2.617325707655620
Snipe and Warbler,WN1 3EH,53.544305976735800,-2.619550475743110
Jerboa and jew lizard,WN1 3EU,53.543263565037300,-2.622960846891660
blue tongue and Moluccan boobook,WN1 3PG,53.550866294196100,-2.619797267623180
Black cockatoo and Mink,WN1 3PP,53.551211037075700,-2.619183470773360
hawksbill and Grackle,WN1 3RQ,53.546586200619900,-2.626993926271460
Elephant and terrapin,WN1 3RT,53.543911565418300,-2.624524735994580
Snipe and skink,WN1 3UJ,53.550259406541000,-2.610219289373170
Cuscus and asp,WN1 3UY,53.555258587934200,-2.620389808718590
Moluccan boobook and Myna,WN1 3XF,53.556767440543600,-2.620623228670870
jew lizard and River dolphin,WN1 3XL,53.552987806452700,-2.620071000000000
Schneider python and tortoise,WN1 3XZ,53.552252441676900,-2.617689285720600
Tahr and Gila monster,WN1 9SD,53.545096494276700,-2.629959998967720
Gull and River dolphin,WN1 9SJ,53.545096494276700,-2.629959998967720
whip snake and massasauga,WN1 9TF,53.545096494276700,-2.629959998967720
Partridge and krait,WN2 1AF,53.554960508874400,-2.608430284921280
green turtle and crocodile,WN2 1AP,53.554231650738200,-2.608585865366430
Argus and sidewinder,WN2 1BQ,53.555846204307800,-2.611009183132440
Duck and Treepie,WN2 1HL,53.556301472772200,-2.604554925682280
sand viper and blue tongue,WN2 1JN,53.556567557970700,-2.596316598487350
Cloud rat and agamid,WN2 1RL,53.571271963316300,-2.591026891795160
monitor and bandy-bandy,WN2 1WT,53.574318246983300,-2.585708262350480
Tattler and gaboon viper,WN2 1XB,53.569138081120600,-2.580759375469320
Myna and Komodo dragon,WN2 1XL,53.571094721879400,-2.585029471081760
Tit-tyrant and cerastes,WN2 1YX,53.570014056245500,-2.583610226976000
Civet and puff adder,WN2 1ZG,53.571798029705500,-2.586413362541620
Flameback and Warbler,WN2 2AH,53.536441000000000,-2.596244000000000
elapid and Quetzal,WN2 2AL,53.541967000000000,-2.604335000000000
asp and diamondback,WN2 2BG,53.543151345793100,-2.609860470197690
gavial and Diving bird,WN2 2BY,53.540917741335600,-2.610733747656270
turtle and flying dragon,WN2 2EG,53.541253920398000,-2.601156427366470
Black cockatoo and adder,WN2 2JR,53.549092630861600,-2.602791929839760
cerastes and iguana,WN2 2JZ,53.544385752398200,-2.591602000000000
fer-de-lance and grass snake,WN2 2NJ,53.544660848460600,-2.595711515741800
water snake and Warbler,WN2 2NP,53.544922000000000,-2.599428000000000
asp and dugite,WN2 2NR,53.545200000000000,-2.599601376927680
Chickadee and cycling lizard,WN2 2QZ,53.539161742448300,-2.578870116097010
Herring gull and Hawaiian honeycreeper,WN2 2RY,53.537923604901700,-2.578400555087840
king cobra and carpet snake,WN2 3BJ,53.534850085261300,-2.583835492017610
Warbler and rock python,WN2 3EN,53.530980701900600,-2.577325291483400
Vulture and Hawk,WN2 3FT,53.524095000000000,-2.595467000000000
perentie and Grosbeak,WN2 3NE,53.529038307012500,-2.583061582968310
Ibex and Quetzal,WN2 3NR,53.528113702258600,-2.580967103181330
Parrotlet and Tit-tyrant,WN2 3QY,53.535352232479600,-2.569176968378850
asp and Thicketbird,WN2 3QZ,53.531419000000000,-2.566710000000000
Snipe and lizard,WN2 3SW,53.521980214115600,-2.574216393918160
boomslang and soft-shelled turtle,WN2 3TG,53.523383203149600,-2.597886538155090
Moluccan boobook and Tahr,WN2 4AQ,53.514255998347800,-2.559906000000000
blindworm and Booted eagles,WN2 4BY,53.542203068976100,-2.563142233936920
blindworm and Prion,WN2 4DA,53.540103692170500,-2.564215898778350
Asiatic leopard and Chickadee,WN2 4DW,53.536733052880000,-2.562300106886220
tiger snake and Piping shrike,WN2 4GD,53.524752377091300,-2.538806000000000
chuckwalla and boa constrictor,WN2 4GN,53.524087590432600,-2.550427458228140
caiman and bull snake,WN2 4JA,53.534038000000000,-2.562098000000000
Prion and Viscacha,WN2 4JW,53.535148559240900,-2.559005049393200
Elephant and Mamo,WN2 4LB,53.532219435806200,-2.556839220736820
Stint and ringhals,WN2 4RP,53.507689286882900,-2.564614421051440
Treepie and coral snake,WN2 4SD,53.524352960427200,-2.549405190371390
Marsh harrier and blindworm,WN2 4SS,53.522997000000000,-2.547384766540460
Bunting and loggerhead,WN2 4TX,53.521604332506100,-2.541119216198770
worm lizard and Crow,WN2 4TY,53.520841720198700,-2.540807839256170
habu and Greenbul,WN2 5BP,53.521954807057700,-2.599525563395750
mud turtle and hoop snake,WN2 5HY,53.515218384332400,-2.603894334659010
loggerhead and saltwater crocodile,WN2 5LP,53.509830189386300,-2.606471579983270
Duck and hawksbill,WN2 5NH,53.521295314971600,-2.594795295256700
bearded dragon and Scimitar babbler,WN2 5NL,53.521086190655800,-2.595275015609280
Skunk and chameleon,WN2 5NZ,53.519607317123800,-2.592614870809160
ringhals and Magpie,WN2 5PS,53.514298947371800,-2.588197608273390
Grosbeak and box turtle,WN2 5RP,53.508292260058400,-2.590496773675060
Eagle and horned toad,WN2 5TB,53.511885000000000,-2.582102000000000
American sparrow and Boto,WN2 5TL,53.514547107196200,-2.572260951061830
Meadowlark and python,WN2 5TX,53.512933616409100,-2.569449416787950
sea snake and Chicken,WN2 5XU,53.504312738454200,-2.591828515730190
puff adder and adder,WN2 5YE,53.506153133057600,-2.586818266604520
Fish eagle and American sparrow,WN3 4DG,53.543793160070300,-2.636746654676270
python and milk snake,WN3 4JS,53.537193796457200,-2.619989786512040
hoop snake and Tattler,WN3 4LD,53.537261041925200,-2.622616187509450
harlequin snake and bandy-bandy,WN3 4PQ,53.531898174511600,-2.615039397139170
Cloud rat and Flameback,WN3 4PS,53.529828486343700,-2.615492147847850
Wallaby and boomslang,WN3 4RT,53.536012781653000,-2.617044000000000
Stilt and green turtle,WN3 4SF,53.538139082535600,-2.619701824179840
death adder and smooth snake,WN3 4UQ,53.525716289750400,-2.611103254379840
American sparrow and Hawk,WN3 5BN,53.539432395124000,-2.636998068593230
Ice seal and worm lizard,WN3 5DJ,53.532380855284700,-2.639532400935230
Quetzal and leguaan,WN3 5EN,53.534251061181300,-2.641099523315550
pit viper and Grackle,WN3 5EW,53.534437000000000,-2.638520570716960
Triller and chameleon,WN3 5LA,53.527852559363400,-2.640852000094090
Fish eagle and Diving bird,WN3 5LZ,53.525042890204500,-2.645168931203200
Asiatic leopard and Philippine hawk-owl,WN3 5NT,53.523498769335300,-2.638116437561030
Parrotlet and green turtle,WN3 5NY,53.523304909383100,-2.635700136771820
amphisbaena and Warbler,WN3 5PL,53.519336561635800,-2.639893901837070
galliwasp and gopher snake,WN3 5PR,53.519887742012100,-2.642707547065840
iguana and water snake,WN3 5PZ,53.521418787170500,-2.647150048920300
Komodo dragon and Dorcopsis,WN3 5QY,53.520978759231100,-2.650507000000000
Stint and Shearwater,WN3 5RR,53.516754913717500,-2.645269189325380
garter snake and Parakeet,WN3 5SA,53.516974039202900,-2.644639100285600
Eagle and Dorcopsis,WN3 5TJ,53.531287954690300,-2.647194959271800
Crow and swift,WN3 5TT,53.533689796685800,-2.645179716410960
Bronzewing pigeon and horned toad,WN3 5UA,53.535260850550900,-2.642201112883330
agama and massasauga,WN3 5XD,53.533430393985800,-2.648268662058720
saltwater crocodile and diamondback,WN3 5XH,53.532005565031500,-2.652425926469650
Mockingbird and Polecat,WN3 5XJ,53.530866638284100,-2.650296323210660
Puffleg and rock snake,WN3 6AJ,53.529915408266500,-2.677527125849490
tortoise and Parakeet,WN3 6AU,53.529756268895400,-2.680224977590080
Towhee and tortoise,WN3 6BA,53.528663857810900,-2.681067345844370
Rat and garter snake,WN3 6DG,53.518378739308400,-2.679876751304080
Viscacha and Perching duck,WN3 6DS,53.520275887289800,-2.675020367119240
Tree warbler and Kite,WN3 6JN,53.521289725371500,-2.668958049766060
smooth snake and Bronzewing pigeon,WN3 6LD,53.519208171234600,-2.676270296826740
goanna and Minke whale,WN3 6LF,53.518601950254500,-2.675280000000000
saltwater crocodile and Thicketbird,WN3 6LJ,53.514621984552600,-2.668641857760030
thorn lizard and Prion,WN3 6LY,53.516238097477300,-2.663343000000000
tiger snake and Piping shrike,WN3 6LZ,53.517053811196000,-2.662919038195270
mud turtle and Masked owl,WN3 6RN,53.525398826478200,-2.657377637698930
black snake and Egret,WN3 6SE,53.522735451522100,-2.654606276595140
soft-shelled turtle and mud turtle,WN3 6UE,53.524598848760300,-2.659009417978130
loggerhead and Dorcopsis,WN3 6UH,53.523458957652100,-2.661963215173110
Puffleg and skink,WN3 6XU,53.517550571125800,-2.654528000000000
whip snake and Partridge,WN4 0AS,53.500161702426300,-2.648650288102070
Hawk and constrictor,WN4 0BH,53.500202124266100,-2.652781585048940
amethystine python and Parrotbill,WN4 0EB,53.508975451231800,-2.644412120979520
goanna and Mockingbird,WN4 0ER,53.503668359748000,-2.651749334510460
constrictor and bearded dragon,WN4 0JH,53.510790526271900,-2.667450580160360
Komodo dragon and Rabbit,WN4 0JJ,53.506441197232200,-2.667246524426930
White ibis and Macaw,WN4 0LJ,53.500760091491700,-2.655940975608760
Condor and Tit-tyrant,WN4 0LL,53.501478575354700,-2.657685802775980
milk snake and Parrotlet,WN4 0NB,53.500689969280200,-2.662135986476600
snapping turtle and gopher snake,WN4 0QN,53.497134245536000,-2.669527319607530
copperhead and habu,WN4 0QW,53.496617005146100,-2.668795605767990
gavial and Philippine hawk-owl,WN4 0RG,53.494415863511800,-2.666997365462540
krait and rat snake,WN4 0RJ,53.492470372600500,-2.667705390470580
Jerboa and brown snake,WN4 0RY,53.492709778169500,-2.665071407327920
Badger and Petrel,WN4 0SA,53.489009000000000,-2.672760000000000
Buzzard and slowworm,WN4 0TZ,53.491974994144700,-2.677464634600150
agama and iguana,WN4 0YX,53.481945723643600,-2.664300219994860
Jackal and crocodile,WN4 8AR,53.494703582670300,-2.633960720218900
amphisbaena and Jackal,WN4 8AX,53.493239040546000,-2.633848430287920
tortoise and flying dragon,WN4 8AZ,53.494295768331300,-2.634587716445890
python and Cloud rat,WN4 8DF,53.498659777044800,-2.643818454458820
constrictor and Warbler,WN4 8DQ,53.499283023019300,-2.643255044876290
wall lizard and Chickadee,WN4 8SB,53.493007089811500,-2.623263792622800
perentie and tree snake,WN4 8SD,53.493362435475400,-2.624067875446430
Pheasant and garter snake,WN4 8SQ,53.492324292024800,-2.628348335412790
Rat and sand viper,WN4 8XP,53.490637683921600,-2.617381081386700
Boto and Bronzewing pigeon,WN4 8XS,53.489140377699600,-2.621850641972720
saltwater crocodile and python,WN4 8XY,53.490151849323800,-2.622664253622670
Schneider python and Wallaby,WN4 9AR,53.488221579244500,-2.637420000000000
diamond python and frilled lizard,WN4 9AS,53.487942874945200,-2.637582426654960
American sparrow and Pratincole,WN4 9AZ,53.487539000000000,-2.639294000000000
adder and harlequin snake,WN4 9DG,53.486955911036800,-2.628766295491170
soft-shelled turtle and Pratincole,WN4 9EQ,53.483855003678500,-2.635531908712080
Old World quail and Logrunners,WN4 9HS,53.484688583872500,-2.629184851409800
gecko and B,WN4 9HX,53.486472265385700,-2.623288518323340
terrapin and asp,WN4 9LS,53.484111778990700,-2.646310626056830
elapid and Ibex,WN4 9NT,53.484047559661800,-2.643220352867550
blue tongue and Grosbeak,WN4 9NU,53.483227807982700,-2.641881836234290
bicycle lizard and Tit-tyrant,WN4 9SA,53.491690085585000,-2.649455451197540
Ibex and Chicken,WN4 9TA,53.497949006603400,-2.643943354623970
Parakeet and Magpie,WN5 0AE,53.537614344778200,-2.687714306098450
Capuchin and Parrotbill,WN5 0AF,53.537796378797000,-2.685755705609930
dukite and Ground sloth,WN5 0BU,53.553264000000000,-2.667123000000000
amphisbaena and Black cockatoo,WN5 0DB,53.543223275142000,-2.687699615603490
Schneider python and racer,WN5 0DT,53.537347687460400,-2.684058518310480
Wader and American sparrow,WN5 0EG,53.548670169066300,-2.675110063456280
fer-de-lance and Asiatic leopard,WN5 0ET,53.547004885596400,-2.675536315495760
iguana and Schneider python,WN5 0HQ,53.547191795932500,-2.674271549126090
Scimitar babbler and swift,WN5 0JR,53.550088607782800,-2.683328267874650
Condor and mamba,WN5 0PY,53.550741012554000,-2.664864397662020
Greenbul and Eagle,WN5 0UF,53.544087000000000,-2.657436290371100
boa constrictor and Wader,WN5 0XA,53.543231674755400,-2.650878260032310
leathery turtle and garter snake,WN5 7AS,53.529878856168800,-2.708633976323790
tortoise and tortoise,WN5 7AX,53.529052940376600,-2.711486480657780
Kākāriki and diamond snake,WN5 7BS,53.525504605431000,-2.711125303400100
gecko and Tree warbler,WN5 7BW,53.492919980643600,-2.717120000000000
Elephant and agama,WN5 7LB,53.499438608258300,-2.700150000000000
cobra de capello and crocodile,WN5 7PQ,53.495687558432800,-2.714454918477020
snake and elapid,WN5 7PR,53.496466628287500,-2.711935553075620
Myna and gecko,WN5 7SA,53.487386243258200,-2.712250633930360
carpet snake and Bronzewing pigeon,WN5 7TL,53.491974989562300,-2.709976219989290
Rat and Old World vulture,WN5 7TW,53.493089467652400,-2.709994841622400
Minke whale and Old World warbler,WN5 7XR,53.503900336657000,-2.702802970537460
rattlesnake and Chickadee,WN5 8AY,53.535823401104100,-2.683024000000000
Francolin and Kestrel,WN5 8DB,53.533360000000000,-2.674142000000000
Cuscus and Scimitar babbler,WN5 8DU,53.532014000000000,-2.709439000000000
coral snake and Booted eagles,WN5 8HE,53.536702301342900,-2.685315542733630
crocodile and Wallaby,WN5 8HY,53.536469036485500,-2.686941000000000
Mink and Dorcopsis,WN5 8HZ,53.536111314941000,-2.688052058940540
Boto and chameleon,WN5 8JW,53.536198903243400,-2.685322498991260
Schneider python and mud turtle,WN5 8NA,53.539129858873200,-2.702239731910420
Peafowl and copperhead,WN5 8QB,53.547483121234800,-2.701744176100920
Fulmarine petrel and Thrasher,WN5 8QH,53.541900217553200,-2.703447554147100
American sparrow and amphisbaena,WN5 8RX,53.536974542513000,-2.704965263806960
Gull and tortoise,WN5 8SU,53.531559957976600,-2.713127704394430
monitor and grass snake,WN5 8SX,53.531809722115400,-2.713448724006120
Hawk and Marsh harrier,WN5 8TB,53.532889491183500,-2.710238232972570
Kangaroo and chameleon,WN5 8TJ,53.531123783671900,-2.710902656865340
deaf adder and Minke whale,WN5 8TU,53.531165561536800,-2.714448690265230
coral snake and Fish eagle,WN5 8UU,53.533819369255400,-2.712577269092180
Tahr and Chicken,WN5 9AT,53.537133626635000,-2.653229044315510
agamid and Diving bird,WN5 9BD,53.538432000000000,-2.650487000000000
indigo snake and Solitaire,WN5 9BJ,53.538176537074800,-2.653184748359530
Grosbeak and Perching duck,WN5 9DF,53.535369631453900,-2.666660352846780
gopher snake and Warbler,WN5 9DU,53.538978260125400,-2.657784225795770
indigo snake and Jay,WN5 9DX,53.539350409264800,-2.657126063877100
thorny devil and jew lizard,WN5 9ET,53.533884474520900,-2.665414932605260
Civet and milk snake,WN5 9HX,53.531908002896500,-2.666847349964990
Maya and Greenbul,WN5 9JP,53.536512712000500,-2.659903633156360
king cobra and dugite,WN5 9JX,53.535499894302700,-2.672290233490640
Mouse and Moluccan boobook,WN5 9QB,53.539814536730800,-2.665839926151260
adder and Petrel,WN5 9RW,53.544535407458400,-2.662261963169090
Wader and Crow,WN5 9SP,53.545980453016200,-2.664261548532930
hawksbill and Vulture,WN5 9TW,53.539295587535800,-2.676620684793580
skink and garter snake,WN5 9UD,53.539471821817500,-2.680410946996590
mamba and Gila monster,WN5 9UE,53.539138331702500,-2.680571580305640
Jay and blue racer,WN5 9UJ,53.540630827508800,-2.678920552788870
gavial and Parrotbill,WN5 9XT,53.544606985461300,-2.676765786252830
New World blackbird and chameleon,WN6 0AP,53.578817914674400,-2.657300211026890
deaf adder and coral snake,WN6 0DE,53.585554611311900,-2.658144960056650
Egret and diamond snake,WN6 0DF,53.586525114748400,-2.658190256455220
Recurvebill and krait,WN6 0DP,53.584432951938300,-2.655559000000000
anaconda and Night heron,WN6 0GA,53.579700541297000,-2.647088672256320
rock python and crocodile,WN6 0JB,53.590513052892700,-2.666833373885030
New World blackbird and pit viper,WN6 0JL,53.587887911631300,-2.665311576784140
snake and diamond python,WN6 0JR,53.588096763901900,-2.661689238474790
Goose and Stilt,WN6 0LB,53.588992883997100,-2.663803125201930
crocodile and Mouse,WN6 0NY,53.593843735354600,-2.672370333717850
Tattler and Night heron,WN6 0PP,53.597563000000000,-2.684019000000000
Old World warbler and Buzzard,WN6 0PQ,53.590696145172300,-2.659585000000000
Wader and flying lizard,WN6 0QD,53.602789981688300,-2.673479630433220
smooth snake and rock python,WN6 0QX,53.594880027338800,-2.681437193153960
frilled lizard and Duck,WN6 0TD,53.585842582280600,-2.666200904232080
Partridge and Mink,WN6 0UP,53.578012067679300,-2.653451506704480
iguana and rock python,WN6 0UU,53.588233000000000,-2.653034000000000
Wader and fer-de-lance,WN6 7EA,53.551416569060800,-2.643245756644730
thorny devil and skink,WN6 7ED,53.551572009174300,-2.644425425046790
tokay and Kākāriki,WN6 7ER,53.554292439800100,-2.649976339089890
tuatara and Rat,WN6 7HP,53.560619785585700,-2.643430710954000
amphisbaena and Darwin's finches,WN6 7HS,53.559296148847700,-2.643863511991670
Zebra and pit viper,WN6 7HZ,53.555305041965000,-2.642233008367460
king cobra and Kangaroo,WN6 7JQ,53.558813859170200,-2.644958215765570
Eagle and Towhee,WN6 7NG,53.553153594755400,-2.652781511488800
Cuscus and anole,WN6 7NP,53.553913622867200,-2.656793273190130
Stint and asp,WN6 7PH,53.557494288268600,-2.644636221657250
Piping shrike and Crow,WN6 7PU,53.558418387681900,-2.649933931245000
Old World quail and cerastes,WN6 7PX,53.558682517943100,-2.650949430369220
Tahr and monitor,WN6 7RE,53.555878481757600,-2.647570320442450
Viscacha and Jackal,WN6 7RG,53.555116076136300,-2.647271869675540
hawksbill and Stilt,WN6 7SH,53.557936070827000,-2.659225668718780
Kākāriki and Jay,WN6 8BA,53.572683248195400,-2.686894111914820
boa and cerastes,WN6 8BJ,53.576735982663200,-2.687080648998320
Grosbeak and Maya,WN6 8BP,53.573360175464400,-2.692643664910450
Polecat and leathery turtle,WN6 8DL,53.573320963907900,-2.683838846503370
worm lizard and tokay,WN6 8DW,53.576935507122600,-2.714389756338680
cerastes and king snake,WN6 8ED,53.572466802549100,-2.696343956170890
puff adder and Chicken,WN6 8EE,53.571490753807800,-2.695708779111690
Philippine hawk-owl and Ground sloth,WN6 8EN,53.567467132222800,-2.698239819331390
rattlesnake and Piping shrike,WN6 8EW,53.571422701769300,-2.701204366725720
River dolphin and garter snake,WN6 8GB,53.567641517440600,-2.689243738430660
brown snake and dukite,WN6 8JZ,53.561153125023600,-2.662627270866500
Wader and Black cockatoo,WN6 8LG,53.561721041878600,-2.671996509003230
New World blackbird and death adder,WN6 8PE,53.561278746001200,-2.657783036900530
Black jay and kabaragoya,WN6 8PW,53.559304645873200,-2.655533218235740
pit viper and black snake,WN6 9AG,53.582664580657000,-2.719818407633530
box turtle and gecko,WN6 9DL,53.584973000000000,-2.717177384239610
cerastes and Hawaiian honeycreeper,WN6 9HD,53.582434944735700,-2.713138191836130
garter snake and perentie,WN7 1BH,53.498100582767400,-2.514393939421900
Black cockatoo and Duck,WN7 1HS,53.504882000000000,-2.513752000000000
dukite and Logrunners,WN7 1JQ,53.502501372443200,-2.506818691365650
king snake and asp,WN7 1LJ,53.498334985749000,-2.514230956230070
Stilt and mamba,WN7 1NR,53.503854570391700,-2.516589000000000
frill-necked lizard and blue racer,WN7 1PY,53.502669581915200,-2.515821214118720
cycling lizard and giant tortoise,WN7 1QP,53.499400369741400,-2.519369382734070
bearded dragon and worm lizard,WN7 1SA,53.504183770904100,-2.521086325488700
Eagle and Kākāriki,WN7 1SH,53.504844674357000,-2.517928261122910
glass snake and Grackle,WN7 1SU,53.508529323670500,-2.515997943060980
Pitohui and carpet snake,WN7 1UX,53.499743091850100,-2.520942000000000
boa constrictor and hawksbill,WN7 1XP,53.498256923673700,-2.523923030583350
Boto and krait,WN7 2AH,53.494717277131900,-2.504373000000000
Darwin's finches and garter snake,WN7 2AT,53.492974947273300,-2.500088084499240
coral snake and blue racer,WN7 2AY,53.492133785398000,-2.497033539668590
gavial and Jerboa,WN7 2BW,53.493269934352300,-2.498207000000000
Mamo and Ice seal,WN7 2EJ,53.503064000000000,-2.492396000000000
flying dragon and copperhead,WN7 2ET,53.503823000000000,-2.489420000000000
tree snake and Cuscus,WN7 2GL,53.499067532671800,-2.500476386389090
Stint and Skunk,WN7 2GP,53.498155039359800,-2.499440560252230
thorn lizard and saltwater crocodile,WN7 2HG,53.498190232455100,-2.503903068858620
Grosbeak and Cloud rat,WN7 2HU,53.496414313440300,-2.498711615586950
Tahr and Argus,WN7 2LX,53.495329000000000,-2.489745000000000
diamond python and Grosbeak,WN7 2PB,53.495495969508600,-2.509719702543360
elapid and viper,WN7 2PW,53.493132688718200,-2.509555692981190
Thrasher and Diving bird,WN7 2RW,53.495578010856000,-2.507339038724010
Crow and Bunting,WN7 2XS,53.505866815448700,-2.484242810100580
cobra de capello and wall lizard,WN7 2YR,53.506759808168500,-2.479005963711610
Argus and Kākāriki,WN7 3AH,53.488452114165500,-2.500471918829760
Fulmarine petrel and Philippine hawk-owl,WN7 3AW,53.491355000000000,-2.507243000000000
chuckwalla and Duck,WN7 3BL,53.490386143775300,-2.497962623875730
bandy-bandy and Fox,WN7 3EF,53.487047721054400,-2.496552000000000
viper and Gull,WN7 3HA,53.490955000000000,-2.512470572117420
Old World vulture and saltwater crocodile,WN7 3HT,53.489503586853300,-2.517394603910520
fer-de-lance and hawksbill,WN7 3JW,53.485576752030200,-2.519200427308940
Bronzewing pigeon and Boto,WN7 3LQ,53.488784150752900,-2.517476271857960
Wallaby and Wader,WN7 3LY,53.483053145041900,-2.528949569611750
glass snake and Snipe,WN7 3PB,53.480874993537300,-2.540102000000000
garter snake and Flameback,WN7 3SD,53.479007612705700,-2.508406943879690
Solitaire and Condor,WN7 3UR,53.488276996782400,-2.526573066362790
green turtle and Cloud rat,WN7 4AJ,53.497703690854200,-2.525046793730350
gopher snake and hognose snake,WN7 4DG,53.495831980360000,-2.521421016729110
lizard and goanna,WN7 4DP,53.495836761764800,-2.524435840310680
Mink and iguana,WN7 4DS,53.496480727407300,-2.523117273466330
Rabbit and Cloud rat,WN7 4EB,53.497009226480800,-2.525580882941890
amphisbaena and Towhee,WN7 4HT,53.491073365615500,-2.524498000000000
cobra de capello and coral snake,WN7 4HU,53.491818000000000,-2.526964000000000
Rat and Parrotlet,WN7 4HZ,53.493276000000000,-2.526514000000000
anole and wall lizard,WN7 4LG,53.496010567915100,-2.519629416473890
indigo snake and diamondback,WN7 4LP,53.496174646033000,-2.519103835508940
glass snake and Wallaby,WN7 4QJ,53.493165571849200,-2.548805871227910
Mole and habu,WN7 4QU,53.494290403985500,-2.542625278084200
puff adder and Capuchin,WN7 4RE,53.496863450165800,-2.544090193341270
diamondback terrapin and Egret,WN7 4TW,53.499389272953000,-2.542102482904220
diamondback and Nukupuʻu,WN7 4UA,53.497625397117900,-2.540587600325770
cerastes and Argus,WN7 5BP,53.499195781455100,-2.539025000000000
Nukupuʻu and Snipe,WN7 5DL,53.504287100113400,-2.536330264757940
sidewinder and Minke whale,WN7 5EU,53.508152753185500,-2.536198150141270
worm lizard and B,WN7 5EX,53.508648919234800,-2.535797299261480
B and Petrel,WN7 5NQ,53.512335000000000,-2.529750042876950
tiger snake and gecko,WN7 5NY,53.516551055400600,-2.531493327909500
indigo snake and Nukupuʻu,WN7 5PB,53.514178276020200,-2.533469306914790
coral snake and blue tongue,WN7 5PJ,53.517561393882300,-2.532697419941280
Hawaiian honeycreeper and python,WN7 5RF,53.510619786969200,-2.521029598191170
Gila monster and thorn lizard,WN7 5SQ,53.515713427469800,-2.531874943671030
tree snake and worm lizard,WN7 5TF,53.521709888090600,-2.535645426134220
lizard and boa constrictor,WN7 9BY,53.490956000000000,-2.509709000000000
tuatara and Bunting,WN8 0AG,53.542113455594200,-2.729361344492600
Hawaiian honeycreeper and dukite,WN8 0AQ,53.541151676976800,-2.732302464642580
Capuchin and Wader,WN8 0AS,53.539830218005800,-2.741076904951980
Parakeet and Argus,WN8 0HP,53.543504859051900,-2.735527281288430
Magpie and Scimitar babbler,WN8 0LG,53.546253000000000,-2.724241000000000
mountain devil and Flameback,WN8 0NS,53.539745131847800,-2.724159982405910
moloch and hoop snake,WN8 0NT,53.539948705270400,-2.723197719642310
Marsh harrier and Cuscus,WN8 0PY,53.548461218008600,-2.726982000000000
death adder and milk snake,WN8 0QS,53.560171227755600,-2.724781000000000
Tahr and Wader,WN8 1AD,53.544381900000000,-2.780257900000038
Darwin's finches and puff adder,WN8 6AE,53.545704817021400,-2.757478625846270
anaconda and diamondback turtle,WN8 6AU,53.548007691959400,-2.754350323266770
ringhals and carpet snake,WN8 6BE,53.544881630606000,-2.749752195899990
Tit-tyrant and box turtle,WN8 6BP,53.545097132845400,-2.765390824217380
gecko and cobra de capello,WN8 6HA,53.549875671877300,-2.774291525662160
Siskin and mamba,WN8 6JW,53.562678499187300,-2.791873000000000
amethystine python and Marsh harrier,WN8 6NA,53.549875671877300,-2.774291525662160
sand viper and rock python,WN8 6PN,53.551935346478000,-2.771597000000000
Shearwater and turtle,WN8 6RE,53.559645308547400,-2.767465097234410
Petrel and Asiatic leopard,WN8 6SH,53.557018000000000,-2.760972000000000
Perching duck and Quetzal,WN8 6TB,53.564042039358600,-2.767257846257200
Thicketbird and Masked owl,WN8 6TJ,53.562333809872400,-2.772903647107830
boomslang and Rat,WN8 7AQ,53.597359215042800,-2.763555222307010
Ground sloth and Flameback,WN8 7HA,53.591789898999300,-2.770011722392600
leguaan and Prion,WN8 7HH,53.593544636447300,-2.768306126229320
Herring gull and asp,WN8 7LN,53.585725731717000,-2.784750665712030
alligator and blue tongue,WN8 7TW,53.584213135757100,-2.774103485850550
Mole and Ice seal,WN8 7UW,53.589958416664100,-2.787624005768070
Wallaby and Grosbeak,WN8 8AE,53.547506749056100,-2.792872303346610
boa and ringhals,WN8 8AP,53.547174627688400,-2.800895199593660
anaconda and Prion,WN8 8DR,53.551017900925800,-2.797435870533930
Eagle and snapping turtle,WN8 8DS,53.550814738643600,-2.798247104176430
Badger and hoop snake,WN8 8DT,53.551467194236200,-2.798802765292150
diamondback and green turtle,WN8 8DY,53.560268000000000,-2.805490000000000
copperhead and Kangaroo,WN8 8HW,53.550105454385200,-2.804829546520490
Macaw and Gull,WN8 8HX,53.551918819702000,-2.806509212857450
diamondback and Ibex,WN8 8LN,53.548659635837500,-2.805964254403590
Towhee and slowworm,WN8 8ND,53.548986000000000,-2.790953000000000
saltwater crocodile and gopher snake,WN8 8NY,53.550066874987300,-2.789041187737840
Cloud rat and Hawaiian honeycreeper,WN8 8PW,53.551788727773900,-2.795065524177320
sand viper and kabaragoya,WN8 8RD,53.554819554676200,-2.789386253724490
tortoise and Minke whale,WN8 8RW,53.553166628246800,-2.787876224838670
Kangaroo and leguaan,WN8 9AW,53.543409984018800,-2.760742553258810
Schneider python and python,WN8 9BB,53.540790801335300,-2.759880718440320
Fish eagle and Boto,WN8 9PS,53.532418000000000,-2.763623000000000
Herring gull and Magpie,WN8 9QF,53.534866000000000,-2.769998633748640
Fish eagle and Kangaroo,WN8 9SG,53.543938000000000,-2.791719000000000
indigo snake and saltwater crocodile,WN8 9SP,53.544883000000000,-2.795645000000000
Boto and boomslang,WN8 9UP,53.542496984723100,-2.777701000000000
