name,postcode,lat,lon
Northern Monkey Brew Co. ltd,BL1 1AQ,53.578050863955200,-2.426740000000000
Alisons cafe ltd,BL1 1BU,53.579081000000000,-2.429620000000000
SIZZLING PALATE,BL1 1DG,53.579151260000000,-2.427189005000000
Subway Crompton Place,BL1 1EA,53.578455400000000,-2.428390000000000
Tapaz Restaurant,BL1 1EL,53.578822000000000,-2.426508290000000
Bambu Oriental Cafe,BL1 1HA,53.578962190000000,-2.432276916000000
HEAVENLY DESSERTS BOLTON,BL1 1HH,53.579491880000000,-2.427615000000000
Definitely Maybe Bar Ltd,BL1 1LD,53.577844910000000,-2.428036694000000
ciao napoli,BL1 1LE,53.577503000000000,-2.428320000000000
THE COURTHOUSE RESTAURANT & BAR,BL1 1LF,53.577196960000000,-2.428256685000000
Subway Newport Street,BL1 1NB,53.577020770000000,-2.429765166000000
Odessa cafe,BL1 1RS,53.578230210000000,-2.428674000000000
OLYMPUS FISH AND CHIP RESTAURANT LIMITED,BL1 1SW,53.576069610000000,-2.429634000000000
Istanbul’s kitchen,BL1 1TJ,53.576489390000000,-2.432553726000000
cosy cafe,BL1 1TQ,53.576489390000000,-2.432553726000000
Cadar Chimney Cakes,BL1 2AL,53.581164310000000,-2.430216000000000
Great Ale at the Vaults,BL1 2AL,53.581164310000000,-2.430216000000000
Amico Cafe,BL1 2AN,53.580087640000000,-2.429252557000000
McDonald's Bolton 1,BL1 2AQ,53.579804020000000,-2.430639215000000
Basic kneads ,BL1 2AR,53.580707000000000,-2.429757000000000
Klübb & Co.,BL1 2AR,53.580707000000000,-2.429757000000000
Nam ploy,BL1 2BS,53.581560220000000,-2.432167500000000
The Coffee Shop at St. Georges House,BL1 2DD,53.582023000000000,-2.431296000000000
Grill Cottage ,BL1 2EA,53.580342880000000,-2.428078000000000
Nadiis Diner,BL1 2EG,53.581393780000000,-2.428465275000000
The Chinese Buffet,BL1 2EH,53.580756170000000,-2.428307784000000
Little Dough Ltd,BL1 3AJ,53.583339610000000,-2.444511247000000
Subway,BL1 3AJ,53.583339610000000,-2.444511247000000
The Dessert Corner ,BL1 3AT,53.584286940000000,-2.445971295000000
Nicks Restaurant,BL1 3BA,53.584883720000000,-2.447427703000000
IQBAL'S,BL1 3NF,53.590471090000000,-2.433542000000000
DESI HOUSE LIMITED,BL1 3QD,53.592443900000000,-2.437445595000000
Tribez,BL1 3QD,53.592443900000000,-2.437445595000000
Cube Desserts Ltd,BL1 3QJ,53.591928720000000,-2.435763289000000
MAMA'S GRILL (NORTH-WEST) LTD,BL1 3QN,53.591170510000000,-2.434169177000000
Khanz Spicy Grill,BL1 4AZ,53.581303650000000,-2.440895085000000
burgerum,BL1 4JE,53.586532310000000,-2.451221632000000
Queen's Park Café Bolton ,BL1 4RU,53.577459880000000,-2.444872411000000
Victoria Inn,BL1 5AG,53.582953050000000,-2.477178788000000
Retreat Grill Bar Restaurant,BL1 5BP,53.579387430000000,-2.465480000000000
The Coffee Shop at  Heaton,BL1 5LW,53.585821000000000,-2.465609862000000
Cafe Italia,BL1 5SN,53.591346600000000,-2.477575553000000
McDonald's Delph Hill,BL1 5SX,53.591441560000000,-2.480794586000000
FLAVOURS N SPICES,BL1 6PU,53.599281620000000,-2.435642564000000
Wilton Arms,BL1 7BT,53.616698450000000,-2.455624961000000
The Brew House,BL1 7LG,53.613442590000000,-2.434443119000000
Poppins at Smithills,BL1 7NP,53.601702120000000,-2.458969327000000
Bobs Smithy Inn,BL1 7PX,53.595164240000000,-2.493664526000000
OAKS SPICE & GRILL,BL1 8AN,53.594478160000000,-2.443978538000000
SU FOODS LTD,BL1 8AN,53.594478160000000,-2.443978538000000
Heavenly doughnuts ,BL1 8DB,53.595263330000000,-2.447945370000000
D Foods Kompany Ltd,BL1 8DR,53.591129580000000,-2.430573135000000
D food company ,BL1 8DR,53.591129580000000,-2.430573135000000
FUSION FOODS (BOLTON) LTD,BL1 8DU,53.594831000000000,-2.431428127000000
Shahi Sweets and Bakers Ltd,BL1 8DU,53.594831000000000,-2.431428127000000
SALOTTO CAFE BAR RESTAURANT ,BL1 8DY,53.595107000000000,-2.431986406000000
Cinnamon Bean Cafe,BL1 8EY,53.593980410000000,-2.435119630000000
Chesters,BL1 8HE,53.591181600000000,-2.431102432000000
80/20 Health Bar & Kitchen,BL1 8NE,53.596302040000000,-2.431910064000000
Four Seasons Cafe ,BL1 8PE,53.598897120000000,-2.432616520000000
Sai spice restaurant ,BL1 8TS,53.597184400000000,-2.423956196000000
KFC BOLTON TV 02034,BL1 8TT,53.590359000000000,-2.427770000000000
McDonald's Astley Bridge,BL1 8TT,53.590359000000000,-2.427770000000000
Haute Dolci,BL2 1BJ,53.576381380000000,-2.425076935000000
Subway-Bridgeman,BL2 1DE,53.575340850000000,-2.421940372000000
Starbucks Bolton Manchester Road DT,BL2 1HE,53.570054000000000,-2.420121000000000
Jump Xtreme,BL2 1HY,53.574147000000000,-2.419240000000000
Grillicious Bolton Ltd ,BL2 2DL,53.587340540000000,-2.414159365000000
MARMARIS FOOD (BOLTON) LTD,BL2 3BN,53.598075670000000,-2.410668211000000
Grapper restaurant ,BL2 3EW,53.606630500000000,-2.400670764000000
subway,BL3 2NE,53.569036000000000,-2.415551000000000
HAMZAH SWEETS & BAKERS,BL3 3NH,53.565768800000000,-2.446531286000000
Mohammed Bilal Patel t/a Desi Brunch ,BL3 3PY,53.562167770000000,-2.452819129000000
Lagan Restaurant,BL3 4PZ,53.570389970000000,-2.476508759000000
Trufflez,BL3 4QH,53.566479880000000,-2.467435642000000
Bolton Garden Centre,BL3 4RD,53.561543190000000,-2.477058454000000
Tavern Fayre,BL3 4RJ,53.558754370000000,-2.484363793000000
Britannia Bolton Hotel,BL3 4TA,53.564756670000000,-2.478151513000000
A&A Desserts t/a Kaspas Bolton,BL3 5AH,53.572697770000000,-2.441983390000000
Arizona Joe's,BL3 5AH,53.572697770000000,-2.441983390000000
CHAIIWALA BOLTON,BL3 5AH,53.572697770000000,-2.441983390000000
Chilli Flames,BL3 5AH,53.572697770000000,-2.441983390000000
Aroma restaurant ,BL3 5HJ,53.571505560000000,-2.450744441000000
Hotbite,BL3 5QU,53.567483840000000,-2.463520913000000
Yo'desi,BL3 5QU,53.567483840000000,-2.463520913000000
Dixy chicken bolton,BL3 6AB,53.574761260000000,-2.428216955000000
BEST PERSIAN RESTAURANT LTD,BL3 6DS,53.575331740000000,-2.431817000000000
KFC - BOLTON,BL3 6HE,53.572876920000000,-2.434797109000000
Taj Mahal ,BL3 6HE,53.572876920000000,-2.434797109000000
Jojos Chicken Restaurant,BL3 6HG,53.571808460000000,-2.436945552000000
STEAKHOUSE GRILL DERBY STREET,BL3 6HG,53.571808460000000,-2.436945552000000
McDonald's China Gardens,BL3 6HH,53.571604000000000,-2.436521000000000
Kohinoor Bolton ltd,BL3 6JT,53.569741790000000,-2.439114000000000
The Fig And The Olive ,BL3 6JT,53.569741790000000,-2.439114000000000
Chunky Chicken Bolton,BL3 6LH,53.567437700000000,-2.442382000000000
grillaz original limited,BL3 6LS,53.566665820000000,-2.444608075000000
Cafe Pierre,BL3 6NF,53.572139460000000,-2.434910346000000
Taste Bakery Limited t/a Taste,BL3 6SZ,53.567162610000000,-2.439087009000000
unity catering ltd,BL4 0LQ,53.552171000000000,-2.441513000000000
PERI HUT 3,BL4 7LE,53.554394880000000,-2.401957961000000
Farnworth & Kearsley Events Team ,BL4 7ST,53.551845540000000,-2.406280756000000
Krave Dessert (Bolton) Ltd,BL4 9RJ,53.544366000000000,-2.412065780000000
McDonald's Westhoughton,BL5 3AJ,53.547997000000000,-2.522545000000000
The China room,BL5 3AJ,53.547997000000000,-2.522545000000000
Rosa ,BL5 3JD,53.550335140000000,-2.496794924000000
Subway Westhugton ,BL5 3JP,53.551535880000000,-2.501986098000000
Amore coffee &Desserts ltd,BL5 3JT,53.553801350000000,-2.508277103000000
India gate,BL5 3NB,53.567306420000000,-2.544027980000000
Royal Oak Carvery,BL5 3ND,53.570366150000000,-2.549125881000000
Casa Nostra,BL5 3RS,53.550034760000000,-2.525015444000000
Camerons Catering Ltd,BL5 3RZ,53.551439600000000,-2.524414004000000
Airvault Trampoline Park,BL5 3XU,53.555964800000000,-2.533662959000000
Bolton Golf Club Services Limited,BL6 4AJ,53.582694000000000,-2.511705000000000
Sagar Indian restaurant ,BL6 5EE,53.594357760000000,-2.584822115000000
The Hawthorn Willows ,BL6 5HX,53.600730000000000,-2.586935000000000
Rivington Pub & Grill,BL6 5JF,53.589991130000000,-2.569563799000000
Cherry Tree,BL6 5LA,53.601676040000000,-2.593597263000000
Goose and Gander,BL6 5LW,53.592510510000000,-2.594873807000000
The Goose and Gander,BL6 5LW,53.592510510000000,-2.594873807000000
Namma Ooru Dosa,BL6 5NP,53.594479640000000,-2.545721850000000
CHESTERS HORWICH LTD,BL6 5NY,53.593231110000000,-2.543560350000000
Il Toro,BL6 6AA,53.598918000000000,-2.540536000000000
Avocado health bar ,BL6 6EX,53.588455510000000,-2.532184062000000
Empire bar and restaurant ,BL6 6EX,53.588455510000000,-2.532184062000000
Abacus Restaurant,BL6 6JA,53.583517000000000,-2.535234000000000
Lucianos at Middlebrook,BL6 6JA,53.583517000000000,-2.535234000000000
McDonald's Middlebrook ,BL6 6JA,53.583517000000000,-2.535234000000000
Starbucks Middlebrook,BL6 6JA,53.583517000000000,-2.535234000000000
Subway,BL6 6JA,53.583517000000000,-2.535234000000000
subway,BL6 6JZ,53.589589430000000,-2.533769000000000
Curley’s dining room ltd,BL6 6PP,53.599890040000000,-2.519619620000000
Ye Jolly Crofters ,BL6 6RE,53.597698440000000,-2.519260291000000
Boltom Whites Hotel,BL6 6SF,53.579861500000000,-2.534447347000000
THYME DELI,BL6 7AA,53.599211610000000,-2.546795276000000
Home bakery /cafe latte,BL6 7AD,53.599390200000000,-2.547054465000000
Max Italia,BL6 7AE,53.600333920000000,-2.547066664000000
Pizza Paradise Limited,BL6 7AU,53.600793130000000,-2.547042000000000
SPICE VALLEY BAR & RESTAURANT,BL6 7JD,53.601931820000000,-2.551424348000000
bowling green,BL6 7JD,53.601931820000000,-2.551424348000000
CHILL AT THE COWSHED LTD,BL6 7NX,53.598703870000000,-2.547755784000000
Sokrates Greek Taverna (Horwich),BL6 7NZ,53.598142610000000,-2.548624914000000
Rocco's Italian Restaurant,BL6 7QJ,53.601570540000000,-2.553746806000000
Cafe at Spring Cottage,BL6 7SB,53.623185000000000,-2.562164000000000
Great House Barn,BL6 7SB,53.623185000000000,-2.562164000000000
Rivington Hall Barn,BL6 7SB,53.623185000000000,-2.562164000000000
Village green tearooms limited,BL6 7SD,53.631465830000000,-2.561457464000000
The Rivington,BL6 7SE,53.624319000000000,-2.567592000000000
Chetham Arms,BL7 0EW,53.637151090000000,-2.404423513000000
The King William ,BL7 9AN,53.625527840000000,-2.410118363000000
Spread Eagle ,BL7 9DE,53.615006690000000,-2.424391809000000
Retreat Bromley Cross,BL7 9JG,53.616956330000000,-2.422083375000000
The Railway Bromley Cross ,BL7 9LY,53.614557970000000,-2.411327070000000
Hot Chilli,BL7 9PQ,53.617085000000000,-2.436597000000000
Last Drop Village Hotel and Spa,BL7 9PZ,53.622038480000000,-2.421015325000000
Lotties,BL7 9QT,53.633690000000000,-2.482500000000000
San Marino bar and restaurant ,BL7 9QT,53.633690000000000,-2.482500000000000
AK Cafe,BL7 9SB,53.625895610000000,-2.438215018000000
Baker's,BL7 9SN,53.630170240000000,-2.441691937000000
The Thomas Egerton,BL7 9SR,53.629840140000000,-2.441023143000000
Lavender Cafe,L34 2QT,53.433386423991600,-2.777861483023710
Subway,L34 5NQ,53.426806229055200,-2.801038130098860
Pinion Bistro Limited,L34 5QA,53.429155491079900,-2.804574021803870
The Oven Pizzeria & Bar,L34 5QE,53.428741350426100,-2.804807000000000
CHINA CHINA TRADING LTD t/a BEIJING CHINESE RESTAURANT,L34 5QH,53.429626216895000,-2.802746736598130
Poco Bar and Cafe,L34 5QJ,53.429181268518600,-2.803415621874450
Ho’s restaurant ,L34 5RB,53.429972000000000,-2.801005309317210
Tastebuds at the Wharf,L40 1TB,53.634511847830900,-2.808448000000000
The Red Lion,L40 2QP,53.626989290230000,-2.768416000000000
Owd Barn at Bispham Tearoom,L40 3SA,53.621446000000000,-2.791688000000000
The Eagle & Child,L40 3SG,53.614655828121900,-2.773028000000000
Pine Pubs Ltd - Farmers Arms Parbold,L40 3SL,53.609329000000000,-2.761386025188280
CEDAR FARM CAFE,L40 3SY,53.620264000000000,-2.766267000000000
Lugana Restaurant,M28 1AN,53.508557000000000,-2.432223000000000
Queens Subway,M28 1BT,53.506007830785600,-2.426166000000000
The Tea Set,M28 1DN,53.504847607434800,-2.433964000000000
Buffalo Bar and Grill Limited,M28 1FB,53.503004582000600,-2.416095359999890
Shahbaaz Indian Restaurant Limited,M28 1FB,53.503004582000600,-2.416095359999890
Coal and Cotton,M28 1LR,53.502061862876700,-2.418362594007150
Hug in a Mug,M28 3JH,53.523777298935400,-2.400189666462300
Club 3000 Bingo Walkden,M28 3TZ,53.525432000000000,-2.400250000000000
Purple Lounge,M28 3UD,53.526779000000000,-2.400701000000000
Subway,M28 3ZD,53.525007513061500,-2.400262000000000
Costa Coffee - Walkden,M28 3ZH,53.525045000000000,-2.400383000000000
Lowrys restaurant llp,M28 3ZH,53.525045000000000,-2.400383000000000
McDonald's Walkden,M28 3ZH,53.525045000000000,-2.400383000000000
The Archer,M29 7EJ,53.494006511071500,-2.471883289506330
Zest ,M29 7HX,53.499938501707600,-2.446260987335640
Old Boathouse,M29 7JB,53.495012788773900,-2.448666217556770
LIZHI,M29 7SG,53.498389000000000,-2.449575000000000
La Casa Restaurant and Bar,M29 7SG,53.498389000000000,-2.449575000000000
The Point Astley Ltd,M29 7SG,53.498389000000000,-2.449575000000000
The Tea Room at Damhouse Limited,M29 7TX,53.504459740785600,-2.455776752513850
Cafe Elliott ,M29 8DR,53.514109829247900,-2.466014295571250
TURKHAN,M29 8DS,53.513898168515100,-2.464971438548790
Enzo’s Italian bar and restaurant ,M29 8EQ,53.514825000000000,-2.471919000000000
REMA TANDOORI,M29 8FJ,53.513881190154700,-2.469571000000000
THE GATEHOUSE,M29 8WE,53.515339837633700,-2.449966850226990
Spice 'N' Spirits Indian Kitchen Ltd,M38 9EG,53.531935295997300,-2.427165983949720
THE MOTHI,M44 5AF,53.430816768411800,-2.434037443979880
Cafe Vibe,M44 5BE,53.437452239843500,-2.428535451887030
The Station,M44 5BG,53.428530355820300,-2.434947235226090
The Black Swan,M44 5BT,53.425862082261500,-2.437041892716760
The Boat House,M44 6DN,53.447588739647400,-2.413987383442730
Subway,M44 6EH,53.450175000000000,-2.415127000000000
D’ Grand Haveli ,M44 6FF,53.451382928388600,-2.413693025187320
Fortune Palace,M46 0DA,53.523866147743600,-2.494147027018200
roma cafe-bistro ,M46 0DA,53.523866147743600,-2.494147027018200
Jigsaw Sandwich Bar & Coffee Shop,M46 0DF,53.523566897658800,-2.496949101192310
Curiosity gin emporium,M46 0DP,53.523577033278400,-2.494400000000000
BEFRESH LIMITED,M46 0DR,53.524057041634000,-2.491449245865510
Curry Atherton limited T/a Tamarind Table,M46 0DR,53.524057041634000,-2.491449245865510
The Lamp,M46 0DW,53.523806864614300,-2.491084339101710
The royal ,M46 0LW,53.525083466988000,-2.503785000000000
The Gardeners,M46 0PG,53.517112849971000,-2.509828428134730
McDonald's Tyldesley,M46 9AT,53.516246494463500,-2.475795180919970
The Cabinet,M46 9DE,53.524183847753600,-2.489022212206370
RAMA SPICE ,M46 9LF,53.528677301755500,-2.478106873142390
GLEN BARS LTD T/A THE SPINNERS AT COWLING,PR6 9EA,53.645311000000000,-2.608888081230750
The Black Horse Limbrick,PR6 9EE,53.641509000000000,-2.603580000000000
The bay horse ,PR6 9ER,53.625669170295700,-2.589322414715840
The Yew Tree Inn ,PR6 9HA,53.632205189039400,-2.581670843304080
Lucianos At The Millstone,PR6 9HJ,53.610843000000000,-2.575588000000000
CHORLEY GOLF CLUB LTD,PR6 9HX,53.629608747006100,-2.601429177856600
CARDWELL LEISURE LTD t/a THE CARDWELL,PR6 9LH,53.620474181599200,-2.601903994851430
Elephant and Castle,PR6 9NH,53.617317741857800,-2.596946000000000
SUBWAY,PR7 2BN,53.649855000000000,-2.628677000000000
Big Lamp Chippy & Cafe,PR7 2LA,53.649946000000000,-2.631870000000000
Texas steakhouse ,PR7 3DL,53.648796521619500,-2.629841119949320
Piccolo Italian Restaurant,PR7 3DX,53.647082893410000,-2.627531276975530
Birkacre Nurseries Ltd,PR7 3QL,53.636370759209400,-2.652372147283360
Duxbury Park Golf Course ,PR7 4AT,53.634115212076100,-2.620033000000000
Retreat Adlington,PR7 4EX,53.613699000000000,-2.605270641159810
Bistecca,PR7 4HE,53.611201418832300,-2.604825275508410
Corner house cafe,PR7 4HF,53.609941071857900,-2.605215348731860
Oh My Cod,PR7 5BY,53.621795549249900,-2.661475569520520
The Dog and Partridge ,PR7 5ES,53.634190000000000,-2.666554000000000
THE HINDS HEAD,PR7 5HL,53.624608521694600,-2.679194609375000
The Farmers Arms,PR7 5NP,53.630399707022000,-2.709712876301350
TWO BIRDS TEA ROOM LTD,PR7 5PA,53.636170000000000,-2.714392000000000
The Original Farmers Arms,PR7 5QS,53.649850025745000,-2.730720744539170
Caffe Manna,PR7 5SZ,53.646131337405700,-2.724228000000000
The Cafe,WA10 1AD,53.451453697524400,-2.733844981429360
Cafe Cassandra's Ltd,WA10 1AR,53.451315919936100,-2.734098000000000
McDonald's,WA10 1AX,53.452280203364300,-2.735380150225830
McDonald's,WA10 1BF,53.450315000000000,-2.739442000000000
The Secret Garden,WA10 1BJ,53.453299399621900,-2.737731898475000
cork and dough,WA10 1BJ,53.453299399621900,-2.737731898475000
Jaguarcafe Ltd t/a Cafezinho,WA10 1BN,53.451877000000000,-2.736879000000000
Thai Jaa Restaurant,WA10 1DL,53.452467535214600,-2.732687891000080
Cafe Country Kitchen Ltd,WA10 1EB,53.452719766018400,-2.733913000000000
Jaguarcafe Ltd t/a Cafezinho,WA10 1EB,53.452719766018400,-2.733913000000000
Opera Bingo,WA10 1EQ,53.453587000000000,-2.730571083135000
Mercure St. Helens Hotel Bar & Restaurant ,WA10 1NG,53.449943470790700,-2.736785316241870
The Chinese Buffet,WA10 1NU,53.451514338222400,-2.738589393077020
The Nelson ,WA10 1NU,53.451514338222400,-2.738589393077020
Kaspa's,WA10 1NW,53.452007359650600,-2.738808768699860
Subway,WA10 1NW,53.452007359650600,-2.738808768699860
Cafe Laziz,WA10 1QF,53.453563000000000,-2.740208021324330
Superbowl UK St Helens Ltd ,WA10 1QT,53.451892557602400,-2.743701118272310
MILLON RESTAURANT (SH) LTD,WA10 2JE,53.455519637001400,-2.740631740373770
AKESG,WA10 2JF,53.455583407864200,-2.741943048565330
Atlantic Bar & Grill,WA10 2JF,53.455583407864200,-2.741943048565330
C&L (NW) Limited T/A Yang Xing Restaurant ,WA10 2JG,53.456301580493700,-2.743536872200720
The sheesh restaurant,WA10 2JG,53.456301580493700,-2.743536872200720
Brunos Steak House,WA10 2JX,53.455328653289900,-2.740989847881650
Miami Fast Food (Air Nation),WA10 2QS,53.455308000000000,-2.742994762538770
Limassol Restaurant,WA10 2RS,53.454389014635400,-2.738865179409480
Cake bake,WA10 2SY,53.454322186499000,-2.739496509639230
Subway,WA10 3BD,53.439571000000000,-2.772404000000000
The Bird I'Th Hand,WA10 3HE,53.447004449267600,-2.758280606499540
Sunflower cafe,WA10 3RN,53.447723150645100,-2.751231686173580
Eccleston Arms Bar & Grill,WA10 3TU,53.448533558648600,-2.755281338058700
The Black Bull,WA10 4PX,53.452685598629300,-2.761062291921680
THE GRIFFIN INN (ST HELENS) LTD,WA10 5AD,53.452863000000000,-2.778268044897580
Whistles tearoom,WA10 5JN,53.460748995890400,-2.776480000000000
Stanley Arms,WA10 5PT,53.450169894502400,-2.794024155775130
Subway,WA10 5RG,53.452230285278200,-2.769848716746270
Diya Restaurant limited,WA10 6QY,53.469399995578300,-2.773758000000000
Toast Coffee House and Cafe,WA10 6RG,53.458605909171700,-2.753065463405360
Dentons Deli,WA10 6SH,53.460645000000000,-2.754894000000000
The Ship Inn,WA11 0AB,53.464094193899000,-2.702039657547530
Hotel ibis Styles Haydock,WA11 0GR,53.472279000000000,-2.665204000000000
The Wood Pit,WA11 0LF,53.469305602113800,-2.656404000000000
Bridge Farm Coffee Shop and cafe,WA11 7JT,53.516485447833700,-2.787677946506100
The Junction,WA11 7JU,53.518429000000000,-2.790187000000000
THE BOAT HOUSE/CARRMILL DAM,WA11 7LZ,53.476254000000000,-2.713169272509020
The Derby Arms Rainford,WA11 8EZ,53.497723478944400,-2.783983462206630
The Cottage Tandoori,WA11 8HE,53.501204042158600,-2.787786534900230
The Golden Lion,WA11 8HE,53.501204042158600,-2.787786534900230
The Colliers Arms,WA11 8RD,53.504917863879900,-2.745518478978800
Rachael Lightfoot t/a The Barn at Fir Tree Farm,WA11 8RG,53.505860101575400,-2.747208628702720
Drink out loud limited ,WA11 8RU,53.493000432470900,-2.749590104191330
Woodlands,WA11 9AQ,53.468922150863200,-2.724444858440390
Haydock Park Golf Club Co Ltd,WA12 0HX,53.463283090701300,-2.609076232339630
Newton Deli,WA12 8EW,53.447760437837700,-2.629737941932450
Arcadia Food,WA12 9AN,53.452212941537100,-2.640977209558890
Poco Coffee,WA12 9AN,53.452212941537100,-2.640977209558890
What's Cookin',WA12 9BA,53.452049517269800,-2.639604432961320
McDonald's Earlestown,WA12 9LW,53.451069536183100,-2.641140000000000
Subway Newton,WA12 9SH,53.457549000000000,-2.619627000000000
Amans,WA12 9SL,53.457206630307300,-2.619591624156190
Saffron Restaurant (Merseyside) limited ,WA12 9SL,53.457206630307300,-2.619591624156190
Verona Kitchen and Bar Limited,WA12 9SL,53.457206630307300,-2.619591624156190
The Kirkfield Hotel Ltd,WA12 9SU,53.455836771601400,-2.615068817081910
The Oak Tree,WA12 9UY,53.457641256557800,-2.624161245604860
Duncan's Kitchens Ltd,WA3 2ED,53.476218356386500,-2.580046763250430
Scott's Deli & Catering,WA3 2EY,53.478094917890100,-2.576757500970180
Amans Restaurant & Takeaway ,WA3 2RZ,53.473883601444900,-2.579577994543220
Imperial Court Chinese Restaurant,WA3 2RZ,53.473883601444900,-2.579577994543220
Heaven 'N' Health,WA3 3AD,53.476396574795600,-2.598581584031670
Suhana Indian Restaurant,WA3 3BU,53.476784845090200,-2.596432451564350
McDonald's Stonecross,WA3 3JD,53.469631012125500,-2.590788341676370
The Queen Anne ,WA3 3PZ,53.470181592232800,-2.599352789566340
Partridge Lakes Cafe,WA3 4AQ,53.447567735341600,-2.532664072647230
Leigh Golf Club Limited,WA3 4BG,53.457946381996000,-2.535384406778170
The Raj (WA3) ltd,WA3 4EG,53.452552634277100,-2.519234063144200
Sundial Terrace Coffee House,WA3 4EH,53.452385000000000,-2.520858000000000
Cafe Piccino ,WA3 4EJ,53.452499166438200,-2.521191012075850
Mcdees,WA3 4ER,53.453739196274300,-2.521281496487080
Quench Cafe Ltd,WA3 4ER,53.453739196274300,-2.521281496487080
Culcheth Massala ,WA3 5DL,53.451520073307600,-2.516902511824610
The Culcheth Arms,WA3 5DL,53.451520073307600,-2.516902511824610
The George and Dragon,WA3 5LF,53.465354492962100,-2.493286146674770
The glazebury,WA3 5LL,53.467056543102600,-2.492507518760280
Bents Garden Centre Limited,WA3 5NT,53.474834837868200,-2.496077953412040
Chennai Indian Restaurant ,WA3 5NX,53.475542000000000,-2.497050000000000
The Comfortable Gill,WA3 5NX,53.475542000000000,-2.497050000000000
THAI PARAGON BAR AND RESTAURANT,WA3 5QX,53.451945187312600,-2.520431312585330
Istanbul Grill ,WA3 5SJ,53.452402211545000,-2.516989000000000
Le Brunch Ltd,WA3 5SJ,53.452402211545000,-2.516989000000000
Birchwood spice,WA3 6UG,53.430555314756800,-2.500814649251700
The General Elliot,WA3 7DE,53.439754586794000,-2.552889178532260
The plough inn ,WA3 7DS,53.448746510223300,-2.557974860837770
the horseshoe inn,WA3 7HQ,53.436824000000000,-2.555231928023950
Clare chapman catering  ,WA3 7PB,53.431346000000000,-2.530339000000000
Subway Birchwood,WA3 7PE,53.425067975024000,-2.536957478286890
Halabala,WA9 1AH,53.452313000000000,-2.722794018684600
Subway Ravenhead Retail Park ,WA9 1JF,53.444131272575400,-2.733297180122260
Junction Inn,WA9 3JL,53.434455600522700,-2.699639000000000
Cafe express,WA9 3JN,53.435242978812300,-2.701624099541800
Station House Cafe,WA9 3LA,53.433895267854900,-2.699991325062440
Bull & Dog Hotel ,WA9 4JY,53.426412521120000,-2.724790169353470
Reeve Court,WA9 5AG,53.427908000000000,-2.761929000000000
Sherdley Park Golf Trading Ltd,WA9 5DE,53.434303114517400,-2.736785611724190
Brownedge pub.co limited,WA9 5JR,53.430501000000000,-2.761358000000000
Ei's bistro/bikers bistro,WA9 5PE,53.436167473726800,-2.759156360089080
Lou's Diner,WN1 1AR,53.548275608624400,-2.632195645742260
The Little Kitchen,WN1 1AR,53.548275608624400,-2.632195645742260
Pat & Dad Kitchen and Bar,WN1 1BA,53.544197000000000,-2.633644000000000
SWAN & RAILWAY HOTEL,WN1 1BA,53.544197000000000,-2.633644000000000
Donut king,WN1 1BH,53.546575000000000,-2.629363000000000
Francos Italian Restaurant,WN1 1DG,53.543939000000000,-2.629762000000000
La Sentidos loca restaurant ,WN1 1HX,53.547710936008800,-2.633590814468900
Papa Luigis WIgan,WN1 1JP,53.553196144837900,-2.628057711261290
Subway,WN1 1JU,53.545351783651600,-2.632680260521720
Little Fifteen,WN1 1LD,53.545274964059500,-2.632077000000000
The Raven,WN1 1LD,53.545274964059500,-2.632077000000000
Mr Chips& Cafe Select,WN1 1LR,53.546579994364400,-2.633408000000000
THE MUAY THAI KITCHEN LIMITED,WN1 1LR,53.546579994364400,-2.633408000000000
Starbucks Market Place - Wigan,WN1 1PE,53.546302442490500,-2.631381454053020
Gallimore’s Fine Restsurant ,WN1 1PF,53.545880892929300,-2.631209169246850
Uptown diner,WN1 1PL,53.547065000000000,-2.631787201263210
Country larder,WN1 1QF,53.548141749355800,-2.632012540163690
New Day Bakery,WN1 1QH,53.548003206169600,-2.631014374223340
New Day Cafe,WN1 1QH,53.548003206169600,-2.631014374223340
Cafe Santos Ltd,WN1 1QP,53.548622566825500,-2.631174517729630
Cassinellis Cafe,WN1 1QP,53.548622566825500,-2.631174517729630
Bap,WN1 1UE,53.547544988281000,-2.630977371000470
McDonalds ,WN1 1UP,53.548495310617200,-2.629738825202570
The Chinese Buffet,WN1 1UP,53.548495310617200,-2.629738825202570
Subway,WN1 1UW,53.548419988278600,-2.630386687797910
The Whitesmiths Arms,WN1 1XA,53.549836080644500,-2.629170000000000
Royal Oak,WN1 1XL,53.550211961617500,-2.628058786707840
Caffe Rosso,WN1 1XR,53.552300852956800,-2.627380314129170
Ella Turkish Restaurant ,WN1 1XR,53.552300852956800,-2.627380314129170
Casino De Cuba,WN1 1YB,53.546369021200800,-2.630688219874710
THE FAT OLIVE RESTAURANT ,WN1 2AD,53.550619050104600,-2.630977836952240
Basmati restaurant wigan,WN1 2LF,53.553546589152300,-2.628077997266340
The Cherry Gardens Hotel,WN1 2NT,53.563053124006700,-2.630408055579820
Wigan Golf Club Limited,WN1 2UH,53.590802463031800,-2.621439300433190
The Crown Hotel,WN1 2XF,53.597069879718600,-2.641400861375360
The White Crow,WN1 2XL,53.607167996171300,-2.632183536268390
The Mount cafe,WN2 1DA,53.557195246462100,-2.609322000000000
Alexanders Coffee Shop ,WN2 1PE,53.572986000000000,-2.609701000000000
Two Left Feet Tap,WN2 1PE,53.572986000000000,-2.609701000000000
SHIVA FOOD AND CATERERS LIMITED,WN2 1PP,53.566895513347700,-2.587191064765110
GERRARD ARMS,WN2 1PZ,53.562653599903800,-2.564667047737190
KFC - WIGAN,WN2 2AT,53.543252034144500,-2.605968509827570
Charlie's coffee factory,WN2 3AN,53.536157148313000,-2.577516443137470
Summat To Ate,WN2 3AN,53.536157148313000,-2.577516443137470
Alisons restaurant ,WN2 3AS,53.536011008432500,-2.577997273785000
Gore's Sweet Shop Cafe,WN2 3EE,53.531876618322900,-2.576070202979150
PNBD RESTAURANT LTD,WN2 3PR,53.530732295901600,-2.571030944633300
McDonalds,WN2 5BD,53.521782509466600,-2.596235016027390
The Bucks Head,WN2 5RQ,53.510297128151500,-2.594038062963990
Fresh Choice Cafes Ltd,WN3 4AR,53.542537871657400,-2.642884733649040
Power Kitchen Nutrition Limited,WN3 4DP,53.544866062993600,-2.637561000000000
Hideout,WN3 4HX,53.541768847363300,-2.632023203998750
Foodie Cafe & Resto,WN3 5BD,53.539587000000000,-2.640260000000000
McDonalds ,WN3 6XA,53.520193000000000,-2.652938000000000
Velocity Leisure Ltd Wigan,WN3 6XU,53.517550571125800,-2.654528000000000
Park Hotel,WN4 0BY,53.509401000000000,-2.650618681616130
Blend n shake,WN4 9AE,53.486664908451200,-2.637879738131800
The Bistro,WN4 9AE,53.486664908451200,-2.637879738131800
Maxwell’s ,WN4 9AF,53.487127768868600,-2.638730651632840
Bengal Curry Pot,WN4 9AG,53.486452336013100,-2.637288794763760
Chinese Garden restaurant ,WN4 9AG,53.486452336013100,-2.637288794763760
KFC - ASHTON,WN4 9AG,53.486452336013100,-2.637288794763760
PRIMO RESTAURANT,WN4 9AL,53.486519251512500,-2.638224175988600
Costa Coffee - Ashton in Makerfield,WN4 9AN,53.486545000000000,-2.636931170581040
Green Cardamom ,WN4 9BJ,53.489357001029800,-2.638718943097060
The Old Band House Ltd,WN4 9BJ,53.489357001029800,-2.638718943097060
Market Kitchen Limited,WN4 9PL,53.485731000000000,-2.639521824296390
The coffee shop ,WN5 0DU,53.536688216238000,-2.684636334381080
Computionics Ltd,WN5 0LD,53.552177000000000,-2.671845000000000
Heinz,WN5 0LR,53.553694000000000,-2.675432000000000
ISTANBUL BBQ LTD,WN5 0PS,53.551922000000000,-2.666105000000000
KFC - ROBIN PARK,WN5 0UH,53.545164887410900,-2.653203000000000
Subway,WN5 0UH,53.545164887410900,-2.653203000000000
Nutri Licious Restaurant,WN5 0UJ,53.546290030123800,-2.656932000000000
Holts arms,WN5 7DT,53.518605730450500,-2.714915985050760
THE VILLAGE KITCHEN,WN5 7HR,53.502498452852500,-2.704272332182510
Billinge Arms,WN5 7PB,53.493849212849500,-2.710715980689280
Subway,WN5 8BA,53.536138574729400,-2.682772000000000
KFC - PEMBERTON,WN5 8EY,53.536779963771400,-2.687309000000000
La Mamma Pizzeria ,WN5 8EY,53.536779963771400,-2.687309000000000
The Lean Kitchen (Wigan) Ltd,WN5 8JG,53.534673055189800,-2.686504870740900
Pipsqueaks Play Cafe Limited,WN5 8QZ,53.540241041947700,-2.713439630760580
Raj gate limited ,WN5 8QZ,53.540241041947700,-2.713439630760580
The old bank coffee and wine bar,WN5 8TG,53.532829196396700,-2.711308408823560
Gelato House,WN5 8TQ,53.531085210354300,-2.709830869493090
Boars head,WN6 0AD,53.573404130149500,-2.644591357700840
Ajmeer Manzil Indian Restaurant ,WN6 0HA,53.585830481346000,-2.663526961993620
LAMAMA BAR AND RESTAURANT,WN6 0HA,53.585830481346000,-2.663526961993620
Subway,WN6 0HA,53.585830481346000,-2.663526961993620
Fifteens at Standish,WN6 0HD,53.584524762506000,-2.660711990369000
Asylum ,WN6 0HW,53.586632729830400,-2.662950000000000
Secret garden coffee lounge,WN6 0JH,53.587716000000000,-2.665656000000000
Foresters arms,WN6 0SQ,53.590031076549600,-2.688444547422860
Britannia Wigan Hotel,WN6 0SR,53.589414000000000,-2.685020000000000
DISH BAR & RESTAURANT,WN6 0SS,53.588755364817800,-2.680265000000000
Alberts Bar and Restaurant ,WN6 0TD,53.585842582280600,-2.666200904232080
THE OWLS AT STANDISH,WN6 0XD,53.588980100426000,-2.646444915950730
The Raj ,WN6 7LW,53.551093000000000,-2.648344795553310
Gathurst golf club,WN6 8EW,53.571422701769300,-2.701204366725720
Crooke Hall Inn Limited,WN6 8LR,53.560770722979500,-2.677929668698380
The Boathouse Pub & Kitchen,WN6 9DA,53.577934298117500,-2.720206220806010
Pesto at the Dicconson Arms,WN6 9DY,53.590509591749200,-2.724604935543650
Wrightington Hotel & Health Club,WN6 9PB,53.595385000000000,-2.706194000000000
The Rigbye Arms,WN6 9QB,53.601715604375900,-2.746950500826200
YM Roof Ltd,WN6 9RB,53.591538415429600,-2.695131687332800
THE PADDOCK COFFEE HOUSE & RESTAURANT,WN6 9RE,53.598410516072400,-2.697375117133230
The White Lion,WN6 9RE,53.598410516072400,-2.697375117133230
Rivaj of India ,WN6 9RN,53.608389657567100,-2.701650596975230
Cornerhouse,WN6 9SE,53.616266526167900,-2.704199944552220
The Coal Room Ltd,WN7 1DR,53.496968015678300,-2.518555784169240
The Bowling Green ,WN7 2LD,53.494216355394800,-2.495535507937320
Leigh Cricket Tennis & Bowling Club,WN7 3LH,53.484959438375600,-2.522658977943820
Robin Hood,WN7 3PA,53.479844294414500,-2.538990239436010
The Greyhound Hotel,WN7 3XQ,53.480800094531800,-2.501345000000000
Maximillians ,WN7 4AA,53.496734005476700,-2.520693455544470
Uncle stes diner,WN7 4AA,53.496734005476700,-2.520693455544470
Perola Do Mar,WN7 4AN,53.498062748367600,-2.525156754089330
Pitch Side Brasserie at Leigh Sports Village,WN7 4JY,53.489454000000000,-2.531079000000000
Bradshawgate Cafe,WN7 4LA,53.496085188582600,-2.517038000000000
SCRUMPTIOUS,WN7 4LP,53.496174646033000,-2.519103835508940
BJs Bingo,WN7 4LQ,53.494400000000000,-2.518250580298460
All or Muffin,WN7 4LZ,53.495854171682200,-2.516311261475690
McDonald's Leigh Town Centre,WN7 4NB,53.496497660185600,-2.517163229493190
Subway,WN7 4NB,53.496497660185600,-2.517163229493190
Health Shack,WN7 4ND,53.496160332225600,-2.513827000000000
Twentymans ,WN7 4ND,53.496160332225600,-2.513827000000000
Coffee Bar,WN7 4NP,53.495907109648100,-2.514457822038470
Caffe dolce,WN7 4PG,53.495437005549600,-2.516609000000000
Costa Coffee - Leigh Spinning Gate,WN7 4PG,53.495437005549600,-2.516609000000000
Kathryn's Cafe,WN7 4PG,53.495437005549600,-2.516609000000000
Spinning Slots,WN7 4PG,53.495437005549600,-2.516609000000000
nevison country inn,WN7 4QE,53.494236435210000,-2.550492837732180
McDonald's ASDA Leigh,WN7 5RZ,53.503842844611000,-2.525047305231840
KFC - LEIGH,WN7 5SJ,53.499400000000000,-2.527797797211920
McDonald's Parsonage Way,WN7 5SJ,53.499400000000000,-2.527797797211920
Subway Parsonage,WN7 5SJ,53.499400000000000,-2.527797797211920
The Fox,WN8 0QF,53.560308039559900,-2.729070511864190
Leisuretime,WN8 6LB,53.549875671877300,-2.774291525662160
Siesta Coffee,WN8 6LN,53.549877000000000,-2.774307000000000
Subway,WN8 6LN,53.549877000000000,-2.774307000000000
McDonald,WN8 6LQ,53.549875671877300,-2.774291525662160
McDonalds,WN8 6LQ,53.549875671877300,-2.774291525662160
WAYFARER RESTAURANT LTD,WN8 7NL,53.587152662259400,-2.769882076536420
Coffee Etc Cafe,WN8 7NU,53.589857304210900,-2.770021898504110
The Windmill Pub,WN8 7NW,53.587953810112500,-2.769700254124280
YOURS IS THE EARTH LTD,WN8 7NW,53.587953810112500,-2.769700254124280
eden tearoom and galleries,WN8 7UB,53.587115637652700,-2.790713286400270
Mellors Catering Services Ltd,WN8 9PG,53.530995383686300,-2.765181695762020
BALCONY RESTAURANT,WN8 9QD,53.531507937612600,-2.745369000000000
Balcony Restaurant,WN8 9QD,53.531507937612600,-2.745369000000000
LANCASHIRE MANOR HOTEL,WN8 9QD,53.531507937612600,-2.745369000000000
