name,id,postcode,lat,lon
Gull and ringhals,52992,WN3 5JD,53.527559574211600,-2.646851477550680
diamondback terrapin and Crow,96673,WA10 5AZ,53.455170401914300,-2.779961394475950
gavial and Night heron,1564040,BL6 6EB,53.591795030000000,-2.537136132000000
blue tongue and Ibex,1591247,BL2 1LP,53.571147830000000,-2.412913791000000
Hawaiian honeycreeper and Scimitar babbler,52814,WN3 6DF,53.516827740721500,-2.682325262175460
Mouse and Pitohui,49726,WN7 1UZ,53.499786144652000,-2.523655463493620
diamond python and Black cockatoo,1592666,BL1 4AA,53.578852000000000,-2.434992000000000
monitor and racer,1779987,WN3 6GG,53.516251420235000,-2.667536767990140
blind snake and diamondback terrapin,1591892,BL1 7LH,53.612274470000000,-2.431861535000000
Bronzewing pigeon and Marmoset,95490,WA11 8NZ,53.509442265200600,-2.784350578448500
Triller and Marsh harrier,49360,WN7 5AX,53.500052829188800,-2.532462740258540
Eagle and terrapin,821554,M44 5FS,53.431669548208300,-2.429380310797770
dugite and Hawaiian honeycreeper,80043,WA9 5UF,53.432607112518100,-2.769117286970210
thorn lizard and loggerhead,1589824,BL3 3RJ,53.557274680000000,-2.458427704000000
death adder and tuatara,94540,WA12 8SW,53.442180907199200,-2.629279025257570
Vole and Prion,95312,WA11 9NT,53.463683798587700,-2.728543044013020
python and American sparrow,1779776,WN2 3DT,53.536413976692600,-2.577520261365170
Pheasant and Mouse,53880,WN2 3DB,53.537474038487600,-2.589469498268580
milk snake and Piping shrike,89276,WA3 1ED,53.477292459068600,-2.548661204112290
lizard and blindworm,87873,WA3 7DR,53.448500968198000,-2.548892221036880
dugite and cobra de capello,51557,WN5 7HY,53.498095588884100,-2.708571025538800
frilled lizard and perentie,80959,WA9 2AD,53.453245661847300,-2.701905840801210
Perching duck and Thicketbird,95066,WA12 0AY,53.460468873683100,-2.628314487632540
amphisbaena and crocodile,94785,WA12 9NZ,53.449534753867000,-2.655798646910170
Logrunners and Grackle,1592215,BL1 6RU,53.603285300000000,-2.437043866000000
goanna and wall lizard,49667,WN7 2XS,53.505866815448700,-2.484242810100580
leguaan and snake,820065,M46 0PG,53.517112849971000,-2.509828428134730
Hawk and Coati,821078,M44 6PZ,53.456189807815600,-2.419417283437390
Kite and bicycle lizard,53362,WN2 5LG,53.506962225640400,-2.610124691774020
Eagle and Kestrel,88492,WA3 4LB,53.456476689841300,-2.515998901399980
mamba and cobra,49433,WN7 3LR,53.483036433503700,-2.526628690997010
Skunk and rattlesnake,831715,M29 7HX,53.499938501707600,-2.446260987335640
anole and Chickadee,51662,WN5 7QG,53.493210469025800,-2.712318112965800
garter snake and gaboon viper,89096,WA3 2JN,53.476674604825400,-2.573046799888430
bandy-bandy and Pitohui,1565910,BL4 7DH,53.549407510000000,-2.406921473000000
leguaan and fer-de-lance,50099,WN7 1NA,53.500675728750200,-2.517530686392750
king snake and copperhead,819635,M46 9WJ,53.529773666151800,-2.489267668283130
Vulture and horned toad,49494,WN7 3TS,53.481673000000000,-2.536256000000000
New World blackbird and chuckwalla,1591119,BL2 3AY,53.595921020000000,-2.407293026000000
worm lizard and Stint,54005,WN2 3LX,53.536037365527000,-2.572520638789320
Pitohui and agamid,53271,WN3 4PN,53.531255051404000,-2.607215284929580
Zebra and Buzzard,53978,WN2 3JN,53.529919775260500,-2.579241859682790
Diving bird and sidewinder,1564510,BL6 4SF,53.578687000000000,-2.533919000000000
mountain devil and Booted eagles,49748,WN7 3DJ,53.488067000000000,-2.498207000000000
diamond snake and water snake,95573,WA11 7JA,53.480435190883100,-2.803389401514150
krait and adder,54072,WN2 2DE,53.539059582568600,-2.608367000000000
king cobra and tokay,88155,WA3 6SB,53.433884025618700,-2.506513309014070
Tahr and Cuscus,89184,WA3 2NU,53.468976006612000,-2.572084385165080
terrapin and python,79989,WA9 5RS,53.436708085182300,-2.750420154816420
Pratincole and Gull,53317,WN3 4SE,53.538609328784300,-2.617278000000000
deaf adder and monitor,1565074,BL5 2HS,53.538686470000000,-2.522023136000000
cayman and Minke whale,53165,WN3 4HU,53.542727987494200,-2.632520395009610
harlequin snake and bearded dragon,1563976,BL6 6BB,53.596558410000000,-2.529173349000000
Mamo and Capuchin,947014,L34 5NQ,53.426806229055200,-2.801038130098860
gopher snake and Linsang,2618143,BL1 5UY,53.595879000000000,-2.474588000000000
Parrotlet and Ice seal,50159,WN7 1QL,53.498486340250200,-2.518725066934190
swift and sidewinder,50935,WN5 9RF,53.541563868402000,-2.665384000000000
cobra de capello and Chickadee,50580,WN6 8NA,53.563612588759700,-2.666470426855240
dugite and Wader,53093,WN3 5PZ,53.521418787170500,-2.647150048920300
Peafowl and grass snake,820391,M46 0FQ,53.529758763810900,-2.499390100478870
Hawk and Tree warbler,50642,WN6 7EQ,53.551213000000000,-2.641132951317230
Jay and Marmoset,1564642,BL5 3SY,53.555142700000000,-2.524444720000000
Skunk and Gila monster,824960,M38 9TX,53.538852853367800,-2.425636217388690
amphisbaena and boomslang,95964,WA11 0AZ,53.468311545461900,-2.690961755922650
Masked owl and Kangaroo,51581,WN5 7LD,53.496761380968600,-2.701614594238810
Mole and Siskin,94860,WA12 8FG,53.452777135348500,-2.639690663097550
Nukupuʻu and Grackle,51573,WN5 7JT,53.513715120545000,-2.705981484747560
wall lizard and python,94672,WA12 9HA,53.455243138061600,-2.655690852260400
diamond python and monitor,95219,WA12 0LT,53.460328194338200,-2.631128877835940
Vulture and goanna,97176,WA10 2AP,53.460989000000000,-2.744417000000000
horned toad and swift,85376,WA5 4PL,53.435187044092100,-2.672285884146830
tiger snake and rattlesnake,832244,M28 1GL,53.499535572777100,-2.423613983560830
Macaw and Gila monster,1779979,WN3 5AW,53.541362000000000,-2.641177000000000
Capuchin and whip snake,1591034,BL2 2QL,53.587951070000000,-2.409134869000000
galliwasp and soft-shelled turtle,1565847,BL4 0QQ,53.543588970000000,-2.428369905000000
Towhee and Chicken,53841,WN2 2SS,53.555792870050900,-2.576500831749360
Macaw and iguana,50034,WN7 1EG,53.498261508361000,-2.518752470727400
Gila monster and flying lizard,52005,WN4 9RT,53.494935507886700,-2.654132000000000
boa and Marmoset,49137,WN7 5QG,53.521176446770200,-2.532320472113320
gecko and Schneider python,96184,WA10 6PN,53.465706310597600,-2.750314071947400
swift and puff adder,89240,WA3 1BB,53.481137507398300,-2.553005395210670
Kite and wall lizard,50200,WN7 1TA,53.507285886315900,-2.518772241608280
jew lizard and New World blackbird,1564950,BL5 2BG,53.549052840000000,-2.527553957000000
monitor and puff adder,1565035,BL5 2EP,53.540424380000000,-2.525409520000000
cerastes and ringhals,94644,WA12 9DP,53.453410121841100,-2.642335484418140
Goose and horned toad,1566297,BL3 6AY,53.572710000000000,-2.426460000000000
blue tongue and box turtle,49862,WN7 2BD,53.494182189034400,-2.497268529665890
flying lizard and Eagle,51881,WN5 7AE,53.526555395803900,-2.715789056268030
Partridge and puff adder,1564281,BL6 5PB,53.595160410000000,-2.542285736000000
Dorcopsis and American sparrow,1592808,BL1 4LN,53.576904130000000,-2.456389856000000
pit viper and glass snake,96501,WA10 6EL,53.466257633127400,-2.769620199997810
Vulture and Marsh harrier,96917,WA10 4EQ,53.453721684866200,-2.763505339296890
Bunting and bearded lizard,48241,WN8 8LJ,53.548968313948600,-2.804174060041100
amphisbaena and Dorcopsis,94793,WA12 9PS,53.452759102782400,-2.643048472740820
Grouse and Flameback,49830,WN7 1XS,53.498152369933500,-2.523168008715680
Jerboa and Jay,1565156,BL4 9PN,53.542221330000000,-2.408225720000000
python and Parrotbill,53486,WN2 5RX,53.513121113083700,-2.595525255034300
Black cockatoo and cerastes,49669,WN7 2XU,53.504382621501600,-2.484512345746550
Jay and loggerhead,52114,WN5 0DS,53.537938803509900,-2.684430184147870
diamondback terrapin and death adder,95437,WA11 8HU,53.506740428864000,-2.791795000000000
constrictor and Parakeet,2649695,BL1 6FT,53.594723000000000,-2.457517000000000
mountain devil and Myna,81183,WA9 1BA,53.451791935372800,-2.719620632234700
Darwin's finches and moloch,2630428,PR7 5WJ,53.634721000000000,-2.666303000000000
Stilt and Mole,2648441,WA11 9FS,53.475961000000000,-2.673442000000000
diamondback turtle and blue racer,1563320,BL7 9SD,53.626067820000000,-2.437823680000000
Parrotbill and Bunting,505360,PR7 5SA,53.648866618460200,-2.728373942902940
snapping turtle and Parakeet,507315,PR6 0NB,53.649267709562100,-2.617034244572630
bearded dragon and garter snake,79975,WA9 5QW,53.435559744492100,-2.757188676057960
Kākāriki and Parrotlet,89292,WA3 1EZ,53.474111299566800,-2.554330220355900
giant tortoise and gavial,832591,M28 1BN,53.506523055339600,-2.425176369660470
thorn lizard and hognose snake,831235,M29 7JY,53.503771101821500,-2.445321283393440
Stint and Rabbit,831420,M29 8AH,53.514479312975100,-2.467963000000000
Thrasher and Jay,831136,M29 8HP,53.513509743276100,-2.465464826057220
dugite and Vole,94353,WA12 9SX,53.455062100907300,-2.615388926410130
thorny devil and crocodile,52431,WN3 6LN,53.514741000000000,-2.666864000000000
hoop snake and Night heron,80631,WA9 2QJ,53.448212848120000,-2.681586101977370
Grouse and Nukupuʻu,832587,M28 1BG,53.506009483703400,-2.433026538772630
bicycle lizard and Chickadee,946736,L34 6LF,53.432170368263300,-2.797330986488000
gaboon viper and Vulture,2541978,WA9 4EG,53.431690000000000,-2.701835000000000
Wallaby and Bronzewing pigeon,54102,WN2 3PN,53.532549202077300,-2.574525384830650
gopher snake and indigo snake,1591290,BL2 2AH,53.584324290000000,-2.418223376000000
Siskin and Pitohui,50777,WN6 7PS,53.557594238047800,-2.646102040536870
Macaw and frill-necked lizard,1566256,BL3 5QP,53.568802320000000,-2.459594312000000
diamondback turtle and Tattler,54309,WN2 2QY,53.540603229217600,-2.574453399203670
Treepie and Old World quail,946932,L34 2RZ,53.432112979094700,-2.784280260838320
death adder and Cloud rat,1564445,BL6 4LG,53.584334190000000,-2.514761175000000
Logrunners and wall lizard,820124,M46 9TT,53.516803200806100,-2.482663383335600
cobra de capello and puff adder,822644,M41 6WW,53.450025024977100,-2.400700233475750
Tattler and constrictor,89293,WA3 1FR,53.474969841892400,-2.553331962074380
tiger snake and Pratincole,1566083,BL4 0AL,53.546503660000000,-2.417518195000000
Petrel and Gull,1592379,BL1 5TY,53.594956740000000,-2.478371739000000
asp and Myna,1591665,BL1 8JR,53.592227970000000,-2.430070634000000
black snake and goanna,1564064,BL6 6HE,53.587410170000000,-2.530766028000000
B and Wallaby,80757,WA9 3EB,53.445695677672000,-2.721429702986190
agama and death adder,53301,WN3 4RJ,53.538467435508500,-2.613550294766900
Dorcopsis and Warbler,1566405,BL3 6ND,53.569513200000000,-2.430398698000000
indigo snake and amphisbaena,825288,M38 9NS,53.530578977386600,-2.421842020991690
Kangaroo and diamond snake,55212,WN1 2DE,53.557847546666400,-2.634044237111300
Fox and swift,80359,WA9 4JR,53.426291558714500,-2.715036117240680
Cloud rat and Masked owl,831889,M28 3FF,53.534704755911800,-2.400926436892250
gecko and Parrotlet,831647,M28 3RT,53.529070981554000,-2.405670397854260
Diving bird and black snake,55180,WN1 2AB,53.550583496991400,-2.629196291804990
anole and Lemming,946873,L34 2RP,53.430534896788300,-2.782309629456460
Lemming and Snipe,1591538,BL1 8AE,53.593415270000000,-2.437274332000000
deaf adder and amphisbaena,942779,L40 3SL,53.609329000000000,-2.761386025188280
Darwin's finches and frilled lizard,1591728,BL1 7AB,53.604192200000000,-2.432353302000000
Buzzard and tokay,49339,WN7 4XB,53.498640365447000,-2.546675674970680
tortoise and grass snake,506720,PR6 9PX,53.615478884120700,-2.597872394946380
galliwasp and Polecat,506624,PR6 9PF,53.621065623304400,-2.593264651734830
black snake and king cobra,831299,M29 8RG,53.514590306257900,-2.433898250409490
Kestrel and puff adder,53342,WN2 5JG,53.515016132891100,-2.601222175463470
mountain devil and tuatara,94806,WA12 9QH,53.453292937153200,-2.637364296429320
Ice seal and Ice seal,88930,WA3 2BE,53.467933283083900,-2.566436433182160
Piping shrike and Shearwater,1566621,BL3 5HU,53.573951000000000,-2.445953000000000
Thicketbird and Stint,54528,WN1 9FR,53.546965930396300,-2.635088890409610
Minke whale and harlequin snake,1563522,BL7 9AL,53.624711490000000,-2.409656854000000
Maya and tokay,1565909,BL4 7DG,53.548493990000000,-2.408587967000000
Prion and ringhals,506095,PR7 3HB,53.641399834063800,-2.622833526258650
boomslang and Vole,1563732,BL6 6QF,53.595950470000000,-2.513995873000000
alligator and Tit-tyrant,52376,WN4 0RX,53.489594070766600,-2.669498000000000
Nukupuʻu and Hawk,820103,M46 9SH,53.533099001621000,-2.491553987021770
tiger snake and mud turtle,1591084,BL2 2TB,53.582987520000000,-2.404434645000000
Prion and asp,1564738,BL5 2RN,53.535587720000000,-2.535730118000000
Herring gull and box turtle,2615896,PR7 3FQ,53.646502000000000,-2.633677000000000
flying lizard and sidewinder,94905,WA12 8LP,53.450969368490300,-2.626322084496220
Snipe and Eagle,50340,WN6 8AA,53.583325593342500,-2.685329629457510
Fish eagle and horned toad,89290,WA3 1EX,53.474541316443600,-2.544874193254130
kabaragoya and mountain devil,1564971,BL5 2DH,53.541423190000000,-2.558861397000000
box turtle and Old World quail,831044,M29 8EW,53.514789901914400,-2.471375343878470
Lemming and Tahr,54856,WN1 2HN,53.557043711103700,-2.636462615010640
Kangaroo and blue tongue,1592803,BL1 4LD,53.578213000000000,-2.435818000000000
blue racer and gopher snake,1590481,BL2 6DF,53.580799370000000,-2.400275261000000
boomslang and Meadowlark,96114,WA11 0NB,53.468425739686700,-2.658003071823680
Siskin and Chipmunk,49043,WN7 5JG,53.509357707883200,-2.525974977980390
soft-shelled turtle and Coati,1564864,BL5 3DY,53.552329450000000,-2.516153559000000
Old World vulture and cerastes,54080,WN2 2DX,53.541082000000000,-2.603327000000000
carpet snake and Pheasant,1565218,BL5 2QG,53.542688130000000,-2.513304834000000
Quetzal and Pratincole,95068,WA12 0BB,53.460170169637900,-2.626999745440840
Mole and Kākāriki,94440,WA12 9TU,53.456044000000000,-2.637466000000000
perentie and Skunk,1566631,BL3 3TW,53.555346210000000,-2.464369342000000
Skunk and king snake,48535,WN8 7RS,53.565796515312800,-2.749986278976970
cobra de capello and Night heron,1589611,BL3 3HE,53.557231240000000,-2.443603000000000
Civet and Polecat,80060,WA9 5WD,53.430344567356500,-2.748908297197340
adder and Zebra,1565236,BL4 9RG,53.542890390000000,-2.414917238000000
boa and frill-necked lizard,1564727,BL5 2QW,53.546005440000000,-2.515261628000000
thorn lizard and Asiatic leopard,52074,WN4 9XQ,53.497717095208400,-2.646759000000000
Duck and Zebra,1591186,BL2 1HQ,53.572936000000000,-2.423547000000000
Capuchin and Hawk,97202,WA10 2BZ,53.459324435408300,-2.744553610358040
Condor and deaf adder,1592053,BL1 6HY,53.594123280000000,-2.452329947000000
Masked owl and Treepie,49160,WN7 5RL,53.511253987919100,-2.521942138519830
Booted eagles and agamid,1563520,BL7 9AG,53.614012040000000,-2.410641549000000
Moluccan boobook and Hawaiian honeycreeper,94552,WA12 9AX,53.451361154895600,-2.638901411195920
Eagle and bearded dragon,505632,PR7 3LR,53.637548000000000,-2.635946429747920
Cuscus and box turtle,1563840,BL6 7AP,53.602412740000000,-2.546519291000000
Maya and Cloud rat,52221,WN4 8YB,53.489146300239900,-2.602453000000000
blue tongue and coral snake,49313,WN7 4TN,53.499504000000000,-2.540913000000000
diamondback and sea snake,1564264,BL6 5NF,53.594708010000000,-2.546888188000000
worm lizard and Darwin's finches,2633358,WN6 8PR,53.567934000000000,-2.696570000000000
Wallaby and Macaw,52730,WN3 5UD,53.534750564322800,-2.640141456537640
Viscacha and Logrunners,50096,WN7 1LT,53.498871801686500,-2.514478000000000
kabaragoya and horned toad,947116,L34 5SG,53.427409000000000,-2.798491000000000
Mole and Polecat,1592347,BL1 4PW,53.583884290000000,-2.457386500000000
amphisbaena and ringhals,88956,WA3 2DS,53.476542286983700,-2.583667269804880
moloch and Tattler,1565195,BL5 2NZ,53.541657000000000,-2.521452757000000
agamid and Badger,1774614,WA12 2BS,53.452782415161100,-2.639691074154980
box turtle and indigo snake,505821,PR7 4ET,53.618224861625200,-2.609445828350250
Skunk and Cloud rat,947305,L34 1NB,53.426487228342500,-2.811009969087280
Grackle and gavial,88319,WA3 5RT,53.449050491219800,-2.516375624435420
cobra and king snake,1564658,BL5 3TT,53.552736360000000,-2.527946957000000
loggerhead and Thicketbird,48228,WN8 8HZ,53.552437106710400,-2.805628514441290
horned toad and Chipmunk,942746,L40 2QR,53.628765000000000,-2.767872000000000
Old World vulture and boa constrictor,51238,WN5 9EF,53.539157515351800,-2.654603160148590
gopher snake and Linsang,1565588,BL4 9HR,53.545113110000000,-2.400994669000000
alligator and Jerboa,53919,WN2 4JJ,53.533064788277700,-2.560591909157200
Rabbit and Hawaiian honeycreeper,85385,WA5 4PY,53.429625749819800,-2.650705982966510
green turtle and Flameback,2643513,M46 0FU,53.517979000000000,-2.500412000000000
Wader and Vole,48882,WN8 0LL,53.545297528625400,-2.723092737571300
Schneider python and Tahr,1592734,BL1 2UZ,53.587749200000000,-2.433273021000000
Chipmunk and pit viper,95874,WA11 0XQ,53.463798836307700,-2.668927179797750
Cuscus and Marsh harrier,1566706,BL3 4EW,53.565350800000000,-2.459587070000000
ringhals and Bronzewing pigeon,81103,WA9 2NL,53.446060948474100,-2.691594213584340
Marsh harrier and Greenbul,505574,PR7 5BN,53.623543619083100,-2.662319361067980
Songlark and Maya,96731,WA10 3QD,53.435786751838400,-2.766691010204940
Night heron and Diving bird,506180,PR7 2FL,53.646353514391700,-2.651331195483600
blue tongue and krait,48670,WN8 6NS,53.549872791875600,-2.770563443240560
Goose and thorn lizard,1563603,BL6 7RY,53.613954150000000,-2.554256573000000
deaf adder and Fox,1564443,BL6 4LE,53.582313930000000,-2.516352806000000
crocodile and sea snake,1593208,BL1 2SP,53.585741770000000,-2.421545533000000
Chickadee and galliwasp,52610,WN3 6TR,53.520517734437200,-2.663938427273270
Partridge and Peafowl,51117,WN6 0DY,53.583959364407500,-2.654011535083390
asp and Mamo,1593176,BL1 2QH,53.583150160000000,-2.442273745000000
Bronzewing pigeon and Siskin,1565397,BL5 1EQ,53.547575400000000,-2.472479276000000
death adder and Songlark,81079,WA9 2JN,53.452601000000000,-2.687755000000000
harlequin snake and Argus,51214,WN6 0HJ,53.583795341652700,-2.660957398795450
Old World warbler and Dorcopsis,54937,WN1 2QE,53.584843202967400,-2.636804831354300
Mamo and sidewinder,831508,M29 8BU,53.515525530484900,-2.467160895403230
sand viper and Old World vulture,1563854,BL6 7BH,53.601035160000000,-2.541106778000000
Booted eagles and fer-de-lance,1566465,BL3 4TL,53.559681260000000,-2.466001971000000
Pheasant and American sparrow,946726,L34 6JP,53.431577645595400,-2.799938819086670
wall lizard and cobra de capello,54844,WN1 2EZ,53.558763988018200,-2.635809113089300
chameleon and Mockingbird,1774617,WA12 8AE,53.443287000000000,-2.624297000000000
thorn lizard and Herring gull,51604,WN5 8SH,53.534496848517500,-2.710506543953760
snake and Ground sloth,95643,WA11 7NT,53.482962547117700,-2.728858360036360
Buzzard and rat snake,831623,M29 7GW,53.499354888716800,-2.457968150621910
leguaan and Stilt,97098,WA10 3LH,53.450081000000000,-2.743744000000000
Piping shrike and Shearwater,89314,WA3 1JB,53.464174918793400,-2.574203889490040
swift and Dorcopsis,1592714,BL1 4EG,53.583293100000000,-2.456851443000000
Goose and grass snake,821595,M44 5JP,53.429592078250200,-2.439563478771110
Triller and Egret,50175,WN7 1RR,53.502064000000000,-2.518844000000000
Shearwater and Badger,1566227,BL3 5NY,53.572968270000000,-2.451379155000000
Kākāriki and chameleon,49836,WN7 1YA,53.497443666355500,-2.520792600593720
glass snake and Duck,48497,WN8 9ES,53.540804161055600,-2.763427107979780
thorny devil and Masked owl,832264,M28 1HW,53.501056371793100,-2.428166912720760
snake and American sparrow,81175,WA9 1AP,53.450969000000000,-2.722136000000000
Towhee and Petrel,1564110,BL6 6LQ,53.590232420000000,-2.526722411000000
Magpie and Jay,52504,WN4 8LL,53.494220514692800,-2.640269241724600
harlequin snake and copperhead,55192,WN1 2AZ,53.551446938857700,-2.632499524094400
hognose snake and constrictor,1564655,BL5 3TQ,53.551510740000000,-2.526633644000000
iguana and Bunting,1565927,BL3 6PW,53.565175150000000,-2.434446299000000
Guillemot and black snake,54242,WN2 1EH,53.558436695595500,-2.603573938657510
American sparrow and lizard,48528,WN8 7RD,53.578192000000000,-2.748620000000000
Tit-tyrant and krait,49563,WN7 4DR,53.496267455124700,-2.522556910052950
Philippine hawk-owl and B,85351,WA5 4LB,53.432173725763900,-2.651587794037150
Towhee and Vulture,88295,WA3 5QF,53.472351787083300,-2.481239616694510
horned toad and crocodile,505444,PR7 4NX,53.626783713529900,-2.658287562162460
constrictor and Marmoset,95402,WA11 9QA,53.461974913772300,-2.706267220708900
gaboon viper and Kestrel,48051,WN8 9NG,53.542937189360100,-2.768611451234310
Goose and Fox,54616,WN2 1AP,53.554231650738200,-2.608585865366430
jew lizard and amethystine python,821256,M44 5YL,53.429859000000000,-2.450101000000000
Elephant and bull snake,52932,WN3 5BA,53.539771690439000,-2.635735644658150
Dolphin and hognose snake,55056,WN1 1EX,53.547218283515300,-2.638337485232150
king cobra and Bronzewing pigeon,50558,WN6 7DD,53.546418000000000,-2.640260305998530
fer-de-lance and Asiatic leopard,1563864,BL6 7DB,53.599670660000000,-2.544685697000000
amethystine python and Vulture,505547,PR7 5AA,53.621727639425300,-2.665617046593650
adder and Jackal,942776,L40 3SG,53.614655828121900,-2.773028000000000
flying lizard and sidewinder,95271,WA11 9JR,53.466735270841900,-2.714435456021400
Mockingbird and Guillemot,1592025,BL1 6EP,53.591805820000000,-2.456656262000000
Booted eagles and boomslang,89664,WA2 8NB,53.430491601579600,-2.589567940684040
Francolin and glass snake,1591798,BL1 8QH,53.599147860000000,-2.430382726000000
Kākāriki and Kite,87862,WA3 7DB,53.438124856523100,-2.555427093475550
Piping shrike and amphisbaena,1563683,BL6 9DT,53.588200640000000,-2.538918439000000
Grosbeak and Partridge,506585,PR6 9LD,53.622302791375100,-2.604681663665000
lizard and Buzzard,1592992,BL1 3NY,53.590999950000000,-2.439032080000000
Condor and grass snake,50858,WN6 0QJ,53.594809897138200,-2.673186464502370
Puffleg and Darwin's finches,53705,WN2 5AJ,53.520594000000000,-2.600502000000000
alligator and snapping turtle,49677,WN7 2YG,53.506429933382600,-2.482801786293680
Mole and Cuscus,820370,M46 0EH,53.524004047163800,-2.497738578188320
anaconda and Marmoset,89238,WA3 1AZ,53.479448644638400,-2.554731316323030
Magpie and B,96386,WA10 5NP,53.450882124658900,-2.776029000000000
Partridge and garter snake,89103,WA3 2JW,53.476986044658700,-2.571830556414450
cayman and leguaan,1593265,BL1 1AP,53.577567800000000,-2.425088843000000
flying lizard and rat snake,95038,WA11 9YA,53.460446655100000,-2.716860164725370
dukite and Pheasant,1566674,BL3 4DB,53.567710220000000,-2.451338233000000
rat snake and frill-necked lizard,1565098,BL5 2JY,53.537882590000000,-2.516717090000000
Songlark and Chickadee,821353,M44 6EP,53.456519368547800,-2.404661901865030
chuckwalla and Elephant,832620,M28 1EJ,53.508844928587000,-2.429406488836620
krait and mountain devil,89338,WA2 8XQ,53.428630981501800,-2.602169209778280
constrictor and Eagle,96960,WA10 2TU,53.458157145942000,-2.740014984238750
Triller and bandy-bandy,1564271,BL6 5NQ,53.594111000000000,-2.546034000000000
Macaw and Capuchin,819941,M46 9JE,53.527138580120800,-2.487427093902480
Bronzewing pigeon and sidewinder,50780,WN6 7PW,53.558903429441100,-2.646680560425400
massasauga and Stilt,53043,WN3 4AA,53.542381032818100,-2.637147000000000
Herring gull and Fulmarine petrel,505961,PR7 2WE,53.644367257589400,-2.652949404043440
agamid and Stilt,80320,WA9 5LH,53.428409998974900,-2.756354206926270
giant tortoise and racer,48403,WN8 9BN,53.538435870178100,-2.759868712557430
cayman and Polecat,50025,WN7 1DS,53.497118128440900,-2.519175661936160
Snipe and Tahr,81219,WA9 1EX,53.455330852139100,-2.715719000000000
Kākāriki and Herring gull,1592127,BL1 5HU,53.582445630000000,-2.464515426000000
saltwater crocodile and Chicken,820084,M46 9RF,53.527813575489400,-2.480556019538370
Asiatic leopard and cerastes,79829,WA9 5LU,53.432600678307900,-2.760296906110880
habu and cobra de capello,49923,WN7 2HP,53.498709564577900,-2.506502100677020
B and monitor,51344,WN5 8BY,53.534527186266500,-2.683726374633430
blue racer and dukite,820221,M46 9BP,53.520242000000000,-2.477122000000000
American sparrow and cayman,50674,WN6 7JE,53.555688595416900,-2.642782245733880
Petrel and tuatara,1592784,BL1 4HT,53.583509490000000,-2.451944667000000
fer-de-lance and alligator,1565975,BL4 7EP,53.552202000000000,-2.404986000000000
Chicken and Scimitar babbler,821077,M44 6PY,53.455585108205600,-2.420119117967140
amethystine python and Snipe,80146,WA9 4XS,53.431082761627900,-2.701359894391190
Dorcopsis and Booted eagles,53260,WN2 5ES,53.520403247218700,-2.604194337920760
Philippine hawk-owl and coral snake,825222,M38 9LB,53.526134227157100,-2.407588219971810
grass snake and racer,96948,WA10 2SW,53.460323891913900,-2.738486285747740
Tahr and Duck,1565086,BL5 2JG,53.542676630000000,-2.515975706000000
White ibis and Capuchin,1564196,BL6 6NH,53.591134770000000,-2.532021342000000
garter snake and tiger snake,95919,WA11 7BJ,53.473894917886800,-2.741690007711070
copperhead and amethystine python,1591251,BL2 1LT,53.572517770000000,-2.411839873000000
copperhead and turtle,1565958,BL3 6SR,53.566855610000000,-2.437015263000000
king cobra and soft-shelled turtle,1591257,BL2 1NA,53.572599990000000,-2.408835565000000
Zebra and Siskin,831208,M29 8PE,53.516038136611300,-2.438633383861380
alligator and constrictor,832570,M28 1AL,53.509226261926100,-2.430842804624110
Zebra and Marsh harrier,1589806,BL3 2JD,53.559389300000000,-2.418581110000000
Pheasant and Grackle,95293,WA11 9LT,53.469700244635500,-2.729519863069110
River dolphin and gopher snake,819655,M46 9YW,53.522636993368600,-2.491417718031010
tree snake and viper,96055,WA11 0GW,53.466018319836200,-2.657724812696670
Mockingbird and Nukupuʻu,505555,PR7 5AL,53.624144385179000,-2.664551000000000
tokay and Grouse,1591876,BL1 7JP,53.611263190000000,-2.430642022000000
amethystine python and Masked owl,829468,M31 4QR,53.432930855464100,-2.408050016738120
Black cockatoo and mamba,1592766,BL1 3AW,53.585396070000000,-2.445016217000000
diamondback turtle and Herring gull,94530,WA12 8SH,53.443399299395500,-2.630049804009670
krait and garter snake,831717,M29 7HZ,53.497810248944200,-2.448122936297810
Cuscus and Vulture,85694,WA5 4BS,53.432428304530700,-2.634357754447400
Guillemot and puff adder,48610,WN8 8DS,53.550814738643600,-2.798247104176430
alligator and Wallaby,1779971,WN3 4AY,53.526882291192100,-2.612734000000000
Thicketbird and Moluccan boobook,506022,PR7 3ET,53.645409434623400,-2.624405348205350
perentie and gaboon viper,95308,WA11 9NN,53.471402155153900,-2.727545369545500
Marmoset and Komodo dragon,48704,WN8 8EW,53.551066601524200,-2.799444000000000
Tattler and Cloud rat,1564520,BL6 4YU,53.588200640000000,-2.538918439000000
gopher snake and king cobra,96656,WA10 5AD,53.452863000000000,-2.778268044897580
cobra and Komodo dragon,819634,M46 9WH,53.529554000000000,-2.486067000000000
Minke whale and Hawk,1589703,BL3 3PY,53.562167770000000,-2.452819129000000
cayman and carpet snake,94906,WA12 8LQ,53.452434022451400,-2.621028000000000
Minke whale and Komodo dragon,52131,WN4 8QS,53.492573858490000,-2.633853580109000
Jerboa and Mink,1591840,BL1 7EZ,53.610263010000000,-2.436284659000000
Capuchin and Masked owl,831374,M29 7SQ,53.502559202282300,-2.447313704460180
snake and thorn lizard,51041,WN5 9UW,53.541338285108700,-2.679384580005400
Prion and agamid,832398,M28 1ZW,53.510342329373300,-2.415187145290400
mamba and python,830848,M29 8YT,53.513785807913200,-2.454459341861200
puff adder and box turtle,1565734,BL4 0LN,53.549592760000000,-2.448111665000000
gaboon viper and Goose,1589757,BL3 2DP,53.562694010000000,-2.421995599000000
copperhead and Guillemot,49008,WN8 6DE,53.546898399519800,-2.760608931395750
Francolin and bushmaster,1566609,BL3 5ES,53.569047170000000,-2.442337897000000
blue tongue and harlequin snake,89044,WA3 2EZ,53.478567743588000,-2.575633835322980
black snake and Magpie,1566597,BL3 5DX,53.575307490000000,-2.438703279000000
Greenbul and River dolphin,52137,WN4 8QZ,53.491328972326000,-2.634694131789260
Mouse and boomslang,96666,WA10 5AR,53.452352966734400,-2.781942672091260
Badger and Mockingbird,1565388,BL5 1DX,53.545645420000000,-2.471839019000000
thorn lizard and Asiatic leopard,51195,WN6 0ES,53.584307815813100,-2.657672421252250
indigo snake and tokay,946859,L34 2QW,53.432263489817700,-2.788723239759180
diamondback and Nukupuʻu,1564597,BL6 5AN,53.592096210000000,-2.580409522000000
gavial and Dolphin,96162,WA10 6LY,53.463382737693600,-2.752457151481460
Warbler and Chipmunk,1592593,BL1 5FA,53.581440720000000,-2.470953907000000
Stint and bearded dragon,87975,WA3 7PB,53.431346000000000,-2.530339000000000
Philippine hawk-owl and Towhee,53356,WN2 5JZ,53.505986712580000,-2.612809548209660
Peafowl and taipan,96845,WA10 2RA,53.452803514404500,-2.746653150112940
galliwasp and pit viper,1566683,BL3 4DP,53.565217170000000,-2.454572939000000
Grackle and box turtle,1591874,BL1 7JL,53.609219920000000,-2.431452497000000
Chipmunk and Maya,831027,M29 8DU,53.517256925618200,-2.468024508638590
jew lizard and Kangaroo,51539,WN5 7EX,53.515198092622000,-2.716577820737030
Egret and adder,48165,WN8 9TW,53.537358382776000,-2.792908953303680
Asiatic leopard and kabaragoya,53998,WN2 3LN,53.535017103875300,-2.573472487095880
Triller and Chicken,1591460,BL1 9HR,53.588487400000000,-2.425440191000000
Grouse and Grackle,506268,PR6 9ST,53.619654301500900,-2.607622034827450
Partridge and Prion,1591939,BL1 6AZ,53.589239370000000,-2.464892108000000
king cobra and Dorcopsis,85330,WA5 4HN,53.429848000000000,-2.659531502903060
Zebra and crocodile,96950,WA10 2SY,53.454322186499000,-2.739496509639230
Puffleg and anaconda,48138,WN8 9QS,53.518768570755200,-2.760073000000000
Partridge and jew lizard,506245,PR6 9RN,53.617913878093800,-2.605193373282150
Goose and tokay,505689,PR7 5HZ,53.608710000000000,-2.674314000000000
Fulmarine petrel and crocodile,1564297,BL6 5PX,53.597390260000000,-2.548040983000000
kabaragoya and glass snake,1592631,BL1 3TQ,53.589618310000000,-2.435875469000000
rattlesnake and bushmaster,51216,WN6 0HN,53.586929574245200,-2.663075888182030
Songlark and Mole,95656,WA11 7PP,53.473266671854100,-2.731328704309730
bushmaster and Civet,1590444,BL2 6AH,53.580432350000000,-2.410436669000000
Vulture and Hawk,51355,WN5 8DN,53.531627000000000,-2.672289000000000
rock python and rattlesnake,94725,WA12 0NA,53.458853538558900,-2.631227487185940
snapping turtle and Shearwater,1593173,BL1 2QE,53.585243690000000,-2.440044884000000
Piping shrike and sand lizard,97296,WA10 2JW,53.455892263116900,-2.741979000000000
Badger and Diving bird,53002,WN3 5JR,53.527040460061300,-2.644776920066670
Chickadee and B,821624,M44 5TJ,53.432877000000000,-2.441178000000000
pit viper and boomslang,48511,WN8 9HG,53.537393322433600,-2.762671641697550
iguana and blue racer,831345,M29 7QP,53.497877175595800,-2.447053352941080
sand lizard and mamba,1566561,BL3 5AL,53.572470040000000,-2.440365205000000
Magpie and Parrotlet,49543,WN7 4AZ,53.497106387673000,-2.519808637883690
Badger and amethystine python,831567,M29 7DX,53.499368000000000,-2.459566000000000
gaboon viper and Jackal,1589526,BL3 3AB,53.564921140000000,-2.439999877000000
fer-de-lance and mamba,1563292,BL7 9QR,53.628312980000000,-2.459893275000000
Dolphin and snake,1566474,BL3 4TX,53.568812670000000,-2.477593298000000
giant tortoise and cycling lizard,89090,WA3 2JE,53.475618489966700,-2.577703240666700
thorn lizard and Warbler,89660,WA2 8LW,53.432101142752800,-2.593082129471130
Gull and Marmoset,51757,WN5 0JB,53.548025628441400,-2.690388497264850
Lemming and cobra de capello,832361,M28 1WA,53.506230281467700,-2.416428518645380
Chipmunk and horned viper,52729,WN3 5UB,53.534619803334200,-2.641059832448160
rattlesnake and Skunk,819978,M46 9NE,53.528516478409000,-2.484561611296330
Badger and Komodo dragon,50772,WN6 0NP,53.590568748709100,-2.669734917158900
Duck and frill-necked lizard,53037,WN2 5YQ,53.505282367783800,-2.584755732517340
gopher snake and Black cockatoo,1593381,BL1 1NP,53.576967000000000,-2.427212280000000
turtle and Komodo dragon,51347,WN5 8DB,53.533360000000000,-2.674142000000000
Vole and Hawk,48394,WN8 9BA,53.541392871444400,-2.759906594571050
elapid and Rat,53823,WN2 4GF,53.526055836689200,-2.538641771472930
skink and crocodile,1563879,BL6 7DW,53.601338330000000,-2.545598733000000
tree snake and chameleon,821068,M44 6PG,53.456191869250600,-2.418829974856080
diamond snake and taipan,821291,M44 6AP,53.442476571598900,-2.426101985915030
flying dragon and Badger,1591350,BL1 8TF,53.601979580000000,-2.427767011000000
horned toad and goanna,49316,WN7 4TR,53.498115095414600,-2.541618908111550
Nukupuʻu and milk snake,50701,WN6 7NB,53.553235125303400,-2.651016731509970
crocodile and Siskin,54450,WN1 3XS,53.553479925542000,-2.616710940980530
puff adder and blind snake,832448,M28 0BJ,53.525350887145000,-2.418381005359850
cobra and mamba,89073,WA3 2HG,53.480654842788000,-2.575270318011950
Thrasher and adder,53855,WN2 3AN,53.536157148313000,-2.577516443137470
Mamo and Jackal,1592642,BL1 3UF,53.591826800000000,-2.434130585000000
Cuscus and Vole,80202,WA9 5BW,53.429671000000000,-2.743313430395950
galliwasp and snapping turtle,88632,WA3 3PJ,53.471067055211400,-2.602016728363120
Duck and Badger,88909,WA3 3EG,53.481706883174000,-2.591754820298890
garter snake and Tahr,50248,WN6 9BH,53.579243000000000,-2.716545897597370
Booted eagles and green turtle,52256,WN4 9BQ,53.489300440372500,-2.640888403029560
caiman and Rabbit,1591368,BL1 8UD,53.598771850000000,-2.417278201000000
Rabbit and amphisbaena,80415,WA9 4PU,53.429321157827100,-2.710451445042340
Ground sloth and Mole,95929,WA10 9SD,53.454152618353900,-2.734930613368120
loggerhead and Masked owl,54341,WN2 1PN,53.566628797436400,-2.593876241806410
bicycle lizard and hawksbill,54133,WN2 2EY,53.548413891337100,-2.594737947205020
Vole and giant tortoise,1592940,BL1 1UR,53.576990820000000,-2.430595506000000
python and king cobra,48043,WN8 9LX,53.538171701963000,-2.766050497746390
Chicken and Pitohui,54638,WN1 3AU,53.542806130231600,-2.622773040886370
boa constrictor and Darwin's finches,1564507,BL6 4SB,53.579479000000000,-2.529715000000000
Grosbeak and boa,89068,WA3 2HA,53.479390220481500,-2.574695686702590
Diving bird and Kākāriki,820279,M46 0AQ,53.522515181073400,-2.492622969348530
Stilt and saltwater crocodile,80598,WA9 3XA,53.430774397405100,-2.718452692170340
Goose and American sparrow,1564335,BL6 4DP,53.580539230000000,-2.504655827000000
Cloud rat and python,95416,WA11 9QU,53.466990878273900,-2.707736377528060
Kite and Linsang,1565912,BL4 7DN,53.549801840000000,-2.404616041000000
Marmoset and gecko,1774597,WA11 7AN,53.519227099702200,-2.793928024523180
Jay and whip snake,1564757,BL5 2SN,53.537661500000000,-2.536299503000000
Pratincole and Herring gull,1565957,BL3 6SQ,53.569387640000000,-2.435289793000000
Linsang and saltwater crocodile,505790,PR7 4BZ,53.625256976960200,-2.629656752664190
Thrasher and Towhee,505807,PR7 4DW,53.608467333424100,-2.615713592962140
flying lizard and Ice seal,1563948,BL6 5UE,53.594085000000000,-2.547809189000000
thorny devil and blue tongue,52855,WN3 6DZ,53.522455860094400,-2.674180199154450
habu and Snipe,49845,WN7 2AF,53.494353727233100,-2.503525950012970
sidewinder and bicycle lizard,825193,M38 9FE,53.538937376541200,-2.419525993707720
swift and Ice seal,94695,WA12 9JL,53.450696099130300,-2.660364042185860
Darwin's finches and rock python,820295,M46 9DJ,53.525126734797600,-2.487041963870540
soft-shelled turtle and Skunk,87884,WA3 7EE,53.454153000000000,-2.570620000000000
Thicketbird and Hawaiian honeycreeper,95914,WA11 7BA,53.478839584212000,-2.726919244566190
Recurvebill and tiger snake,1563197,BL7 9JB,53.618732350000000,-2.425653717000000
Hawk and copperhead,1804543,PR7 3DG,53.642517214900000,-2.626737747200000
diamond python and Greenbul,54348,WN2 1PY,53.562918011416000,-2.569562224411130
garter snake and snapping turtle,89043,WA3 2EY,53.478094917890100,-2.576757500970180
Komodo dragon and Parrotbill,96603,WA10 4PT,53.452922843303400,-2.757678299120690
agama and Darwin's finches,1592209,BL1 6RN,53.605312440000000,-2.438198260000000
Philippine hawk-owl and gopher snake,48616,WN8 8EA,53.561918281963700,-2.799648000000000
harlequin snake and River dolphin,49713,WN7 3BF,53.491543141383600,-2.496016000000000
elapid and Chickadee,53703,WN2 5AF,53.522157930819800,-2.602032248062450
Dolphin and Songlark,1563275,BL7 9PQ,53.617085000000000,-2.436597000000000
mud turtle and Jay,821227,M44 5UD,53.427551579366400,-2.439587564935770
hognose snake and Piping shrike,89170,WA3 2NB,53.473735600446400,-2.563545724613300
Piping shrike and rock snake,506594,PR6 9LQ,53.617919845308900,-2.598647649262240
Warbler and Hawaiian honeycreeper,80962,WA9 2AH,53.453295481307100,-2.698006407468610
Jay and Mamo,829643,M31 4AG,53.429522855245400,-2.411057513281000
chameleon and diamondback turtle,88511,WA3 4NE,53.452006677216100,-2.528940004892830
sand viper and Bunting,832492,M28 0JQ,53.523560121188400,-2.429102873535270
coral snake and taipan,1563502,BL7 8BA,53.634942950000000,-2.498877764000000
perentie and Cloud rat,95341,WA11 8BX,53.503251713065600,-2.788050662101180
Vulture and Snipe,50179,WN7 1RW,53.501292516057800,-2.520387519913850
chuckwalla and Vole,820036,M46 0LU,53.522625707393800,-2.500633492659850
dukite and bearded dragon,947098,L34 5RB,53.429972000000000,-2.801005309317210
frilled lizard and Myna,53399,WN2 5PT,53.514421956336300,-2.588772370317770
Lemming and Buzzard,1563878,BL6 7DU,53.603338250000000,-2.544612009000000
Francolin and Linsang,96196,WA10 6QF,53.469515341392500,-2.753514728100970
elapid and Civet,96404,WA10 5PP,53.447836490102800,-2.789403277858980
habu and boa,1565093,BL5 2JR,53.538272280000000,-2.528325197000000
Booted eagles and Tattler,832237,M28 1FT,53.505461025012600,-2.412757221927800
tree snake and Dolphin,1566614,BL3 5EZ,53.572990830000000,-2.447770208000000
box turtle and rock python,1589563,BL3 3DE,53.560596830000000,-2.432859490000000
green turtle and Marsh harrier,80632,WA9 2QL,53.447767062901200,-2.680946572022570
Skunk and Warbler,53268,WN3 4PH,53.529197103066000,-2.605360461526070
swift and leathery turtle,1566162,BL3 5NR,53.572282450000000,-2.449710742000000
gecko and Skunk,94985,WA12 8PP,53.449618612404800,-2.619902753815400
Jerboa and Cloud rat,1592744,BL1 2XN,53.586186000000000,-2.435204000000000
sand lizard and tiger snake,2635515,L35 7AE,53.426134000000000,-2.785734000000000
kabaragoya and blindworm,1776158,WA9 5TQ,53.442389000000000,-2.728871000000000
gopher snake and Bronzewing pigeon,88182,WA3 6UA,53.428115669401100,-2.505963104256160
death adder and Darwin's finches,87881,WA3 7EA,53.447952225944400,-2.568203135503740
Partridge and cobra de capello,1564915,BL5 3HW,53.549531340000000,-2.504150832000000
flying lizard and smooth snake,1589905,BL3 2RT,53.565851120000000,-2.416244263000000
perentie and Fish eagle,48457,WN8 7JJ,53.589262678800200,-2.766037873556030
Thicketbird and iguana,48978,WN8 6AQ,53.546319697807700,-2.756901022063980
agama and Eagle,825218,M38 9HD,53.536931385885300,-2.419973890261020
Cuscus and python,2643507,M44 0AN,53.438405000000000,-2.428273000000000
Black jay and mamba,52848,WN3 4UW,53.526796605642600,-2.610771859031380
coral snake and agamid,88653,WA3 3QN,53.477795617362300,-2.608108868809100
Philippine hawk-owl and Mink,55216,WN1 2DJ,53.553713012038200,-2.634012589903320
Masked owl and mamba,54814,WN1 3SU,53.549031000000000,-2.623815000000000
flying dragon and coral snake,50745,WN6 0LA,53.588262618674200,-2.664199560515350
Zebra and Dolphin,1591327,BL1 8SA,53.604519090000000,-2.423893678000000
Goose and Cuscus,53984,WN2 3JU,53.529209786092000,-2.581072624706120
Guillemot and python,88624,WA3 5EZ,53.451371865590000,-2.511660503214990
diamond python and blue racer,1565170,BL4 9QE,53.541773250000000,-2.405188303000000
saltwater crocodile and alligator,79947,WA9 5PH,53.434724172965800,-2.757128660868320
River dolphin and dukite,947111,L34 5RY,53.428646371906100,-2.801418894069570
lizard and Zebra,1590925,BL2 2JA,53.590550000000000,-2.414176000000000
Pheasant and hoop snake,52810,WN3 6DA,53.518860987849600,-2.680427431343530
harlequin snake and sand viper,821303,M44 6BF,53.445166936790300,-2.417682609484770
glass snake and tuatara,1791279,M28 0AN,53.529091781800000,-2.424392078000000
elapid and cobra,48238,WN8 8LA,53.550146971016500,-2.806671725810280
Maya and Nukupuʻu,96630,WA10 3PG,53.434640657898400,-2.768792759022590
Greenbul and New World blackbird,49812,WN7 3JQ,53.487874993478500,-2.521911145167360
Piping shrike and Elephant,52079,WN5 0AF,53.537796378797000,-2.685755705609930
sidewinder and Wader,85331,WA5 4HP,53.429047219500100,-2.662737374917440
Old World warbler and copperhead,52524,WN4 8PS,53.487922924225700,-2.627770839145660
Quetzal and mud turtle,54850,WN1 2HE,53.559393400765200,-2.639139784141820
black snake and leathery turtle,97058,WA10 3EW,53.441006548543000,-2.764300998407410
Condor and krait,505882,PR7 4GZ,53.611366000000000,-2.604495000000000
Chickadee and cycling lizard,95995,WA11 0DS,53.462564765393800,-2.691485954077440
Egret and Wader,820512,M46 0JQ,53.524150867197000,-2.499173266754710
Polecat and snapping turtle,1591986,BL1 7PE,53.610063920000000,-2.485616121000000
Lemming and Mouse,505461,PR7 4PT,53.626780596835500,-2.655580934004090
snapping turtle and Komodo dragon,1590470,BL2 6BS,53.578581610000000,-2.402247916000000
water snake and Philippine hawk-owl,53404,WN2 5PZ,53.514792679838000,-2.590149846307910
Pratincole and Tahr,96147,WA10 6LD,53.463767217473800,-2.755627110943370
Black jay and Linsang,48747,WN8 6RJ,53.564367019875100,-2.780927781598770
Nukupuʻu and Komodo dragon,89182,WA3 2NS,53.475788445568700,-2.566616418853270
Treepie and Shearwater,946404,L35 4PG,53.427499094706700,-2.772275815648180
Songlark and sidewinder,1591698,BL1 8NL,53.598052570000000,-2.432517225000000
rock snake and dugite,1564280,BL6 5PA,53.595281850000000,-2.543254281000000
Nukupuʻu and hognose snake,52574,WN3 6RT,53.524432706291200,-2.656533048711170
Jackal and tuatara,832256,M28 1HL,53.506044526240800,-2.412973977349860
agama and dukite,51868,WN5 0UW,53.543231674755400,-2.650274000000000
bull snake and rattlesnake,52590,WN3 6SQ,53.522734377539800,-2.658075459852830
Jackal and racer,1590461,BL2 6BF,53.580406580000000,-2.412701993000000
Cloud rat and amphisbaena,53433,WN2 4LB,53.532219435806200,-2.556839220736820
frilled lizard and loggerhead,821092,M44 6RF,53.441807382665100,-2.417062508480730
gecko and Old World vulture,96389,WA10 5NS,53.452549436262900,-2.775245154709760
Fox and Marmoset,53036,WN2 5YP,53.504697636156200,-2.583013824998780
cycling lizard and Thrasher,1591142,BL2 1AG,53.578199680000000,-2.419235205000000
Nukupuʻu and Zebra,1592673,BL1 4AQ,53.578421380000000,-2.435171197000000
flying lizard and Myna,505331,PR7 5QN,53.648823000000000,-2.734182000000000
Ibex and Darwin's finches,1566766,BL3 4NB,53.569855010000000,-2.475415534000000
Grouse and water snake,95493,WA11 8PD,53.510612359316700,-2.778611900699950
Egret and terrapin,506708,PR6 9PG,53.618345998458100,-2.594299843932770
bandy-bandy and Lemming,1565528,BL4 7NL,53.554203290000000,-2.405458065000000
milk snake and gecko,55015,WN1 2UW,53.583573481746500,-2.627042942922080
Shearwater and sand lizard,95507,WA11 8QB,53.494520814984200,-2.780276560563070
tortoise and wall lizard,1563161,BL7 9EL,53.620445450000000,-2.436646721000000
king cobra and flying dragon,831036,M29 8EG,53.515330783547900,-2.473251357878490
Parrotbill and Bunting,53798,WN2 4EB,53.533383436147000,-2.551996427006660
leguaan and Booted eagles,820337,M46 0BL,53.520429066351600,-2.499310483620740
Jay and Pheasant,1564505,BL6 4RW,53.571725990000000,-2.484028870000000
worm lizard and Crow,80285,WA9 5HL,53.430785831355200,-2.745905859209660
hawksbill and Old World warbler,1566333,BL3 4PW,53.573603210000000,-2.477662411000000
Logrunners and Thicketbird,94790,WA12 9PJ,53.450759000000000,-2.640669000000000
Capuchin and Mockingbird,821335,M44 6DP,53.449106052321700,-2.417073816342020
Bronzewing pigeon and diamondback terrapin,2556529,WN1 2AP,53.550772000000000,-2.629350000000000
Minke whale and flying lizard,1566571,BL3 5BA,53.571171980000000,-2.441378549000000
Petrel and Viscacha,1564668,BL5 3UF,53.551879070000000,-2.510095490000000
python and Nukupuʻu,48805,WN8 6UL,53.565729172397700,-2.777419741823910
Guillemot and amphisbaena,53052,WN3 4AR,53.542537871657400,-2.642884733649040
Marsh harrier and Tree warbler,1566664,BL3 4BQ,53.564728760000000,-2.450627052000000
Komodo dragon and tokay,1564800,BL6 4AT,53.582535130000000,-2.519240491000000
rat snake and crocodile,49754,WN7 3DS,53.485561676819500,-2.497393705188750
Chipmunk and Coati,1564148,BL6 5ED,53.595946790000000,-2.587050054000000
lizard and Rat,820012,M46 9PY,53.531730276293900,-2.492156676614640
American sparrow and mamba,88272,WA3 5NS,53.474601647584800,-2.495954702161500
pit viper and Peafowl,94948,WA11 9SQ,53.473915547116900,-2.640219566712690
dukite and snapping turtle,94452,WA12 9UN,53.456953078398100,-2.621681288930160
box turtle and kabaragoya,95339,WA11 8BU,53.503769908188500,-2.788527659275380
worm lizard and Duck,51175,WN5 9BQ,53.537497587482900,-2.654064528590630
Vulture and Thicketbird,51609,WN5 8SQ,53.533236798659200,-2.707754649210590
Flameback and Black jay,50208,WN7 1TQ,53.506232000000000,-2.517478000000000
Stint and Kangaroo,1591689,BL1 8LW,53.595256930000000,-2.427593297000000
Tattler and Vulture,96818,WA10 3XH,53.449397700773500,-2.749379047750300
Black jay and Hawk,95316,WA11 9NY,53.465911753825500,-2.727270690481930
adder and chameleon,48947,WN8 0QT,53.560192592015900,-2.721429512988800
monitor and Masked owl,832231,M28 1FB,53.503004582000600,-2.416095359999890
iguana and Tit-tyrant,505897,PR7 4HU,53.607338947888800,-2.606100055100020
cycling lizard and Booted eagles,94885,WA12 8JJ,53.449066431175100,-2.627528780417400
asp and Grouse,52569,WN3 6RN,53.525398826478200,-2.657377637698930
Tahr and boomslang,1566150,BL3 5LZ,53.568838020000000,-2.447816912000000
Marsh harrier and Bronzewing pigeon,51016,WN6 0YE,53.580515327640500,-2.664062956823730
Petrel and River dolphin,1592312,BL1 5TE,53.592796240000000,-2.479193386000000
boa and Kestrel,53463,WN2 4NR,53.528049005563900,-2.568249311045020
snapping turtle and rat snake,506238,PR6 9RB,53.615323955576700,-2.600092317795950
grass snake and Herring gull,95821,WA11 8AU,53.501877373994900,-2.779688029032260
coral snake and mountain devil,946732,L34 6JW,53.441140000000000,-2.792185000000000
Darwin's finches and Meadowlark,2648681,WN1 9RW,53.546982000000000,-2.635088000000000
worm lizard and boa constrictor,1592575,BL1 3TF,53.589248140000000,-2.436324868000000
Mink and Towhee,89722,WA2 8RY,53.430405000000000,-2.614114000000000
frilled lizard and Bronzewing pigeon,50410,WN6 9SP,53.616146648827900,-2.718317046537390
Black jay and Civet,97387,WA10 1AP,53.451490111046500,-2.733770317885730
diamond snake and gavial,95593,WA11 7LD,53.518134418389900,-2.791147231270220
swift and Old World quail,1566181,BL4 0ER,53.550945040000000,-2.414618738000000
Moluccan boobook and Chipmunk,51388,WN5 8HT,53.535350371297200,-2.692188915442530
viper and Treepie,54626,WN1 2XJ,53.600789002428000,-2.633357591304490
carpet snake and Siskin,48074,WN8 9PW,53.531280000000000,-2.758790000000000
Night heron and Bronzewing pigeon,89227,WA3 1AH,53.472960777336800,-2.552386805891470
Civet and python,2649699,BL1 9YQ,53.588504000000000,-2.425423000000000
Francolin and Lemming,1564599,BL6 5AQ,53.592488220000000,-2.581124984000000
Argus and Partridge,832438,M28 0AX,53.530016646897000,-2.423269589519260
Songlark and boa constrictor,96857,WA10 4AH,53.450019579946800,-2.761903025671540
Zebra and Tattler,1592402,BL1 5WW,53.588487400000000,-2.425440191000000
viper and harlequin snake,53207,WN3 4ND,53.535067734951600,-2.617439048022140
Old World quail and Boto,53905,WN2 4HS,53.526132000000000,-2.543847000000000
gecko and Zebra,51579,WN5 7LA,53.499985264507000,-2.703657798593890
copperhead and Fox,1566684,BL3 4DQ,53.567425600000000,-2.452920619000000
harlequin snake and crocodile,820134,M46 0QG,53.519569160595000,-2.505016534031970
flying lizard and flying dragon,53179,WN3 4JQ,53.539472329248900,-2.619132816069940
monitor and diamondback terrapin,50511,WN6 8JP,53.561017665845100,-2.665976709428180
Fish eagle and diamondback terrapin,831660,M28 3SL,53.520840655459300,-2.404762173104370
cycling lizard and Guillemot,95842,WA11 0UA,53.463384335878800,-2.701997816860080
Stint and Towhee,1562965,BL7 9XB,53.631689120000000,-2.439288266000000
Viscacha and massasauga,49386,WN7 5DL,53.504287100113400,-2.536330264757940
sand lizard and Tattler,1754221,BL11 1AS,53.572026719678200,-2.425139238112670
blue tongue and fer-de-lance,506713,PR6 9PP,53.617678817703400,-2.592899682114870
Cloud rat and racer,1591754,BL1 7BN,53.605344670000000,-2.446495488000000
cycling lizard and blindworm,50539,WN6 7AW,53.553095005623400,-2.643512000000000
massasauga and Cloud rat,831479,M29 7AB,53.502323609067900,-2.464301966907390
carpet snake and dugite,1564930,BL5 2AG,53.544042610000000,-2.528381992000000
Ibex and Snipe,50172,WN7 1RL,53.502001913936800,-2.520546971822890
Tahr and sand lizard,80854,WA9 1QW,53.446354000000000,-2.707788814793170
water snake and tiger snake,54782,WN1 3QL,53.545880997945700,-2.624342455789890
boa and chameleon,50105,WN7 1NJ,53.503887198554500,-2.516936600274600
mamba and amethystine python,50833,WN6 0PA,53.591197546108100,-2.669805295451430
Argus and Rabbit,831388,M29 7WA,53.507574624576100,-2.454498406063510
king cobra and Mink,1592884,BL1 3HT,53.590525960000000,-2.443257250000000
hoop snake and Dorcopsis,85380,WA5 4PR,53.429315862742700,-2.658045834565980
diamondback terrapin and copperhead,1589620,BL3 3HR,53.557836510000000,-2.440484867000000
Ibex and rat snake,50263,WN6 9DT,53.586699064193300,-2.725989934938840
galliwasp and amethystine python,1565401,BL5 1EU,53.543221390000000,-2.471117879000000
Tattler and Tahr,832329,M28 1PB,53.511229129556600,-2.413476787287060
Philippine hawk-owl and taipan,50603,WN6 8PE,53.561278746001200,-2.657783036900530
Cloud rat and Black jay,53469,WN2 4NY,53.526452810293000,-2.567458615443570
Dorcopsis and Treepie,821143,M44 6WR,53.446604162003900,-2.423056768092700
Maya and Chicken,1566436,BL3 4RY,53.570846300000000,-2.479277275000000
bicycle lizard and Quetzal,52871,WN3 6EU,53.524237794507800,-2.668989431870330
gaboon viper and tuatara,506228,PR6 9QH,53.621197000000000,-2.595925821113070
black snake and Siskin,94828,WA12 8BS,53.450124363836000,-2.612471614737960
carpet snake and agama,80833,WA9 1PG,53.449466348733300,-2.711706204594040
hoop snake and rock snake,1566437,BL3 4RZ,53.571456090000000,-2.479631490000000
Duck and New World blackbird,505239,PR7 5NZ,53.634740955152600,-2.711252737329070
amethystine python and hawksbill,506567,PR6 9HW,53.613463069414100,-2.587474504095680
Fox and Macaw,1565265,BL4 9SY,53.540465990000000,-2.411603983000000
galliwasp and Magpie,1564502,BL6 4RR,53.572280100000000,-2.487025194000000
bearded dragon and Tit-tyrant,89114,WA3 2LJ,53.474557787885500,-2.570230999788680
Stint and rock snake,832600,M28 1BY,53.506010569658600,-2.422683471798450
chameleon and Chipmunk,55179,WN1 2AA,53.550519231927700,-2.629451924799030
cayman and giant tortoise,89278,WA3 1EF,53.477329567272800,-2.550364286056050
giant tortoise and Grosbeak,48519,WN8 9HS,53.537455574807500,-2.758538427203680
leathery turtle and puff adder,831480,M29 7AD,53.500268487844800,-2.461143826192020
Bronzewing pigeon and rattlesnake,831337,M29 7QB,53.509797403429100,-2.463177394524380
Petrel and death adder,50634,WN6 7EB,53.551448051109600,-2.644076386435650
alligator and amphisbaena,95146,WA11 9BG,53.461564168593000,-2.711863403743610
turtle and gecko,52783,WN3 6AQ,53.529014411348300,-2.677904968941060
Kangaroo and Old World warbler,505572,PR7 5BJ,53.618891322519900,-2.660024197420860
Marmoset and tortoise,1591567,BL1 8BT,53.596379510000000,-2.449906314000000
diamond python and python,1566622,BL3 5HX,53.570776160000000,-2.443896193000000
blind snake and Civet,1780274,WN8 1BF,53.544386306231600,-2.780258359236380
Parrotbill and bearded dragon,1591704,BL1 8NU,53.600106530000000,-2.435379000000000
Coati and Buzzard,48863,WN8 0HW,53.543422010188500,-2.727029667002870
Black cockatoo and habu,54110,WN2 3PX,53.532402172827000,-2.571445677632560
Siskin and Jerboa,1592389,BL1 5UL,53.597210010000000,-2.472292826000000
bearded lizard and Pheasant,51463,WN5 8NS,53.542766000000000,-2.701715683874100
Treepie and rattlesnake,95468,WA11 8LW,53.488839505044900,-2.769260436084180
Black jay and Skunk,50612,WN6 8PY,53.567250795203500,-2.680675000000000
ringhals and brown snake,1564124,BL6 6NG,53.591609120000000,-2.530456082000000
Partridge and terrapin,820179,M46 0SS,53.522990153032700,-2.505871748697170
Old World vulture and swift,1564066,BL6 6HG,53.585595000000000,-2.526770000000000
Chipmunk and Chickadee,96522,WA10 6HP,53.466886324298700,-2.765504101376710
bandy-bandy and hawksbill,1563828,BL6 6YT,53.588200640000000,-2.538918439000000
Coati and Tahr,88984,WA3 3HW,53.476870252714400,-2.586444127605840
caiman and Pitohui,1592886,BL1 3HW,53.590686190000000,-2.441249630000000
saltwater crocodile and giant tortoise,54276,WN2 1JH,53.557054782512000,-2.595946061819150
Siskin and horned toad,1776121,WA9 1BU,53.450202911379700,-2.705468000000000
perentie and Pitohui,50570,WN6 8LP,53.562681400087400,-2.665821680295990
wall lizard and sidewinder,946862,L34 2QZ,53.434438798458100,-2.781884621355400
Asiatic leopard and Marsh harrier,95386,WA11 8GH,53.490900800484000,-2.766011991712260
Chicken and Peafowl,1592999,BL1 3PG,53.593084700000000,-2.441622125000000
Argus and diamondback terrapin,96265,WA10 6UJ,53.466026685555000,-2.746523733487600
Prion and coral snake,53072,WN3 5NU,53.524714377977200,-2.637712358267320
frilled lizard and tiger snake,48230,WN8 8JB,53.552383416934100,-2.806925592717650
Thrasher and sidewinder,1589907,BL3 2RW,53.567659900000000,-2.420776721000000
Dolphin and Capuchin,1565018,BL5 3NJ,53.574565370000000,-2.556671000000000
massasauga and boomslang,88701,WA3 3SY,53.483262622598500,-2.605956807357650
Komodo dragon and cerastes,94774,WA12 9NH,53.452241339761800,-2.647377490139530
sea snake and boa constrictor,50298,WN6 9JG,53.580638951837300,-2.706794424003340
frilled lizard and krait,1754396,BL6 9GY,53.588205738676300,-2.538918819449460
tokay and anaconda,54901,WN1 2NQ,53.560458000000000,-2.626671000000000
turtle and giant tortoise,1566322,BL3 6EE,53.574594720000000,-2.432036018000000
Stilt and Pheasant,1566251,BL3 5QE,53.568941420000000,-2.460818902000000
gopher snake and flying dragon,1592388,BL1 5UJ,53.597261370000000,-2.472943123000000
adder and blue racer,50058,WN7 1HR,53.502940944478000,-2.511241303142290
Piping shrike and deaf adder,49606,WN7 4HX,53.491715892854400,-2.527414520211710
carpet snake and python,80955,WA9 1UA,53.458394000000000,-2.725034000000000
Polecat and cerastes,1592144,BL1 5JS,53.581333590000000,-2.466179792000000
bull snake and Ibex,95086,WA12 0DE,53.454651730180200,-2.609524922105560
Siskin and wall lizard,1563782,BL6 6SU,53.586017900000000,-2.542576499000000
massasauga and Moluccan boobook,506099,PR7 3HL,53.645852614703800,-2.634138786317860
cerastes and Stilt,88634,WA3 3PN,53.471793864349700,-2.602268064197090
krait and bearded lizard,1593168,BL1 2PT,53.583356910000000,-2.437381920000000
Fish eagle and moloch,89014,WA3 3LH,53.474826431207100,-2.590785199788150
bearded dragon and soft-shelled turtle,48460,WN8 7LD,53.586795991293900,-2.786024331068930
B and Komodo dragon,1565129,BL4 9NB,53.540186030000000,-2.404086693000000
Viscacha and diamondback,946735,L34 6LE,53.432023349382700,-2.797809881176890
blind snake and Black jay,1589572,BL3 3DS,53.561838230000000,-2.435061267000000
indigo snake and Myna,1563525,BL6 7LP,53.604048760000000,-2.550409182000000
Partridge and perentie,832436,M28 0AU,53.530061747754800,-2.423224781760210
Puffleg and Ice seal,1780236,WN6 8GF,53.567283510090100,-2.690536460096450
cerastes and rock python,53085,WN3 5PQ,53.522344973346000,-2.637043258262030
cycling lizard and pit viper,1566252,BL3 5QH,53.569771970000000,-2.455180513000000
rattlesnake and adder,96168,WA10 6NG,53.465602004276100,-2.746877799013980
pit viper and frill-necked lizard,1592833,BL1 3BR,53.586038760000000,-2.448618165000000
alligator and agamid,88783,WA3 3XE,53.484279363619400,-2.607523491349080
mountain devil and caiman,2520450,WA3 7EH,53.456914000000000,-2.571816000000000
Warbler and Greenbul,53975,WN2 3JH,53.530479947866500,-2.578646060385210
Rabbit and mud turtle,1564995,BL5 3LE,53.555795500000000,-2.521101678000000
Francolin and Shearwater,94431,WA12 9TH,53.456278907162500,-2.618222724254640
rock python and Mole,54977,WN1 2SG,53.566029017525300,-2.614734424169690
ringhals and blue racer,505917,PR7 4JW,53.611678831375800,-2.611694364858510
sand lizard and Pheasant,52929,WN3 5AQ,53.541380075705000,-2.645900293572990
Bronzewing pigeon and Eagle,89189,WA3 2PA,53.469298871195400,-2.570356316294740
galliwasp and ringhals,49107,WN7 5PN,53.517519869763600,-2.529906816607060
bicycle lizard and deaf adder,54400,WN2 1SY,53.569319963912800,-2.591331862414730
amethystine python and massasauga,1589772,BL3 2EH,53.560656300000000,-2.428829252000000
Mole and Herring gull,96127,WA10 6HU,53.465984372683300,-2.765984962349120
king cobra and coral snake,50846,WN6 0PU,53.595814607997800,-2.679790000000000
thorny devil and Wallaby,53648,WN2 3SR,53.528378975239100,-2.570682481158280
cayman and Armadillo,2539256,WA3 6BJ,53.438931000000000,-2.522319000000000
boa constrictor and Thrasher,53432,WN2 4LA,53.534026993762500,-2.556651722169990
Armadillo and Tit-tyrant,2617861,BL1 8GL,53.595068000000000,-2.442079000000000
Mamo and Prion,53682,WN2 4XB,53.532673466942800,-2.555849442658490
Duck and snake,52274,WN4 9DX,53.486031433034400,-2.636996145053590
Tattler and massasauga,48979,WN8 6AR,53.548959839082100,-2.757295283130680
Mockingbird and cerastes,946199,L35 7JS,53.430371975574400,-2.779732937109700
water snake and wall lizard,2659962,WA3 2SP,53.471060000000000,-2.579509000000000
mud turtle and Hawk,825161,M38 0PU,53.531355124420900,-2.431037340298510
diamond python and Linsang,1563755,BL6 6RJ,53.584061910000000,-2.531796528000000
garter snake and agama,1589755,BL3 2DJ,53.561311810000000,-2.426495845000000
Elephant and amphisbaena,95659,WA11 7PS,53.473262016589800,-2.730620522358360
hawksbill and indigo snake,1590015,BL3 2TG,53.563097750000000,-2.432266033000000
habu and monitor,49179,WN7 5SP,53.506866648971700,-2.522159610525550
chameleon and Thrasher,1592892,BL1 3JD,53.592978390000000,-2.446047756000000
black snake and Kangaroo,1787255,L34 1QH,53.426217521180700,-2.805375000000000
Cuscus and gecko,54210,WN2 2PP,53.543357294600800,-2.590320896541750
kabaragoya and Tree warbler,87906,WA3 7HL,53.437621831778500,-2.553418450400830
Darwin's finches and Gull,53915,WN2 4JE,53.534754588761900,-2.560599151044670
amphisbaena and Prion,1593053,BL1 2EW,53.582621080000000,-2.429610541000000
frilled lizard and Chickadee,88738,WA3 2RU,53.472845813643500,-2.580422594400460
Towhee and blue tongue,1564576,BL5 3RH,53.545501330000000,-2.527796510000000
Petrel and Tattler,505916,PR7 4JU,53.610927353600100,-2.614509976999400
cayman and lizard,1592475,BL1 5AN,53.582911570000000,-2.480803462000000
diamond snake and king snake,1566275,BL3 5RN,53.568507820000000,-2.454336452000000
Fulmarine petrel and Tit-tyrant,1566662,BL3 4BN,53.567234160000000,-2.453628233000000
tortoise and Songlark,50538,WN6 7AU,53.553100268132000,-2.649369385341730
skink and Snipe,54168,WN2 2LJ,53.541530396380800,-2.594399977196430
Capuchin and diamondback turtle,821400,M44 6HS,53.454127684832000,-2.415346086077720
Fox and Thicketbird,2604899,M28 3YS,53.517391000000000,-2.411997000000000
Old World vulture and Armadillo,1592119,BL1 6PT,53.600216530000000,-2.438069934000000
Capuchin and chuckwalla,51042,WN5 9UX,53.542542563180000,-2.682572883758960
Thicketbird and Boto,95442,WA11 8JD,53.505886901311700,-2.793256104223170
Badger and Recurvebill,94720,WA12 9LT,53.450934070132200,-2.643111242507520
Duck and mountain devil,821280,M44 5ZR,53.435555169108100,-2.431165581931740
mamba and cycling lizard,48870,WN8 0JE,53.543734558170600,-2.733252521416530
hognose snake and Polecat,95851,WA11 0UN,53.471123660124700,-2.689636514413310
Grosbeak and Guillemot,1592874,BL1 3HE,53.592105000000000,-2.444479956000000
Logrunners and anaconda,54119,WN2 3QJ,53.532454949559000,-2.567916063185660
Jay and brown snake,52001,WN4 9RP,53.493173067043900,-2.652779101206180
Chipmunk and sidewinder,97222,WA10 2EF,53.454521992963200,-2.744787000000000
water snake and cobra,49139,WN7 5QJ,53.505657109251100,-2.523320768211090
green turtle and boa constrictor,1589923,BL3 2TE,53.563408620000000,-2.433295853000000
kabaragoya and Eagle,1565153,BL4 9PH,53.541696800000000,-2.403874739000000
flying dragon and Cuscus,51792,WN5 0LY,53.556340025785400,-2.665012590316570
Viscacha and king cobra,88719,WA3 3TW,53.482401000000000,-2.593286000000000
rock python and python,1592077,BL1 6LL,53.600138780000000,-2.461143450000000
puff adder and viper,820159,M46 0RP,53.515644840430600,-2.510504516136270
New World blackbird and taipan,53091,WN3 5PX,53.521902004403500,-2.647549578967820
Bronzewing pigeon and Grosbeak,95261,WA11 9JD,53.462930402162500,-2.719372242519060
leathery turtle and Quetzal,821399,M44 6HR,53.454619217445000,-2.413573904644240
Vole and Komodo dragon,50600,WN6 8PA,53.559843947771200,-2.657171999886750
Fulmarine petrel and rat snake,505384,PR7 5TF,53.644305599726900,-2.724574106906650
Badger and Tit-tyrant,820157,M46 0RL,53.526823895938000,-2.504771006343020
gavial and harlequin snake,820031,M46 0LP,53.524112060964700,-2.504135395802640
Chipmunk and Marmoset,95961,WA11 0AW,53.466061279621600,-2.693049139578360
horned toad and Jerboa,90045,WA2 0RE,53.431841000000000,-2.574806000000000
Black jay and deaf adder,48761,WN8 6SD,53.562501665567600,-2.780274404342760
Mamo and Wallaby,1591705,BL1 8NW,53.600227720000000,-2.432524347000000
death adder and agamid,94688,WA12 9HY,53.454617786872400,-2.654988486478020
saltwater crocodile and coral snake,53594,WN2 4SR,53.523795499139700,-2.549443224935750
Meadowlark and blue racer,89284,WA3 1EP,53.474347956139500,-2.541933801771920
slowworm and turtle,51089,WN6 0BN,53.577022991168100,-2.641897719072180
deaf adder and Fish eagle,50840,WN6 0PN,53.595229656466300,-2.687879388925650
smooth snake and Condor,1591611,BL1 9SQ,53.578230570000000,-2.430774245000000
cycling lizard and goanna,52492,WN4 8ED,53.499817765981800,-2.642433999235560
Gull and Tree warbler,96946,WA10 2ST,53.459178142360700,-2.736252427905170
Guillemot and Wallaby,87876,WA3 7DU,53.449846000000000,-2.559493483945850
Mole and Ground sloth,505532,PR7 4QQ,53.624150000000000,-2.651869952928790
carpet snake and Kangaroo,96212,WA10 6RL,53.458777680734400,-2.754333618766180
worm lizard and Chipmunk,95000,WA12 8QS,53.445451535090900,-2.636298337552150
racer and tree snake,50114,WN7 1NX,53.505718217511100,-2.515466233561290
box turtle and perentie,1566123,BL4 0DU,53.553290200000000,-2.414852995000000
Asiatic leopard and tiger snake,88228,WA3 5JA,53.456450826333600,-2.498649000000000
python and gopher snake,1593055,BL1 2HA,53.583065010000000,-2.428633234000000
Night heron and Gull,88812,WA3 4AZ,53.455890634580400,-2.560282326681790
Treepie and skink,53061,WN3 5NF,53.525182755330500,-2.639212745113950
diamondback turtle and Moluccan boobook,53701,WN2 5AB,53.522514861615900,-2.602550144985830
goanna and Ibex,97206,WA10 2DF,53.457916742685900,-2.741095164156880
cycling lizard and slowworm,1589651,BL3 3LA,53.557740000000000,-2.447110906000000
Puffleg and Chickadee,832397,M28 1ZN,53.509766720652600,-2.415287067030200
constrictor and puff adder,52599,WN3 6TA,53.521098477201800,-2.662952039534490
Bunting and Kākāriki,820077,M46 9QR,53.536190717754600,-2.471552782967460
Zebra and Civet,51110,WN6 0DQ,53.586009975100100,-2.657064405412660
racer and Myna,55099,WN1 1NR,53.546434229353600,-2.631956907702510
milk snake and lizard,831233,M29 7JW,53.500582885786800,-2.447474000000000
Grackle and mountain devil,95274,WA11 9JU,53.465334755612500,-2.718644684203020
Jay and Kite,96906,WA10 4EA,53.455045279196800,-2.763152599372510
Partridge and hognose snake,947018,L34 5PB,53.427843339549600,-2.800530884353200
diamondback and green turtle,1563544,BL6 7NN,53.606009630000000,-2.544208115000000
Skunk and Petrel,505886,PR7 4HF,53.609941071857900,-2.605215348731860
cycling lizard and Siskin,832279,M28 1JQ,53.502566921568800,-2.428031380921800
Grouse and iguana,88775,WA3 3WP,53.469881438777000,-2.598263901936270
Stilt and Jerboa,53934,WN2 3EE,53.531876618322900,-2.576070202979150
skink and Quetzal,942772,L40 3SB,53.615648908158300,-2.783310269723640
rattlesnake and black snake,49276,WN7 4RD,53.496432437718100,-2.543994228763890
Goose and Mink,52974,WN3 5HB,53.536115790937100,-2.638653235307510
Viscacha and bearded lizard,821065,M44 6PD,53.455961553875900,-2.420424028456970
copperhead and green turtle,49915,WN7 2HB,53.498090245694900,-2.508409191782440
blindworm and Lemming,50347,WN6 8AJ,53.571916989655900,-2.684148407421610
ringhals and massasauga,50324,WN6 9PD,53.599228758966900,-2.709552759300010
Armadillo and Partridge,1566761,BL3 4LW,53.563194160000000,-2.464092995000000
Ibex and whip snake,80869,WA9 3LP,53.437718962920200,-2.700927284399680
Old World quail and flying dragon,95808,WA11 8AB,53.505252113327700,-2.798144405284020
Stint and puff adder,97128,WA10 1RB,53.453030906440600,-2.735949000000000
Thicketbird and horned toad,1791618,M44 5XA,53.438092128900000,-2.426931487000000
Crow and New World blackbird,54841,WN1 2EW,53.557484597312800,-2.631291369913820
Vulture and bicycle lizard,89254,WA3 1BX,53.481326883321100,-2.568197116586610
Tree warbler and sidewinder,1564144,BL6 5DY,53.595535000000000,-2.583327000000000
rattlesnake and agama,94904,WA12 8LN,53.451184351269800,-2.623027527621940
Stint and Komodo dragon,52743,WN3 5UW,53.533459301789700,-2.649340000000000
Jay and Rabbit,832347,M28 1UH,53.500754281668900,-2.417007993268240
Elephant and rock python,54987,WN1 2SX,53.577684466386100,-2.637542971370460
tree snake and flying lizard,55063,WN1 1HE,53.546204858523800,-2.636224469496470
Herring gull and Maya,1591687,BL1 8LT,53.594630150000000,-2.429430251000000
hognose snake and goanna,505684,PR7 5HR,53.623889000000000,-2.677807000000000
lizard and Chickadee,94711,WA12 9LF,53.452743939508900,-2.654116357817880
elapid and Mockingbird,946657,L34 6HY,53.430965860181900,-2.798678086263260
Hawaiian honeycreeper and tokay,1564932,BL5 2AJ,53.543503100000000,-2.530457795000000
Kite and cayman,1564987,BL5 3JS,53.553788820000000,-2.506993929000000
sidewinder and loggerhead,820010,M46 9PW,53.531663573246000,-2.495248640361920
coral snake and Hawaiian honeycreeper,51928,WN4 9LH,53.486031686566400,-2.640311645185450
White ibis and Fox,96363,WA10 5JZ,53.459366644802500,-2.780188933221190
bearded dragon and cayman,54078,WN2 2DT,53.539389366402300,-2.609036822598470
Black jay and constrictor,1791317,M29 8QU,53.514718000000000,-2.467031000000000
Hawk and Fox,1591371,BL1 8UG,53.596410060000000,-2.416665642000000
sidewinder and Mouse,80293,WA9 5HW,53.437573883935300,-2.747093562105850
gecko and box turtle,94875,WA12 8HT,53.451011654114000,-2.621669777069620
Perching duck and Armadillo,2587646,M29 7SF,53.496441000000000,-2.458660000000000
Rabbit and New World blackbird,1591998,BL1 7PU,53.602626370000000,-2.491046566000000
Bunting and River dolphin,1564235,BL6 5JS,53.595980290000000,-2.587549133000000
Jackal and water snake,505747,PR7 3RE,53.635628183336900,-2.663189270587300
Kangaroo and Rabbit,946202,L35 7JW,53.429152175160500,-2.782073525387310
diamond snake and River dolphin,1592472,BL1 5AH,53.580132210000000,-2.476799616000000
sand lizard and anaconda,832603,M28 1DB,53.503556430204700,-2.422764579267180
Maya and Mole,88935,WA3 2BL,53.471348492000800,-2.560817420973270
Old World quail and Goose,505874,PR7 2RB,53.641040005283700,-2.654879454958290
Goose and water snake,80045,WA9 5UH,53.431467337844800,-2.766041299372740
Mouse and soft-shelled turtle,1592177,BL1 5NL,53.587247000000000,-2.469070000000000
Argus and Asiatic leopard,50472,WN6 8ER,53.576316826865400,-2.712627421601160
carpet snake and dukite,50452,WN6 8DR,53.578042604118700,-2.714136569793230
Mink and Jackal,94352,WA12 9SW,53.456830787289100,-2.615791010885310
copperhead and cayman,506527,PR6 9EF,53.635700965200300,-2.598370000000000
loggerhead and Diving bird,49882,WN7 2DG,53.493709261965700,-2.507135845656810
racer and Ibex,2557201,WN3 6GS,53.527130000000000,-2.661432000000000
Logrunners and puff adder,1592374,BL1 4RP,53.577591070000000,-2.450643075000000
Thrasher and American sparrow,80722,WA9 4EY,53.426111010256600,-2.721143105324660
hawksbill and White ibis,1565742,BL4 0LX,53.550568840000000,-2.424486013000000
saltwater crocodile and wall lizard,1591645,BL1 8HB,53.593715000000000,-2.431701253000000
B and puff adder,94430,WA12 9TG,53.455983434256400,-2.616260659686100
Flameback and Old World warbler,821263,M44 5YU,53.429249416160600,-2.439860945579550
Stint and horned viper,1592896,BL1 3JH,53.592851720000000,-2.443855720000000
Chickadee and Solitaire,2638568,BL4 9FQ,53.542173000000000,-2.400859000000000
Snipe and Mamo,96031,WA11 0EW,53.465278886354200,-2.686890633368010
flying lizard and Stint,52507,WN4 8LU,53.496818256676300,-2.641936412107940
Schneider python and Stint,95337,WA11 8BS,53.502700588787900,-2.788477655626880
alligator and perentie,52628,WN3 5RW,53.518152336994300,-2.644491093120810
Tit-tyrant and leathery turtle,49210,WN8 0AE,53.541554802943400,-2.736911947925980
Diving bird and Francolin,1564422,BL6 5ST,53.582333260000000,-2.571394192000000
Eagle and Black jay,831887,M28 3FB,53.521940985534300,-2.400986831466160
puff adder and blue racer,49556,WN7 4DG,53.495831980360000,-2.521421016729110
cerastes and Eagle,1564287,BL6 5PJ,53.593555640000000,-2.539379435000000
Gull and blue racer,80579,WA9 3UZ,53.430141174451200,-2.719119292918970
ringhals and Parrotlet,51558,WN5 7HZ,53.512550002370400,-2.706927226406820
Francolin and bearded dragon,49811,WN7 3JP,53.486406598781500,-2.518532394411020
Vulture and python,505617,PR7 5EY,53.632674855634000,-2.667347040055470
Parrotbill and puff adder,97053,WA10 1QU,53.453153775013200,-2.735109127885040
Magpie and Towhee,1564375,BL6 4HJ,53.562963380000000,-2.503359464000000
water snake and bandy-bandy,1564114,BL6 6LU,53.589667180000000,-2.526488771000000
Cloud rat and Thicketbird,80442,WA9 3RP,53.444052309745700,-2.698487166361290
Pratincole and wall lizard,821131,M44 6WA,53.447310729579600,-2.421512965393580
Coati and tuatara,505915,PR7 4JT,53.612307207118400,-2.613607984570340
blue racer and krait,1780251,WN7 3PG,53.479767152520800,-2.541535000000000
sidewinder and chuckwalla,52308,WN4 9HZ,53.485980524523200,-2.622783983223570
Minke whale and Condor,820345,M46 0BX,53.522744887084700,-2.493590970463330
Quetzal and hognose snake,1592133,BL1 5JB,53.585605060000000,-2.470260047000000
amethystine python and monitor,53368,WN2 5LQ,53.507523545865300,-2.607569490262690
cayman and Scimitar babbler,53366,WN2 5LN,53.510598136387300,-2.605698433920880
snake and Francolin,506554,PR6 9HE,53.623242342899400,-2.574532225481090
Hawk and Towhee,2587164,BL1 9WX,53.588488000000000,-2.425425000000000
terrapin and Parrotlet,89808,WA2 8TE,53.425177963679900,-2.595273154597890
American sparrow and Old World quail,95050,WA11 9YW,53.466045458538900,-2.728929954998960
galliwasp and Darwin's finches,505464,PR7 4PY,53.625717429030900,-2.657681274894420
Tit-tyrant and Night heron,49834,WN7 1XX,53.497646050504600,-2.521789996516310
chuckwalla and mamba,88913,WA3 3EN,53.481981334174700,-2.583470712864020
giant tortoise and anole,53603,WN2 4TB,53.522625000000000,-2.542236745714980
Goose and Vulture,95551,WA11 7EU,53.475722753583200,-2.725072999014700
blue tongue and leguaan,1592480,BL1 5AU,53.581312320000000,-2.487295211000000
Tahr and White ibis,54001,WN2 3LR,53.534337133876600,-2.572694000000000
green turtle and Polecat,49901,WN7 2EQ,53.492698906043800,-2.503747500737040
whip snake and Marmoset,52398,WN4 0TA,53.489498631604800,-2.671893842601260
deaf adder and bandy-bandy,832490,M28 0JN,53.522738512795300,-2.427616400876260
Logrunners and Argus,48540,WN8 7RZ,53.553127520907200,-2.743452709586990
Buzzard and Gull,94918,WA12 8NE,53.447781044177600,-2.630942797866060
Parrotbill and box turtle,506100,PR7 3HN,53.643872689046800,-2.634608251948310
terrapin and Zebra,832371,M28 1XX,53.511355774678100,-2.418408939996190
Jay and racer,831393,M29 7WG,53.508245413585000,-2.453012846336570
galliwasp and tree snake,96341,WA10 5HN,53.458880757984900,-2.784382030166530
Perching duck and coral snake,505849,PR7 2PU,53.648978537839100,-2.641265834782850
turtle and Grouse,97049,WA10 1QJ,53.453446574645700,-2.741407000000000
Zebra and Fish eagle,96103,WA11 0LJ,53.471370614578700,-2.653709845076260
Siskin and Kite,87880,WA3 7DZ,53.448741840254200,-2.566602560140390
diamondback and swift,52230,WN4 8YF,53.494846214927500,-2.607087000000000
snake and New World blackbird,80502,WA9 4TE,53.432189000000000,-2.687532518936060
Flameback and Tahr,80857,WA9 1QZ,53.455097031639900,-2.706529540978620
Chicken and snake,50771,WN6 0NN,53.590146251606600,-2.664908946506390
perentie and puff adder,1591819,BL1 8RR,53.605323510000000,-2.425171207000000
viper and Jay,1591345,BL1 8SZ,53.601513040000000,-2.414902000000000
indigo snake and Logrunners,1564162,BL6 5EW,53.594922000000000,-2.587262000000000
diamondback and anaconda,831281,M29 7PL,53.510748884753700,-2.456507744892680
Mockingbird and puff adder,832486,M28 0JG,53.523663322271600,-2.425378257875130
bearded dragon and Buzzard,1589602,BL3 3FG,53.557987230000000,-2.433678204000000
deaf adder and Towhee,52851,WN3 6DU,53.521038516805100,-2.673675034785520
Grackle and blindworm,821300,M44 6AZ,53.440660247373400,-2.426279507376180
snapping turtle and Badger,831202,M29 8NX,53.513310954763900,-2.456414655904630
gavial and thorny devil,1566570,BL3 5AZ,53.572106900000000,-2.441342988000000
terrapin and Booted eagles,49250,WN7 4PP,53.494596532506900,-2.565766868101250
cycling lizard and Viscacha,1565190,BL5 2NT,53.541042440000000,-2.517660980000000
Moluccan boobook and kabaragoya,81199,WA9 1DQ,53.453884179491000,-2.719972256590760
Viscacha and Schneider python,97283,WA10 2HT,53.457811777267900,-2.744752000000000
leguaan and Old World quail,54995,WN1 2TJ,53.585354019459600,-2.638776260412220
Bronzewing pigeon and gecko,80433,WA9 3RB,53.444710887363300,-2.699612107140790
Goose and Kangaroo,49622,WN7 4JS,53.494655845252000,-2.527255063152610
caiman and bull snake,88309,WA3 5RF,53.449533610802000,-2.518971363453140
Macaw and tokay,89081,WA3 2HT,53.479958598854900,-2.579841639318720
sea snake and giant tortoise,88765,WA3 3UX,53.485601201307400,-2.607421824197970
hawksbill and horned viper,49551,WN7 4DA,53.495272023207700,-2.522032162495720
anaconda and agama,1590738,BL2 3EJ,53.608758130000000,-2.406766718000000
Herring gull and Parrotbill,1774633,WA12 9FY,53.456283725573500,-2.623616000000000
hognose snake and Prion,1563866,BL6 7DE,53.606649210000000,-2.541919124000000
Black jay and constrictor,821170,M44 6ZS,53.439140695888100,-2.426414826363630
Civet and flying lizard,80542,WA9 3TB,53.435480537821000,-2.717613885709150
Scimitar babbler and fer-de-lance,80723,WA9 4EZ,53.426431656710500,-2.718650329805640
New World blackbird and flying lizard,52853,WN3 6DX,53.521294421959000,-2.672924947256780
mamba and diamondback turtle,50495,WN6 8HR,53.567579865636400,-2.694315815511200
Cuscus and horned viper,1564470,BL6 4NU,53.579779130000000,-2.505855062000000
crocodile and blind snake,97420,WA10 1DY,53.453580000000000,-2.734606800022210
caiman and anaconda,51061,WN6 0AB,53.574892000000000,-2.642213000000000
Tattler and horned toad,96769,WA10 3SE,53.436512025074200,-2.764325690834510
rattlesnake and Logrunners,1779727,WN1 3AA,53.552646032387900,-2.619068909744190
rattlesnake and Philippine hawk-owl,53755,WN2 4AX,53.537608699988300,-2.569101624715150
hognose snake and Flameback,832263,M28 1HU,53.501188271159800,-2.423947057378640
thorny devil and Lemming,2662066,BL6 6GQ,53.587428000000000,-2.528575000000000
Puffleg and Partridge,89214,WA3 2QJ,53.472413524795300,-2.565607248309330
Tahr and blind snake,1590978,BL2 2NT,53.593154580000000,-2.409351359000000
Chipmunk and rattlesnake,1564834,BL5 3BJ,53.556313470000000,-2.496547989000000
death adder and amphisbaena,1566254,BL3 5QL,53.569719890000000,-2.457052359000000
Komodo dragon and gaboon viper,51055,WN5 9XT,53.544606985461300,-2.676765786252830
fer-de-lance and wall lizard,54623,WN2 1AX,53.554538144172100,-2.606643043183690
sand lizard and python,505892,PR7 4HP,53.610828563093300,-2.605681489258550
slowworm and Linsang,52198,WN4 8WA,53.488204259476700,-2.625544457793590
leathery turtle and Jay,55200,WN1 2BL,53.554019530406000,-2.628734070760530
Warbler and Fulmarine petrel,96424,WA10 5QQ,53.462006000000000,-2.790464000000000
Schneider python and Ibex,88773,WA3 3WL,53.469694200153300,-2.597959975429220
chameleon and Black jay,831673,M28 3TP,53.519721265649300,-2.400860282313860
frilled lizard and hognose snake,825210,M38 9GT,53.532390178087800,-2.415417995358390
boa constrictor and Buzzard,52123,WN5 0EE,53.548120837593100,-2.676882235126360
whip snake and Cloud rat,505734,PR7 3QL,53.636370759209400,-2.652372147283360
Snipe and thorn lizard,80066,WA9 5WL,53.428999766059400,-2.746913053660660
Duck and harlequin snake,825522,M38 0BN,53.529695368429700,-2.427671432734490
Cuscus and jew lizard,53107,WN3 5QS,53.521825088881000,-2.650127623815040
massasauga and green turtle,831672,M28 3TL,53.518566569326700,-2.407183000000000
python and krait,49095,WN7 5NX,53.517370169796500,-2.531232117356170
dukite and diamond snake,1565762,BL4 0NX,53.546629160000000,-2.427631000000000
cayman and Rat,1566701,BL3 4EQ,53.563546730000000,-2.456563032000000
tuatara and Thicketbird,48431,WN8 7DN,53.592731580127800,-2.773126093548130
Solitaire and Badger,48231,WN8 8JD,53.552289976468100,-2.807452109166020
Philippine hawk-owl and mountain devil,51207,WN6 0GH,53.589562131339000,-2.669718994422040
deaf adder and Stilt,821083,M44 6QF,53.454103261458900,-2.412017814457940
Vulture and B,825209,M38 9GS,53.531994429892000,-2.418069360578170
bicycle lizard and Peafowl,1566640,BL3 4AD,53.566405200000000,-2.447006058000000
Fulmarine petrel and gavial,1563857,BL6 7BP,53.599407120000000,-2.545316955000000
cobra and python,825153,M38 0LN,53.523921452175700,-2.426089780885400
copperhead and cobra,1563369,BL7 0EW,53.637151090000000,-2.404423513000000
rat snake and Bunting,95745,WA11 0PY,53.471129840089700,-2.658270891124150
diamond snake and Shearwater,50346,WN6 8AH,53.575847615558100,-2.685253951769930
Chipmunk and Lemming,1564839,BL5 3BR,53.558514610000000,-2.526207397000000
Perching duck and giant tortoise,50195,WN7 1SR,53.507326611855800,-2.517672052618140
Grackle and Coati,1566594,BL3 5DT,53.574534660000000,-2.443527834000000
lizard and Buzzard,1592508,BL1 5DG,53.579310550000000,-2.479977198000000
Triller and Chickadee,80163,WA9 4ZF,53.433406531499400,-2.683622000000000
Jackal and Kite,1565754,BL4 0NN,53.550355000000000,-2.453629000000000
blind snake and Nukupuʻu,1563630,BL6 7SJ,53.635294180000000,-2.557757684000000
River dolphin and Guillemot,832315,M28 1NL,53.509933058997300,-2.431754703241530
habu and deaf adder,1566457,BL3 4SZ,53.558551690000000,-2.494355085000000
Gull and perentie,1564010,BL6 7JT,53.602861390000000,-2.552554743000000
Badger and Bunting,825048,M38 0DZ,53.532120000000000,-2.430985000000000
Myna and Logrunners,1591532,BL1 7TD,53.615503400000000,-2.441130604000000
Guillemot and saltwater crocodile,1592515,BL1 5DR,53.579578010000000,-2.491579774000000
Badger and Fox,821397,M44 6HP,53.453803424277200,-2.412948560282520
Rat and blue racer,1564949,BL5 2BF,53.529952880000000,-2.527437129000000
viper and American sparrow,505706,PR7 5LA,53.645591601075400,-2.678457812899530
Stint and Dorcopsis,1565285,BL5 1AF,53.552943330000000,-2.469731604000000
Linsang and Kestrel,88235,WA3 5JN,53.460555567896300,-2.499541179239750
hawksbill and Lemming,506621,PR6 9PB,53.621450057208700,-2.599090705679500
taipan and Schneider python,88853,WA3 2WQ,53.452777135348500,-2.639690663097550
Mockingbird and terrapin,1593390,BL1 1PJ,53.578601270000000,-2.422607191000000
Perching duck and Towhee,1563189,BL7 9HR,53.618099270000000,-2.429260376000000
copperhead and slowworm,95705,WA11 7SF,53.490705427256700,-2.753438000000000
agama and Darwin's finches,52937,WN3 5BL,53.539838000000000,-2.637121609087850
sidewinder and Pratincole,80609,WA9 3XQ,53.429156230350400,-2.718485596752160
Darwin's finches and diamondback,96200,WA10 6QT,53.468902838809500,-2.767830199549270
Tahr and Parrotlet,81119,WA9 2PR,53.449634961796400,-2.687526510885090
hognose snake and Vole,87867,WA3 7DH,53.441335233375000,-2.553180690361360
Hawaiian honeycreeper and hoop snake,80295,WA9 5HY,53.431782294478600,-2.747548856739210
Mouse and Viscacha,80933,WA9 1SA,53.452631629606000,-2.727902051635810
green turtle and Triller,53513,WN2 5XG,53.506414392146900,-2.588525648364130
Darwin's finches and Night heron,50423,WN7 1AT,53.497080512439200,-2.517486884815700
Fish eagle and Komodo dragon,53760,WN2 4BD,53.536857886798500,-2.570102476252660
Shearwater and soft-shelled turtle,1791315,M29 8FB,53.514025518600000,-2.475001501200000
whip snake and Rabbit,96994,WA10 3BW,53.438938887088900,-2.775494083246760
thorny devil and cerastes,1591914,BL1 7NQ,53.599492950000000,-2.472318304000000
Capuchin and Eagle,50037,WN7 1EN,53.498570172396600,-2.511791687889040
Fulmarine petrel and Prion,96153,WA10 6LN,53.464210284759600,-2.750935383609080
Civet and Tree warbler,1566698,BL3 4EL,53.563722050000000,-2.457727459000000
blindworm and glass snake,85714,WA5 4EH,53.444378850892600,-2.664903191797720
Skunk and Kangaroo,55109,WN1 1PW,53.548831893474600,-2.632385052380600
cayman and Ice seal,52176,WN4 8TJ,53.497369233030100,-2.621021398306740
Polecat and alligator,821108,M44 6TE,53.452592815807900,-2.406883317760040
thorny devil and Francolin,89313,WA3 1JA,53.466267301467800,-2.576476583356620
box turtle and Argus,96198,WA10 6QH,53.469463224982300,-2.747503000779750
diamondback turtle and Shearwater,49382,WN7 5DF,53.502866315745000,-2.534457934658110
Mink and diamondback terrapin,54230,WN2 1DH,53.558271915407800,-2.605941675544030
Pratincole and Buzzard,50670,WN6 7HZ,53.555305041965000,-2.642233008367460
Moluccan boobook and Polecat,54648,WN1 3BN,53.543757167173100,-2.617912639244750
Cloud rat and Thrasher,95731,WA11 0PF,53.470101322945000,-2.660590016009820
kabaragoya and boa,95619,WA11 8SW,53.508761535420000,-2.796219978435620
Flameback and Parakeet,1563191,BL7 9HT,53.617429900000000,-2.425413852000000
Fish eagle and indigo snake,506542,PR6 9EZ,53.628740524950800,-2.586204896076440
hognose snake and cerastes,89075,WA3 2HJ,53.480502837251400,-2.573234023314940
rattlesnake and Hawaiian honeycreeper,1592531,BL1 3QY,53.592199850000000,-2.435358163000000
Ibex and Francolin,48344,WN8 8QW,53.553323042091400,-2.792769744565340
blue racer and gaboon viper,50533,WN6 7AP,53.553011595825700,-2.644160516144490
worm lizard and Mamo,88764,WA3 3UW,53.484041232426000,-2.597709711247400
Bronzewing pigeon and kabaragoya,832574,M28 1AR,53.508928456760900,-2.431171507623010
tree snake and Macaw,52904,WN3 6JD,53.517234332582400,-2.672800000000000
deaf adder and snapping turtle,1754187,BL1 7QR,53.595582401661300,-2.493745258504610
Parrotbill and Coati,49076,WN7 5LY,53.509956276904600,-2.530867936306810
Wallaby and krait,88488,WA3 4JX,53.456436019636500,-2.519160979415880
cerastes and adder,1564332,BL6 4DJ,53.578861500000000,-2.501781306000000
habu and soft-shelled turtle,96155,WA10 6LQ,53.464073176235900,-2.752725432063610
Mamo and dukite,53814,WN2 4EX,53.530784698667400,-2.542413020699430
agamid and Masked owl,88647,WA3 3QD,53.472882209498700,-2.598547174520080
gecko and gecko,1562954,BL7 9UT,53.628750850000000,-2.434116558000000
Hawk and Civet,1593002,BL1 3PL,53.592491830000000,-2.441525291000000
Hawaiian honeycreeper and rat snake,1593294,BL1 1EJ,53.579105000000000,-2.425376000000000
diamond python and diamond snake,49592,WN7 4HA,53.491229575930200,-2.521485112216750
diamond snake and Jerboa,1564603,BL6 5AU,53.591778430000000,-2.579211634000000
cycling lizard and Eagle,1566028,BL3 6TP,53.566199000000000,-2.442384000000000
milk snake and Badger,54090,WN2 2EJ,53.541723943219000,-2.600634933086750
Grackle and agamid,1564780,BL5 3AJ,53.547997000000000,-2.522545000000000
flying lizard and bull snake,1591301,BL2 2BS,53.580943310000000,-2.418612895000000
diamond python and krait,50607,WN6 8PJ,53.559383177249500,-2.659233078282960
tiger snake and sand lizard,54890,WN1 2NA,53.555790000000000,-2.627205000000000
Tit-tyrant and Cuscus,821599,M44 5JT,53.435038926966700,-2.446889952182110
adder and Linsang,55051,WN1 1EA,53.543292000000000,-2.629646000000000
python and New World blackbird,48932,WN8 0PE,53.541715452225900,-2.728298180105030
Badger and boomslang,1566420,BL3 6PD,53.566776210000000,-2.431654306000000
Vole and Grouse,80002,WA9 5SH,53.435088746489700,-2.747772480075690
Crow and Gila monster,95797,WA11 0SR,53.467792962106600,-2.673162729409200
python and cobra de capello,96185,WA10 6PP,53.467277168200100,-2.750658125585900
kabaragoya and moloch,80748,WA9 3DJ,53.443926583630600,-2.715949000000000
cayman and Buzzard,48754,WN8 6RT,53.564134559449900,-2.777979325285960
Black cockatoo and Eagle,54443,WN1 3XH,53.557181826773300,-2.618712142281600
Tree warbler and whip snake,51319,WN5 9NY,53.537840593844800,-2.665205388123790
iguana and Hawaiian honeycreeper,1592324,BL1 5TX,53.594006650000000,-2.479947416000000
Mamo and tokay,505730,PR7 3QF,53.640928112646000,-2.635622824675120
garter snake and gavial,54266,WN2 1HR,53.555083240388400,-2.601941223450450
Warbler and saltwater crocodile,1592085,BL1 6LZ,53.596442920000000,-2.461571576000000
Stint and Mockingbird,1592617,BL1 5HE,53.581066000000000,-2.461239758000000
blue racer and Capuchin,94974,WA11 9UT,53.476257084723000,-2.659224158555170
elapid and deaf adder,1591389,BL1 8XD,53.595099250000000,-2.433937515000000
Minke whale and cobra de capello,1590016,BL3 2TQ,53.562905500000000,-2.433230318000000
Elephant and grass snake,51020,WN6 0YP,53.585495160403800,-2.684745401199900
grass snake and Jerboa,831578,M29 7EL,53.494731866849700,-2.472569649652130
Duck and Old World vulture,52038,WN4 9TE,53.494751699431800,-2.641784599720750
cayman and thorn lizard,94811,WA12 9QQ,53.454336000000000,-2.637576000000000
cycling lizard and green turtle,48393,WN8 9AZ,53.541659000000000,-2.760502135879420
dugite and saltwater crocodile,1779734,WN1 3SE,53.546972017342200,-2.626411369660220
sidewinder and viper,832365,M28 1XH,53.503041770716000,-2.420874916080990
Asiatic leopard and dugite,53944,WN2 3ES,53.531107859074200,-2.578911092437630
Maya and Cloud rat,1589810,BL3 2JH,53.560842460000000,-2.419425791000000
Gull and kabaragoya,53273,WN3 4PQ,53.531898174511600,-2.615039397139170
carpet snake and tree snake,96775,WA10 3SN,53.438987740453800,-2.762322803817930
coral snake and mamba,97380,WA10 1AA,53.450723000000000,-2.741738000000000
Badger and green turtle,832479,M28 0HY,53.522938860887100,-2.421826401120060
Kite and diamond python,52357,WN4 0QX,53.497339039735500,-2.673073048950530
Grouse and flying lizard,1566090,BL4 0AW,53.546751500000000,-2.421172862000000
amethystine python and Grouse,821055,M44 6NQ,53.447173192714100,-2.422279485883180
Mockingbird and copperhead,53045,WN3 4AF,53.543363945558500,-2.641147000000000
blindworm and blindworm,825520,M38 0AA,53.525120311651200,-2.430159458142910
Crow and bicycle lizard,95613,WA11 8SB,53.508292476267800,-2.796467518463310
caiman and saltwater crocodile,1566498,BL3 4WG,53.563118970000000,-2.464937643000000
swift and chameleon,89376,WA3 1LF,53.465934689352400,-2.568985632116080
Solitaire and Ground sloth,51129,WN5 8TQ,53.531085210354300,-2.709830869493090
Vole and grass snake,50893,WN6 0SG,53.591413969490800,-2.691790784816290
galliwasp and carpet snake,51428,WN5 8JF,53.534532256774400,-2.687543643599900
soft-shelled turtle and gopher snake,1565660,BL4 7TT,53.555906980000000,-2.406666875000000
iguana and viper,1563411,BL7 9SP,53.628976180000000,-2.441316552000000
Civet and gavial,1592414,BL1 5XP,53.579128880000000,-2.469130893000000
Diving bird and Philippine hawk-owl,53850,WN2 3AB,53.535002466855500,-2.578375814694290
frill-necked lizard and Songlark,95344,WA11 8DA,53.504512512563600,-2.790411010558700
swift and Schneider python,1774605,WA12 0HS,53.457602290575900,-2.599446969937430
tree snake and Skunk,96374,WA10 5LT,53.461347023098500,-2.782499588438480
Marsh harrier and sea snake,96468,WA10 6BQ,53.463046084562900,-2.767227419477330
Shearwater and Solitaire,821380,M44 6GA,53.449254000000000,-2.413579701413020
Mamo and Tattler,2612433,WN6 0ZJ,53.590141000000000,-2.680090000000000
Chipmunk and sand lizard,52603,WN3 6TG,53.521730915809400,-2.663987570177290
anaconda and snapping turtle,821589,M44 5JF,53.431374743921400,-2.436315825452870
Bunting and death adder,52893,WN3 6HQ,53.524037233743800,-2.667885142101330
boomslang and blind snake,505783,PR7 4BN,53.609635014373800,-2.631389106196840
Pheasant and Thicketbird,55061,WN1 1HB,53.546801654637600,-2.637124000000000
Minke whale and Pheasant,95840,WA11 0TY,53.461903235711400,-2.700120755439820
dugite and boa,54185,WN2 2NG,53.545428158362500,-2.596854156525710
elapid and dukite,85719,WA5 4EU,53.437840063261400,-2.662392527733160
king cobra and soft-shelled turtle,94492,WA12 9XY,53.447193046182300,-2.653368549069350
rock python and Mink,50529,WN6 7AH,53.552618380177600,-2.647067701923270
Grackle and Kestrel,51784,WN5 0LN,53.554253937344400,-2.695169281045650
White ibis and carpet snake,53702,WN2 5AE,53.522189070106400,-2.601203111690780
Lemming and king cobra,54972,WN1 2RZ,53.571931447683200,-2.635931198514280
Parrotlet and chuckwalla,51580,WN5 7LB,53.499438608258300,-2.700150000000000
copperhead and Fox,831537,M29 7BE,53.503468264575800,-2.458841715136530
coral snake and bicycle lizard,81288,WA9 1HZ,53.461063855895300,-2.720484000000000
thorny devil and Darwin's finches,1592786,BL1 4JA,53.585116480000000,-2.450073629000000
New World blackbird and tortoise,1564380,BL6 4HR,53.562357460000000,-2.499955341000000
chameleon and Parakeet,2633127,WA3 3YJ,53.482241000000000,-2.588913000000000
Herring gull and Hawk,1563749,BL6 6RB,53.597081350000000,-2.520612606000000
agamid and viper,1591729,BL1 7AD,53.604221290000000,-2.431764218000000
Pitohui and Old World vulture,1593061,BL1 2HL,53.585952430000000,-2.430535587000000
Fulmarine petrel and tokay,1566160,BL3 5NP,53.571107060000000,-2.449154645000000
Cloud rat and Piping shrike,52806,WN3 6BW,53.527548747871000,-2.668423133103890
mud turtle and Wallaby,53887,WN2 4GJ,53.526237000000000,-2.540648132064690
Mink and horned viper,53677,WN2 3UG,53.525241037945600,-2.596645628880330
Piping shrike and cerastes,80023,WA9 5TX,53.429693000000000,-2.759692119767200
dukite and Moluccan boobook,1592845,BL1 3DL,53.587993520000000,-2.440209425000000
glass snake and asp,88582,WA3 5BP,53.425085241231800,-2.457259422047380
Moluccan boobook and Petrel,49529,WN7 2TB,53.496224619942200,-2.498935497798190
viper and Eagle,942763,L40 2RN,53.627501000000000,-2.771539000000000
king snake and pit viper,1564652,BL5 3TL,53.550353820000000,-2.526045732000000
Mouse and Moluccan boobook,49750,WN7 3DN,53.487072490252700,-2.499370579952260
Triller and Tit-tyrant,505566,PR7 5BA,53.621743234747000,-2.660113000000000
Kangaroo and horned toad,50087,WN7 1LD,53.501206767783700,-2.511099823134230
puff adder and diamond python,54945,WN1 2QR,53.560303374495700,-2.637191000000000
gecko and chuckwalla,505349,PR7 5RL,53.649759000000000,-2.707073000000000
Rat and Fulmarine petrel,80224,WA9 5EL,53.434148660013300,-2.751473859716070
Recurvebill and Herring gull,825294,M38 9NZ,53.530553004059500,-2.413846138525630
Tree warbler and constrictor,50638,WN6 7EG,53.551313908933000,-2.642278207018110
tuatara and Skunk,2537012,WA12 9NQ,53.452250000000000,-2.660372000000000
New World blackbird and Rabbit,96048,WA11 0GD,53.471647964474900,-2.662105513299670
snake and Mink,54551,WN1 9HL,53.546965930396300,-2.635088890409610
Black jay and Hawaiian honeycreeper,53320,WN3 4SQ,53.535874022978700,-2.610962895314020
Triller and Grouse,80569,WA9 3UL,53.433625902159700,-2.719599594158700
Fulmarine petrel and kabaragoya,51007,WN6 0XR,53.590487212014500,-2.655245437586550
blindworm and Kite,1592695,BL1 4BY,53.581558330000000,-2.447121000000000
Siskin and Vole,2612872,WA3 2SX,53.470409000000000,-2.584110000000000
hoop snake and Skunk,53208,WN3 4NE,53.534668293574100,-2.618202706535410
American sparrow and Cuscus,1563604,BL6 7RZ,53.617309010000000,-2.559576401000000
Peafowl and Gull,1590942,BL2 2JX,53.594040140000000,-2.410598836000000
bearded dragon and blue racer,95116,WA12 0HD,53.463283000000000,-2.643647203582920
tokay and blue tongue,88468,WA3 4HR,53.463403109798300,-2.539233739374410
Schneider python and Logrunners,1589634,BL3 3JD,53.560362030000000,-2.452573383000000
Wader and Masked owl,81188,WA9 1BH,53.452356308360200,-2.716949747966310
Puffleg and sidewinder,52527,WN3 6LX,53.518173728867700,-2.661956205761220
anole and adder,821094,M44 6RH,53.441009634790100,-2.416422408896970
krait and Argus,1564782,BL5 3AN,53.548928310000000,-2.521107831000000
diamond python and fer-de-lance,80761,WA9 3EH,53.445258640278500,-2.720865220864400
New World blackbird and blue racer,506234,PR6 9QX,53.617087462993000,-2.597940483872400
Petrel and Macaw,53519,WN2 5XQ,53.506223342992700,-2.588990405079080
Snipe and fer-de-lance,96695,WA10 5DF,53.457859033474400,-2.778429319241140
blind snake and sand lizard,1564963,BL5 2BY,53.545752100000000,-2.544038153000000
lizard and moloch,1565038,BL5 2ES,53.540283760000000,-2.522631290000000
terrapin and bull snake,50647,WN6 7EW,53.551859260506600,-2.651131449681200
Tree warbler and Duck,96899,WA10 4DR,53.458015021417900,-2.765419779832850
Chickadee and American sparrow,505665,PR7 3PP,53.638980899108500,-2.645091978992290
taipan and Lemming,1754364,BL4 9SQ,53.542718173044300,-2.416741788675420
Logrunners and diamondback terrapin,1564189,BL6 5HT,53.595975190000000,-2.564340890000000
dukite and Siskin,505813,PR7 4ED,53.610587346281500,-2.615956052814450
Zebra and Quetzal,54416,WN2 1XE,53.568451262885700,-2.581520045074930
Gila monster and agamid,49874,WN7 2BW,53.493269934352300,-2.498207000000000
puff adder and Wallaby,80756,WA9 3DZ,53.442772236180800,-2.711624000000000
Jackal and Tahr,80500,WA9 4SZ,53.428106210156000,-2.684545190853170
constrictor and Greenbul,89199,WA3 2PR,53.471600602068900,-2.573972724578290
American sparrow and cobra,52791,WN3 6BA,53.528663857810900,-2.681067345844370
Ibex and Komodo dragon,825180,M38 9EA,53.531161719156800,-2.424804731043490
agamid and Puffleg,50420,WN7 1AL,53.496459690492700,-2.515549844877630
asp and Coati,54928,WN1 2PQ,53.560308829086500,-2.630940916788240
viper and Macaw,1563963,BL6 6AL,53.603761990000000,-2.532346326000000
Armadillo and Treepie,821576,M44 5HQ,53.428029073409000,-2.448953453551160
skink and diamondback turtle,95313,WA11 9NU,53.464835789823100,-2.728306704072950
gaboon viper and Fox,49698,WN7 3AL,53.488763591317500,-2.503354206094180
anole and leguaan,54380,WN2 1RY,53.568107000000000,-2.591630491875940
Treepie and Treepie,831544,M29 7BQ,53.502143319584200,-2.447957592593150
Logrunners and Buzzard,1780257,WN7 4BF,53.493146000000000,-2.555181000000000
krait and goanna,96353,WA10 5JE,53.457136070574000,-2.784515529645870
Pratincole and Dorcopsis,831609,M29 7GA,53.506006729189300,-2.457874036575380
brown snake and sea snake,53784,WN2 4DJ,53.537846276597400,-2.562586461795150
Kangaroo and Argus,52901,WN3 6HZ,53.524786250627900,-2.667353897448630
skink and skink,1566163,BL3 5NS,53.572455490000000,-2.449108539000000
Rabbit and Gull,50851,WN6 0QA,53.603255040683600,-2.673790000000000
Dolphin and Stilt,2654039,L40 3AE,53.625348000000000,-2.766342000000000
boa and Rat,1565176,BL4 9QN,53.543342950000000,-2.400827022000000
anaconda and Pratincole,819988,M46 9NS,53.535203749757400,-2.491201181854950
Booted eagles and viper,50937,WN5 9RH,53.542620294421300,-2.667211941716610
Peafowl and skink,51402,WN5 9PQ,53.538037796928100,-2.660440381086070
Bronzewing pigeon and Tree warbler,1591834,BL1 7ES,53.607616730000000,-2.432358073000000
Hawk and king snake,49308,WN7 4TF,53.495589002792400,-2.539702483498010
Rat and chuckwalla,2587767,L34 2AB,53.426502000000000,-2.793943000000000
Grouse and caiman,54345,WN2 1PS,53.563192316892300,-2.570471778794040
Stilt and cobra de capello,505827,PR7 2NN,53.639696728073200,-2.645692786910270
cayman and Hawk,1592199,BL1 6QZ,53.605159040000000,-2.448065247000000
king snake and deaf adder,49486,WN7 3RX,53.475631543345200,-2.522152560401370
carpet snake and cobra de capello,821343,M44 6DY,53.450193913869500,-2.419568982886420
cerastes and taipan,49409,WN7 5ET,53.505224267393400,-2.538136000000000
terrapin and fer-de-lance,820171,M46 0SG,53.529689643074000,-2.494395878772730
dugite and mud turtle,1591253,BL2 1LW,53.573420560000000,-2.413298379000000
Marsh harrier and Chipmunk,1591199,BL2 3BJ,53.598149800000000,-2.410019194000000
leguaan and turtle,48900,WN8 0NR,53.540924546461000,-2.725326958390420
bearded lizard and whip snake,1566298,BL3 6BA,53.571477360000000,-2.425994000000000
Perching duck and wall lizard,89188,WA3 2NZ,53.469134784373000,-2.570836176207290
Mink and giant tortoise,94658,WA12 9ET,53.457218088603800,-2.652874902154520
Vulture and green turtle,1591684,BL1 8LQ,53.595313240000000,-2.429437182000000
Boto and Mamo,96526,WA10 4HJ,53.453033728533500,-2.755782856782360
Viscacha and Warbler,505696,PR7 5JN,53.632440977861500,-2.704998640224420
Herring gull and Skunk,1591560,BL1 8BJ,53.596107400000000,-2.445763434000000
slowworm and Francolin,48032,WN8 9JU,53.541331755312000,-2.772249277598530
Pratincole and habu,55123,WN1 1RU,53.550640239308000,-2.637151344712620
