name,postcode,lat,lon
Pheasant and galliwasp,SY10 0NY,52.810369605122500,-3.356695562271830
loggerhead and Magpie,SY10 8NF,52.809678705766500,-3.147884377359100
Peafowl and perentie,SY10 9HG,52.818872841979300,-3.094883897935560
Piping shrike and Peafowl,SY10 9HN,52.813977922563900,-3.122299153033850
kabaragoya and Kite,SY10 9LH,52.805259668790200,-3.212550546424380
Schneider python and moloch,SY10 9LN,52.786465838938200,-3.239964257953730
bandy-bandy and Tit-tyrant,SY10 9LT,52.810599271552600,-3.208188884244890
puff adder and horned toad,SY21 0BP,52.645717326509700,-3.325356980284200
Crow and Booted eagles,SY21 0BS,52.643884000000000,-3.333416000000000
Dolphin and Duck,SY21 0DG,52.630328516869000,-3.321094496778540
tuatara and turtle,SY21 0DL,52.636076122249500,-3.348768607447780
tokay and B,SY21 0EZ,52.663118929845600,-3.403735305137300
Gila monster and Jerboa,SY21 0HD,52.654778750985800,-3.381307002478850
Mockingbird and Minke whale,SY21 0HT,52.665047000000000,-3.354792000000000
Capuchin and Condor,SY21 0LP,52.678609166317200,-3.363716904994580
Stint and Partridge,SY21 0LQ,52.704794548725600,-3.384173943407710
Armadillo and anaconda,SY21 0QD,52.722226497373100,-3.438563270834400
Schneider python and goanna,SY21 0QY,52.648132865174000,-3.327218602423240
Towhee and tree snake,SY21 0RW,52.647806612133100,-3.324237652539790
River dolphin and sand viper,SY21 7AB,52.659309292931200,-3.146216918479760
Shearwater and bandy-bandy,SY21 7DA,52.657971981122200,-3.144126867348220
bearded lizard and diamondback,SY21 7DQ,52.659752000000000,-3.146098466468720
king snake and caiman,SY21 7EL,52.662198566716000,-3.142137653459440
Warbler and swift,SY21 7HH,52.663923433680900,-3.138530342288890
sand lizard and brown snake,SY21 7JF,52.660422115200800,-3.149203124661810
diamond snake and Polecat,SY21 7JU,52.660906350054400,-3.151182313843200
Civet and boa constrictor,SY21 7LE,52.660628625393200,-3.147375140256700
Gull and Chipmunk,SY21 7NZ,52.661828631733800,-3.158939588196840
bearded dragon and rock snake,SY21 7PX,52.664255001270400,-3.147842000000000
milk snake and horned toad,SY21 7QE,52.666216000000000,-3.141473000000000
goanna and Darwin's finches,SY21 7QF,52.665669465873800,-3.143928698110930
brown snake and Moluccan boobook,SY21 7QS,52.664293036403100,-3.143094263187970
leguaan and taipan,SY21 7RA,52.665510597615500,-3.139737000000000
milk snake and American sparrow,SY21 7TB,52.655187299840500,-3.149464965611510
Old World quail and Badger,SY21 7TE,52.657518314813700,-3.149200870072820
Black cockatoo and Grouse,SY21 7UE,52.653664234409500,-3.148922379884540
Moluccan boobook and hawksbill,SY21 7UJ,52.655056567697900,-3.147184857730260
rat snake and Treepie,SY21 8AZ,52.606053000000000,-3.208531000000000
rat snake and monitor,SY21 8BE,52.606063186363500,-3.232749583438260
New World blackbird and Crow,SY21 8JG,52.638500416630200,-3.115732497923610
Old World vulture and giant tortoise,SY21 8LE,52.626382663595600,-3.107003068424200
rat snake and jew lizard,SY21 8LH,52.614021725691100,-3.123174218641040
Guillemot and ringhals,SY21 8RN,52.632670797253800,-3.192715303515460
agama and Cuscus,SY21 8RQ,52.642296252225700,-3.166847294478940
mud turtle and galliwasp,SY21 8SD,52.637501444278700,-3.164414344423410
Fox and diamond python,SY21 9AJ,52.640051208818100,-3.239188082107380
king cobra and Petrel,SY21 9AX,52.626894521756300,-3.258318333112560
Condor and boa constrictor,SY21 9BU,52.682480291768800,-3.165225998805680
cycling lizard and python,SY21 9DG,52.701504000000000,-3.201281000000000
Capuchin and bearded dragon,SY21 9DH,52.707989768183500,-3.168421908792210
agamid and Solitaire,SY21 9DU,52.704241000000000,-3.165820000000000
caiman and Stint,SY21 9HW,52.669616000000000,-3.136569864303530
Duck and Old World quail,SY21 9JP,52.672323647997100,-3.124994593911370
Solitaire and thorn lizard,SY21 9LF,52.720470480318400,-3.095674513515350
fer-de-lance and saltwater crocodile,SY21 9NT,52.693883664884500,-3.167571645330190
hoop snake and frilled lizard,SY21 9NU,52.694370569540500,-3.164684441925810
Parrotlet and Condor,SY22 5AS,52.765957118061400,-3.271602939378340
Skunk and Flameback,SY22 5BN,52.765632230292700,-3.274231651805820
amethystine python and Petrel,SY22 5HE,52.798076385163200,-3.294226000000000
massasauga and Hawk,SY22 5HS,52.772270886623400,-3.283038004355780
soft-shelled turtle and Thicketbird,SY22 5LA,52.759579352149400,-3.267756778233880
Jackal and Logrunners,SY22 5LX,52.755099570620200,-3.236509651034520
Old World warbler and Quetzal,SY22 6BD,52.777234790976300,-3.159809515553840
Asiatic leopard and Lemming,SY22 6DN,52.726849988885000,-3.256426560017790
massasauga and Ground sloth,SY22 6DS,52.730030800991500,-3.278450376578380
Cloud rat and Pratincole,SY22 6HX,52.700944327806700,-3.305955550923880
garter snake and galliwasp,SY22 6JE,52.704159523470000,-3.308700841523840
fer-de-lance and Darwin's finches,SY22 6JR,52.708783120543100,-3.339849494855970
grass snake and loggerhead,SY22 6LE,52.783362000000000,-3.119124000000000
sea snake and Prion,SY22 6LJ,52.779713698066900,-3.098674478105780
Dorcopsis and Mink,SY22 6QP,52.721310665364600,-3.147501719458490
horned viper and Stilt,SY22 6RY,52.732468716386800,-3.099929595048290
Boto and Dorcopsis,SY22 6SX,52.770156551099300,-3.140663242990770
Recurvebill and grass snake,SY22 6TD,52.753444815774800,-3.146569000000000
Darwin's finches and B,SY22 6TJ,52.758366000000000,-3.159841000000000
krait and Cloud rat,SY22 6TY,52.736627086333800,-3.096479626936230
Wader and amethystine python,SY22 6XQ,52.787397554300200,-3.190255806375380
