name,postcode,lat,lon
New Inn Hotel,SY10 0EX,52.824676983461200,-3.406533840534200
Lake Vyrnwy Hotel,SY10 0LY,52.766308000000000,-3.452520900736040
Artisans coffee shop ,SY10 0NA,52.760951458464800,-3.458868222824090
The Oak Treflach ltd,SY10 9HE,52.822660000000000,-3.099594000000000
The Green Inn,SY10 9JW,52.810652537232500,-3.204718632489420
Gwernydd Arms,SY16 3NW,52.610517453438600,-3.352620325430010
Cann Office Hotel,SY21 0PL,52.686554113993900,-3.464331000000000
The Goat Hotel ,SY21 0QS,52.648031399140100,-3.328250235489550
The Royal Oak Hotel,SY21 7DG,52.659728147712600,-3.146597508505580
Raven Inn,SY21 7LT,52.659944000000000,-3.157810000000000
Coco Coffee House Ltd,SY21 7RR,52.660077608357700,-3.148573103001210
Costa Coffee ,SY21 7RZ,52.660307000000000,-3.148165000000000
The Horseshoes Inn,SY21 8AW,52.614123000000000,-3.187529000000000
Howards Restaurant,SY21 8RP,52.645545720335700,-3.151739525400290
Remoteworld Ltd T/AS The Fuel Stop Cafe,SY21 8SG,52.623759139722900,-3.161286916077270
Green dragon inn,SY21 8SS,52.672385000000000,-3.110000000000000
Derwen Garden Centre Ltd,SY21 9PH,52.687775676764200,-3.150483544607080
The Old New Inn,SY22 5AA,52.766781808124100,-3.274339330758950
Something Tasty,SY22 5BX,52.765943209851700,-3.273736807330520
The Stumble Inn,SY22 5LL,52.749001171611400,-3.220321355968090
The Station Grill Restaurant,SY22 6AD,52.774622006507000,-3.152090800011880
The Bradford Arms Hotel,SY22 6EJ,52.780287473616500,-3.088118022874240
plas yn dinas,SY22 6UJ,52.775773282831500,-3.203636490286620
