name,postcode,lat,lon
Artisans coffee shop ,SY10 0NA,52.76096100000000,-3.45888300000000
Llanymynech Golf Club Trading Company Limited,SY10 8LB,52.78086090087890,-3.08874988555908
The Oak Treflach ltd,SY10 9HE,52.82246398925780,-3.09939599037170
Penybont Inn,SY10 9JQ,52.8075,-3.1662
Gwernydd Arms,SY16 3NW,52.61052700000000,-3.35263400000000
Cann Office Hotel,SY21 0PL,52.68664169311523,-3.46349024772644
The Goat Hotel ,SY21 0QS,52.64804100000000,-3.32826400000000
Black Lion,SY21 0RR,52.6486,-3.3243
The Royal Oak Hotel,SY21 7DG,52.65973700000000,-3.14661200000000
The Bay Tree Tea Rooms,SY21 7DL,52.6599,-3.1471
The Monkey Puzzle ,SY21 7LE,52.66063800000000,-3.14738900000000
Raven Inn,SY21 7LT,52.65982800000000,-3.15765900000000
Coco Coffee House Ltd,SY21 7RR,52.6601,-3.1486
Costa Coffee ,SY21 7RZ,52.66046100000000,-3.14800600000000
Costa Coffee,SY21 7RZ,52.66046100000000,-3.14800600000000
Spice UK,SY21 7SQ,52.65903700000000,-3.14742100000000
The Horseshoes Inn,SY21 8AW,52.61368942260742,-3.19026350975037
Howards Restaurant,SY21 8RP,52.64418200000000,-3.15244200000000
Remoteworld Ltd T/AS The Fuel Stop Cafe,SY21 8SG,52.62376785278320,-3.16130089759827
Welshpool Livestock Sales,SY21 8SR,52.6727,-3.1187
Green dragon inn,SY21 8SS,52.67228698730469,-3.10323762893677
Derwen Garden Centre Ltd,SY21 9PH,52.68778610229492,-3.15049767494202
The Old New Inn,SY22 5AA,52.76679100000000,-3.27435400000000
Something Tasty,SY22 5BX,52.7659,-3.2737
The Station Grill Restaurant,SY22 6AD,52.77463150024414,-3.15210509300232
The Kings Head Hotel,SY22 6BY,52.71056365966797,-3.25286388397217
The Bradford Arms Hotel,SY22 6EJ,52.78027000000000,-3.08810200000000
BENGAL SPICES,SY22 6ER,52.78088500000000,-3.08963000000000
plas yn dinas,SY22 6UJ,52.77578353881840,-3.20365095138550
