name,postcode,lat,lon
Chickadee and brown snake,SY10 0AD,52.817984053447100,-3.283879000000000
water snake and Kestrel,SY10 0AN,52.801665972118700,-3.324176342189480
Fulmarine petrel and king snake,SY10 0HZ,52.801313553150400,-3.368695758418470
Marsh harrier and Mamo,SY10 0LJ,52.824758423577300,-3.303343616369500
flying lizard and Egret,SY10 0NS,52.810113872892900,-3.353898336813010
Dolphin and Guillemot,SY10 9HU,52.816927115079200,-3.089448636516720
Kākāriki and smooth snake,SY10 9LR,52.798858000000000,-3.185125000000000
Ice seal and hoop snake,SY16 3NH,52.602362781561500,-3.328831776804220
Crow and gavial,SY21 0AA,52.626560604659300,-3.367904183817480
deaf adder and Warbler,SY21 0AW,52.610506584958900,-3.479101841025540
bushmaster and iguana,SY21 0BA,52.633870415500300,-3.445814236898270
asp and Parrotlet,SY21 0BH,52.648285235365300,-3.319402000000000
python and swift,SY21 0DH,52.622611533793800,-3.352446649947750
Tit-tyrant and Nukupuʻu,SY21 0DN,52.632007650292500,-3.365665592413770
Coati and Nukupuʻu,SY21 0EE,52.655277000000000,-3.350675000000000
anole and agama,SY21 0HA,52.657606726124600,-3.412148678403500
Old World warbler and Egret,SY21 0JA,52.668496247856500,-3.430704566481240
Stint and Philippine hawk-owl,SY21 0PZ,52.703301107385600,-3.451157404481610
frill-necked lizard and Condor,SY21 0QJ,52.700245001344000,-3.436566000000000
amethystine python and saltwater crocodile,SY21 0RQ,52.647831986001500,-3.325291000000000
perentie and Egret,SY21 0RS,52.649398419760200,-3.324995291172720
rat snake and Armadillo,SY21 0SB,52.649028159041900,-3.328354357549530
hognose snake and alligator,SY21 7BN,52.659760790958000,-3.139486680274030
Elephant and bearded lizard,SY21 7HD,52.663086948681300,-3.137636205240240
racer and Night heron,SY21 7LF,52.661638402050600,-3.152635780961060
Ground sloth and Mouse,SY21 7NA,52.661602000000000,-3.157425000000000
Partridge and green turtle,SY21 7QX,52.664840972666400,-3.140343411210330
Tattler and Mouse,SY21 7RA,52.665510597615500,-3.139737000000000
Piping shrike and Black jay,SY21 8AT,52.620797050409800,-3.225940004261860
Thrasher and Lemming,SY21 8AW,52.614123000000000,-3.187529000000000
Perching duck and habu,SY21 8HG,52.656751300761300,-3.113728305313490
Cuscus and Mole,SY21 8HU,52.635593606866200,-3.102492000000000
amphisbaena and gavial,SY21 8LP,52.628424200083500,-3.120307416081350
Myna and tortoise,SY21 8PN,52.601522767380700,-3.203061168965990
Boto and Polecat,SY21 8SL,52.670317653718600,-3.126066999118930
rat snake and chuckwalla,SY21 9AU,52.627863993757800,-3.235401204912310
viper and Thrasher,SY21 9AW,52.643792255331100,-3.228726190504090
skink and Goose,SY21 9AY,52.622753367995400,-3.272307649095460
soft-shelled turtle and gopher snake,SY21 9DA,52.687529491315900,-3.198012205960770
Petrel and Hawaiian honeycreeper,SY21 9ED,52.657287151733400,-3.310064857529190
Old World vulture and king cobra,SY21 9EN,52.664031251977400,-3.291102792889240
black snake and Ground sloth,SY21 9EU,52.654909747875000,-3.258176654827830
Fox and krait,SY21 9LE,52.730622469050600,-3.096402974616530
Shearwater and Schneider python,SY21 9PG,52.661039000000000,-3.166208000000000
Flameback and Myna,SY21 9PZ,52.693674301193100,-3.130751945312820
sand viper and Kestrel,SY22 5AT,52.765871942340500,-3.272000632755800
Fox and Recurvebill,SY22 5DD,52.763171000000000,-3.264796422870050
Mink and bushmaster,SY22 5EN,52.756481698102800,-3.297317916141620
Schneider python and gecko,SY22 5JD,52.742696488648800,-3.363317480214940
Badger and Pitohui,SY22 5LG,52.763742617323700,-3.230114939508140
diamond python and monitor,SY22 6BH,52.775785000000000,-3.157027000000000
Armadillo and box turtle,SY22 6BQ,52.776628111905200,-3.158414677011340
Macaw and amphisbaena,SY22 6BU,52.711096555695200,-3.249875093472100
frill-necked lizard and Linsang,SY22 6DL,52.723021523952100,-3.263068375758000
kabaragoya and tokay,SY22 6LJ,52.779713698066900,-3.098674478105780
River dolphin and Grouse,SY22 6PF,52.775697000000000,-3.103450000000000
Buzzard and Bunting,SY22 6PG,52.768155597953600,-3.105127357557250
Flameback and amphisbaena,SY22 6PL,52.759608735502900,-3.097101349501060
Black cockatoo and sand viper,SY22 6PP,52.759802318182500,-3.090734044790520
cycling lizard and boa constrictor,SY22 6TY,52.736627086333800,-3.096479626936230
Partridge and indigo snake,SY22 6UU,52.773601362749700,-3.201501224918580
Tree warbler and Tahr,SY22 6UZ,52.766332000000000,-3.188807000000000
