name,id,postcode,lat,lon
saltwater crocodile and Linsang,646723,NR5 9PP,52.647717572928200,1.322937921719450
amethystine python and bandy-bandy,663256,NR13 4DJ,52.659489822750200,1.435755986284870
diamondback turtle and Schneider python,652037,NR31 0AP,52.607817817270300,1.716425207783130
Black cockatoo and king cobra,662753,NR13 5LA,52.620909072132200,1.440282814269250
rattlesnake and Recurvebill,663289,NR13 4HB,52.606520691226500,1.507304671243090
hognose snake and coral snake,654889,NR28 9PE,52.799886540840800,1.465653126111840
leguaan and Buzzard,645419,NR7 9HP,52.649470000000000,1.345419895618080
Booted eagles and Capuchin,666095,NR1 4NY,52.633194082730100,1.315834893953380
smooth snake and monitor,654852,NR28 0JQ,52.816553874342100,1.366006682611170
garter snake and diamondback turtle,653847,NR29 5BG,52.746118000000000,1.536390000000000
habu and ringhals,662965,NR13 4QS,52.651439149782900,1.447857244798440
Magpie and Argus,662873,NR13 5QQ,52.628892651580100,1.430474177606500
Masked owl and Meadowlark,645138,NR7 9UZ,52.641575168765700,1.334122409593360
Kestrel and constrictor,663705,NR12 9SY,52.774005274934500,1.536783604619550
viper and massasauga,645533,NR7 0RG,52.628944000000000,1.353396000000000
anole and Boto,652300,NR30 5RN,52.651093000000000,1.720473233236870
Maya and blind snake,654053,NR29 4HY,52.693993000000000,1.699603000000000
box turtle and Greenbul,654010,NR29 5JS,52.695778149179500,1.581243661662010
tiger snake and Boto,662006,NR14 8SX,52.612773820702900,1.316639756603400
tiger snake and amethystine python,654690,NR29 3ED,52.646078785253900,1.652949113977560
jew lizard and Herring gull,663657,NR12 9QF,52.764530156420900,1.529387103329620
chuckwalla and Meadowlark,654897,NR28 9PQ,52.794536000000000,1.455860094750410
Scimitar babbler and Stint,666428,NR1 1RP,52.647710000000000,1.322937000000000
blindworm and Myna,666113,NR1 4PY,52.633397863503900,1.322679630581650
flying dragon and sand viper,663026,NR13 4RR,52.649561056488900,1.442237782867000
box turtle and Jackal,652121,NR31 0HT,52.606408546787600,1.720339228125950
Goose and gopher snake,654180,NR29 4NY,52.692663030598800,1.689734569105560
Triller and Puffleg,654702,NR29 3ET,52.639619357378400,1.596905797016830
goanna and horned toad,663784,NR12 8TN,52.706157986906900,1.404274000000000
Ibex and Snipe,654621,NR29 3DF,52.660804557038200,1.623335497808150
bearded dragon and sand viper,654317,NR29 4UF,52.706121729322900,1.634674253901240
Mamo and B,645975,NR7 0NB,52.639841000000000,1.353874839374400
sand lizard and Kangaroo,663361,NR13 3EG,52.643074474980100,1.544091724438490
Herring gull and harlequin snake,654167,NR29 4NG,52.700089252130500,1.674800294422840
bicycle lizard and green turtle,663882,NR12 9AU,52.771423000000000,1.515970859495960
Logrunners and king cobra,663813,NR13 3AP,52.614182318777800,1.541474812729470
garter snake and flying lizard,645294,NR7 8RY,52.660034000000000,1.332747000000000
racer and galliwasp,662783,NR13 6SX,52.675693935954800,1.372620000000000
gaboon viper and Mamo,662938,NR13 4PF,52.617580763239300,1.467418662705420
bearded dragon and Bronzewing pigeon,663766,NR12 8SF,52.707456852505000,1.399516453117280
Viscacha and Schneider python,663691,NR12 9SA,52.760359968669200,1.539235055607760
Tattler and viper,666524,NR1 3FY,52.647717572928200,1.322937921719450
king cobra and Nukupuʻu,662771,NR13 6SG,52.664570841189200,1.375963000000000
python and Stilt,645749,NR7 0BH,52.627545174279200,1.326123052671600
Hawk and fer-de-lance,646023,NR7 0QU,52.628162178009300,1.350483597509180
Piping shrike and Prion,663041,NR13 4SQ,52.649851160954700,1.427467000000000
swift and Thrasher,664244,NR12 0YP,52.748547839654100,1.571996954428220
Moluccan boobook and Gull,663096,NR13 5BG,52.649332152950600,1.366698515243720
skink and Wallaby,654915,NR28 9QN,52.798428550458600,1.444703623679970
rock python and Solitaire,665827,NR1 3XN,52.647717572928200,1.322937921719450
cerastes and tokay,654754,NR28 9HB,52.817804830308300,1.395941808240290
Jackal and constrictor,654912,NR28 9QH,52.814901781058400,1.438006205793970
Kangaroo and Thicketbird,652765,NR30 1SE,52.613417082618600,1.721848000000000
boomslang and Fulmarine petrel,664239,NR12 0YE,52.752091402890300,1.568121765004440
Old World warbler and asp,654164,NR29 4NB,52.694881356679300,1.657663121959340
smooth snake and box turtle,653080,NR30 1JQ,52.610113000000000,1.721219975706530
Ground sloth and carpet snake,663570,NR12 9JT,52.789364956408100,1.485852996793580
Tattler and box turtle,645657,NR7 0UB,52.641433518063200,1.359807772308600
deaf adder and pit viper,645652,NR7 0TW,52.634475000000000,1.362275000000000
Siskin and American sparrow,663635,NR12 9PD,52.770559576504700,1.519228000000000
monitor and Kite,2636257,NR28 8AY,52.820806000000000,1.388891000000000
Herring gull and Kangaroo,666514,NR1 3FH,52.647717572928200,1.322937921719450
worm lizard and Chicken,2616936,NR12 9FT,52.770342000000000,1.517302000000000
frilled lizard and amphisbaena,662967,NR13 4QU,52.650681191593800,1.449793996961150
Marsh harrier and horned viper,665922,NR10 3QY,52.683964816446000,1.323160572886940
ringhals and tokay,663283,NR13 4EZ,52.612540531727900,1.510676000000000
thorny devil and chameleon,645410,NR7 9HA,52.642813339081100,1.342200734075630
tokay and Thicketbird,666014,NR1 4NB,52.638948165633700,1.324238957694370
Tit-tyrant and White ibis,652101,NR31 0EX,52.600604679975400,1.718694586907010
blind snake and Stint,666107,NR1 4PR,52.634719480590200,1.323977240945050
Komodo dragon and box turtle,663111,NR13 5DB,52.645749013063100,1.393911135073280
anaconda and kabaragoya,663848,NR12 8XW,52.729058022690100,1.466620884476410
sand viper and Masked owl,663850,NR12 8XY,52.718816084584600,1.480041885442960
Towhee and Grackle,663316,NR13 4JL,52.634310203598000,1.446154270159180
Triller and Kākāriki,652062,NR31 0BX,52.607355253719500,1.715115355238590
sea snake and Stilt,664087,NR12 8JG,52.703444894517100,1.433506000000000
tuatara and agamid,2616935,NR13 3FA,52.640445000000000,1.544226000000000
Quetzal and skink,654914,NR28 9QL,52.801246000000000,1.432877000000000
Crow and amethystine python,662946,NR13 4PT,52.651007794233400,1.462020302873560
Eagle and Macaw,1798215,NR12 7WF,52.647716558100000,1.322937815200000
bearded lizard and blue tongue,664520,NR12 0PL,52.824697000000000,1.530711366663390
Cuscus and harlequin snake,662775,NR13 6SN,52.665246241864100,1.377922733007250
Flameback and Thrasher,645282,NR7 8RG,52.663605338655800,1.317309980108670
perentie and agama,654711,NR29 3HD,52.661431000000000,1.657396000000000
Gila monster and sea snake,1798876,NR7 8DW,52.662225000000000,1.337352000000000
Gila monster and flying dragon,663333,NR13 3BS,52.637467757595800,1.546003563125500
glass snake and iguana,654772,NR28 9JA,52.815053933263200,1.396528755259900
alligator and box turtle,645260,NR7 8PZ,52.653455459452600,1.334775605920830
hoop snake and Diving bird,654104,NR29 5QD,52.710051816822500,1.530626563774350
Asiatic leopard and frill-necked lizard,654692,NR29 3EF,52.641738862564600,1.637327688411600
Lemming and king snake,665959,NR1 4HE,52.633202988569700,1.314874738775860
boomslang and king snake,654566,NR28 9XP,52.821312561982100,1.402836965990640
saltwater crocodile and amphisbaena,653963,NR29 5EJ,52.684102393889100,1.632947234656330
cobra and mamba,655304,NR28 0EL,52.817212000000000,1.378958000000000
Gull and tokay,652285,NR30 5QT,52.655952552846500,1.719268000000000
Magpie and Parakeet,665921,NR10 3QX,52.683719059286400,1.320700047403960
Asiatic leopard and Kākāriki,652095,NR31 0EQ,52.602453000000000,1.720276899603510
Fulmarine petrel and water snake,654228,NR29 3JE,52.651811988630500,1.676070589721990
White ibis and Parrotlet,654062,NR29 5LU,52.727045000000000,1.566000000000000
leguaan and Kite,2663751,NR28 0FZ,52.822079000000000,1.376756000000000
Capuchin and racer,2285313,NR13 4PH,52.636553000000000,1.444829000000000
mud turtle and Thrasher,662983,NR13 6BL,52.659742964518900,1.550322653099990
cerastes and Chickadee,645233,NR7 8NP,52.653774297800400,1.324077867813490
Mamo and harlequin snake,662552,NR13 6JB,52.672868275899600,1.487897114052270
Kestrel and skink,653927,NR29 5BN,52.738362829306600,1.543363517875440
diamond python and Grackle,645352,NR7 8XB,52.651648662656200,1.314244991832950
Diving bird and Recurvebill,662667,NR13 6PF,52.663544639299300,1.378930423061630
sand viper and Chipmunk,652054,NR31 0BL,52.605864433704800,1.717618887064830
turtle and milk snake,654894,NR28 9PL,52.788518637408000,1.450224988395260
boomslang and leathery turtle,652105,NR31 0GA,52.603812653403800,1.716218714951040
Macaw and frilled lizard,646183,NR6 7PL,52.665634952261000,1.312596937745670
caiman and Francolin,663516,NR13 3QL,52.639828508443000,1.549462213339150
Elephant and racer,645497,NR7 8AT,52.658511630504800,1.322559176154250
indigo snake and Jerboa,666767,NR1 1JR,52.621173643724200,1.316329469786470
Thicketbird and Parrotbill,663274,NR13 4EP,52.622580885689200,1.488859600672030
gecko and blue racer,662014,NR14 8TJ,52.611252615287900,1.317647569649730
Zebra and Fish eagle,1798230,NR12 8GQ,52.717753260500000,1.420771723400000
cayman and Puffleg,645994,NR7 0PD,52.637052214755500,1.348428521566010
Warbler and racer,663543,NR12 9HH,52.796881662773200,1.507272746569670
iguana and water snake,645359,NR7 8XL,52.650718490076200,1.314381619992730
galliwasp and Darwin's finches,662764,NR13 5LQ,52.624452464240800,1.439053443170300
Jay and asp,654098,NR29 5PW,52.721975380095800,1.538552601328770
anaconda and Nukupuʻu,653959,NR29 5EE,52.683685000000000,1.638093000000000
crocodile and Argus,645272,NR7 8QQ,52.661666920715300,1.320047437312620
diamond snake and gopher snake,654910,NR28 9QF,52.821114049959200,1.401292286062600
rock python and rock python,663090,NR13 5AX,52.635781000000000,1.388393000000000
Towhee and worm lizard,663411,NR13 4LX,52.623269280537300,1.484421485876450
Parrotbill and amethystine python,662633,NR13 6LH,52.674852341157500,1.372605000000000
Armadillo and Zebra,663034,NR13 4SA,52.648712787996800,1.429941658644520
alligator and Tree warbler,663342,NR13 3DE,52.635925286165000,1.547652761305500
blind snake and Mink,663524,NR13 3QW,52.640973236665400,1.557169562742530
terrapin and Argus,664115,NR12 8NL,52.697539000000000,1.490073000000000
bushmaster and perentie,666159,NR1 3PZ,52.647717572928200,1.322937921719450
amethystine python and Boto,663915,NR12 9DP,52.774924074431100,1.523450973468170
Eagle and crocodile,663352,NR13 3DU,52.638088609527300,1.548995957377660
leguaan and lizard,663608,NR13 3RJ,52.640768542081500,1.554402829402250
Myna and pit viper,663189,NR13 5EA,52.638428779640500,1.402968401623100
hognose snake and Marmoset,645600,NR7 8JE,52.657688698849800,1.329122775380780
Solitaire and skink,645543,NR7 0RU,52.640332725990000,1.365947649845390
turtle and Lemming,665517,NR10 5JG,52.753719008962300,1.318036356002030
Black jay and Duck,664154,NR12 0RT,52.802523162429300,1.524481864038450
Eagle and copperhead,663498,NR13 3PP,52.607974073996400,1.571172364263240
cycling lizard and Komodo dragon,662537,NR13 6HH,52.684181314654100,1.448025759531610
Chickadee and Mockingbird,665836,NR1 3YG,52.647717572928200,1.322937921719450
diamond snake and Old World vulture,654900,NR28 9PT,52.774872732446600,1.455240112950330
Asiatic leopard and gavial,645715,NR7 0YL,52.633834141177300,1.363911014853440
Crow and Kite,664262,NR12 7AQ,52.724351524131700,1.376093527808540
elapid and Zebra,645708,NR7 0XZ,52.633859017541300,1.350032276111600
soft-shelled turtle and mud turtle,665960,NR1 4HF,52.633798338886400,1.316737989151510
Buzzard and Pitohui,663764,NR12 8SD,52.706607872676800,1.399953848940980
thorn lizard and chameleon,662773,NR13 6SJ,52.665535542521100,1.376924334351700
Polecat and Elephant,654502,NR29 4DH,52.714792070410600,1.649599475094700
Cloud rat and Gull,1798241,NR12 9FS,52.771940588100000,1.521629000000000
rat snake and coral snake,2581734,NR7 8FE,52.661740000000000,1.336058000000000
Kite and Jerboa,2644736,NR29 3FF,52.668853000000000,1.623727000000000
Hawaiian honeycreeper and Thicketbird,654680,NR29 3DQ,52.670331810144700,1.612080744982080
cobra de capello and goanna,663081,NR13 5AJ,52.650082000000000,1.369773000000000
Tattler and Philippine hawk-owl,662863,NR13 5QB,52.620237965842600,1.437688308023010
flying dragon and Hawaiian honeycreeper,645255,NR7 8PT,52.653000347124100,1.333690941422300
Prion and python,664151,NR12 0RQ,52.814339222710600,1.522736980104510
moloch and bearded lizard,663734,NR12 8QH,52.714030681046600,1.412675498830840
tortoise and Capuchin,654774,NR28 9JD,52.813772758289200,1.396042847370640
fer-de-lance and Kangaroo,662982,NR13 6BJ,52.659325056295100,1.546561226176960
Dolphin and chuckwalla,645085,NR7 9RH,52.644512607346500,1.336800475033610
Gull and monitor,665964,NR1 4HL,52.638993038957300,1.313657049419870
gavial and massasauga,652184,NR30 5JY,52.650723293864200,1.723557050041010
hawksbill and Komodo dragon,662626,NR13 6JW,52.668166969273500,1.406567694959490
horned toad and sidewinder,663177,NR13 4AJ,52.630290809969100,1.469518227203390
Duck and Magpie,666467,NR1 1UL,52.625425022047200,1.314994000000000
frilled lizard and Snipe,2656014,NR13 5FX,52.638413000000000,1.403521000000000
Moluccan boobook and horned toad,663958,NR12 7LF,52.711601447464500,1.324151559302320
whip snake and gaboon viper,652075,NR31 0DQ,52.604883661231100,1.717343670324070
viper and Herring gull,654419,NR29 4AJ,52.715887390562600,1.692983000000000
hoop snake and blind snake,645997,NR7 0PG,52.635426188290700,1.350779000000000
bushmaster and thorn lizard,652106,NR31 0GU,52.607178811260100,1.720729634125550
Shearwater and anole,2286933,NR29 3JH,52.660398000000000,1.659396000000000
anaconda and Kite,663113,NR13 5DE,52.652052509027200,1.370974541049350
Gila monster and Chipmunk,666102,NR1 4PH,52.631293252043600,1.322682637748210
Maya and Tit-tyrant,645571,NR7 8EQ,52.659460363094900,1.313416470775610
cycling lizard and Grosbeak,663242,NR13 4BS,52.617429998031000,1.489986480910750
Recurvebill and Hawaiian honeycreeper,663580,NR12 9LL,52.770797000000000,1.479934000000000
Darwin's finches and carpet snake,663896,NR12 9BP,52.776070096983800,1.513932937679940
lizard and tortoise,662720,NR13 6SA,52.675332008908000,1.414319000000000
perentie and Vole,664248,NR12 0YT,52.752006543427000,1.572131945291660
amethystine python and thorny devil,662919,NR13 6AX,52.659233796378700,1.535179005162500
amethystine python and tuatara,662840,NR13 5NW,52.622698543082600,1.441531693467210
Diving bird and frill-necked lizard,664014,NR12 9EB,52.776244966378100,1.522282260817860
amphisbaena and blue racer,664399,NR12 0BN,52.750158019093900,1.578547038842260
Mole and Philippine hawk-owl,662767,NR13 5LT,52.624329000000000,1.424442000000000
Triller and Moluccan boobook,662646,NR13 6ND,52.674017274573000,1.347765075591290
diamondback and tokay,663742,NR12 8QU,52.733472000000000,1.412817000000000
wall lizard and Mink,664317,NR12 7HA,52.730748133578000,1.363255000000000
Triller and bull snake,666111,NR1 4PW,52.633372813692400,1.327882000000000
Tree warbler and python,645547,NR7 0SA,52.628295172679100,1.355186000000000
River dolphin and Philippine hawk-owl,664384,NR12 0AL,52.787893885557200,1.600650609197170
rat snake and brown snake,2284760,NR1 3LU,52.647735000000000,1.322960000000000
Armadillo and moloch,662861,NR13 5PY,52.619934000000000,1.435802000000000
habu and water snake,662782,NR13 6SW,52.683082624443400,1.443129333659270
snapping turtle and water snake,663239,NR13 4BN,52.619487978098300,1.483633216347840
Mamo and Pheasant,645299,NR7 8SH,52.647884000000000,1.324414000000000
agamid and Old World warbler,654785,NR28 9JS,52.818451909827400,1.386209296162830
anaconda and Cloud rat,654373,NR29 3QR,52.675214685048100,1.720447736434390
carpet snake and harlequin snake,645596,NR7 8HZ,52.649300687729900,1.323250287562530
amphisbaena and blindworm,663221,NR13 5HF,52.620932044533200,1.390245490342920
Marmoset and chuckwalla,664109,NR12 8LZ,52.702884463253900,1.466350642278630
python and Gull,664165,NR12 0SJ,52.807203364087200,1.567071524822440
Macaw and leathery turtle,655202,NR28 0BY,52.819860778307700,1.377173988627980
saltwater crocodile and agama,645515,NR7 8BT,52.658400848736400,1.329384001150810
Magpie and frill-necked lizard,664268,NR12 7AX,52.723771000000000,1.373471000000000
massasauga and python,652611,NR30 5BG,52.645854051963700,1.723941481566460
snapping turtle and sea snake,665861,NR1 4AP,52.627462288314100,1.317219158477810
Cuscus and adder,662923,NR13 6BB,52.657515000000000,1.543663000000000
bull snake and amphisbaena,655218,NR28 0DU,52.816863672915900,1.382300338587150
Elephant and flying dragon,662024,NR14 8TZ,52.619081442429400,1.359261821588230
Stint and jew lizard,645100,NR7 9TJ,52.647457340113300,1.335708809618090
thorny devil and Mink,654625,NR28 8AA,52.820835721772000,1.388870000000000
Peafowl and Chicken,663633,NR12 9PA,52.769487262857100,1.518755585791860
adder and anaconda,663666,NR12 9QS,52.759006640563800,1.528821461940780
brown snake and Jackal,663207,NR13 5EZ,52.650640215936600,1.365926591197700
Grosbeak and puff adder,663639,NR12 9PH,52.768786790743200,1.523562903750740
horned toad and mamba,665826,NR1 3XL,52.647717572928200,1.322937921719450
caiman and frill-necked lizard,664323,NR12 7HJ,52.729771217806800,1.363253230168620
racer and Linsang,663097,NR13 5BH,52.647608783461600,1.371002143144370
habu and horned toad,665849,NR1 3ZJ,52.647717572928200,1.322937921719450
tuatara and hawksbill,665898,NR10 3PR,52.692765619149200,1.314526000000000
New World blackbird and thorn lizard,654293,NR29 4SY,52.700593452644300,1.626352377655370
Old World warbler and Eagle,645116,NR7 9UH,52.640353257748900,1.330244580868140
Partridge and Prion,663686,NR12 9RT,52.767948415762400,1.530879772157330
Skunk and blue racer,645034,NR7 9LL,52.644025888748100,1.346714203325280
Diving bird and carpet snake,663917,NR12 9DR,52.775056006673800,1.525063384943240
American sparrow and Gull,645110,NR7 9UA,52.641863725129400,1.330581193424480
Linsang and diamondback,654429,NR28 9RE,52.788340756089900,1.425658737335740
Vulture and Mockingbird,652089,NR31 0EG,52.601933000000000,1.721121630207640
diamond python and Minke whale,663895,NR12 9BN,52.773335210077100,1.513653133519890
Diving bird and indigo snake,663180,NR13 4AP,52.624599173238300,1.483241382336500
snake and bull snake,652077,NR31 0DS,52.604875928883300,1.720164869158790
boa constrictor and box turtle,1798687,NR30 9FG,52.612418000000000,1.724582734800000
Stint and Songlark,663451,NR13 3LD,52.614357664035500,1.513871726135760
Cuscus and agamid,654579,NR29 3AB,52.669384711346900,1.613053026933650
Diving bird and hognose snake,645083,NR7 9RF,52.643589126641900,1.339568953152230
Perching duck and copperhead,645070,NR7 9QQ,52.642977754972000,1.341474010158680
Capuchin and galliwasp,663457,NR13 3LL,52.611193095304300,1.513219169994080
Zebra and saltwater crocodile,666511,NR1 3FE,52.647735000000000,1.322960000000000
Mink and viper,666030,NR1 3GF,52.647717572928200,1.322937921719450
Mamo and gaboon viper,654044,NR29 4HN,52.697906668902300,1.696662074312290
Thicketbird and Buzzard,662969,NR13 4QX,52.650743899501200,1.447950380913660
