name,postcode,lat,lon
sicily trattoria pizzeria da Rocco e bruno,NR1 1AQ,52.6477,1.3229
William IV inn,NR1 4AU,52.6304,1.3140
Zaks Mousehold,NR1 4HW,52.6421,1.3140
MFG PLUMSTEAD ROAD,NR1 4JT,52.6358,1.3232
Heartsease,NR1 4JZ,52.6365,1.3271
Edwards and Blake Elior at Spixworth Infant School,NR10 3PX,52.6905,1.3182
the goat inn,NR10 5DH,52.7699,1.3351
The Diplomat Pub,NR10 5JZ,52.7641,1.3413
White Horse Crostwick Public House,NR12 7BD,52.6977,1.3411
OLD RECTORY HOTEL CROSTWICK LTD,NR12 7BG,52.6921,1.3378
Un Cafè,NR12 7BY,52.6791,1.3301
A Piece of Cake (Coltishall) Ltd,NR12 7DL,52.7272,1.3600
The Norfolk Mead,NR12 7DN,52.7255,1.3617
Kings Head,NR12 7EA,52.7282,1.3696
The Rising Sun,NR12 7EA,52.7282,1.3696
The Recruiting Sergeant,NR12 7EE,52.7275,1.3530
the white horse at neatishead,NR12 8AD,52.7360,1.4661
Horse & Groom,NR12 8AH,52.7457,1.4006
Aimes Ltd t/a Costa Coffee Hoveton,NR12 8AJ,52.7116,1.4092
Costa Coffee,NR12 8AJ,52.7116,1.4092
Hotel Wroxham,NR12 8AJ,52.7116,1.4092
Thai Ubon Restaurant ,NR12 8AJ,52.7116,1.4092
Number 14 ltd,NR12 8DA,52.7120,1.4088
McDonalds Restaurant,NR12 8DB,52.7125,1.4110
ROYS HOVETON CAFE,NR12 8DB,52.7125,1.4110
Mcdonalds Restaurant,NR12 8DU,52.7167,1.4206
Bure Valley Adventures Ltd,NR12 8JW,52.7082,1.4487
The New Inn Horning,NR12 8PF,52.7009,1.4663
Waterfall Elior,NR12 8QN,52.7175,1.4126
Wroxham Barns,NR12 8QU,52.7343,1.4137
Liberty  Norwich Road  Wroxham,NR12 8RX,52.7102,1.4040
The Station Smokehouse ,NR12 8UT,52.7152,1.4080
The Ingham Swan,NR12 9AB,52.7792,1.5433
The Crown Inn,NR12 9AD,52.7682,1.4540
Daddy donuts,NR12 9AU,52.7716,1.5160
The Swan Inn,NR12 9AU,52.7716,1.5160
Cafe Charlotte Ltd,NR12 9AZ,52.7712,1.5171
Cherry Blossom Cafe ,NR12 9BB,52.7720,1.5146
Vera's Coffee Shop,NR12 9LJ,52.7736,1.4808
Wayford Bridge Inn,NR12 9LL,52.7709,1.4797
Moulton Nurseries,NR13 3AP,52.6139,1.5416
Acle Bridge Inn,NR13 3AT,52.6493,1.5686
Starbucks,NR13 3BE,52.6382,1.5507
kings head Acle ,NR13 3DY,52.6385,1.5478
SCOOTERS CAFE ,NR13 3QJ,52.6398,1.5480
Tamarind,NR13 4AB,52.6510,1.4410
The Shoulder of Mutton,NR13 4NT,52.6174,1.4698
Waterfall Elior at Lingwood Compass School,NR13 4TJ,52.6254,1.4907
Casa Mia,NR13 5AA,52.6234,1.4362
Tea  Bags & Shoes,NR13 5AJ,52.6500,1.3695
K Foley Ltd T/A McDonalds Broadlands,NR13 5AR,52.6319,1.4281
McDonalds,NR13 5AR,52.6319,1.4281
Elior at Little Plumstead Primary School,NR13 5EW,52.6441,1.4105
The Brick Kilns,NR13 5JH,52.6621,1.4186
The Yare Public House,NR13 5PL,52.6191,1.4387
East Hills Cafe Bistro,NR13 5PN,52.6148,1.4394
The Maltsters,NR13 6AB,52.6761,1.4886
WHITE HORSE,NR13 6BT,52.6584,1.5420
The Lodge Countryhouse,NR13 6HD,52.6880,1.4098
salhousegardencentre,NR13 6JP,52.6679,1.4140
Racecourse Castle Carvery,NR13 6LA,52.6520,1.3522
THE GREEN MAN NORWICH FAMILY DINER,NR13 6NQ,52.6835,1.3727
Fur & Feather Public House,NR13 6SW,52.6831,1.4432
Coldham Hall,NR14 7AN,52.6120,1.4257
MISS S H COX trading as The Ferry House,NR14 7AR,52.6140,1.4137
River Green Cafe,NR14 8AH,52.6121,1.3182
Crown Point Tavern,NR14 8RN,52.6108,1.3227
White Horse,NR14 8ST,52.6125,1.3174
Labone Indian Cuisine,NR28 0DA,52.8225,1.3852
Ramblers at North Walsham Garden Centre,NR28 0DR,52.8130,1.3829
The Beechwood Hotel,NR28 0HD,52.8229,1.3822
Rossis Leisure Ltd,NR28 0JQ,52.8166,1.3660
Aimes Ltd t/a Costa Coffee North Walsham,NR28 9BT,52.8214,1.3866
Costa Coffee,NR28 9BT,52.8214,1.3866
Cafe Kitale,NR28 9BY,52.8220,1.3867
Shambles Cafe Bar Bistro,NR28 9BZ,52.8218,1.3859
Waterfall Elior,NR28 9JL,52.8198,1.3859
The Kings Arms Hotel,NR28 9JX,52.8206,1.3854
Scarborough Hill Country Inn,NR28 9NA,52.8048,1.3987
Cross Keys Ph,NR28 9PS,52.7752,1.4560
The White Lady,NR28 9RW,52.7824,1.4123
Filby Bridge Restaurant Limited,NR29 3AA,52.6625,1.6439
the lion at thurne,NR29 3AP,52.6888,1.5549
Clippesby Hall BASECAMP,NR29 3BL,52.6732,1.5805
The Ferry Inn ,NR29 3EX,52.6383,1.5915
Planet Spice,NR29 3JR,52.6734,1.6864
The Boathouse,NR29 3LP,52.6761,1.6531
Whites Lounge Bar,NR29 3NW,52.6781,1.7118
The smokehouse Bar and grill,NR29 3QG,52.6681,1.7111
East Coast Restaurant,NR29 3QJ,52.6725,1.7107
The Codfather,NR29 3QL,52.6756,1.7158
DUTCHYS TAVERN,NR29 3QN,52.6730,1.7177
Angelo’s Cafe,NR29 3QW,52.6714,1.7224
THE PIT STOP,NR29 3QW,52.6715,1.7224
Trishas chippy,NR29 3QW,52.6714,1.7224
dutchys diner,NR29 3QW,52.6715,1.7224
the Jolly Farmers ,NR29 3RP,52.6749,1.6878
Hermanus,NR29 4BP,52.7139,1.6956
THE BELL ,NR29 4EU,52.6964,1.6894
Hemsby Beach Holiday Park ,NR29 4HR,52.6964,1.6981
MB's Leisure Bar,NR29 4HS,52.6958,1.7048
Club Belle  Hemsby Belle Aire Holiday Park,NR29 4HZ,52.6954,1.7037
The Lacon Arms,NR29 4JG,52.6945,1.7075
Tis BAR AND GRILL,NR29 4NW,52.6903,1.7056
The Crown Inn,NR29 5AA,52.7404,1.5346
The Waterside (Rollesby) Ltd,NR29 5EF,52.6805,1.6400
Bridgestones,NR29 5JD,52.7102,1.5801
Flour and Bean,NR29 5JE,52.7108,1.5803
Wayfarers Cafe,NR29 5NX,52.6996,1.5099
The Dog at Ludham Bridge,NR29 5NY,52.7021,1.5145
Kings Arms  Ludham,NR29 5QQ,52.7104,1.5360
Dukes Head Great Yarmouth,NR30 1HP,52.6070,1.7241
China Diner,NR30 1HX,52.6079,1.7228
White Swan Fish and Seafood,NR30 1PU,52.6131,1.7240
Branford's Restaurant & Bar,NR30 5JL,52.6484,1.7243
Castle Freehouse Castle Carvery,NR30 5JN,52.6495,1.7228
the centurion,NR30 5NJ,52.6606,1.7206
Pizza Hut Delivery,NR31 0HU,52.6062,1.7212
The Haven Bridge,NR31 0HU,52.6062,1.7212
Waterfall Elior at St Williams Primary School,NR7 0AJ,52.6373,1.3371
Elior at Broadland District Council Canteen,NR7 0DU,52.6272,1.3271
The Oaklands Hotel,NR7 0HH,52.6268,1.3437
The Cottage,NR7 0JD,52.6382,1.3452
The Merchants of spice 2,NR7 0QY,52.6271,1.3482
Costa Coffee Drive Thru,NR7 0WG,52.6292,1.3703
Elior at Sprowston Academy,NR7 8NE,52.6517,1.3224
Sprowston Garden Centre,NR7 8RJ,52.6547,1.3391
The Blue Boar,NR7 8RL,52.6615,1.3305
DIDIS CARIBBEAN,NR7 9AA,52.6449,1.3312
Fatso's Sprowston,NR7 9AW,52.6474,1.3310
 KFC Norwich - Sprowston Retail Park,NR7 9AZ,52.6465,1.3259
KFC,NR7 9AZ,52.6465,1.3259
