name,postcode,lat,lon
saltwater crocodile and Wader,NR1 1JW,52.623028891957800,1.314312165340020
Diving bird and Old World quail,NR1 3FX,52.647717572928200,1.322937921719450
diamondback and Minke whale,NR1 3GT,52.647717572928200,1.322937921719450
bicycle lizard and Rat,NR1 3LN,52.647717572928200,1.322937921719450
cerastes and diamondback,NR1 3LQ,52.647735000000000,1.322960000000000
goanna and Shearwater,NR1 3NS,52.647717572928200,1.322937921719450
Black jay and Viscacha,NR1 3UP,52.647717572928200,1.322937921719450
death adder and Macaw,NR1 4LZ,52.639529948358900,1.320173111935560
rock python and deaf adder,NR1 4NL,52.638943670856800,1.319271208847370
Asiatic leopard and Prion,NR1 4PB,52.631598945471900,1.323326639637810
death adder and sea snake,NR10 3NJ,52.690337929456500,1.328085320582140
Jay and Kite,NR10 3NL,52.689308233879500,1.329842276790570
Tit-tyrant and leathery turtle,NR10 3NP,52.685653225146900,1.325168440084730
Wallaby and Towhee,NR10 3PX,52.690488717239000,1.318224260996970
iguana and Old World warbler,NR10 5AU,52.791841490368500,1.331546805336460
Coati and Pheasant,NR10 5AW,52.795650376422200,1.343841434077230
Grackle and bearded lizard,NR10 5AX,52.782561000000000,1.335376000000000
brown snake and Pratincole,NR10 5AY,52.780829000000000,1.322784000000000
hognose snake and leathery turtle,NR10 5BL,52.786089041807500,1.377507814620230
Towhee and Chicken,NR10 5BQ,52.792383402956900,1.372180001640210
cobra de capello and Armadillo,NR10 5BS,52.778919000000000,1.381105000000000
Stilt and sidewinder,NR10 5JG,52.753719008962300,1.318036356002030
taipan and constrictor,NR10 5JP,52.761019578015900,1.341482146490550
diamondback turtle and soft-shelled turtle,NR10 5JQ,52.760813472440600,1.328672085578420
swift and Warbler,NR10 5JU,52.762840726718500,1.341962684156090
Schneider python and brown snake,NR10 5RZ,52.757499000000000,1.341053000000000
anole and Wallaby,NR12 0AZ,52.763965595385000,1.574327496182760
Gila monster and Eagle,NR12 0BD,52.767239221028100,1.583270592763410
glass snake and Kite,NR12 0BG,52.770434000000000,1.604295000000000
blue racer and brown snake,NR12 0NR,52.823407000000000,1.511177000000000
king snake and Gull,NR12 0RS,52.802164661125700,1.525951708617500
diamondback terrapin and rat snake,NR12 0RT,52.802523162429300,1.524481864038450
Siskin and Treepie,NR12 0ST,52.795896297508700,1.568014953816050
Egret and flying dragon,NR12 0XL,52.756967000000000,1.567824000000000
jew lizard and Pitohui,NR12 0YQ,52.746823172894500,1.564756222449170
viper and soft-shelled turtle,NR12 7AB,52.708256065783600,1.322860541462530
Black jay and king snake,NR12 7BL,52.676186000000000,1.325425000000000
Hawaiian honeycreeper and snake,NR12 7EJ,52.723821380767800,1.352959260878260
python and boa constrictor,NR12 7HJ,52.729771217806800,1.363253230168620
Bronzewing pigeon and gavial,NR12 7JL,52.732272730581600,1.358453031431710
swift and diamondback terrapin,NR12 7LW,52.710145280821100,1.326365644720590
Hawaiian honeycreeper and Flameback,NR12 7NN,52.712106463176100,1.315438026650030
lizard and Minke whale,NR12 7NW,52.717939816357100,1.322945462742850
blind snake and perentie,NR12 8DG,52.712801682628900,1.412253687879570
loggerhead and adder,NR12 8EN,52.743765000000000,1.403633000000000
Partridge and hawksbill,NR12 8GL,52.718295858600000,1.418799890900000
Pratincole and Tit-tyrant,NR12 8HB,52.768125000000000,1.393659802241800
Pitohui and Thicketbird,NR12 8HS,52.757622849216200,1.434026000000000
asp and Moluccan boobook,NR12 8PZ,52.694881287751600,1.482547576140700
monitor and mamba,NR12 8QP,52.720611666768800,1.412138053058440
Boto and Vulture,NR12 8TR,52.704840444554700,1.409188916207660
Ice seal and water snake,NR12 8TS,52.699863957625800,1.409289301919140
Egret and mountain devil,NR12 8UH,52.710021126162400,1.411992100780250
Treepie and Marsh harrier,NR12 8XH,52.730110030623100,1.464170978352050
turtle and chuckwalla,NR12 8YT,52.750203847884500,1.466892822546660
frill-necked lizard and sand viper,NR12 9BJ,52.776201085170800,1.511941270098440
Darwin's finches and tokay,NR12 9EA,52.774617000000000,1.518977000000000
Towhee and Ice seal,NR12 9ET,52.788026660213700,1.500136124671420
mamba and Guillemot,NR12 9EX,52.791422775424200,1.508168482189910
Egret and White ibis,NR12 9FJ,52.772725250600000,1.522338898400000
Dorcopsis and agama,NR12 9FW,52.759016000000000,1.446680000000000
Crow and Perching duck,NR12 9JD,52.803438861528200,1.489576720418950
Triller and Elephant,NR12 9JH,52.799283000000000,1.475874000000000
Perching duck and diamondback terrapin,NR12 9JS,52.791376970297800,1.489915974303240
diamond snake and sand lizard,NR12 9PG,52.769766464428700,1.522678192161860
grass snake and Dolphin,NR12 9QP,52.760835942487100,1.531119285790720
Rat and Ground sloth,NR12 9QU,52.759939608041700,1.531921432313390
sand lizard and Boto,NR12 9QZ,52.758401250655000,1.534346803542340
Zebra and Petrel,NR12 9TF,52.773113047352000,1.557577603842940
Bronzewing pigeon and Recurvebill,NR13 3BH,52.639290456191600,1.547008655763110
Vole and deaf adder,NR13 3BQ,52.604486000000000,1.574124000000000
Pheasant and Bunting,NR13 3LB,52.615069571636200,1.515037038165930
Polecat and Quetzal,NR13 3NH,52.611354000000000,1.548856000000000
Chicken and diamond python,NR13 3PJ,52.603511474568200,1.566746389322470
Booted eagles and frilled lizard,NR13 3QD,52.615207000000000,1.568171000000000
green turtle and Treepie,NR13 4AB,52.651136701143400,1.440941954667410
Duck and Old World warbler,NR13 4AD,52.623529776227800,1.490376000000000
giant tortoise and Treepie,NR13 4AF,52.618313333605500,1.474333408697610
sidewinder and skink,NR13 4BB,52.621443011039800,1.489626190699040
turtle and Civet,NR13 4EF,52.648542235334400,1.474646376640560
taipan and Quetzal,NR13 4EP,52.622580885689200,1.488859600672030
Fox and elapid,NR13 4EU,52.620030137273000,1.504262421576760
Hawk and snapping turtle,NR13 4EY,52.616384897390000,1.503439047771210
agama and Badger,NR13 4HA,52.606057288583300,1.510192783202900
Schneider python and Tattler,NR13 4HN,52.600346235450600,1.478818731498110
Shearwater and dukite,NR13 4HY,52.614549213584900,1.453289198830970
Masked owl and Old World quail,NR13 4HZ,52.614929679388400,1.456584746576130
Kangaroo and Greenbul,NR13 4JP,52.634706000000000,1.444012000000000
Fish eagle and Civet,NR13 4LL,52.633601017691300,1.459451000000000
Grackle and New World blackbird,NR13 4LP,52.632854531038500,1.452588378627650
diamondback and River dolphin,NR13 4NU,52.616193099422400,1.470574591327080
terrapin and leguaan,NR13 4PQ,52.654250032932500,1.441512021403500
hawksbill and bandy-bandy,NR13 4SD,52.650807748706800,1.440191469311760
rattlesnake and Wader,NR13 4TE,52.626709918701900,1.499800738025790
Wallaby and habu,NR13 5BS,52.648978285205200,1.367260000000000
Fox and Armadillo,NR13 5HJ,52.619985659395800,1.389890000000000
Chipmunk and puff adder,NR13 5LX,52.626137997505200,1.422794621783580
lizard and Mink,NR13 5NJ,52.627728181649900,1.432481864869370
Chipmunk and Towhee,NR13 5QQ,52.628892651580100,1.430474177606500
horned viper and boomslang,NR13 6AD,52.682402000000000,1.423511000000000
gavial and copperhead,NR13 6BB,52.657515000000000,1.543663000000000
Pratincole and puff adder,NR13 6BF,52.660106081082500,1.489409405371500
Civet and Thrasher,NR13 6BG,52.659389368690400,1.545915598884640
loggerhead and sand lizard,NR13 6BX,52.659415037212200,1.544157455399570
swift and Boto,NR13 6HT,52.677733891785900,1.486376179747330
Ground sloth and sea snake,NR13 6JE,52.675383480560800,1.472398119793380
Marmoset and crocodile,NR13 6JQ,52.662742000000000,1.467697000000000
Tree warbler and Mockingbird,NR13 6LA,52.652019282646100,1.352190548256290
tokay and Old World warbler,NR13 6LF,52.663306878627600,1.361057659249070
flying dragon and Myna,NR13 6LX,52.678129707421800,1.367982236772570
flying lizard and adder,NR13 6NQ,52.683268000000000,1.372745238177410
bushmaster and Marmoset,NR13 6NU,52.672673327633700,1.394652941977000
diamond python and Mink,NR13 6PR,52.675429883710100,1.376252776780600
Gila monster and sand viper,NR13 6PT,52.674806000000000,1.374843000000000
rock python and Francolin,NR13 6QD,52.675794939684000,1.412334000000000
jew lizard and diamond snake,NR13 6QN,52.660436041997400,1.380391466645980
Chickadee and Parrotbill,NR13 6TA,52.666727000000000,1.384345000000000
bearded dragon and Crow,NR14 7AP,52.613590433077900,1.415357977123810
sand lizard and copperhead,NR14 7DY,52.600607771488500,1.367817508190410
bull snake and Jackal,NR14 7EE,52.602010492562900,1.389875965665610
Pitohui and jew lizard,NR14 7EF,52.602673937120000,1.390577205843000
dukite and gaboon viper,NR14 8GE,52.609777373575800,1.322145480683690
Asiatic leopard and hognose snake,NR2 1WY,52.647717572928200,1.322937921719450
sand viper and Recurvebill,NR28 0BH,52.821546064054700,1.383362044066540
carpet snake and harlequin snake,NR28 0EE,52.815435975724700,1.374960294706060
horned toad and racer,NR28 0HW,52.824497268459200,1.371001066107950
deaf adder and Pheasant,NR28 0JS,52.817658000000000,1.341301000000000
slowworm and moloch,NR28 0LG,52.815069018407700,1.334526687744910
Mink and king snake,NR28 0LR,52.808181000000000,1.316308822204450
Crow and Logrunners,NR28 9AT,52.816784000000000,1.388603000000000
whip snake and terrapin,NR28 9BW,52.820850960410700,1.388177496505780
Bunting and hawksbill,NR28 9DF,52.820225037483200,1.391825374584540
Vulture and Pitohui,NR28 9HF,52.820851370960200,1.393195491568470
Shearwater and Rat,NR28 9JB,52.813090560395900,1.395054488017480
tree snake and Polecat,NR28 9JF,52.812438719069000,1.396146573903170
Prion and black snake,NR28 9JQ,52.813091684940300,1.392501509738900
Polecat and boa constrictor,NR28 9NU,52.823574164355500,1.482000893408310
wall lizard and Polecat,NR28 9PE,52.799886540840800,1.465653126111840
Viscacha and blindworm,NR28 9PN,52.786831168902100,1.453814861852970
jew lizard and python,NR28 9SA,52.782776517240500,1.402763910120000
king snake and anole,NR28 9UP,52.819014000000000,1.399911000000000
brown snake and Elephant,NR28 9XE,52.819904087942700,1.402400223342990
cayman and Diving bird,NR28 9XR,52.819402046565600,1.405790306989260
glass snake and mamba,NR29 3AA,52.662553221034000,1.643450000000000
Triller and Zebra,NR29 3DE,52.660917175574900,1.606984207259840
snapping turtle and Fulmarine petrel,NR29 3FB,52.669886779800000,1.622474898000000
boa and Fox,NR29 3HS,52.661896327415800,1.663840518459380
Parakeet and Argus,NR29 3HX,52.662187161482700,1.671291084439200
green turtle and Solitaire,NR29 3LT,52.677514213555700,1.646721000000000
Schneider python and chameleon,NR29 3PJ,52.684632000000000,1.700098000000000
Herring gull and chameleon,NR29 3RA,52.673374142102700,1.685547346020660
thorn lizard and saltwater crocodile,NR29 4BE,52.715731000000000,1.692468000000000
Lemming and Snipe,NR29 4DU,52.706618708362300,1.663789000000000
viper and Old World quail,NR29 4FB,52.702763418581700,1.639177521518300
king snake and milk snake,NR29 4HG,52.699971617501400,1.687553284074410
Elephant and pit viper,NR29 4HU,52.695404000000000,1.700226000000000
tree snake and slowworm,NR29 4HZ,52.695358031659600,1.703671171288430
glass snake and brown snake,NR29 4JA,52.697357183334600,1.705321127667270
boa and amphisbaena,NR29 4LN,52.698391767623500,1.685717327023600
Peafowl and sidewinder,NR29 4LY,52.698352778531300,1.676845497120340
Stilt and horned viper,NR29 4LZ,52.698440254068800,1.677504302906300
massasauga and cycling lizard,NR29 4PR,52.707380384095700,1.632054215422770
New World blackbird and Polecat,NR29 4PX,52.708943961484700,1.633587000000000
Fulmarine petrel and chuckwalla,NR29 4QN,52.706997673785700,1.630748885925380
bull snake and dugite,NR29 4QP,52.701855096836600,1.638155000000000
agamid and Elephant,NR29 4QX,52.702384447823900,1.625434926213550
Kākāriki and water snake,NR29 4QZ,52.700559492095000,1.621878124454620
boomslang and green turtle,NR29 4SU,52.701430146878700,1.626051651803510
Mink and Condor,NR29 4SW,52.700335731925600,1.632120146060410
constrictor and tortoise,NR29 4TF,52.700678311284300,1.624168113555800
Grackle and Darwin's finches,NR29 5AX,52.737253026546100,1.529018343131130
Wallaby and rock python,NR29 5BE,52.742767000000000,1.532651000000000
viper and Recurvebill,NR29 5BH,52.741057413305700,1.537165478681050
Moluccan boobook and Badger,NR29 5BX,52.730154000000000,1.549320000000000
Prion and Ice seal,NR29 5EF,52.680488000000000,1.639958000000000
worm lizard and sea snake,NR29 5HB,52.684135542461300,1.631394000000000
Old World warbler and sand lizard,NR29 5HN,52.686137090982800,1.596796000000000
tiger snake and Dorcopsis,NR29 5JL,52.701489621058800,1.589855130391680
blind snake and box turtle,NR29 5PJ,52.711703532775500,1.520763684612150
frill-necked lizard and snapping turtle,NR29 5QN,52.711878653029700,1.533306635947760
Kākāriki and Guillemot,NR30 1PQ,52.609255775500300,1.724186082319500
whip snake and sidewinder,NR30 1PU,52.613086000000000,1.723979000000000
Fulmarine petrel and amethystine python,NR30 5AP,52.645368049413400,1.720232770019100
king cobra and White ibis,NR30 5AU,52.648618406131200,1.716693437965360
Argus and leathery turtle,NR30 5JN,52.649443885688900,1.722767924702740
caiman and giant tortoise,NR30 5SD,52.658324974012500,1.718656725880530
puff adder and Chicken,NR30 5TH,52.659719774329400,1.718923175429470
sea snake and Pratincole,NR30 5TZ,52.655278386402700,1.713990118681850
Jay and iguana,NR30 9FG,52.612418000000000,1.724582734800000
Gull and Parakeet,NR30 9GN,52.612445000000000,1.724641000000000
Buzzard and chameleon,NR31 0DA,52.606084809726900,1.715185004281750
frilled lizard and brown snake,NR31 0DZ,52.600099541569500,1.722743737995850
Wallaby and chuckwalla,NR31 0GA,52.603812653403800,1.716218714951040
Chipmunk and Rabbit,NR31 0HH,52.605446695998100,1.714022866198960
flying dragon and taipan,NR31 0HP,52.606659000000000,1.720916408624620
thorn lizard and B,NR31 9XJ,52.612445000000000,1.724641000000000
king snake and Egret,NR4 6EX,52.647717572928200,1.322937921719450
fer-de-lance and Kite,NR6 7JJ,52.669789850124200,1.319347010262770
gaboon viper and bicycle lizard,NR7 0AZ,52.639511221838800,1.339701589012370
Crow and green turtle,NR7 0EX,52.627272000000000,1.340010000000000
Peafowl and gaboon viper,NR7 0GW,52.627238349176700,1.364661023175160
Vole and Egret,NR7 0JH,52.634284351913700,1.342303998435910
Chicken and Kite,NR7 0JU,52.632095290062700,1.340200614602440
Meadowlark and Kākāriki,NR7 0NQ,52.638902390442400,1.348200340166710
Tit-tyrant and chuckwalla,NR7 0QZ,52.626955232788100,1.349829000000000
bushmaster and Armadillo,NR7 0RP,52.638840685877100,1.368760255569010
garter snake and Diving bird,NR7 0RR,52.639492226163800,1.367671968359100
Lemming and frill-necked lizard,NR7 0SL,52.624608816001500,1.366676047140550
diamondback terrapin and carpet snake,NR7 0TE,52.633207782827400,1.360315204160460
Marsh harrier and saltwater crocodile,NR7 0TG,52.638910002613300,1.362526689607730
Argus and Jay,NR7 0WR,52.641269431110200,1.368429571568800
New World blackbird and Goose,NR7 0XE,52.634924437212600,1.347217000000000
jew lizard and sea snake,NR7 0XF,52.634752696271000,1.348962344393300
Petrel and pit viper,NR7 7AS,52.647735000000000,1.322960000000000
Herring gull and python,NR7 7DF,52.647735000000000,1.322960000000000
jew lizard and mamba,NR7 7FG,52.647735000000000,1.322960000000000
black snake and gavial,NR7 7SJ,52.627220410982400,1.327118225670710
krait and mud turtle,NR7 7TP,52.627220410982400,1.327118225670710
Nukupuʻu and Viscacha,NR7 8BG,52.659411544014100,1.328943190099190
snake and Thrasher,NR7 8BN,52.657182950682100,1.333033287087540
snake and Viscacha,NR7 8EP,52.655667121480800,1.314948502302800
Armadillo and Cuscus,NR7 8FL,52.662470000000000,1.337918000000000
leguaan and Duck,NR7 8GE,52.661211000000000,1.337207000000000
diamondback turtle and Chipmunk,NR7 8GW,52.655075000000000,1.344622000000000
skink and snapping turtle,NR7 8LF,52.656776494370200,1.335649757569830
bearded dragon and Bronzewing pigeon,NR7 8LG,52.656884911135900,1.336589793037190
fer-de-lance and cerastes,NR7 8PS,52.652969176176200,1.331603356198420
sand viper and lizard,NR7 8QY,52.662095702141300,1.317905570530910
carpet snake and Cloud rat,NR7 8RW,52.661605444744700,1.332430000000000
Armadillo and Siskin,NR7 8SG,52.648105000000000,1.323899000000000
Stilt and glass snake,NR7 8SU,52.647498830601000,1.320156184520940
bearded lizard and Quetzal,NR7 9AB,52.650261000000000,1.341586000000000
kabaragoya and bandy-bandy,NR7 9AW,52.647466149974600,1.331002000000000
amethystine python and Ibex,NR7 9DF,52.645509863472500,1.328211733016710
constrictor and green turtle,NR7 9DN,52.646861000000000,1.330739000000000
Duck and lizard,NR7 9HE,52.647460338544200,1.341342845885760
smooth snake and massasauga,NR7 9HU,52.650304395893400,1.347637681027170
krait and carpet snake,NR7 9HX,52.644950497217100,1.342319462254620
Zebra and Boto,NR7 9NQ,52.641553907556200,1.344440653869180
python and Masked owl,NR7 9QL,52.641980718848400,1.341071000000000
rock snake and Treepie,NR7 9RQ,52.645709898083500,1.338355539197180
rattlesnake and water snake,NR7 9UE,52.640930321327300,1.328913479858790
copperhead and cobra de capello,NR7 9UX,52.642318385579000,1.332641327720510
