name,id,postcode,lat,lon
gaboon viper and diamond snake,645878,NR7 0GR,52.627833361572500,1.369037357043280
Ibex and Booted eagles,655192,NR28 0BJ,52.820962486989100,1.379857543058560
cerastes and Philippine hawk-owl,665859,NR1 4AL,52.627038310953500,1.321754062951750
Prion and Prion,665122,NR11 6XR,52.820778000000000,1.388870000000000
brown snake and Songlark,651989,NR31 6JZ,52.612418000000000,1.724582913069550
Black jay and Chicken,654805,NR28 9LW,52.812234000000000,1.406758000000000
Tree warbler and B,645148,NR7 9XF,52.642044389696400,1.336301958393830
Boto and anaconda,655218,NR28 0DU,52.816863672915900,1.382300338587150
Darwin's finches and Chickadee,664424,NR12 0EB,52.769051397904700,1.619528821079990
boa constrictor and Solitaire,665400,NR10 5BN,52.790460807233200,1.378425327367730
Kite and Kestrel,654551,NR28 9UY,52.821609821705000,1.401880352150660
crocodile and Dolphin,663535,NR12 9FE,52.767965809132100,1.517102000000000
blue racer and Pratincole,663178,NR13 4AL,52.628966609928800,1.474187700436210
Partridge and Bronzewing pigeon,645870,NR7 0GF,52.627250140959900,1.368356973238720
blue racer and water snake,663921,NR12 9DW,52.774944810146600,1.520634772401120
Snipe and Komodo dragon,645708,NR7 0XZ,52.633859017541300,1.350032276111600
Black jay and grass snake,652404,NR30 5TP,52.655678891280700,1.714985535942560
mud turtle and galliwasp,663949,NR12 7JS,52.747239935765900,1.336425225545490
Towhee and Siskin,654607,NR29 3BN,52.674565188104600,1.575437493123570
bandy-bandy and chameleon,664415,NR12 0DP,52.795289569743600,1.541761315263360
frilled lizard and Black jay,665423,NR10 5DS,52.779041000000000,1.359360824459660
Pheasant and adder,1798645,NR29 5GB,52.709020127900000,1.539531957100000
king cobra and Puffleg,663683,NR12 9RP,52.762442818067600,1.529410897809030
Linsang and racer,1798272,NR13 6FB,52.666139306400000,1.387548169400000
Moluccan boobook and bicycle lizard,664219,NR12 0XL,52.756967000000000,1.567824000000000
Chicken and Elephant,663652,NR12 9PZ,52.767758638152200,1.530004347744330
Grackle and leathery turtle,662829,NR13 5ND,52.622855951669600,1.431775148627710
mamba and alligator,662943,NR13 4PQ,52.654250032932500,1.441512021403500
sand lizard and Armadillo,2629220,NR1 1FE,52.625804000000000,1.314441000000000
giant tortoise and horned toad,652773,NR30 1TE,52.620232670885500,1.720936291120130
Boto and carpet snake,662717,NR13 6RX,52.682711552540700,1.427722000000000
Siskin and Vulture,664053,NR12 8EA,52.717648978318900,1.425666035751460
gaboon viper and cayman,663746,NR12 8RB,52.740301485661300,1.406430911174400
viper and dugite,662968,NR13 4QW,52.650927015310300,1.443662000000000
Guillemot and amethystine python,654413,NR29 4AB,52.720989000000000,1.652562000000000
jew lizard and Macaw,655196,NR28 0BQ,52.820019679925500,1.383273063991220
Marmoset and kabaragoya,645867,NR7 0FA,52.626778719561700,1.334718000000000
tuatara and rat snake,664136,NR12 0QQ,52.809653000000000,1.543895000000000
mud turtle and Eagle,654811,NR28 9ND,52.818950000000000,1.387079000000000
Ibex and fer-de-lance,645284,NR7 8RL,52.661489260376500,1.330535991003960
bandy-bandy and dukite,654342,NR29 3PA,52.680644000000000,1.716509375667830
slowworm and Jackal,665894,NR10 3PL,52.683327593118400,1.315091118934550
deaf adder and box turtle,662686,NR13 6QF,52.674834114323100,1.409848000000000
Chickadee and Rabbit,662905,NR13 6AE,52.661322977460200,1.488707646409770
pit viper and Mole,655195,NR28 0BP,52.819512205212700,1.378676028597300
Pitohui and cerastes,653222,NR30 1PG,52.608951540105500,1.723849953142040
Coati and garter snake,662965,NR13 4QS,52.651439149782900,1.447857244798440
Bronzewing pigeon and Triller,653072,NR30 1JD,52.608280717214800,1.722300673105560
galliwasp and Chicken,645750,NR7 0BJ,52.627187203963600,1.336604477390690
Meadowlark and blue racer,664414,NR12 0DN,52.799647130315600,1.542516392235120
Diving bird and coral snake,645772,NR7 7DD,52.647735000000000,1.322960000000000
amphisbaena and Coati,654238,NR29 3JW,52.674861520957800,1.705323988137180
Wallaby and Parakeet,645679,NR7 0WH,52.633247000000000,1.374450000000000
Perching duck and loggerhead,2616942,NR28 8AU,52.820806000000000,1.388891000000000
tree snake and leguaan,664119,NR12 8NY,52.711694248260400,1.419468016535630
Night heron and worm lizard,662768,NR13 5LU,52.625193218497600,1.423119886634710
Hawaiian honeycreeper and blue racer,666431,NR1 1RT,52.626315501303900,1.313851275025840
Marsh harrier and Lemming,645972,NR7 0LY,52.639046136004100,1.352971807388780
Peafowl and boa constrictor,666459,NR1 1TX,52.624747449345500,1.322304620337150
chameleon and dukite,2636238,NR13 4FN,52.634101000000000,1.454570000000000
Tattler and Puffleg,665991,NR1 4JU,52.633932767579000,1.318359429486650
Hawk and viper,654072,NR29 5NH,52.702918536511900,1.585737797376490
hoop snake and Kākāriki,665833,NR1 3XY,52.647717572928200,1.322937921719450
iguana and Partridge,663335,NR13 3BW,52.638481164807900,1.547002257606780
boomslang and Myna,663876,NR12 9AN,52.772143206863900,1.512669000000000
Old World warbler and Stint,663999,NR12 8AJ,52.711561650627700,1.409091393046470
Jerboa and Snipe,646010,NR7 0PZ,52.629484646569900,1.344746270333390
diamondback terrapin and Jackal,666409,NR1 3DR,52.647717572928200,1.322937921719450
Chickadee and Towhee,653981,NR29 5HD,52.682853000000000,1.636188000000000
blue tongue and anole,662834,NR13 5NL,52.627018860531000,1.431509923368870
racer and Perching duck,662828,NR13 5NB,52.623597340084300,1.431951433117390
death adder and Nukupuʻu,663271,NR13 4EJ,52.647065022287600,1.506440331904770
milk snake and Grouse,662872,NR13 5QP,52.626330888627100,1.427628001502940
Hawk and American sparrow,663303,NR13 4HU,52.613561822946400,1.454762898249960
Dolphin and blindworm,663564,NR12 9JL,52.799843000000000,1.479168000000000
tortoise and harlequin snake,663329,NR13 3BL,52.639597367004400,1.545170589058330
Shearwater and Stilt,2644676,NR12 7BU,52.715733000000000,1.363570000000000
puff adder and Armadillo,645551,NR7 8DL,52.662818791308500,1.329739000000000
garter snake and Old World vulture,664023,NR12 9EP,52.776443703356200,1.503744233794550
Scimitar babbler and king snake,654616,NR29 3BZ,52.686776662339500,1.578804188922580
blind snake and Mouse,2584855,NR12 9FR,52.772051000000000,1.523619000000000
alligator and tortoise,666116,NR1 4QB,52.633587407749300,1.321053186479810
Shearwater and constrictor,663752,NR12 8RJ,52.728152218295800,1.428208537088520
wall lizard and kabaragoya,652396,NR30 5TA,52.645033794630800,1.713978760434160
Greenbul and thorny devil,662525,NR13 6ER,52.667042969396300,1.511532482539650
green turtle and frilled lizard,666138,NR1 3NS,52.647717572928200,1.322937921719450
thorn lizard and iguana,663510,NR13 3QD,52.615207000000000,1.568171000000000
Badger and gecko,654857,NR28 0JW,52.817666999008200,1.347017182125770
Minke whale and sand lizard,654840,NR28 0HZ,52.821466592456900,1.382049397619440
tortoise and swift,663734,NR12 8QH,52.714030681046600,1.412675498830840
death adder and Night heron,645355,NR7 8XF,52.651885902282300,1.321183878274040
tree snake and Pratincole,662555,NR13 6JF,52.666206250506000,1.468829435000700
Thicketbird and American sparrow,645976,NR7 0ND,52.640770228894900,1.357509619454880
goanna and Jay,654127,NR29 4JE,52.694041134454600,1.705513736154550
tiger snake and Pitohui,662935,NR13 4PB,52.620899801749700,1.484558243776840
Jerboa and Black cockatoo,645102,NR7 9TN,52.647020571863100,1.336207864264940
bandy-bandy and Marsh harrier,663663,NR12 9QP,52.760835942487100,1.531119285790720
Tree warbler and Treepie,662865,NR13 5QE,52.629061437158800,1.427752898090610
Schneider python and tiger snake,654647,NR28 9AZ,52.815589908513100,1.388168732956020
Gila monster and green turtle,2644734,NR28 0FS,52.810382000000000,1.381667000000000
jew lizard and Pheasant,2655997,NR1 1GT,52.624961000000000,1.318190000000000
frill-necked lizard and Dorcopsis,652611,NR30 5BG,52.645854051963700,1.723941481566460
bearded lizard and Scimitar babbler,2636237,NR13 4FL,52.634491000000000,1.454172000000000
mamba and Polecat,654028,NR29 4ET,52.695228963074100,1.689655094691110
leguaan and slowworm,645073,NR7 9QT,52.645701957461100,1.340868606127130
Kangaroo and Viscacha,652119,NR31 0HR,52.604327000000000,1.713337000000000
Recurvebill and flying dragon,654345,NR29 3PE,52.681093000000000,1.715703097602150
elapid and Capuchin,663950,NR12 7JT,52.738387882808300,1.351485001666120
Songlark and Greenbul,662758,NR13 5LG,52.624174030286300,1.436563430267130
Cuscus and Chipmunk,666213,NR1 3TQ,52.647717572928200,1.322937921719450
Logrunners and monitor,664018,NR12 9EG,52.773358779272200,1.510733454337430
rat snake and cerastes,664166,NR12 0SL,52.806125000000000,1.571851000000000
turtle and mountain devil,663285,NR13 4FB,52.619202421055600,1.482945514789780
milk snake and Songlark,663364,NR13 3EL,52.643771376146300,1.544547359095910
puff adder and boa constrictor,666512,NR1 3FF,52.647717572928200,1.322937921719450
Kite and Chicken,663328,NR13 3BJ,52.638966531182600,1.544010663906350
Parakeet and sidewinder,645699,NR7 0XP,52.635787639104100,1.352116319140610
Pheasant and worm lizard,653088,NR30 1LD,52.609424179397800,1.722264776053210
wall lizard and Kestrel,663814,NR13 3AQ,52.604091295256000,1.572569866441390
hognose snake and whip snake,654035,NR29 4HA,52.699144453704400,1.689274995906710
Mockingbird and Greenbul,2591900,NR29 4US,52.717100000000000,1.690694000000000
indigo snake and tiger snake,666462,NR1 1UA,52.624854398247500,1.319994000000000
cayman and cerastes,652398,NR30 5TD,52.631269667330100,1.724638135301850
Stilt and River dolphin,665419,NR10 5DN,52.778338988248300,1.364137320466320
New World blackbird and grass snake,653968,NR29 5ER,52.687363487039700,1.623093903366780
harlequin snake and horned viper,664009,NR12 8BB,52.749145000000000,1.485544000000000
diamond snake and swift,645368,NR7 9AA,52.645029747546700,1.331531679684360
galliwasp and Lemming,653092,NR30 1LJ,52.608376934734800,1.722958955495120
death adder and tokay,663045,NR13 4SU,52.636743689027200,1.484297000000000
tree snake and Cloud rat,663061,NR13 4TS,52.625124765356100,1.488603938523390
taipan and Stilt,663710,NR12 9TE,52.774552000000000,1.547417000000000
jew lizard and Marmoset,1702779,NR31 9WX,52.612418000000000,1.724617000000000
Scimitar babbler and Diving bird,662755,NR13 5LD,52.623293058045700,1.440263032498410
anaconda and Asiatic leopard,663932,NR12 7HW,52.732150377730900,1.362132727212330
death adder and B,654769,NR28 9HW,52.819274576357500,1.397065992903720
copperhead and Mouse,662684,NR13 6QD,52.675794939684000,1.412334000000000
snapping turtle and bushmaster,654447,NR28 9SB,52.781300589254200,1.413431978364090
Zebra and Recurvebill,654891,NR28 9PG,52.796684526269700,1.456109680862730
Parakeet and Mockingbird,663455,NR13 3LH,52.610924999308200,1.514675215244000
boa and Minke whale,663740,NR12 8QS,52.719159000000000,1.415757000000000
iguana and hoop snake,663298,NR13 4HP,52.600070174815400,1.464010635185060
New World blackbird and Gila monster,663257,NR13 4DN,52.617198951332700,1.473077686612700
chameleon and Chicken,645261,NR7 8QA,52.661204412672500,1.322748780057340
monitor and Scimitar babbler,645717,NR7 0YP,52.640680684370900,1.362248641541510
Maya and skink,664083,NR12 8HT,52.752915247529600,1.420949173462110
mamba and Hawaiian honeycreeper,663944,NR12 7JL,52.732272730581600,1.358453031431710
flying lizard and gopher snake,654575,NR28 9YB,52.811913664138800,1.392810462617790
Rat and diamond snake,663342,NR13 3DE,52.635925286165000,1.547652761305500
Ground sloth and coral snake,653987,NR29 5HL,52.682506000000000,1.607832000000000
Masked owl and death adder,1798217,NR12 8FE,52.699653811300000,1.399868000000000
agamid and Jerboa,645112,NR7 9UD,52.644407944721100,1.332534176435860
Songlark and Vole,662974,NR13 4RH,52.637380222468800,1.447439000000000
hoop snake and Mole,663822,NR13 3BA,52.638503932310000,1.549842769588790
Kite and Pheasant,663762,NR12 8SA,52.704445393504100,1.400718410282080
Recurvebill and Piping shrike,654570,NR28 9XT,52.818312456414200,1.406150394641020
Recurvebill and thorn lizard,663777,NR12 8SW,52.700965907029000,1.399774000000000
Crow and blue tongue,653999,NR29 5JB,52.713448000000000,1.574872000000000
Myna and death adder,662551,NR13 6JA,52.672231351409800,1.487535621417060
Gull and leathery turtle,645707,NR7 0XY,52.634025000000000,1.348330000000000
rat snake and Warbler,661730,NR14 8GE,52.609777373575800,1.322145480683690
Partridge and puff adder,1798631,NR29 3WJ,52.612418000000000,1.724582734800000
slowworm and Piping shrike,663522,NR13 3QT,52.640434249074900,1.546657725022390
blind snake and box turtle,645713,NR7 0YH,52.635350787529700,1.365609234749610
rat snake and Chipmunk,645153,NR7 9XQ,52.641667654567000,1.338180520011450
hawksbill and Chipmunk,663613,NR13 3RR,52.606859370010500,1.577404918693730
amphisbaena and cycling lizard,645695,NR7 0XH,52.634182000000000,1.344706000000000
copperhead and taipan,662945,NR13 4PS,52.649968345077900,1.454499635089210
death adder and glass snake,663184,NR13 4AT,52.622686232848900,1.489252244243540
Vulture and Prion,645979,NR7 0NG,52.638628152041700,1.350263917405670
boomslang and sea snake,655093,NR28 0TQ,52.822662384904000,1.383953626864190
Masked owl and tree snake,653976,NR29 5GA,52.742748000000000,1.535702000000000
soft-shelled turtle and asp,652302,NR30 5RQ,52.652883493722400,1.719791786216170
Minke whale and giant tortoise,652243,NR30 5NE,52.656540483626800,1.723591000000000
Masked owl and Schneider python,663656,NR12 9QE,52.766178004662400,1.529624293579870
Linsang and Moluccan boobook,2285255,NR12 9JF,52.799963000000000,1.484302000000000
diamondback terrapin and Piping shrike,663668,NR12 9QU,52.759939608041700,1.531921432313390
death adder and Pratincole,655314,NR28 0EY,52.815998000000000,1.379888000000000
deaf adder and Bunting,654056,NR29 5LL,52.721727510705700,1.579727422505570
Argus and amphisbaena,645999,NR7 0PJ,52.637860506763700,1.351964471316810
taipan and constrictor,645134,NR7 9UU,52.644060000000000,1.334725000000000
loggerhead and Partridge,663031,NR13 4RX,52.651041149550400,1.439278131276170
Nukupuʻu and rock python,652117,NR31 0HN,52.604812637343300,1.713304328032880
Grouse and Mink,2583842,NR28 0FN,52.815816000000000,1.383748000000000
black snake and Kestrel,645891,NR7 0HH,52.626823384196900,1.343759824596870
Myna and thorny devil,654876,NR28 0LU,52.808477000000000,1.348908000000000
slowworm and Goose,645903,NR7 0JE,52.636047572746100,1.343562023056370
Masked owl and crocodile,663965,NR12 7LT,52.706161000000000,1.331867000000000
Gull and Herring gull,663101,NR13 5BP,52.649365785525300,1.372468290756540
Ibex and Dolphin,652046,NR31 0BA,52.607614945804300,1.715152135005010
monitor and Hawaiian honeycreeper,663177,NR13 4AJ,52.630290809969100,1.469518227203390
Ibex and diamondback,664110,NR12 8NE,52.700875147090100,1.489139888619990
wall lizard and Cloud rat,654259,NR29 3LX,52.681138582410000,1.663454562639280
cerastes and Quetzal,654562,NR28 9XH,52.818668560041200,1.404085070166420
boomslang and box turtle,664215,NR12 0XA,52.788390140012700,1.552312236352100
Coati and Dolphin,1798833,NR7 0SJ,52.628894000000000,1.355476000000000
Komodo dragon and Rabbit,654521,NR29 4EJ,52.762926246194300,1.643885727229240
skink and loggerhead,663703,NR12 9SU,52.779298711210500,1.534810345171600
python and Elephant,2579594,NR30 9GB,52.612418000000000,1.724582734800000
New World blackbird and Prion,645395,NR7 9DJ,52.646235355905100,1.329597646165170
Recurvebill and bandy-bandy,654062,NR29 5LU,52.727045000000000,1.566000000000000
Civet and White ibis,652266,NR30 5PJ,52.662702100937700,1.724768649638750
copperhead and jew lizard,662667,NR13 6PF,52.663544639299300,1.378930423061630
bearded dragon and diamond snake,654241,NR29 3JZ,52.674612671953400,1.687945327340510
Magpie and indigo snake,2581740,NR7 7XS,52.647710000000000,1.322937000000000
turtle and agamid,661728,NR14 8GB,52.610302142029300,1.320752130211900
Old World warbler and cobra de capello,2592761,NR7 8FP,52.662593000000000,1.337016000000000
terrapin and Siskin,652323,NR30 5SU,52.642567499130000,1.692476622221370
Nukupuʻu and boa,652123,NR31 0HW,52.605939877503500,1.719797130092090
Rat and Buzzard,645677,NR7 0WF,52.631140521935100,1.374860000000000
Siskin and snapping turtle,654774,NR28 9JD,52.813772758289200,1.396042847370640
Thicketbird and Schneider python,654714,NR29 3HL,52.659787638660000,1.639478443768160
Hawaiian honeycreeper and Egret,663043,NR13 4SS,52.630656000000000,1.484922869734980
elapid and asp,662727,NR13 5HQ,52.612466000000000,1.379691000000000
bull snake and frilled lizard,645533,NR7 0RG,52.628944000000000,1.353396000000000
anaconda and anaconda,655168,NR28 0AE,52.822472012727300,1.384522000000000
Cloud rat and pit viper,654768,NR28 9HU,52.814071736186000,1.399732582362360
black snake and Partridge,2584762,NR13 6FA,52.663776000000000,1.492808000000000
python and Pheasant,663887,NR12 9BB,52.772013522006700,1.514851626788190
Myna and hognose snake,645997,NR7 0PG,52.635426188290700,1.350779000000000
diamond python and Bronzewing pigeon,662699,NR13 6QY,52.676411000000000,1.411412000000000
Kite and whip snake,662685,NR13 6QE,52.675395760692400,1.411332820536670
racer and Asiatic leopard,645463,NR7 7SR,52.627220410982400,1.327118225670710
Thicketbird and horned viper,2629256,NR13 6TE,52.680063000000000,1.403564000000000
Boto and Ice seal,663595,NR12 9NH,52.766884000000000,1.450114000000000
Logrunners and Hawk,663563,NR12 9JJ,52.776513206880800,1.519307984108780
Minke whale and bandy-bandy,2591828,NR28 0FA,52.815017000000000,1.382487000000000
Hawaiian honeycreeper and Grackle,663006,NR13 6DS,52.658312778077200,1.491662615293440
Treepie and Stint,1798618,NR28 9NE,52.813136482100000,1.414999000000000
Philippine hawk-owl and Night heron,645671,NR7 0UU,52.636502394965400,1.362430596033240
terrapin and Songlark,666028,NR1 3GD,52.647717572928200,1.322937921719450
Moluccan boobook and Snipe,663859,NR12 8YL,52.737138000000000,1.426677000000000
wall lizard and rock snake,654168,NR29 4NH,52.696536757245500,1.683473383764790
Prion and Triller,645083,NR7 9RF,52.643589126641900,1.339568953152230
Duck and Argus,664211,NR12 0UU,52.784908443452700,1.601813161221540
tortoise and Vulture,664176,NR12 0SZ,52.807677802102400,1.566249547937290
sidewinder and rock snake,2629352,NR7 8GN,52.658768000000000,1.345067000000000
Parrotlet and Marmoset,666450,NR1 1TH,52.625650579242500,1.318323508714210
White ibis and Thicketbird,1798258,NR13 4WP,52.633746434200000,1.447558598200000
Stilt and Siskin,662669,NR13 6PH,52.665707306182500,1.371212614703250
Pratincole and Zebra,664069,NR12 8FB,52.702171260226300,1.466700000000000
Pheasant and Fish eagle,652418,NR30 5UF,52.650472591845500,1.714647224341350
Partridge and Old World warbler,2591829,NR28 0FJ,52.814981000000000,1.384058000000000
diamond python and water snake,645386,NR7 9BB,52.651210083108400,1.335624981580230
Egret and Marsh harrier,645827,NR7 0BU,52.626866706395000,1.325303007190460
Thicketbird and bushmaster,665958,NR1 4HD,52.633678346218100,1.314600276648690
cycling lizard and rock python,663185,NR13 5DU,52.624103645769500,1.405137000000000
sea snake and king cobra,663951,NR12 7JU,52.747013302665100,1.354963399004880
Boto and wall lizard,651959,NR30 9EJ,52.612418000000000,1.724582913069550
blindworm and crocodile,1798264,NR13 5SD,52.630521141300000,1.423890826300000
Kestrel and bull snake,662560,NR13 6JN,52.667093000000000,1.437862000000000
Ground sloth and Grouse,664290,NR12 7DL,52.727147025707400,1.359836000000000
Argus and Schneider python,652402,NR30 5TJ,52.625829211412800,1.698500776624980
ringhals and coral snake,654006,NR29 5JN,52.704657692800000,1.591566526017230
Old World quail and Condor,662702,NR13 6RB,52.680298690686000,1.419084768887000
whip snake and sand viper,654401,NR29 3SE,52.676929953446800,1.692091888105820
brown snake and Gull,645895,NR7 0HR,52.630291178486400,1.365471894240180
diamondback and Fish eagle,652293,NR30 5RD,52.650714995628100,1.718098978458890
hawksbill and Old World quail,652409,NR30 5TU,52.654291023269900,1.714497969938610
Gull and asp,645680,NR7 0WJ,52.632734407586000,1.376317412238340
loggerhead and Shearwater,645272,NR7 8QQ,52.661666920715300,1.320047437312620
Prion and Badger,664084,NR12 8HU,52.752573335416100,1.412532615780880
perentie and ringhals,662015,NR14 8TL,52.611127437513400,1.318583670000230
Elephant and Marmoset,664294,NR12 7DR,52.728950336278500,1.364923310212410
Rabbit and flying lizard,2656092,NR7 0FB,52.624673000000000,1.344076000000000
Goose and gopher snake,663081,NR13 5AJ,52.650082000000000,1.369773000000000
Black jay and frilled lizard,662962,NR13 4QP,52.650931142514600,1.444608134876560
Siskin and tortoise,663502,NR13 3PT,52.616597611737700,1.573027511759640
turtle and diamondback,663878,NR12 9AQ,52.771024000000000,1.516700000000000
