name,postcode,lat,lon
Moluccan boobook and gopher snake,NR1 1JP,52.622795549964200,1.314294521872860
Siskin and Capuchin,NR1 1RJ,52.625226113240600,1.315498084766370
Herring gull and racer,NR1 1RT,52.626315501303900,1.313851275025840
Pheasant and sand viper,NR1 3PW,52.647717572928200,1.322937921719450
Marsh harrier and Jay,NR1 3RG,52.647735000000000,1.322960000000000
Triller and deaf adder,NR1 3TU,52.647717572928200,1.322937921719450
Viscacha and Stint,NR1 3WF,52.647717572928200,1.322937921719450
Parrotbill and Logrunners,NR1 3WL,52.647717572928200,1.322937921719450
alligator and rock snake,NR1 3WP,52.647717572928200,1.322937921719450
amphisbaena and Duck,NR1 3WY,52.647717572928200,1.322937921719450
anole and Pratincole,NR1 3XE,52.647717572928200,1.322937921719450
Lemming and Shearwater,NR1 4AN,52.627840393584600,1.318489313596880
Gila monster and worm lizard,NR1 4AR,52.630322304422700,1.315292407395390
monitor and gavial,NR1 4AU,52.630339877721300,1.314022569471490
Rabbit and Quetzal,NR1 4AW,52.626137272672000,1.322753000000000
Civet and Crow,NR1 4AX,52.629907464206600,1.312763056337060
tortoise and diamond python,NR1 4HF,52.633798338886400,1.316737989151510
Wader and Black cockatoo,NR1 4JF,52.632255638756200,1.312733638133790
anole and Kite,NR1 4LB,52.636402837147200,1.323602331006220
box turtle and Recurvebill,NR1 4NA,52.638050249553900,1.320341856773310
Thicketbird and kabaragoya,NR1 4NH,52.639529426070700,1.321474077195990
snapping turtle and ringhals,NR1 4NU,52.632412946803000,1.319959012097430
River dolphin and bushmaster,NR10 3PZ,52.689613808957900,1.321843340622340
Hawaiian honeycreeper and Flameback,NR10 3QJ,52.693020815665900,1.321258462342760
amphisbaena and jew lizard,NR10 5BB,52.794263175301600,1.330500566972130
goanna and Macaw,NR10 5DF,52.764012432332200,1.355559407738920
python and Zebra,NR10 5DW,52.777466000000000,1.359424557715490
Mockingbird and tuatara,NR10 5GB,52.759012000000000,1.347006000000000
Duck and Mouse,NR10 5LD,52.759306000000000,1.329224000000000
horned viper and Grackle,NR11 6TW,52.778307000000000,1.315503000000000
Parrotlet and Ground sloth,NR12 0AD,52.754784239371500,1.569794836191090
hognose snake and loggerhead,NR12 0AJ,52.812057000000000,1.538309542096450
amphisbaena and agamid,NR12 0AX,52.745250499557600,1.554534639873160
Night heron and Flameback,NR12 0BJ,52.757165393302800,1.581197521504770
bull snake and Goose,NR12 0DQ,52.797097701160800,1.553170860467670
Capuchin and soft-shelled turtle,NR12 0DT,52.773432000000000,1.585515000000000
Old World warbler and coral snake,NR12 0PL,52.824697000000000,1.530711366663390
blindworm and Dorcopsis,NR12 0QD,52.819309149905400,1.532536886719210
worm lizard and hognose snake,NR12 0QQ,52.809653000000000,1.543895000000000
asp and Kestrel,NR12 0QZ,52.818422000000000,1.524597000000000
Thrasher and gavial,NR12 0RH,52.808894000000000,1.522296000000000
Shearwater and Grouse,NR12 0TE,52.791384601305300,1.547526812427220
White ibis and blue tongue,NR12 0XU,52.757281833612400,1.571081505902170
crocodile and sand lizard,NR12 0XX,52.758678022330300,1.571907465115730
slowworm and New World blackbird,NR12 7AR,52.729213263436400,1.373387970561330
Armadillo and Triller,NR12 7EH,52.719396336230700,1.351375412945920
Stint and box turtle,NR12 7JQ,52.733401966241200,1.358910305383280
Goose and Asiatic leopard,NR12 7LL,52.709354000000000,1.325792202214210
Prion and horned toad,NR12 8BB,52.749145000000000,1.485544000000000
White ibis and alligator,NR12 8EP,52.748831651604300,1.402220577700900
gecko and skink,NR12 8ES,52.747799978191300,1.399309286352930
grass snake and Fox,NR12 8FF,52.699114000000000,1.398172000000000
ringhals and milk snake,NR12 8HE,52.770012000000000,1.388778000000000
puff adder and diamondback terrapin,NR12 8LH,52.705136725321000,1.466529302310390
Dorcopsis and sand lizard,NR12 8PL,52.701779518788600,1.470912031196810
swift and racer,NR12 8RS,52.709331000000000,1.405082000000000
diamondback turtle and anaconda,NR12 9AA,52.793740000000000,1.475639000000000
Condor and Maya,NR12 9AG,52.772214202713600,1.511115827708140
king snake and hawksbill,NR12 9AQ,52.771024000000000,1.516700000000000
Tahr and Minke whale,NR12 9BQ,52.774741114013500,1.512950773664780
Linsang and Grosbeak,NR12 9DD,52.766464509509700,1.514537711318570
Stint and ringhals,NR12 9ES,52.782730259270400,1.503448706500920
Kite and Darwin's finches,NR12 9HD,52.793754145680400,1.512659074305980
Parakeet and Marsh harrier,NR12 9HE,52.793455000000000,1.514890000000000
Vulture and Argus,NR12 9HY,52.809102192394400,1.488145691409390
Old World quail and coral snake,NR12 9LH,52.772608423503500,1.486796658462230
Grackle and Puffleg,NR12 9NQ,52.767639549642200,1.459381000000000
Eagle and cerastes,NR12 9PB,52.769697818300300,1.520448273517290
Kite and Black cockatoo,NR12 9PQ,52.770069684139300,1.523370012341840
bushmaster and worm lizard,NR12 9QA,52.766901000000000,1.530454000000000
goanna and snake,NR12 9QF,52.764530156420900,1.529387103329620
Rat and bicycle lizard,NR12 9RL,52.753183565649700,1.537096259690920
Logrunners and Schneider python,NR12 9RR,52.762927504371700,1.527329887524520
coral snake and gaboon viper,NR12 9SR,52.790441030695500,1.537568987704400
rock python and Snipe,NR12 9YB,52.772660000000000,1.511928000000000
king cobra and Songlark,NR13 3AB,52.610490806325300,1.513547051655090
black snake and diamondback,NR13 3AT,52.649319000000000,1.568584000000000
Guillemot and Pratincole,NR13 3BN,52.639912197721000,1.543067005020050
harlequin snake and Capuchin,NR13 3ED,52.642468639626700,1.542697166330520
rattlesnake and Shearwater,NR13 3EU,52.639635716777200,1.550792035462000
dugite and grass snake,NR13 3JT,52.639924563994400,1.526390352712800
Parrotlet and giant tortoise,NR13 3JY,52.618491703133800,1.520941811074590
mamba and massasauga,NR13 3LE,52.614754587991600,1.517464693807830
blindworm and Condor,NR13 3QA,52.608281131001200,1.575895703793190
Eagle and galliwasp,NR13 3QP,52.641088079629900,1.558679000000000
Jackal and diamond python,NR13 4BP,52.619615484416700,1.486022621187600
skink and dukite,NR13 4DR,52.638937000000000,1.430595000000000
Towhee and turtle,NR13 4EG,52.643805264034900,1.488613191692460
jew lizard and Magpie,NR13 4HN,52.600346235450600,1.478818731498110
flying lizard and Chicken,NR13 4JB,52.636128468426000,1.445794663538800
Francolin and Crow,NR13 4PJ,52.650258780287400,1.451017720766070
Buzzard and tokay,NR13 4QG,52.656423000000000,1.446327000000000
agamid and sea snake,NR13 4QH,52.652891373838000,1.439674890438340
crocodile and agama,NR13 4RW,52.645002000000000,1.442037458501210
Chipmunk and Fulmarine petrel,NR13 4SY,52.643424000000000,1.490298000000000
Tattler and Herring gull,NR13 4TA,52.636349670167900,1.497245000000000
alligator and sidewinder,NR13 4TX,52.633862000000000,1.439606000000000
rattlesnake and pit viper,NR13 4UH,52.625700391608500,1.496527592342750
Guillemot and Pratincole,NR13 4WE,52.633774000000000,1.447582000000000
Partridge and bicycle lizard,NR13 5BH,52.647608783461600,1.371002143144370
skink and cycling lizard,NR13 5BU,52.650543622519600,1.371849178735910
adder and Mockingbird,NR13 5DN,52.635261000000000,1.418052000000000
snapping turtle and Triller,NR13 5EA,52.638428779640500,1.402968401623100
Solitaire and anaconda,NR13 5FE,52.645863740108300,1.412935000000000
Grosbeak and Marmoset,NR13 5HF,52.620932044533200,1.390245490342920
Ibex and Fulmarine petrel,NR13 5HH,52.620695194358600,1.377769287778210
bearded dragon and saltwater crocodile,NR13 5JF,52.658217201766900,1.414460758458320
viper and sidewinder,NR13 5JU,52.623926290157700,1.434563573734420
Scimitar babbler and indigo snake,NR13 5LE,52.624087899579900,1.439837703618640
sea snake and puff adder,NR13 5LG,52.624174030286300,1.436563430267130
swift and kabaragoya,NR13 5NF,52.623557991586400,1.433308038275490
coral snake and puff adder,NR13 5NP,52.624295608885300,1.379243872832980
Boto and Armadillo,NR13 5QE,52.629061437158800,1.427752898090610
hognose snake and cobra de capello,NR13 6BN,52.660712005408700,1.548300763560250
Recurvebill and Siskin,NR13 6BQ,52.658774863457700,1.545111444206170
anaconda and milk snake,NR13 6DA,52.651180240117000,1.548829624408500
moloch and Parakeet,NR13 6DP,52.663221452211100,1.489598628176510
loggerhead and monitor,NR13 6EG,52.668494808456500,1.511708178610410
horned viper and hawksbill,NR13 6FE,52.672568000000000,1.488959000000000
River dolphin and indigo snake,NR13 6HU,52.671481000000000,1.488008000000000
Asiatic leopard and soft-shelled turtle,NR13 6HZ,52.673441000000000,1.489866000000000
diamond python and American sparrow,NR13 6JQ,52.662742000000000,1.467697000000000
rattlesnake and puff adder,NR13 6LG,52.664938253505200,1.366316084975980
black snake and garter snake,NR13 6LT,52.673899227727800,1.370630546418850
copperhead and flying lizard,NR13 6NF,52.678297631435000,1.363023225228580
Ibex and Meadowlark,NR13 6PB,52.669970745341500,1.393866271743750
Siskin and giant tortoise,NR13 6PE,52.665451252878700,1.383027401459280
Eagle and agamid,NR13 6PP,52.669909079282500,1.369257958684230
flying lizard and moloch,NR13 6QW,52.661952776254900,1.380621000000000
Chipmunk and Rabbit,NR13 6QY,52.676411000000000,1.411412000000000
Jerboa and diamondback terrapin,NR13 6RN,52.677299000000000,1.413050000000000
Boto and harlequin snake,NR13 6SD,52.675553104149000,1.415858086123390
whip snake and Piping shrike,NR13 6SU,52.665779595335400,1.379088188226540
agamid and diamond snake,NR13 6TA,52.666727000000000,1.384345000000000
perentie and Marmoset,NR14 7AQ,52.606879493967300,1.420390159761980
Lemming and fer-de-lance,NR14 7DZ,52.601632214017000,1.372268538708690
Parrotbill and Armadillo,NR14 8RN,52.610778262461900,1.322694087715210
Minke whale and Parrotlet,NR28 0BB,52.824479686487100,1.385193658041150
terrapin and tortoise,NR28 0BW,52.819408060769900,1.376530000000000
tiger snake and python,NR28 0EG,52.817478804566800,1.376811015230690
Chickadee and python,NR28 0EW,52.816385607618900,1.377616866834150
brown snake and Komodo dragon,NR28 0FQ,52.816213000000000,1.383393000000000
viper and Parrotlet,NR28 0JQ,52.816553874342100,1.366006682611170
Grackle and Argus,NR28 0LT,52.812837952703600,1.321412643617150
jew lizard and Coati,NR28 8AA,52.820835721772000,1.388870000000000
kabaragoya and Magpie,NR28 9AB,52.796291000000000,1.448263374015400
brown snake and Vole,NR28 9AF,52.812610380853600,1.388575072904690
boa constrictor and Kite,NR28 9AQ,52.816853623817300,1.396328000000000
Greenbul and dukite,NR28 9BX,52.820773000000000,1.387504764227760
Tattler and Jackal,NR28 9EA,52.823779680738500,1.393008128563770
Recurvebill and Dorcopsis,NR28 9FD,52.806162000000000,1.392392000000000
fer-de-lance and snapping turtle,NR28 9HX,52.814257521771100,1.399212715621400
Fish eagle and Condor,NR28 9HZ,52.815857000000000,1.394605782794590
diamond python and Solitaire,NR28 9LB,52.821464862935600,1.398780990518100
box turtle and Tattler,NR28 9NQ,52.820835721772000,1.388870000000000
bandy-bandy and grass snake,NR28 9QD,52.820820684928400,1.399918363356920
Mink and rock python,NR28 9QZ,52.792791955128800,1.433145198041820
brown snake and flying lizard,NR28 9UY,52.821609821705000,1.401880352150660
cycling lizard and deaf adder,NR28 9XL,52.818260788411600,1.403251533308350
puff adder and glass snake,NR28 9YB,52.811913664138800,1.392810462617790
Goose and Kite,NR28 9YD,52.823438883812100,1.397999822539300
Zebra and whip snake,NR29 3AH,52.641047407708000,1.637876483728060
boa constrictor and Thicketbird,NR29 3AP,52.688467877079100,1.554608586153390
king snake and sand lizard,NR29 3AQ,52.670969898825800,1.614160481368980
diamondback and Fulmarine petrel,NR29 3AZ,52.670293610122600,1.615983674253380
Asiatic leopard and coral snake,NR29 3BE,52.662670000000000,1.599673000000000
frill-necked lizard and Minke whale,NR29 3BF,52.668909093573300,1.613901466576810
Grosbeak and snake,NR29 3DJ,52.670344616862600,1.613724134215150
whip snake and ringhals,NR29 3EJ,52.638851000000000,1.666540000000000
puff adder and Black jay,NR29 3FB,52.669886779800000,1.622474898000000
bull snake and River dolphin,NR29 3LW,52.676615544166400,1.654685165001070
Parrotbill and Pitohui,NR29 3LX,52.681138582410000,1.663454562639280
Chickadee and boa,NR29 3NS,52.684771452100600,1.713431110780640
box turtle and Perching duck,NR29 3PP,52.672515848083200,1.699798396369320
monitor and Viscacha,NR29 3QS,52.676081000000000,1.719553783603600
snake and Scimitar babbler,NR29 3RA,52.673374142102700,1.685547346020660
Old World warbler and Bronzewing pigeon,NR29 3RF,52.674707964655900,1.683440100549460
Booted eagles and Vole,NR29 3RT,52.677268056715800,1.686437821267990
mamba and Francolin,NR29 3SD,52.676506490706300,1.690961072090120
White ibis and diamondback turtle,NR29 4AZ,52.713123000000000,1.690737000000000
cycling lizard and perentie,NR29 4BG,52.716575386255500,1.693620823227300
Coati and Marmoset,NR29 4BZ,52.704277031382100,1.701199108693190
Buzzard and Capuchin,NR29 4DB,52.714760620798700,1.687779847603950
perentie and Grouse,NR29 4EQ,52.753124000000000,1.644445000000000
Peafowl and chuckwalla,NR29 4HA,52.699144453704400,1.689274995906710
Booted eagles and alligator,NR29 4HE,52.699338590702300,1.689972459374590
rat snake and viper,NR29 4HJ,52.697173240155200,1.694380000000000
flying dragon and asp,NR29 4NT,52.694303326860500,1.691072183425350
cobra and White ibis,NR29 4PL,52.703895242054500,1.635125753668520
Elephant and Lemming,NR29 4PR,52.707380384095700,1.632054215422770
Stilt and mountain devil,NR29 4QY,52.702558611771000,1.626648000000000
Fish eagle and habu,NR29 4SJ,52.699590373099300,1.632961349579590
puff adder and leathery turtle,NR29 4TE,52.696829000000000,1.684520000000000
Lemming and racer,NR29 5AA,52.740424041106700,1.534580050874470
White ibis and hawksbill,NR29 5AS,52.739642098768200,1.533657218810350
Logrunners and Myna,NR29 5EG,52.682358144311400,1.637612304754330
whip snake and Nukupu ªu,NR29 5EQ,52.682832274299400,1.637696147093620
Towhee and Kestrel,NR29 5LF,52.717785185048200,1.573864698279560
Perching duck and blind snake,NR29 5NS,52.702983169007700,1.535726321919180
Tahr and Scimitar babbler,NR29 5NY,52.702084358143800,1.514554810565970
Kestrel and Pheasant,NR29 5PY,52.724999000000000,1.533716000000000
Duck and Jerboa,NR3 1QZ,52.647717572928200,1.322937921719450
Myna and Night heron,NR3 4HP,52.647717572928200,1.322937921719450
Fox and Elephant,NR30 1HZ,52.607603000000000,1.722154000000000
Mouse and alligator,NR30 1JJ,52.610935154400000,1.721358699900000
Myna and Old World quail,NR30 1JZ,52.613886988304300,1.722791504797870
Chickadee and Snipe,NR30 1QN,52.616880451199900,1.724848697650350
leguaan and viper,NR30 1SL,52.617231030954000,1.721139582915400
amphisbaena and flying lizard,NR30 5JP,52.649277115953200,1.719695000000000
diamondback terrapin and boa constrictor,NR30 5JR,52.648934186363100,1.715803329719380
elapid and Old World vulture,NR30 5PJ,52.662702100937700,1.724768649638750
diamond python and flying lizard,NR30 5PP,52.662323343651700,1.722798452926820
anaconda and Skunk,NR30 5RA,52.653032992314100,1.717776000000000
bearded dragon and python,NR30 5RJ,52.652418214856400,1.718569032815490
saltwater crocodile and Peafowl,NR30 5SU,52.642567499130000,1.692476622221370
Partridge and Zebra,NR30 5TY,52.653347586137600,1.715039108484190
Mockingbird and Parrotbill,NR30 5UL,52.652738431653100,1.716392484288680
monitor and Petrel,NR30 9GF,52.612445000000000,1.724641000000000
Peafowl and Eagle,NR30 9GL,52.612445000000000,1.724641000000000
sidewinder and Chipmunk,NR31 0AR,52.608512671910600,1.715494161590750
Meadowlark and Booted eagles,NR31 0AX,52.606661000000000,1.713195000000000
Piping shrike and Magpie,NR31 0BT,52.607758611657900,1.716878216425380
water snake and Ibex,NR31 0EU,52.600277000000000,1.720060289739860
iguana and Kite,NR6 6EJ,52.647717572928200,1.322937921719450
Parakeet and Hawaiian honeycreeper,NR7 0AQ,52.635583000000000,1.328827743702770
Polecat and king snake,NR7 0AY,52.638618708065300,1.336588061879720
flying dragon and Duck,NR7 0BG,52.627619742802200,1.325389704983610
Goose and Stilt,NR7 0BQ,52.628146326602700,1.326493845076530
bull snake and rock python,NR7 0BW,52.631480807722900,1.328491186096710
bearded dragon and Tahr,NR7 0EP,52.627413080123800,1.335291464217380
Booted eagles and Cloud rat,NR7 0JG,52.633517622964300,1.343339393652940
Kite and Songlark,NR7 0LA,52.631152733780400,1.342685947560940
gopher snake and rock snake,NR7 0LY,52.639046136004100,1.352971807388780
Badger and agamid,NR7 0PJ,52.637860506763700,1.351964471316810
fer-de-lance and Jay,NR7 0QF,52.626542177454400,1.347344654606770
coral snake and Mamo,NR7 0US,52.632052536047700,1.362990801126870
bushmaster and diamondback terrapin,NR7 0WR,52.641269431110200,1.368429571568800
tree snake and Diving bird,NR7 0YS,52.641210232411600,1.361653539453990
Warbler and chameleon,NR7 7BJ,52.647735000000000,1.322960000000000
Wader and Old World quail,NR7 7DY,52.647735000000000,1.322960000000000
python and bandy-bandy,NR7 7SS,52.627220410982400,1.327118225670710
black snake and coral snake,NR7 7TQ,52.627220410982400,1.327118225670710
iguana and mountain devil,NR7 8AN,52.659385747686600,1.323779210249700
Stilt and Viscacha,NR7 8AW,52.659394300035300,1.320910430887010
Black cockatoo and Old World quail,NR7 8AY,52.660504332432000,1.326541363780070
Coati and Meadowlark,NR7 8BQ,52.659599538457600,1.329933690539550
snapping turtle and dugite,NR7 8EQ,52.659460363094900,1.313416470775610
tokay and Bunting,NR7 8EU,52.662475000000000,1.337415000000000
Jackal and Towhee,NR7 8FH,52.658634000000000,1.341537000000000
Myna and Jerboa,NR7 8GG,52.658627000000000,1.344967000000000
boa constrictor and bicycle lizard,NR7 8GU,52.655278000000000,1.344756000000000
black snake and bushmaster,NR7 8NT,52.651326753122200,1.328284144442460
Towhee and Rabbit,NR7 8PA,52.656831847077600,1.325049520318870
Marsh harrier and Black cockatoo,NR7 8PE,52.652823008589300,1.328486612051470
Civet and Capuchin,NR7 8QA,52.661204412672500,1.322748780057340
gecko and Fulmarine petrel,NR7 8UJ,52.656037000000000,1.344326000000000
diamondback terrapin and Boto,NR7 8XA,52.653049709117300,1.317205259506510
amethystine python and tree snake,NR7 8XG,52.652947455292100,1.315718646108680
caiman and Badger,NR7 9AZ,52.646309000000000,1.325404000000000
Eagle and Gila monster,NR7 9DZ,52.646340952612300,1.333834610943070
Meadowlark and Civet,NR7 9HD,52.643808891074400,1.342616772605900
Black jay and brown snake,NR7 9HF,52.648880148525400,1.341066707477240
whip snake and Snipe,NR7 9RG,52.646331269323500,1.336732028336940
anaconda and terrapin,NR7 9TU,52.649159560992200,1.340407801576160
Elephant and Cloud rat,NR7 9UY,52.641286481059700,1.332237552410420
Macaw and Prion,NR7 9XA,52.642195974427600,1.331877974384770
Wallaby and Bunting,NR7 9XF,52.642044389696400,1.336301958393830
