name,postcode,lat,lon
William IV inn,NR1 4AU,52.630339877721300,1.314022569471490
Zaks Mousehold,NR1 4HW,52.642041122540000,1.314005911307600
MFG PLUMSTEAD ROAD,NR1 4JT,52.635780414510500,1.323348153302790
Heartsease,NR1 4JZ,52.636426000000000,1.326989000000000
the goat inn,NR10 5DH,52.769852011162400,1.335071046186470
The Diplomat Pub,NR10 5JZ,52.764099610267000,1.341332661929300
The Pleasure Boat Inn,NR12 0YW,52.746595772660600,1.568724618144960
White Horse Crostwick Public House,NR12 7BD,52.697678814794600,1.341109055642970
OLD RECTORY HOTEL CROSTWICK LTD,NR12 7BG,52.692071123666000,1.337764523530650
A Piece of Cake (Coltishall) Ltd,NR12 7DL,52.727147025707400,1.359836000000000
The Norfolk Mead,NR12 7DN,52.725676000000000,1.361812000000000
Kings Head,NR12 7EA,52.728232997305200,1.369593819970180
The Rising Sun,NR12 7EA,52.728232997305200,1.369593819970180
The Recruiting Sergeant,NR12 7EE,52.727498514929900,1.352809000000000
the white horse at neatishead,NR12 8AD,52.736018569706400,1.466032729965830
Horse & Groom,NR12 8AH,52.745506000000000,1.401872000000000
Aimes Ltd t/a Costa Coffee Hoveton,NR12 8AJ,52.711561650627700,1.409091393046470
Hotel Wroxham,NR12 8AJ,52.711561650627700,1.409091393046470
Number 14 ltd,NR12 8DA,52.712020540757400,1.408932000000000
McDonalds Restaurant,NR12 8DB,52.712255381503700,1.409437000000000
ROYS HOVETON CAFE,NR12 8DB,52.712255381503700,1.409437000000000
Bure Valley Adventures Ltd,NR12 8JW,52.708220261408600,1.449247000000000
The New Inn Horning,NR12 8PF,52.700906044685400,1.466341779682230
Wroxham Barns,NR12 8QU,52.733472000000000,1.412817000000000
Liberty Norwich Road Wroxham,NR12 8RX,52.710206671186000,1.403980418249620
The Station Smokehouse ,NR12 8UT,52.716214000000000,1.409973000000000
The Ingham Swan,NR12 9AB,52.779179675138900,1.543314515937180
The Crown Inn,NR12 9AD,52.768597000000000,1.454268000000000
Daddy donuts,NR12 9AU,52.771423000000000,1.515970859495960
The Swan Inn,NR12 9AU,52.771423000000000,1.515970859495960
Cafe Charlotte Ltd,NR12 9AZ,52.771146051006700,1.517109929811480
Cherry Blossom Cafe ,NR12 9BB,52.772013522006700,1.514851626788190
Vera's Coffee Shop,NR12 9LJ,52.773548132956100,1.480835898728610
Wayford Bridge Inn,NR12 9LL,52.770797000000000,1.479934000000000
Moulton Nurseries,NR13 3AP,52.614182318777800,1.541474812729470
Acle Bridge Inn,NR13 3AT,52.649319000000000,1.568584000000000
kings head Acle ,NR13 3DY,52.638519216035700,1.547944000000000
Tamarind,NR13 4AB,52.651136701143400,1.440941954667410
The Shoulder of Mutton,NR13 4NT,52.617356481208700,1.469853946376440
Casa Mia,NR13 5AA,52.623428386335200,1.436224160112690
Tea Bags & Shoes,NR13 5AJ,52.650082000000000,1.369773000000000
K Foley Ltd T/A McDonalds Broadlands,NR13 5AR,52.631921462672000,1.428065331802530
The Brick Kilns,NR13 5JH,52.662053613477400,1.418650377392380
The Yare Public House,NR13 5PL,52.616602000000000,1.438112000000000
East Hills Cafe Bistro,NR13 5PN,52.614790859681400,1.439433291496360
The Maltsters,NR13 6AB,52.676041000000000,1.488717268937380
WHITE HORSE,NR13 6BT,52.658542000000000,1.542119000000000
The Lodge Countryhouse,NR13 6HD,52.687996216077000,1.409770006792150
Racecourse Castle Carvery,NR13 6LA,52.652019282646100,1.352190548256290
THE GREEN MAN NORWICH FAMILY DINER,NR13 6NQ,52.683268000000000,1.372745238177410
Fur & Feather Public House,NR13 6SW,52.683082624443400,1.443129333659270
Coldham Hall,NR14 7AN,52.612166000000000,1.431382000000000
MISS S H COX trading as The Ferry House,NR14 7AR,52.613969256705600,1.413762138854930
River Green Cafe,NR14 8AH,52.612073619341300,1.318197255927010
Crown Point Tavern,NR14 8RN,52.610778262461900,1.322694087715210
White Horse,NR14 8ST,52.612517749977000,1.317433013661400
Labone Indian Cuisine,NR28 0DA,52.822509363402600,1.385218533255990
Ramblers at North Walsham Garden Centre,NR28 0DR,52.812662000000000,1.382404000000000
The Beechwood Hotel,NR28 0HD,52.822746000000000,1.382015000000000
Rossis Leisure Ltd,NR28 0JQ,52.816553874342100,1.366006682611170
Aimes Ltd t/a Costa Coffee North Walsham,NR28 9BT,52.821331386007000,1.387101437940930
Cafe Kitale,NR28 9BY,52.822008557845000,1.386693908117020
Shambles Cafe Bar Bistro,NR28 9BZ,52.821824821909800,1.385374000000000
The Kings Arms Hotel,NR28 9JX,52.820614305667900,1.385442262455140
Cross Keys Ph,NR28 9PS,52.775164358782600,1.456034428624850
The White Lady,NR28 9RW,52.782358089267600,1.412313340214390
Filby Bridge Restaurant Limited,NR29 3AA,52.662553221034000,1.643450000000000
the lion at thurne,NR29 3AP,52.688467877079100,1.554608586153390
Clippesby Hall BASECAMP,NR29 3BL,52.673205454728000,1.580549555709240
Planet Spice,NR29 3JR,52.672785969169000,1.685660554373950
The Boathouse,NR29 3LP,52.676096358952500,1.653147193130040
Whites Lounge Bar,NR29 3NW,52.678386000000000,1.712874000000000
The smokehouse Bar and grill,NR29 3QG,52.668131048383800,1.711145552133550
East Coast Restaurant,NR29 3QJ,52.672524348529100,1.710734043608330
The Codfather,NR29 3QL,52.674222413642900,1.714237143990370
DUTCHYS TAVERN,NR29 3QN,52.672999784597000,1.717655041098210
California Tavern,NR29 3QW,52.671429371296800,1.722404456686960
THE PIT STOP,NR29 3QW,52.671429371296800,1.722404456686960
Trishas chippy,NR29 3QW,52.671429371296800,1.722404456686960
dutchys diner,NR29 3QW,52.671429371296800,1.722404456686960
the Jolly Farmers ,NR29 3RP,52.675194869277100,1.688024013125450
The Nelson Head,NR29 4AD,52.747003298213300,1.644298000000000
Hermanus,NR29 4BP,52.713411000000000,1.694745000000000
THE BELL ,NR29 4EU,52.696434000000000,1.689416000000000
Hemsby Beach Holiday Park ,NR29 4HR,52.696433264544500,1.698047555925180
MB's Leisure Bar,NR29 4HS,52.695861055435900,1.704186000000000
Club Belle Hemsby Belle Aire Holiday Park,NR29 4HZ,52.695358031659600,1.703671171288430
The Lacon Arms,NR29 4JG,52.694447529367000,1.707472758297780
The Crown Inn,NR29 5AA,52.740424041106700,1.534580050874470
The Waterside (Rollesby) Ltd,NR29 5EF,52.680488000000000,1.639958000000000
Bridgestones,NR29 5JD,52.710270455583400,1.580764000000000
Flour and Bean,NR29 5JE,52.710745487474500,1.580433000000000
Wayfarers Cafe,NR29 5NX,52.699614997703400,1.509870233484480
The Dog at Ludham Bridge,NR29 5NY,52.702084358143800,1.514554810565970
Kings Arms Ludham,NR29 5QQ,52.710369137155900,1.535968644645580
Dukes Head Great Yarmouth,NR30 1HP,52.607044000000000,1.723796389538110
Branford's Restaurant & Bar,NR30 5JL,52.648612000000000,1.724945000000000
Castle Freehouse Castle Carvery,NR30 5JN,52.649443885688900,1.722767924702740
the centurion,NR30 5NJ,52.660575000000000,1.720639604659420
Yarmouth Stadium,NR30 5TE,52.636433000000000,1.722372000000000
The Oaklands Hotel,NR7 0HH,52.626823384196900,1.343759824596870
The Cottage,NR7 0JD,52.638203786799700,1.345234537192810
The Merchants of spice 2,NR7 0QY,52.627111125721700,1.348215793504040
Sprowston Garden Centre,NR7 8RJ,52.654628814869800,1.339094721441440
The Blue Boar,NR7 8RL,52.661489260376500,1.330535991003960
Fatso's Sprowston,NR7 9AW,52.647466149974600,1.331002000000000
 KFC Norwich - Sprowston Retail Park,NR7 9AZ,52.646309000000000,1.325404000000000
