name,postcode,lat,lon
Dorcopsis and Coati,NR1 1JP,52.622795549964200,1.314294521872860
Cloud rat and giant tortoise,NR1 3EA,52.647716558100000,1.322937815200000
Tattler and goanna,NR1 3FQ,52.647717572928200,1.322937921719450
Polecat and Parrotbill,NR1 3FY,52.647717572928200,1.322937921719450
Skunk and Tahr,NR1 3GT,52.647717572928200,1.322937921719450
Grosbeak and cayman,NR1 3UE,52.647717572928200,1.322937921719450
Skunk and whip snake,NR1 3WF,52.647717572928200,1.322937921719450
rock snake and Myna,NR1 3XQ,52.647717572928200,1.322937921719450
Rat and frilled lizard,NR1 4NH,52.639529426070700,1.321474077195990
krait and hawksbill,NR1 4NJ,52.638815051081100,1.321612103977180
gavial and Coati,NR1 4PF,52.630638239981300,1.322307786029160
Polecat and tree snake,NR10 3NG,52.687688281957500,1.327321245024220
Francolin and cayman,NR10 3PJ,52.684894826277400,1.318539798380420
caiman and rattlesnake,NR10 5BJ,52.785892893413100,1.371128804590330
anole and harlequin snake,NR10 5DH,52.769852011162400,1.335071046186470
monitor and Puffleg,NR10 5DP,52.773261047045500,1.360527389809080
Cloud rat and Fish eagle,NR10 5JQ,52.760813472440600,1.328672085578420
diamond snake and puff adder,NR10 5JT,52.762322000000000,1.340618000000000
tree snake and Parakeet,NR12 0AU,52.748628041640800,1.560368125049270
smooth snake and Gull,NR12 0BD,52.767239221028100,1.583270592763410
Pratincole and Greenbul,NR12 0DN,52.799647130315600,1.542516392235120
sand lizard and B,NR12 0EF,52.765784000000000,1.633166000000000
goanna and puff adder,NR12 0QJ,52.813023724767500,1.546648067848500
Pheasant and cycling lizard,NR12 0RA,52.817440705024600,1.522483292959460
sea snake and Stilt,NR12 0SY,52.807082000000000,1.567848000000000
sand lizard and Buzzard,NR12 0UJ,52.786615010778200,1.599817979608310
Linsang and Booted eagles,NR12 0YQ,52.746823172894500,1.564756222449170
Pheasant and anaconda,NR12 7BP,52.675650421859000,1.335906000000000
boa constrictor and sand lizard,NR12 7DJ,52.727867389808700,1.360617793786200
moloch and tree snake,NR12 7EE,52.727498514929900,1.352809000000000
green turtle and slowworm,NR12 7EG,52.723720732180900,1.349840846601790
White ibis and Black cockatoo,NR12 7HQ,52.729683761139400,1.361898340655950
Maya and Pheasant,NR12 7JL,52.732272730581600,1.358453031431710
constrictor and flying dragon,NR12 7LD,52.712003000000000,1.325604000000000
Vulture and Parakeet,NR12 7LL,52.709354000000000,1.325792202214210
Thicketbird and White ibis,NR12 7LT,52.706161000000000,1.331867000000000
Marmoset and Jerboa,NR12 8AU,52.746884028643000,1.486977000000000
milk snake and bearded lizard,NR12 8BB,52.749145000000000,1.485544000000000
Treepie and blue tongue,NR12 8BL,52.727591812939300,1.478593191368170
worm lizard and Towhee,NR12 8DB,52.712255381503700,1.409437000000000
Boto and puff adder,NR12 8ET,52.749276655518100,1.393126000000000
cobra and grass snake,NR12 8EW,52.733898536252600,1.465330991655750
brown snake and amethystine python,NR12 8EZ,52.743893317053400,1.402872940799190
cobra and massasauga,NR12 8GN,52.717689554800000,1.419863261600000
slowworm and Magpie,NR12 8LH,52.705136725321000,1.466529302310390
swift and Egret,NR12 8LQ,52.705512618299300,1.465670697239020
leathery turtle and Komodo dragon,NR12 8RE,52.742762619407100,1.416848482926880
tortoise and Ground sloth,NR12 8SG,52.706806360989700,1.398992014479280
hoop snake and blindworm,NR12 8SQ,52.703429034115200,1.399780567278410
harlequin snake and Bunting,NR12 8XS,52.731136475251000,1.501455042611090
python and Marsh harrier,NR12 8YH,52.726565195915800,1.447564496393450
Mink and Grackle,NR12 8YL,52.737138000000000,1.426677000000000
horned viper and deaf adder,NR12 9AU,52.771423000000000,1.515970859495960
American sparrow and Stilt,NR12 9DJ,52.771330589838000,1.518770914141260
coral snake and Parrotlet,NR12 9ED,52.776130320325400,1.520389415938280
Elephant and skink,NR12 9EW,52.772650660661000,1.513686933329830
rat snake and Old World warbler,NR12 9FP,52.773377000000000,1.523504000000000
alligator and Eagle,NR12 9FQ,52.771511060100000,1.522641188400000
mud turtle and Grackle,NR12 9LU,52.761005000000000,1.473089000000000
leathery turtle and Hawk,NR12 9LZ,52.762501670071100,1.468937972395010
Mockingbird and bicycle lizard,NR12 9NQ,52.767639549642200,1.459381000000000
gopher snake and Grackle,NR12 9QW,52.763149038338700,1.530461466813200
horned toad and blindworm,NR12 9YB,52.772660000000000,1.511928000000000
coral snake and moloch,NR13 3AA,52.637516836615900,1.549467084468170
Rat and Mockingbird,NR13 3FD,52.615241590500000,1.569634000000000
White ibis and Crow,NR13 3JJ,52.603600062693100,1.511163162817820
blue racer and bull snake,NR13 3JW,52.638385309885400,1.553795456721040
Nukupuʻu and boa constrictor,NR13 3LF,52.611765695578300,1.519071847804420
Badger and Perching duck,NR13 3QN,52.640069794450200,1.553710355596610
Egret and Triller,NR13 3RR,52.606859370010500,1.577404918693730
hawksbill and leathery turtle,NR13 3UL,52.609877103393800,1.548278193094800
flying lizard and bull snake,NR13 4AY,52.622914879609600,1.492477538625520
Chipmunk and amphisbaena,NR13 4BA,52.621035806526700,1.487879455381120
krait and water snake,NR13 4BG,52.617476946862800,1.491748727553730
Jerboa and tokay,NR13 4DQ,52.656301430609900,1.425049028213200
king snake and bearded lizard,NR13 4DS,52.633836014374400,1.436789082562980
horned viper and Guillemot,NR13 4EN,52.631545013878300,1.511465769214250
frilled lizard and goanna,NR13 4EW,52.622737367371500,1.487822737464130
gecko and goanna,NR13 4HA,52.606057288583300,1.510192783202900
Recurvebill and water snake,NR13 4HT,52.610522975997100,1.453799496391700
sand lizard and sand lizard,NR13 4HU,52.613561822946400,1.454762898249960
Thicketbird and Marmoset,NR13 4HY,52.614549213584900,1.453289198830970
giant tortoise and Treepie,NR13 4LA,52.631045239014900,1.445232292685340
sand viper and copperhead,NR13 4LP,52.632854531038500,1.452588378627650
bull snake and diamond snake,NR13 4NT,52.617356481208700,1.469853946376440
kabaragoya and Grouse,NR13 4PY,52.651032269506600,1.453199000000000
boa constrictor and Partridge,NR13 4QF,52.657694758334400,1.451396859169650
tortoise and Towhee,NR13 4QN,52.652250404960400,1.443469656709660
horned toad and American sparrow,NR13 4RZ,52.650335527403100,1.453699000000000
turtle and flying dragon,NR13 4TA,52.636349670167900,1.497245000000000
diamondback terrapin and Kangaroo,NR13 4TL,52.624210000000000,1.490164730155580
Perching duck and Armadillo,NR13 4TX,52.633862000000000,1.439606000000000
anaconda and glass snake,NR13 5DH,52.652218994389700,1.366388095618840
Mouse and Mink,NR13 5DU,52.624103645769500,1.405137000000000
Asiatic leopard and loggerhead,NR13 5EW,52.646496000000000,1.409584000000000
bandy-bandy and slowworm,NR13 5EX,52.643893324018700,1.404975072196840
Kite and Recurvebill,NR13 5EZ,52.650640215936600,1.365926591197700
Buzzard and slowworm,NR13 5FE,52.645863740108300,1.412935000000000
Bunting and Fulmarine petrel,NR13 5HH,52.620695194358600,1.377769287778210
brown snake and swift,NR13 5HN,52.621203361319000,1.391448733790310
amethystine python and Grosbeak,NR13 5JF,52.658217201766900,1.414460758458320
Ground sloth and dugite,NR13 5NB,52.623597340084300,1.431951433117390
Grouse and boa constrictor,NR13 5NL,52.627018860531000,1.431509923368870
Pratincole and Rat,NR13 5QB,52.620237965842600,1.437688308023010
Prion and box turtle,NR13 6AN,52.650792701590700,1.532619204674180
Badger and Cloud rat,NR13 6AY,52.657197837538900,1.542809434370960
American sparrow and alligator,NR13 6DF,52.657736224740500,1.521450191958640
Grosbeak and Siskin,NR13 6DJ,52.663323684959100,1.491012103948050
black snake and turtle,NR13 6FA,52.663776000000000,1.492808000000000
box turtle and Guillemot,NR13 6HD,52.687996216077000,1.409770006792150
kabaragoya and Mole,NR13 6JE,52.675383480560800,1.472398119793380
Logrunners and sand viper,NR13 6JH,52.668458378536600,1.462487000000000
Chipmunk and Mamo,NR13 6ND,52.674017274573000,1.347765075591290
Night heron and sand lizard,NR13 6NW,52.672634720101300,1.370503537991600
agamid and Fox,NR13 6PA,52.671898687132600,1.396575422505860
king snake and caiman,NR13 6PE,52.665451252878700,1.383027401459280
Viscacha and mamba,NR13 6PN,52.665683868007500,1.370456356379010
indigo snake and Jerboa,NR13 6QU,52.663447753948900,1.383582573580670
garter snake and Macaw,NR13 6RS,52.676809656584700,1.407832583306760
Parakeet and fer-de-lance,NR13 6RX,52.682711552540700,1.427722000000000
blue tongue and Logrunners,NR14 8RR,52.611052993264400,1.331476215188080
Flameback and hognose snake,NR14 8RW,52.610928908773900,1.323414678160920
python and Ibex,NR2 1WY,52.647717572928200,1.322937921719450
Jackal and Jay,NR28 0EA,52.818794189945100,1.378308534353720
viper and pit viper,NR28 0FX,52.816883000000000,1.382989000000000
Francolin and swift,NR28 0HB,52.824495817512400,1.375140000000000
Skunk and Goose,NR28 0HU,52.821286014296200,1.374181754548230
wall lizard and Linsang,NR28 0JD,52.787530065685900,1.398833086554710
python and Guillemot,NR28 0JG,52.815284000000000,1.370866000000000
hognose snake and tiger snake,NR28 0JY,52.818570639716600,1.316538000000000
frilled lizard and asp,NR28 0LG,52.815069018407700,1.334526687744910
Civet and Dorcopsis,NR28 0NA,52.816974404500000,1.338368914600000
Petrel and saltwater crocodile,NR28 0TD,52.815249564333300,1.373609874834730
diamond snake and Rat,NR28 9AJ,52.822604000000000,1.408327000000000
Francolin and Wallaby,NR28 9AS,52.819752950155100,1.388834291971340
kabaragoya and worm lizard,NR28 9BW,52.820850960410700,1.388177496505780
Elephant and Pratincole,NR28 9DW,52.822835000000000,1.388644000000000
boomslang and horned toad,NR28 9GB,52.804747893800000,1.458367319100000
sidewinder and White ibis,NR28 9LD,52.821531352325400,1.400226276126630
snake and puff adder,NR28 9PA,52.813981223474400,1.472271000000000
Logrunners and Grouse,NR28 9PU,52.772761789991800,1.457000673854930
amethystine python and hoop snake,NR28 9QL,52.801246000000000,1.432877000000000
Grackle and racer,NR28 9QT,52.795039000000000,1.449050000000000
Old World quail and agamid,NR28 9QZ,52.792791955128800,1.433145198041820
chameleon and bearded lizard,NR28 9RB,52.794568122991200,1.429575883397570
Old World vulture and chuckwalla,NR28 9XN,52.818414849258300,1.401957197758520
agamid and adder,NR29 3AQ,52.670969898825800,1.614160481368980
Marmoset and deaf adder,NR29 3AX,52.667132253919400,1.629644244761730
Jerboa and Kangaroo,NR29 3BY,52.690546735370600,1.561453491144960
Boto and grass snake,NR29 3DB,52.663257486762200,1.618420079940050
hognose snake and Armadillo,NR29 3EN,52.636959660607600,1.625117929554460
rock snake and Jackal,NR29 3NF,52.679346562900700,1.686124659478770
Diving bird and Puffleg,NR29 3NS,52.684771452100600,1.713431110780640
Black jay and Diving bird,NR29 3PQ,52.678956240470400,1.700654027779910
horned toad and horned toad,NR29 3PT,52.671714926771900,1.695779956691580
green turtle and diamondback terrapin,NR29 3RR,52.675876182866500,1.686942018691640
Petrel and Goose,NR29 4AH,52.703543000000000,1.633205259796430
Badger and New World blackbird,NR29 4AJ,52.715887390562600,1.692983000000000
boa and Jay,NR29 4AP,52.715400312493200,1.689477927503270
Rabbit and Buzzard,NR29 4AX,52.712815031181700,1.691333019668660
constrictor and Kestrel,NR29 4BG,52.716575386255500,1.693620823227300
Kākāriki and Polecat,NR29 4DA,52.705880101157100,1.695085851155040
mountain devil and habu,NR29 4DE,52.715214000000000,1.694898000000000
saltwater crocodile and Kestrel,NR29 4HR,52.696433264544500,1.698047555925180
mountain devil and Fulmarine petrel,NR29 4LR,52.698919135838900,1.683511326119510
Mockingbird and sand viper,NR29 4LT,52.697607606319300,1.680854264630020
horned toad and Scimitar babbler,NR29 4RA,52.697715004022300,1.606037850776120
asp and Philippine hawk-owl,NR29 4RD,52.702270277308300,1.601764489175560
Flameback and soft-shelled turtle,NR29 4SQ,52.699745507976100,1.634647306543110
Darwin's finches and agama,NR29 4TF,52.700678311284300,1.624168113555800
swift and Greenbul,NR29 4TJ,52.702144965503100,1.630316051762870
bicycle lizard and wall lizard,NR29 5BJ,52.742433973156300,1.539559332034660
turtle and Viscacha,NR29 5BW,52.739928448649500,1.549951772859710
mountain devil and Old World vulture,NR29 5HA,52.683364606806100,1.630902699621570
Argus and boa constrictor,NR29 5JX,52.701371961754000,1.566362906733160
Fox and cobra,NR29 5LF,52.717785185048200,1.573864698279560
thorny devil and tiger snake,NR29 5NY,52.702084358143800,1.514554810565970
mud turtle and Grosbeak,NR29 5QS,52.711275856123300,1.532709936537910
Philippine hawk-owl and Ice seal,NR3 1GN,52.647717572928200,1.322937921719450
habu and adder,NR30 1JB,52.608037115121900,1.722324316867730
crocodile and Petrel,NR30 1JD,52.608280717214800,1.722300673105560
giant tortoise and snake,NR30 1QN,52.616880451199900,1.724848697650350
Vole and American sparrow,NR30 1SL,52.617231030954000,1.721139582915400
Hawk and Diving bird,NR30 1TB,52.617958904312900,1.717728427904890
glass snake and Hawk,NR30 5AQ,52.647567911360200,1.724930207520850
Argus and racer,NR30 5AT,52.648916338219900,1.717517336709030
Grosbeak and Petrel,NR30 5QF,52.661256488103800,1.717249007871750
saltwater crocodile and goanna,NR30 5RQ,52.652883493722400,1.719791786216170
mountain devil and Ground sloth,NR30 5TL,52.660247628475500,1.718154428703300
Flameback and Treepie,NR30 5TS,52.656318998537100,1.714078422645070
Marsh harrier and elapid,NR30 5TT,52.655832261079600,1.714111075097470
diamond snake and frilled lizard,NR30 5TY,52.653347586137600,1.715039108484190
pit viper and mud turtle,NR30 5UN,52.652641960783300,1.714594674971770
Elephant and racer,NR30 5UP,52.656875882551400,1.715249847494750
Recurvebill and Herring gull,NR30 5XF,52.656228370744200,1.722975193945430
Condor and cycling lizard,NR30 9ZZ,52.612536000000000,1.724583000000000
Logrunners and Bunting,NR31 0AJ,52.608560604293300,1.717404242547790
Argus and black snake,NR31 0BA,52.607614945804300,1.715152135005010
Jay and gaboon viper,NR31 8TH,52.612418000000000,1.724582913069550
Polecat and B,NR5 5AN,52.647707583500000,1.322937134200000
Myna and Cloud rat,NR7 0AB,52.639426083229500,1.343036325677340
Parrotlet and loggerhead,NR7 0BQ,52.628146326602700,1.326493845076530
Linsang and sand viper,NR7 0BS,52.631647696311300,1.331829704972070
Tattler and flying lizard,NR7 0BW,52.631480807722900,1.328491186096710
diamondback and hawksbill,NR7 0BX,52.632718991487600,1.329235644688630
boa and Civet,NR7 0BZ,52.632651646951100,1.328432307729310
mountain devil and Marmoset,NR7 0DW,52.634065322965600,1.331570076757870
Viscacha and Lemming,NR7 0FA,52.626778719561700,1.334718000000000
puff adder and monitor,NR7 0GN,52.627953352144900,1.364819382045360
mamba and gopher snake,NR7 0HF,52.626192258342000,1.343815130932620
rock python and Parrotlet,NR7 0JG,52.633517622964300,1.343339393652940
Old World quail and rock python,NR7 0LZ,52.640010784621300,1.352572542839820
gaboon viper and smooth snake,NR7 0NT,52.637124325087100,1.364281917644670
Siskin and Stint,NR7 0PD,52.637052214755500,1.348428521566010
Masked owl and puff adder,NR7 0PR,52.639572334741100,1.348044566292980
krait and Thrasher,NR7 0PU,52.639551000000000,1.347555000000000
Ice seal and blind snake,NR7 0QU,52.628162178009300,1.350483597509180
bearded lizard and Francolin,NR7 0RB,52.626774075966300,1.349638478331140
cobra and Gull,NR7 0RS,52.639696639940900,1.369654007806370
horned toad and asp,NR7 0TR,52.643441637875800,1.362253585119670
Tattler and krait,NR7 0XT,52.634218827640200,1.349394576316290
Flameback and iguana,NR7 0YJ,52.634497730603000,1.366194140072160
Triller and Grouse,NR7 7BH,52.647735000000000,1.322960000000000
frilled lizard and sand lizard,NR7 7GJ,52.647717572928200,1.322937921719450
Pratincole and Asiatic leopard,NR7 7SP,52.627220410982400,1.327118225670710
massasauga and anole,NR7 7SZ,52.627220410982400,1.327118225670710
Grouse and moloch,NR7 7TG,52.627220410982400,1.327118225670710
rattlesnake and constrictor,NR7 7TR,52.627220410982400,1.327118225670710
Nukupuʻu and Condor,NR7 7WX,52.647716558100000,1.322937815200000
Wallaby and carpet snake,NR7 8AA,52.649383635698200,1.316764881267890
amethystine python and Buzzard,NR7 8BG,52.659411544014100,1.328943190099190
Wallaby and agamid,NR7 8DR,52.654681494778800,1.313853418183450
amphisbaena and frill-necked lizard,NR7 8FS,52.661381000000000,1.340157000000000
Jackal and goanna,NR7 8GE,52.661211000000000,1.337207000000000
Marsh harrier and giant tortoise,NR7 8HT,52.648075497881900,1.318514183109040
tiger snake and Quetzal,NR7 8HX,52.648431000000000,1.321262000000000
Scimitar babbler and Parrotbill,NR7 8NQ,52.656054533231300,1.322624124424780
Kākāriki and Parakeet,NR7 8NR,52.652616982192600,1.324936476222790
Viscacha and Meadowlark,NR7 8PP,52.652400552090600,1.333911468619780
Old World vulture and leathery turtle,NR7 8PT,52.653000347124100,1.333690941422300
Siskin and carpet snake,NR7 8QA,52.661204412672500,1.322748780057340
Black jay and Mamo,NR7 8TY,52.654036160336200,1.316022928534520
Old World vulture and lizard,NR7 8XW,52.652461687363300,1.317648731681300
Kangaroo and Masked owl,NR7 8XZ,52.648822960232100,1.331287906727020
flying dragon and leathery turtle,NR7 9AD,52.649771570050100,1.341667077972640
Jackal and Solitaire,NR7 9DF,52.645509863472500,1.328211733016710
sea snake and snapping turtle,NR7 9DJ,52.646235355905100,1.329597646165170
Bunting and Darwin's finches,NR7 9HL,52.648779486170300,1.343676389860590
Fulmarine petrel and Viscacha,NR7 9LA,52.642309558089900,1.342842411490360
Moluccan boobook and Darwin's finches,NR7 9LF,52.643387319505700,1.342895096048730
Crow and Tahr,NR7 9UA,52.641863725129400,1.330581193424480
death adder and hoop snake,NR7 9XF,52.642044389696400,1.336301958393830
