id,postcode,lat,lon
PPLX,OLDMALDEN,51.3850,-0.2554
PPL,OLDMALTON,54.1452,-0.7751
ADM4,OLDMARSTON,51.7734,-1.2401
PPL,OLDMELDRUM,57.3349,-2.3199
PPL,OLDMICKLEFIELD,53.7975,-1.3330
PPL,OLDMILVERTON,52.3044,-1.5682
PPL,OLDMONKLAND,55.8503,-4.0378
