id,postcode,lat,lon
PPLX,OLDMALDEN,51.38501,-0.25544
PPL,OLDMALTON,54.14524,-0.77505
ADM4,OLDMARSTON,51.77338,-1.24006
PPL,OLDMELDRUM,57.33492,-2.3199
PPL,OLDMICKLEFIELD,53.79751,-1.33295
PPL,OLDMILVERTON,52.30441,-1.56821
PPL,OLDMONKLAND,55.85032,-4.03781
