name,postcode,lat,lon
Grouse and blue tongue,KA27 8AU,55.575943000000000,-5.136975000000000
Asiatic leopard and Maya,KA27 8AZ,55.576106148935800,-5.147080248488050
tuatara and Skunk,KA27 8DA,55.574609000000000,-5.167875000000000
Tit-tyrant and box turtle,KA27 8DE,55.591943000000000,-5.156350000000000
Coati and bandy-bandy,KA27 8FF,55.485054000660500,-5.096289742367130
Kangaroo and Condor,KA27 8HB,55.505681504453400,-5.334920940105900
Quetzal and alligator,KA27 8NN,55.527378663240700,-5.134135108058510
worm lizard and Schneider python,KA27 8PR,55.490549746276300,-5.096910407142440
Warbler and sand viper,KA27 8RE,55.500309000000000,-5.093907000000000
perentie and Gila monster,KA27 8SA,55.443690248687000,-5.126337617900820
Buzzard and horned viper,KA27 8SB,55.452414000000000,-5.099394455025300
