name,postcode,lat,lon
Snipe and king cobra,KA27 8BZ,55.575969648690100,-5.157844000000000
sea snake and wall lizard,KA27 8DJ,55.578521245003600,-5.158731707794140
Warbler and Piping shrike,KA27 8DW,55.580498000000000,-5.158113000000000
Zebra and Chickadee,KA27 8EB,55.578074943262300,-5.346155896736710
Cuscus and milk snake,KA27 8EX,55.498947976806000,-5.317372006376070
Maya and Gila monster,KA27 8FE,55.593894599240700,-5.163588423204540
gaboon viper and gopher snake,KA27 8JT,55.538816894080100,-5.124534711044620
Vulture and viper,KA27 8LD,55.540697000000000,-5.121354000000000
dukite and Stilt,KA27 8LQ,55.543508519523100,-5.113998509951130
taipan and agamid,KA27 8LU,55.532729042302000,-5.129520273207430
Booted eagles and cycling lizard,KA27 8NU,55.522083449525100,-5.144648239419110
thorn lizard and River dolphin,KA27 8PE,55.468214397292000,-5.275791989427300
Stilt and Diving bird,KA27 8PQ,55.444865294286600,-5.228562000000000
hawksbill and Old World vulture,KA27 8RG,55.507048738479400,-5.087577593900410
tree snake and New World blackbird,KA27 8RP,55.451040000000000,-5.116685000000000
